{"type": "FeatureCollection", "features": [
{"geometry": {"type": "Point", "coordinates": [-122.4376921806, 47.2557472145]}, "type": "Feature", "properties": {"collection_times": [{"days": "Mon-Fri", "time": "5:00pm"}, {"days": "Sat", "time": "3:30pm"}, {"days": "Sun", "time": "Closed"}], "id": "9840200000", "name": "USPS COLLECTION BOX - BLUE BOX", "address": {"city": "TACOMA", "state": "WA", "street": "820 A ST", "postcode": "98402"}}},
{"geometry": {"type": "Point", "coordinates": [-122.4372081797, 47.2533909254]}, "type": "Feature", "properties": {"collection_times": [{"days": "Mon-Fri", "time": "5:00pm"}, {"days": "Sat", "time": "2:30pm"}, {"days": "Sun", "time": "Closed"}], "id": "9840200001", "name": "USPS COLLECTION BOX - BLUE BOX", "address": {"city": "TACOMA", "state": "WA", "street": "1102 A ST", "postcode": "98402"}}},
{"geometry": {"type": "Point", "coordinates": [-122.437045102, 47.2530394214]}, "type": "Feature", "properties": {"collection_times": [{"days": "Mon-Fri", "time": "5:00pm"}, {"days": "Sat", "time": "2:30pm"}, {"days": "Sun", "time": "Closed"}], "id": "9840200003", "name": "USPS COLLECTION BOX - BLUE BOX", "address": {"city": "TACOMA", "state": "WA", "street": "1102 A ST", "postcode": "98402"}}},
{"geometry": {"type": "Point", "coordinates": [-122.433672486, 47.2362023665]}, "type": "Feature", "properties": {"collection_times": [{"days": "Mon-Fri", "time": "2:00pm"}, {"days": "Sat", "time": "11:15am"}, {"days": "Sun", "time": "Closed"}], "id": "9840200004", "name": "USPS COLLECTION BOX - BLUE BOX", "address": {"city": "TACOMA", "state": "WA", "street": "106 S 28TH ST", "postcode": "98402"}}},
{"geometry": {"type": "Point", "coordinates": [-122.4394876417, 47.2501329447]}, "type": "Feature", "properties": {"collection_times": [{"days": "Mon-Sat", "time": "4:00pm"}, {"days": "Sun", "time": "Closed"}], "id": "9840200009", "name": "USPS COLLECTION BOX - BLUE BOX", "address": {"city": "TACOMA", "state": "WA", "street": "1300 BROADWAY", "postcode": "98402"}}},
{"geometry": {"type": "Point", "coordinates": [-122.4432367092, 47.2541005356]}, "type": "Feature", "properties": {"collection_times": [{"days": "Mon-Fri", "time": "4:30pm"}, {"days": "Sat", "time": "2:00pm"}, {"days": "Sun", "time": "Closed"}], "id": "9840200013", "name": "USPS COLLECTION BOX - BLUE BOX", "address": {"city": "TACOMA", "state": "WA", "street": "919 FAWCETT AVE", "postcode": "98402"}}},
{"geometry": {"type": "Point", "coordinates": [-122.4421673143, 47.2558288387]}, "type": "Feature", "properties": {"collection_times": [{"days": "Mon-Fri", "time": "3:45pm"}, {"days": "Sat", "time": "2:00pm"}, {"days": "Sun", "time": "Closed"}], "id": "9840200016", "name": "USPS COLLECTION BOX - BLUE BOX", "address": {"city": "TACOMA", "state": "WA", "street": "744 MARKET ST", "postcode": "98402"}}},
{"geometry": {"type": "Point", "coordinates": [-122.4359441268, 47.236942103]}, "type": "Feature", "properties": {"collection_times": [{"days": "Mon-Fri", "time": "2:00pm"}, {"days": "Sat", "time": "11:15am"}, {"days": "Sun", "time": "Closed"}], "id": "9840200018", "name": "USPS COLLECTION BOX - BLUE BOX", "address": {"city": "TACOMA", "state": "WA", "street": "220 S 27TH ST", "postcode": "98402"}}},
{"geometry": {"type": "Point", "coordinates": [-122.4438787756, 47.2507050622]}, "type": "Feature", "properties": {"collection_times": [{"days": "Mon-Fri", "time": "12:00pm"}, {"days": "Sat", "time": "11:30am"}, {"days": "Sun", "time": "Closed"}], "id": "9840200033", "name": "USPS COLLECTION BOX - BLUE BOX", "address": {"city": "TACOMA", "state": "WA", "street": "1301 TACOMA AVE S", "postcode": "98402"}}},
{"geometry": {"type": "Point", "coordinates": [-122.4418086616, 47.2539372392]}, "type": "Feature", "properties": {"collection_times": [{"days": "Mon-Sat", "time": "10:00am"}, {"days": "Sun", "time": "Closed"}], "id": "9840200076", "name": "USPS COLLECTION BOX - BLUE BOX", "address": {"city": "TACOMA", "state": "WA", "street": "1119 PACIFIC AVE", "postcode": "98402"}}},
{"geometry": {"type": "Point", "coordinates": [-122.4418086616, 47.2539372392]}, "type": "Feature", "properties": {"collection_times": [{"days": "Mon-Fri", "time": "3:45pm"}, {"days": "Sat", "time": "3:15pm"}, {"days": "Sun", "time": "Closed"}], "id": "9840200078", "name": "USPS COLLECTION BOX - BLUE BOX", "address": {"city": "TACOMA", "state": "WA", "street": "1013 PACIFIC AVE", "postcode": "98402"}}},
{"geometry": {"type": "Point", "coordinates": [-122.4418086616, 47.2539372392]}, "type": "Feature", "properties": {"collection_times": [{"days": "Mon-Fri", "time": "2:15pm"}, {"days": "Sat", "time": "3:15pm"}, {"days": "Sun", "time": "Closed"}], "id": "9840200080", "name": "USPS COLLECTION BOX - BLUE BOX", "address": {"city": "TACOMA", "state": "WA", "street": "917 PACIFIC AVE", "postcode": "98402"}}},
{"geometry": {"type": "Point", "coordinates": [-122.4418086616, 47.2539372392]}, "type": "Feature", "properties": {"collection_times": [{"days": "Mon-Fri", "time": "2:15pm"}, {"days": "Sat", "time": "3:45pm"}, {"days": "Sun", "time": "Closed"}], "id": "9840200081", "name": "USPS COLLECTION BOX - BLUE BOX", "address": {"city": "TACOMA", "state": "WA", "street": "731 PACIFIC AVE", "postcode": "98402"}}},
{"geometry": {"type": "Point", "coordinates": [-122.4401444545, 47.2535244346]}, "type": "Feature", "properties": {"collection_times": [{"days": "Mon-Fri", "time": "3:30pm"}, {"days": "Sat", "time": "4:00pm"}, {"days": "Sun", "time": "Closed"}], "id": "9840200087", "name": "USPS COLLECTION BOX - BLUE BOX", "address": {"city": "TACOMA", "state": "WA", "street": "955 BROADWAY", "postcode": "98402"}}},
{"geometry": {"type": "Point", "coordinates": [-122.4401444545, 47.2535244346]}, "type": "Feature", "properties": {"collection_times": [{"days": "Mon-Fri", "time": "3:30pm"}, {"days": "Sat", "time": "4:00pm"}, {"days": "Sun", "time": "Closed"}], "id": "9840200088", "name": "USPS COLLECTION BOX - BLUE BOX", "address": {"city": "TACOMA", "state": "WA", "street": "955 BROADWAY", "postcode": "98402"}}},
{"geometry": {"type": "Point", "coordinates": [-122.4405067969, 47.2489239797]}, "type": "Feature", "properties": {"collection_times": [{"days": "Mon-Sat", "time": "4:00pm"}, {"days": "Sun", "time": "Closed"}], "id": "9840200089", "name": "USPS COLLECTION BOX - BLUE BOX", "address": {"city": "TACOMA", "state": "WA", "street": "1501 MARKET ST", "postcode": "98402"}}},
{"geometry": {"type": "Point", "coordinates": [-122.4405067969, 47.2489239797]}, "type": "Feature", "properties": {"collection_times": [{"days": "Mon-Sat", "time": "4:00pm"}, {"days": "Sun", "time": "Closed"}], "id": "9840200090", "name": "USPS COLLECTION BOX - BLUE BOX", "address": {"city": "TACOMA", "state": "WA", "street": "1501 MARKET ST", "postcode": "98402"}}},
{"geometry": {"type": "Point", "coordinates": [-122.4376921806, 47.2557472145]}, "type": "Feature", "properties": {"collection_times": [{"days": "Mon-Fri", "time": "5:00pm"}, {"days": "Sat", "time": "3:30pm"}, {"days": "Sun", "time": "Closed"}], "id": "9840200091", "name": "USPS COLLECTION BOX - BLUE BOX", "address": {"city": "TACOMA", "state": "WA", "street": "820 A ST", "postcode": "98402"}}},
{"geometry": {"type": "Point", "coordinates": [-122.4368220792, 47.2524273279]}, "type": "Feature", "properties": {"collection_times": [{"days": "Mon-Fri", "time": "5:00pm"}, {"days": "Sat", "time": "2:30pm"}, {"days": "Sun", "time": "Closed"}], "id": "9840200093", "name": "USPS COLLECTION BOX - BLUE BOX", "address": {"city": "TACOMA", "state": "WA", "street": "1202 A ST", "postcode": "98402"}}},
{"geometry": {"type": "Point", "coordinates": [-122.4417859984, 47.2546099036]}, "type": "Feature", "properties": {"collection_times": [{"days": "Mon-Fri", "time": "3:45pm"}, {"days": "Sat", "time": "2:00pm"}, {"days": "Sun", "time": "Closed"}], "id": "9840200096", "name": "USPS COLLECTION BOX - BLUE BOX", "address": {"city": "TACOMA", "state": "WA", "street": "949 MARKET ST", "postcode": "98402"}}},
{"geometry": {"type": "Point", "coordinates": [-122.4418086616, 47.2539372392]}, "type": "Feature", "properties": {"collection_times": [{"days": "Mon-Fri", "time": "4:30pm"}, {"days": "Sat", "time": "2:15pm"}, {"days": "Sun", "time": "Closed"}], "id": "9840200097", "name": "USPS COLLECTION BOX - BLUE BOX", "address": {"city": "TACOMA", "state": "WA", "street": "1114 PACIFIC AVE", "postcode": "98402"}}},
{"geometry": {"type": "Point", "coordinates": [-122.444482365, 47.2530039327]}, "type": "Feature", "properties": {"collection_times": [{"days": "Mon-Fri", "time": "3:45pm"}, {"days": "Sat", "time": "3:00pm"}, {"days": "Sun", "time": "Closed"}], "id": "9840200100", "name": "USPS COLLECTION BOX - BLUE BOX", "address": {"city": "TACOMA", "state": "WA", "street": "955 TACOMA AVE S", "postcode": "98402"}}},
{"geometry": {"type": "Point", "coordinates": [-122.4392525035, 47.2494030056]}, "type": "Feature", "properties": {"collection_times": [{"days": "Mon-Sat", "time": "10:00am"}, {"days": "Sun", "time": "Closed"}], "id": "9840200102", "name": "USPS COLLECTION BOX - BLUE BOX", "address": {"city": "TACOMA", "state": "WA", "street": "1331 BROADWAY", "postcode": "98402"}}},
{"geometry": {"type": "Point", "coordinates": [-122.4368220792, 47.2524273279]}, "type": "Feature", "properties": {"collection_times": [{"days": "Mon-Fri", "time": "5:00pm"}, {"days": "Sat", "time": "2:30pm"}, {"days": "Sun", "time": "Closed"}], "id": "9840200103", "name": "USPS COLLECTION BOX - BLUE BOX", "address": {"city": "TACOMA", "state": "WA", "street": "1202 A ST", "postcode": "98402"}}},
{"geometry": {"type": "Point", "coordinates": [-122.4368220792, 47.2524273279]}, "type": "Feature", "properties": {"collection_times": [{"days": "Mon-Fri", "time": "5:00pm"}, {"days": "Sat", "time": "2:30pm"}, {"days": "Sun", "time": "Closed"}], "id": "9840200104", "name": "USPS COLLECTION BOX - BLUE BOX", "address": {"city": "TACOMA", "state": "WA", "street": "1202 A ST", "postcode": "98402"}}},
{"geometry": {"type": "Point", "coordinates": [-122.4418086616, 47.2539372392]}, "type": "Feature", "properties": {"collection_times": [{"days": "Mon-Fri", "time": "2:15pm"}, {"days": "Sat", "time": "3:15pm"}, {"days": "Sun", "time": "Closed"}], "id": "9840200105", "name": "USPS COLLECTION BOX - BLUE BOX", "address": {"city": "TACOMA", "state": "WA", "street": "1501 PACIFIC AVE", "postcode": "98402"}}},
{"geometry": {"type": "Point", "coordinates": [-122.4461269317, 47.2629110187]}, "type": "Feature", "properties": {"collection_times": [{"days": "Mon-Fri", "time": "1:30pm"}, {"days": "Sat", "time": "1:45pm"}, {"days": "Sun", "time": "Closed"}], "id": "9840200106", "name": "USPS COLLECTION BOX - BLUE BOX", "address": {"city": "TACOMA", "state": "WA", "street": "45 ST HELENS AVE", "postcode": "98402"}}},
{"geometry": {"type": "Point", "coordinates": [-122.4368220792, 47.2524273279]}, "type": "Feature", "properties": {"collection_times": [{"days": "Mon-Fri", "time": "5:00pm"}, {"days": "Sat", "time": "2:30pm"}, {"days": "Sun", "time": "Closed"}], "id": "9840200107", "name": "USPS COLLECTION BOX - BLUE BOX", "address": {"city": "TACOMA", "state": "WA", "street": "1202 A ST", "postcode": "98402"}}},
{"geometry": {"type": "Point", "coordinates": [-122.4384570655, 47.2593916434]}, "type": "Feature", "properties": {"collection_times": [{"days": "Mon-Sat", "time": "11:00am"}, {"days": "Sun", "time": "Closed"}], "id": "9840200119", "name": "USPS COLLECTION BOX - BLUE BOX", "address": {"city": "TACOMA", "state": "WA", "street": "535 DOCK ST", "postcode": "98402"}}},
{"geometry": {"type": "Point", "coordinates": [-122.4430568995, 47.2533221486]}, "type": "Feature", "properties": {"collection_times": [{"days": "Mon-Fri", "time": "4:30pm"}, {"days": "Sat", "time": "2:00pm"}, {"days": "Sun", "time": "Closed"}], "id": "9840200120", "name": "USPS COLLECTION BOX - BLUE BOX", "address": {"city": "TACOMA", "state": "WA", "street": "950 FAWCETT AVE", "postcode": "98402"}}},
{"geometry": {"type": "Point", "coordinates": [-122.437045102, 47.2530394214]}, "type": "Feature", "properties": {"collection_times": [{"days": "Mon-Fri", "time": "5:00pm"}, {"days": "Sat", "time": "3:30pm"}, {"days": "Sun", "time": "Closed"}], "id": "9840200122", "name": "USPS COLLECTION BOX - PO LOBBY", "address": {"city": "TACOMA", "state": "WA", "street": "1102 A ST", "postcode": "98402"}}},
{"geometry": {"type": "Point", "coordinates": [-122.4486842353, 47.2646371511]}, "type": "Feature", "properties": {"collection_times": [{"days": "Mon-Fri", "time": "5:15pm"}, {"days": "Sat", "time": "1:45pm"}, {"days": "Sun", "time": "Closed"}], "id": "9840300003", "name": "USPS COLLECTION BOX - BLUE BOX", "address": {"city": "TACOMA", "state": "WA", "street": "101 N TACOMA AVE", "postcode": "98403"}}},
{"geometry": {"type": "Point", "coordinates": [-122.4633895982, 47.2638824233]}, "type": "Feature", "properties": {"collection_times": [{"days": "Mon-Fri", "time": "12:30pm"}, {"days": "Sat", "time": "11:30am"}, {"days": "Sun", "time": "Closed"}], "id": "9840300006", "name": "USPS COLLECTION BOX - BLUE BOX", "address": {"city": "TACOMA", "state": "WA", "street": "911 N K ST", "postcode": "98403"}}},
{"geometry": {"type": "Point", "coordinates": [-122.4587855219, 47.2624001757]}, "type": "Feature", "properties": {"collection_times": [{"days": "Mon-Fri", "time": "12:30pm"}, {"days": "Sat", "time": "11:30am"}, {"days": "Sun", "time": "Closed"}], "id": "9840300007", "name": "USPS COLLECTION BOX - BLUE BOX", "address": {"city": "TACOMA", "state": "WA", "street": "601 N K ST", "postcode": "98403"}}},
{"geometry": {"type": "Point", "coordinates": [-122.4539761158, 47.2664589921]}, "type": "Feature", "properties": {"collection_times": [{"days": "Mon-Sat", "time": "9:30am"}, {"days": "Sun", "time": "Closed"}], "id": "9840300010", "name": "USPS COLLECTION BOX - BLUE BOX", "address": {"city": "TACOMA", "state": "WA", "street": "401 N TACOMA AVE", "postcode": "98403"}}},
{"geometry": {"type": "Point", "coordinates": [-122.4619416564, 47.2689857083]}, "type": "Feature", "properties": {"collection_times": [{"days": "Mon-Fri", "time": "12:45pm"}, {"days": "Sat", "time": "11:45am"}, {"days": "Sun", "time": "Closed"}], "id": "9840300011", "name": "USPS COLLECTION BOX - BLUE BOX", "address": {"city": "TACOMA", "state": "WA", "street": "1033 N TACOMA AVE", "postcode": "98403"}}},
{"geometry": {"type": "Point", "coordinates": [-122.4618517515, 47.2666860361]}, "type": "Feature", "properties": {"collection_times": [{"days": "Mon-Sat", "time": "9:30am"}, {"days": "Sun", "time": "Closed"}], "id": "9840300014", "name": "USPS COLLECTION BOX - BLUE BOX", "address": {"city": "TACOMA", "state": "WA", "street": "918 N YAKIMA AVE", "postcode": "98403"}}},
{"geometry": {"type": "Point", "coordinates": [-122.4677925714, 47.2674585083]}, "type": "Feature", "properties": {"collection_times": [{"days": "Mon-Fri", "time": "12:30pm"}, {"days": "Sat", "time": "11:30am"}, {"days": "Sun", "time": "Closed"}], "id": "9840300015", "name": "USPS COLLECTION BOX - BLUE BOX", "address": {"city": "TACOMA", "state": "WA", "street": "1312 N I ST", "postcode": "98403"}}},
{"geometry": {"type": "Point", "coordinates": [-122.4671351061, 47.2553758362]}, "type": "Feature", "properties": {"collection_times": [{"days": "Mon-Sat", "time": "12:00pm"}, {"days": "Sun", "time": "Closed"}], "id": "9840300016", "name": "USPS COLLECTION BOX - BLUE BOX", "address": {"city": "TACOMA", "state": "WA", "street": "2300 6TH AVE", "postcode": "98403"}}},
{"geometry": {"type": "Point", "coordinates": [-122.4652517069, 47.2743992224]}, "type": "Feature", "properties": {"collection_times": [{"days": "Mon-Fri", "time": "4:45pm"}, {"days": "Sat", "time": "2:45pm"}, {"days": "Sun", "time": "Closed"}], "id": "9840300018", "name": "USPS COLLECTION BOX - BLUE BOX", "address": {"city": "TACOMA", "state": "WA", "street": "2915 MCCARVER ST", "postcode": "98403"}}},
{"geometry": {"type": "Point", "coordinates": [-122.4606392186, 47.2572164495]}, "type": "Feature", "properties": {"collection_times": [{"days": "Mon-Sat", "time": "10:00am"}, {"days": "Sun", "time": "Closed"}], "id": "9840300019", "name": "USPS COLLECTION BOX - BLUE BOX", "address": {"city": "TACOMA", "state": "WA", "street": "1605 DIVISION AVE", "postcode": "98403"}}},
{"geometry": {"type": "Point", "coordinates": [-122.4107794439, 47.1917115847]}, "type": "Feature", "properties": {"collection_times": [{"days": "Mon-Sat", "time": "11:00am"}, {"days": "Sun", "time": "Closed"}], "id": "9840400006", "name": "USPS COLLECTION BOX - BLUE BOX", "address": {"city": "TACOMA", "state": "WA", "street": "1314 E 72ND ST", "postcode": "98404"}}},
{"geometry": {"type": "Point", "coordinates": [-122.4163977017, 47.2230531004]}, "type": "Feature", "properties": {"collection_times": [{"days": "Mon-Sat", "time": "10:30am"}, {"days": "Sun", "time": "Closed"}], "id": "9840400009", "name": "USPS COLLECTION BOX - BLUE BOX", "address": {"city": "TACOMA", "state": "WA", "street": "3800 E K ST", "postcode": "98404"}}},
{"geometry": {"type": "Point", "coordinates": [-122.421076339, 47.230824635]}, "type": "Feature", "properties": {"collection_times": [{"days": "Mon-Sat", "time": "9:00am"}, {"days": "Sun", "time": "Closed"}], "id": "9840400012", "name": "USPS COLLECTION BOX - BLUE BOX", "address": {"city": "TACOMA", "state": "WA", "street": "3419 MCKINLEY AVE", "postcode": "98404"}}},
{"geometry": {"type": "Point", "coordinates": [-122.4210162298, 47.1808761687]}, "type": "Feature", "properties": {"collection_times": [{"days": "Mon-Sat", "time": "11:00am"}, {"days": "Sun", "time": "Closed"}], "id": "9840400013", "name": "USPS COLLECTION BOX - BLUE BOX", "address": {"city": "TACOMA", "state": "WA", "street": "4602 MCKINLEY AVE", "postcode": "98404"}}},
{"geometry": {"type": "Point", "coordinates": [-122.4209715524, 47.2072033278]}, "type": "Feature", "properties": {"collection_times": [{"days": "Mon-Sat", "time": "12:00pm"}, {"days": "Sun", "time": "Closed"}], "id": "9840400015", "name": "USPS COLLECTION BOX - BLUE BOX", "address": {"city": "TACOMA", "state": "WA", "street": "5500 MCKINLEY AVE", "postcode": "98404"}}},
{"geometry": {"type": "Point", "coordinates": [-122.4209849171, 47.1985453118]}, "type": "Feature", "properties": {"collection_times": [{"days": "Mon-Sat", "time": "10:00am"}, {"days": "Sun", "time": "Closed"}], "id": "9840400016", "name": "USPS COLLECTION BOX - BLUE BOX", "address": {"city": "TACOMA", "state": "WA", "street": "6400 MCKINLEY AVE", "postcode": "98404"}}},
{"geometry": {"type": "Point", "coordinates": [-122.4156666676, 47.1912558406]}, "type": "Feature", "properties": {"collection_times": [{"days": "Mon-Fri", "time": "2:15pm"}, {"days": "Sat", "time": "2:45pm"}, {"days": "Sun", "time": "Closed"}], "id": "9840400021", "name": "USPS COLLECTION BOX - BLUE BOX", "address": {"city": "TACOMA", "state": "WA", "street": "7201 GOLDEN GIVEN RD E", "postcode": "98404"}}},
{"geometry": {"type": "Point", "coordinates": [-122.4112007732, 47.1918161239]}, "type": "Feature", "properties": {"collection_times": [{"days": "Mon-Fri", "time": "2:15pm"}, {"days": "Sat", "time": "12:45pm"}, {"days": "Sun", "time": "Closed"}], "id": "9840400022", "name": "USPS COLLECTION BOX - BLUE BOX", "address": {"city": "TACOMA", "state": "WA", "street": "1301 E 72ND ST", "postcode": "98404"}}},
{"geometry": {"type": "Point", "coordinates": [-122.4091639422, 47.1917609641]}, "type": "Feature", "properties": {"collection_times": [{"days": "Mon-Fri", "time": "2:00pm"}, {"days": "Sat", "time": "3:00pm"}, {"days": "Sun", "time": "Closed"}], "id": "9840400025", "name": "USPS COLLECTION BOX - BLUE BOX", "address": {"city": "TACOMA", "state": "WA", "street": "1414 72ND ST E", "postcode": "98404"}}},
{"geometry": {"type": "Point", "coordinates": [-122.3890879456, 47.1922578069]}, "type": "Feature", "properties": {"collection_times": [{"days": "Mon-Fri", "time": "2:00pm"}, {"days": "Sat", "time": "12:30pm"}, {"days": "Sun", "time": "Closed"}], "id": "9840400027", "name": "USPS COLLECTION BOX - BLUE BOX", "address": {"city": "TACOMA", "state": "WA", "street": "7121 WALLER RD E", "postcode": "98404"}}},
{"geometry": {"type": "Point", "coordinates": [-122.4091639422, 47.1917609641]}, "type": "Feature", "properties": {"collection_times": [{"days": "Mon-Fri", "time": "2:00pm"}, {"days": "Sat", "time": "3:00pm"}, {"days": "Sun", "time": "Closed"}], "id": "9840400028", "name": "USPS COLLECTION BOX - BLUE BOX", "address": {"city": "TACOMA", "state": "WA", "street": "1414 72ND ST E", "postcode": "98404"}}},
{"geometry": {"type": "Point", "coordinates": [-122.4617665785, 47.2561849093]}, "type": "Feature", "properties": {"collection_times": [{"days": "Mon-Sat", "time": "9:00am"}, {"days": "Sun", "time": "Closed"}], "id": "9840500003", "name": "USPS COLLECTION BOX - BLUE BOX", "address": {"city": "TACOMA", "state": "WA", "street": "1702 6TH AVE", "postcode": "98405"}}},
{"geometry": {"type": "Point", "coordinates": [-122.4580887591, 47.2665961312]}, "type": "Feature", "properties": {"collection_times": [{"days": "Mon-Fri", "time": "3:45pm"}, {"days": "Sat", "time": "1:45pm"}, {"days": "Sun", "time": "Closed"}], "id": "9840500004", "name": "USPS COLLECTION BOX - BLUE BOX", "address": {"city": "TACOMA", "state": "WA", "street": "715 S G ST", "postcode": "98405"}}},
{"geometry": {"type": "Point", "coordinates": [-122.4487393162, 47.2457763062]}, "type": "Feature", "properties": {"collection_times": [{"days": "Mon-Fri", "time": "4:15pm"}, {"days": "Sat", "time": "2:15pm"}, {"days": "Sun", "time": "Closed"}], "id": "9840500011", "name": "USPS COLLECTION BOX - BLUE BOX", "address": {"city": "TACOMA", "state": "WA", "street": "1717 S J ST", "postcode": "98405"}}},
{"geometry": {"type": "Point", "coordinates": [-122.4531248961, 47.2570674666]}, "type": "Feature", "properties": {"collection_times": [{"days": "Mon-Fri", "time": "4:30pm"}, {"days": "Sat", "time": "3:45pm"}, {"days": "Sun", "time": "Closed"}], "id": "9840500013", "name": "USPS COLLECTION BOX - BLUE BOX", "address": {"city": "TACOMA", "state": "WA", "street": "1112 6TH AVE", "postcode": "98405"}}},
{"geometry": {"type": "Point", "coordinates": [-122.452354957, 47.2547783711]}, "type": "Feature", "properties": {"collection_times": [{"days": "Mon-Fri", "time": "3:00pm"}, {"days": "Sat", "time": "2:30pm"}, {"days": "Sun", "time": "Closed"}], "id": "9840500014", "name": "USPS COLLECTION BOX - BLUE BOX", "address": {"city": "TACOMA", "state": "WA", "street": "805 MARTIN LUTHER KING JR WAY", "postcode": "98405"}}},
{"geometry": {"type": "Point", "coordinates": [-122.4487989823, 47.2519605629]}, "type": "Feature", "properties": {"collection_times": [{"days": "Mon-Fri", "time": "3:00pm"}, {"days": "Sat", "time": "2:30pm"}, {"days": "Sun", "time": "Closed"}], "id": "9840500017", "name": "USPS COLLECTION BOX - BLUE BOX", "address": {"city": "TACOMA", "state": "WA", "street": "1102 S I ST", "postcode": "98405"}}},
{"geometry": {"type": "Point", "coordinates": [-122.4535676518, 47.2517350447]}, "type": "Feature", "properties": {"collection_times": [{"days": "Mon-Fri", "time": "3:00pm"}, {"days": "Sat", "time": "2:30pm"}, {"days": "Sun", "time": "Closed"}], "id": "9840500018", "name": "USPS COLLECTION BOX - BLUE BOX", "address": {"city": "TACOMA", "state": "WA", "street": "1210 S 11TH ST", "postcode": "98405"}}},
{"geometry": {"type": "Point", "coordinates": [-122.5028975758, 47.2497090218]}, "type": "Feature", "properties": {"collection_times": [{"days": "Mon-Fri", "time": "12:45pm"}, {"days": "Sat", "time": "12:00pm"}, {"days": "Sun", "time": "Closed"}], "id": "9840500020", "name": "USPS COLLECTION BOX - BLUE BOX", "address": {"city": "TACOMA", "state": "WA", "street": "1206 MOORLANDS DR", "postcode": "98405"}}},
{"geometry": {"type": "Point", "coordinates": [-122.4738623339, 47.2500595478]}, "type": "Feature", "properties": {"collection_times": [{"days": "Mon-Fri", "time": "2:15pm"}, {"days": "Sat", "time": "3:00pm"}, {"days": "Sun", "time": "Closed"}], "id": "9840500021", "name": "USPS COLLECTION BOX - BLUE BOX", "address": {"city": "TACOMA", "state": "WA", "street": "2901 S 12TH ST", "postcode": "98405"}}},
{"geometry": {"type": "Point", "coordinates": [-122.4688856255, 47.2430718092]}, "type": "Feature", "properties": {"collection_times": [{"days": "Mon-Fri", "time": "1:45pm"}, {"days": "Sat", "time": "11:30am"}, {"days": "Sun", "time": "Closed"}], "id": "9840500023", "name": "USPS COLLECTION BOX - BLUE BOX", "address": {"city": "TACOMA", "state": "WA", "street": "1750 S PROSPECT ST", "postcode": "98405"}}},
{"geometry": {"type": "Point", "coordinates": [-122.489103485, 47.2500128159]}, "type": "Feature", "properties": {"collection_times": [{"days": "Mon-Sat", "time": "10:30am"}, {"days": "Sun", "time": "Closed"}], "id": "9840500024", "name": "USPS COLLECTION BOX - BLUE BOX", "address": {"city": "TACOMA", "state": "WA", "street": "1200 S PROCTOR ST", "postcode": "98405"}}},
{"geometry": {"type": "Point", "coordinates": [-122.4652208187, 47.2415883787]}, "type": "Feature", "properties": {"collection_times": [{"days": "Mon-Sat", "time": "9:45am"}, {"days": "Sun", "time": "Closed"}], "id": "9840500026", "name": "USPS COLLECTION BOX - BLUE BOX", "address": {"city": "TACOMA", "state": "WA", "street": "1949 S STATE ST", "postcode": "98405"}}},
{"geometry": {"type": "Point", "coordinates": [-122.4839458761, 47.2665984971]}, "type": "Feature", "properties": {"collection_times": [{"days": "Mon-Sat", "time": "11:00am"}, {"days": "Sun", "time": "Closed"}], "id": "9840500028", "name": "USPS COLLECTION BOX - BLUE BOX", "address": {"city": "TACOMA", "state": "WA", "street": "1901 S UNION AVE", "postcode": "98405"}}},
{"geometry": {"type": "Point", "coordinates": [-122.478030186, 47.2377343588]}, "type": "Feature", "properties": {"collection_times": [{"days": "Mon-Fri", "time": "3:00pm"}, {"days": "Sat", "time": "2:30pm"}, {"days": "Sun", "time": "Closed"}], "id": "9840500029", "name": "USPS COLLECTION BOX - BLUE BOX", "address": {"city": "TACOMA", "state": "WA", "street": "3216 S 23RD ST", "postcode": "98405"}}},
{"geometry": {"type": "Point", "coordinates": [-122.4794459002, 47.2382299582]}, "type": "Feature", "properties": {"collection_times": [{"days": "Mon-Fri", "time": "3:30pm"}, {"days": "Sat", "time": "2:00pm"}, {"days": "Sun", "time": "Closed"}], "id": "9840500030", "name": "USPS COLLECTION BOX - BLUE BOX", "address": {"city": "TACOMA", "state": "WA", "street": "3315 S 23RD ST", "postcode": "98405"}}},
{"geometry": {"type": "Point", "coordinates": [-122.4818224648, 47.2377922633]}, "type": "Feature", "properties": {"collection_times": [{"days": "Mon-Sat", "time": "1:00pm"}, {"days": "Sun", "time": "Closed"}], "id": "9840500031", "name": "USPS COLLECTION BOX - BLUE BOX", "address": {"city": "TACOMA", "state": "WA", "street": "2420 S UNION AVE", "postcode": "98405"}}},
{"geometry": {"type": "Point", "coordinates": [-122.4652717812, 47.2427364487]}, "type": "Feature", "properties": {"collection_times": [{"days": "Mon-Sat", "time": "10:00am"}, {"days": "Sun", "time": "Closed"}], "id": "9840500036", "name": "USPS COLLECTION BOX - BLUE BOX", "address": {"city": "TACOMA", "state": "WA", "street": "2121 S 19TH ST", "postcode": "98405"}}},
{"geometry": {"type": "Point", "coordinates": [-122.4494856282, 47.2488531276]}, "type": "Feature", "properties": {"collection_times": [{"days": "Mon-Sat", "time": "12:00pm"}, {"days": "Sun", "time": "Closed"}], "id": "9840500037", "name": "USPS COLLECTION BOX - BLUE BOX", "address": {"city": "TACOMA", "state": "WA", "street": "1421 S J ST", "postcode": "98405"}}},
{"geometry": {"type": "Point", "coordinates": [-122.4828279799, 47.2434006718]}, "type": "Feature", "properties": {"collection_times": [{"days": "Mon-Fri", "time": "3:45pm"}, {"days": "Sat", "time": "2:30pm"}, {"days": "Sun", "time": "Closed"}], "id": "9840500040", "name": "USPS COLLECTION BOX - BLUE BOX", "address": {"city": "TACOMA", "state": "WA", "street": "1801 S UNION AVE", "postcode": "98405"}}},
{"geometry": {"type": "Point", "coordinates": [-122.4469880125, 47.2503281034]}, "type": "Feature", "properties": {"collection_times": [{"days": "Mon-Fri", "time": "3:15pm"}, {"days": "Sat", "time": "2:45pm"}, {"days": "Sun", "time": "Closed"}], "id": "9840500041", "name": "USPS COLLECTION BOX - BLUE BOX", "address": {"city": "TACOMA", "state": "WA", "street": "1302 YAKIMA AVE", "postcode": "98405"}}},
{"geometry": {"type": "Point", "coordinates": [-122.4822740601, 47.2507526774]}, "type": "Feature", "properties": {"collection_times": [{"days": "Mon-Sat", "time": "10:30am"}, {"days": "Sun", "time": "Closed"}], "id": "9840500042", "name": "USPS COLLECTION BOX - BLUE BOX", "address": {"city": "TACOMA", "state": "WA", "street": "1110 S PUGET SOUND AVE", "postcode": "98405"}}},
{"geometry": {"type": "Point", "coordinates": [-122.4549503689, 47.2596391495]}, "type": "Feature", "properties": {"collection_times": [{"days": "Mon-Fri", "time": "3:00pm"}, {"days": "Sat", "time": "2:45pm"}, {"days": "Sun", "time": "Closed"}], "id": "9840500043", "name": "USPS COLLECTION BOX - BLUE BOX", "address": {"city": "TACOMA", "state": "WA", "street": "311 S L ST", "postcode": "98405"}}},
{"geometry": {"type": "Point", "coordinates": [-122.4549503689, 47.2596391495]}, "type": "Feature", "properties": {"collection_times": [{"days": "Mon-Fri", "time": "3:00pm"}, {"days": "Sat", "time": "2:45pm"}, {"days": "Sun", "time": "Closed"}], "id": "9840500044", "name": "USPS COLLECTION BOX - BLUE BOX", "address": {"city": "TACOMA", "state": "WA", "street": "311 S L ST", "postcode": "98405"}}},
{"geometry": {"type": "Point", "coordinates": [-122.4499724776, 47.2443044524]}, "type": "Feature", "properties": {"collection_times": [{"days": "Mon-Sat", "time": "9:00am"}, {"days": "Sun", "time": "Closed"}], "id": "9840500046", "name": "USPS COLLECTION BOX - BLUE BOX", "address": {"city": "TACOMA", "state": "WA", "street": "1812 MARTIN LUTHER KING JR WAY", "postcode": "98405"}}},
{"geometry": {"type": "Point", "coordinates": [-122.4635634931, 47.2628485172]}, "type": "Feature", "properties": {"collection_times": [{"days": "Mon-Fri", "time": "3:00pm"}, {"days": "Sat", "time": "2:30pm"}, {"days": "Sun", "time": "Closed"}], "id": "9840500048", "name": "USPS COLLECTION BOX - BLUE BOX", "address": {"city": "TACOMA", "state": "WA", "street": "902 S L ST", "postcode": "98405"}}},
{"geometry": {"type": "Point", "coordinates": [-122.4464059581, 47.2448780996]}, "type": "Feature", "properties": {"collection_times": [{"days": "Mon-Fri", "time": "4:15pm"}, {"days": "Sat", "time": "2:15pm"}, {"days": "Sun", "time": "Closed"}], "id": "9840500050", "name": "USPS COLLECTION BOX - BLUE BOX", "address": {"city": "TACOMA", "state": "WA", "street": "1802 YAKIMA AVE", "postcode": "98405"}}},
{"geometry": {"type": "Point", "coordinates": [-122.4763015953, 47.2419148753]}, "type": "Feature", "properties": {"collection_times": [{"days": "Mon-Fri", "time": "1:30pm"}, {"days": "Sat", "time": "11:30am"}, {"days": "Sun", "time": "Closed"}], "id": "9840500052", "name": "USPS COLLECTION BOX - BLUE BOX", "address": {"city": "TACOMA", "state": "WA", "street": "1901 S CEDAR ST", "postcode": "98405"}}},
{"geometry": {"type": "Point", "coordinates": [-122.4513115871, 47.2502121495]}, "type": "Feature", "properties": {"collection_times": [{"days": "Mon-Fri", "time": "4:30pm"}, {"days": "Sat", "time": "2:30pm"}, {"days": "Sun", "time": "Closed"}], "id": "9840500053", "name": "USPS COLLECTION BOX - BLUE BOX", "address": {"city": "TACOMA", "state": "WA", "street": "1220 MARTIN LUTHER KING JR WAY", "postcode": "98405"}}},
{"geometry": {"type": "Point", "coordinates": [-122.4513115871, 47.2502121495]}, "type": "Feature", "properties": {"collection_times": [{"days": "Mon-Fri", "time": "4:00pm"}, {"days": "Sat", "time": "9:30am"}, {"days": "Sun", "time": "Closed"}], "id": "9840500055", "name": "USPS COLLECTION BOX - PO LOBBY", "address": {"city": "TACOMA", "state": "WA", "street": "1220 MARTIN LUTHER KING JR WAY", "postcode": "98405"}}},
{"geometry": {"type": "Point", "coordinates": [-122.4535201715, 47.2598177763]}, "type": "Feature", "properties": {"collection_times": [{"days": "Mon-Fri", "time": "3:00pm"}, {"days": "Sat", "time": "2:45pm"}, {"days": "Sun", "time": "Closed"}], "id": "9840500064", "name": "USPS COLLECTION BOX - BLUE BOX", "address": {"city": "TACOMA", "state": "WA", "street": "314 MARTIN LUTHER KING JR WAY", "postcode": "98405"}}},
{"geometry": {"type": "Point", "coordinates": [-122.4981733236, 47.2663962111]}, "type": "Feature", "properties": {"collection_times": [{"days": "Mon-Fri", "time": "4:15pm"}, {"days": "Sat", "time": "2:00pm"}, {"days": "Sun", "time": "Closed"}], "id": "9840500066", "name": "USPS COLLECTION BOX - BLUE BOX", "address": {"city": "TACOMA", "state": "WA", "street": "4505 S 19TH ST", "postcode": "98405"}}},
{"geometry": {"type": "Point", "coordinates": [-122.4475663391, 47.2466372475]}, "type": "Feature", "properties": {"collection_times": [{"days": "Mon-Fri", "time": "4:15pm"}, {"days": "Sat", "time": "2:15pm"}, {"days": "Sun", "time": "Closed"}], "id": "9840500067", "name": "USPS COLLECTION BOX - BLUE BOX", "address": {"city": "TACOMA", "state": "WA", "street": "1624 S I ST", "postcode": "98405"}}},
{"geometry": {"type": "Point", "coordinates": [-122.5229953515, 47.263171465]}, "type": "Feature", "properties": {"collection_times": [{"days": "Mon-Fri", "time": "1:15pm"}, {"days": "Sat", "time": "12:00pm"}, {"days": "Sun", "time": "Closed"}], "id": "9840600003", "name": "USPS COLLECTION BOX - BLUE BOX", "address": {"city": "TACOMA", "state": "WA", "street": "1301 N HIGHLANDS PKWY", "postcode": "98406"}}},
{"geometry": {"type": "Point", "coordinates": [-122.4792174955, 47.2640616334]}, "type": "Feature", "properties": {"collection_times": [{"days": "Mon-Fri", "time": "4:15pm"}, {"days": "Sat", "time": "1:00pm"}, {"days": "Sun", "time": "Closed"}], "id": "9840600005", "name": "USPS COLLECTION BOX - BLUE BOX", "address": {"city": "TACOMA", "state": "WA", "street": "1500 N LAWRENCE ST", "postcode": "98406"}}},
{"geometry": {"type": "Point", "coordinates": [-122.5186077567, 47.2554609384]}, "type": "Feature", "properties": {"collection_times": [{"days": "Mon-Fri", "time": "12:30pm"}, {"days": "Sat", "time": "11:30am"}, {"days": "Sun", "time": "Closed"}], "id": "9840600009", "name": "USPS COLLECTION BOX - BLUE BOX", "address": {"city": "TACOMA", "state": "WA", "street": "6201 6TH AVE", "postcode": "98406"}}},
{"geometry": {"type": "Point", "coordinates": [-122.5160717305, 47.2587489933]}, "type": "Feature", "properties": {"collection_times": [{"days": "Mon-Fri", "time": "1:15pm"}, {"days": "Sat", "time": "12:00pm"}, {"days": "Sun", "time": "Closed"}], "id": "9840600013", "name": "USPS COLLECTION BOX - BLUE BOX", "address": {"city": "TACOMA", "state": "WA", "street": "922 N PEARL ST", "postcode": "98406"}}},
{"geometry": {"type": "Point", "coordinates": [-122.4872983818, 47.2552633843]}, "type": "Feature", "properties": {"collection_times": [{"days": "Mon-Fri", "time": "12:45pm"}, {"days": "Sat", "time": "11:45am"}, {"days": "Sun", "time": "Closed"}], "id": "9840600016", "name": "USPS COLLECTION BOX - BLUE BOX", "address": {"city": "TACOMA", "state": "WA", "street": "3814 6TH AVE", "postcode": "98406"}}},
{"geometry": {"type": "Point", "coordinates": [-122.4889604392, 47.2610243945]}, "type": "Feature", "properties": {"collection_times": [{"days": "Mon-Fri", "time": "1:00pm"}, {"days": "Sat", "time": "11:45am"}, {"days": "Sun", "time": "Closed"}], "id": "9840600017", "name": "USPS COLLECTION BOX - BLUE BOX", "address": {"city": "TACOMA", "state": "WA", "street": "1202 N PROCTOR ST", "postcode": "98406"}}},
{"geometry": {"type": "Point", "coordinates": [-122.4888115007, 47.2703784858]}, "type": "Feature", "properties": {"collection_times": [{"days": "Mon-Fri", "time": "2:00pm"}, {"days": "Sat", "time": "12:45pm"}, {"days": "Sun", "time": "Closed"}], "id": "9840600020", "name": "USPS COLLECTION BOX - BLUE BOX", "address": {"city": "TACOMA", "state": "WA", "street": "2525 N PROCTOR ST", "postcode": "98406"}}},
{"geometry": {"type": "Point", "coordinates": [-122.4951544123, 47.255328447]}, "type": "Feature", "properties": {"collection_times": [{"days": "Mon-Fri", "time": "12:15pm"}, {"days": "Sat", "time": "11:15am"}, {"days": "Sun", "time": "Closed"}], "id": "9840600021", "name": "USPS COLLECTION BOX - BLUE BOX", "address": {"city": "TACOMA", "state": "WA", "street": "4315 6TH AVE", "postcode": "98406"}}},
{"geometry": {"type": "Point", "coordinates": [-122.4961658422, 47.2620500199]}, "type": "Feature", "properties": {"collection_times": [{"days": "Mon-Fri", "time": "1:00pm"}, {"days": "Sat", "time": "11:45am"}, {"days": "Sun", "time": "Closed"}], "id": "9840600022", "name": "USPS COLLECTION BOX - BLUE BOX", "address": {"city": "TACOMA", "state": "WA", "street": "1302 N STEVENS ST", "postcode": "98406"}}},
{"geometry": {"type": "Point", "coordinates": [-122.5043984659, 47.2618059982]}, "type": "Feature", "properties": {"collection_times": [{"days": "Mon-Fri", "time": "4:30pm"}, {"days": "Sat", "time": "3:30pm"}, {"days": "Sun", "time": "Closed"}], "id": "9840600025", "name": "USPS COLLECTION BOX - BLUE BOX", "address": {"city": "TACOMA", "state": "WA", "street": "2315 N PEARL ST", "postcode": "98406"}}},
{"geometry": {"type": "Point", "coordinates": [-122.5045157808, 47.2618060445]}, "type": "Feature", "properties": {"collection_times": [{"days": "Mon-Fri", "time": "2:00pm"}, {"days": "Sat", "time": "12:45pm"}, {"days": "Sun", "time": "Closed"}], "id": "9840600026", "name": "USPS COLLECTION BOX - BLUE BOX", "address": {"city": "TACOMA", "state": "WA", "street": "2501 N STEVENS ST", "postcode": "98406"}}},
{"geometry": {"type": "Point", "coordinates": [-122.4811351656, 47.2552763968]}, "type": "Feature", "properties": {"collection_times": [{"days": "Mon-Fri", "time": "12:15pm"}, {"days": "Sat", "time": "11:15am"}, {"days": "Sun", "time": "Closed"}], "id": "9840600029", "name": "USPS COLLECTION BOX - BLUE BOX", "address": {"city": "TACOMA", "state": "WA", "street": "3401 6TH AVE", "postcode": "98406"}}},
{"geometry": {"type": "Point", "coordinates": [-122.4846237116, 47.2552610184]}, "type": "Feature", "properties": {"collection_times": [{"days": "Mon-Fri", "time": "12:15pm"}, {"days": "Sat", "time": "11:15am"}, {"days": "Sun", "time": "Closed"}], "id": "9840600030", "name": "USPS COLLECTION BOX - BLUE BOX", "address": {"city": "TACOMA", "state": "WA", "street": "3607 6TH AVE", "postcode": "98406"}}},
{"geometry": {"type": "Point", "coordinates": [-122.5316912707, 47.2554839761]}, "type": "Feature", "properties": {"collection_times": [{"days": "Mon-Fri", "time": "12:30pm"}, {"days": "Sat", "time": "11:30am"}, {"days": "Sun", "time": "Closed"}], "id": "9840600032", "name": "USPS COLLECTION BOX - BLUE BOX", "address": {"city": "TACOMA", "state": "WA", "street": "7124 6TH AVE", "postcode": "98406"}}},
{"geometry": {"type": "Point", "coordinates": [-122.5160548705, 47.2671892778]}, "type": "Feature", "properties": {"collection_times": [{"days": "Mon-Fri", "time": "4:30pm"}, {"days": "Sat", "time": "3:15pm"}, {"days": "Sun", "time": "Closed"}], "id": "9840600034", "name": "USPS COLLECTION BOX - BLUE BOX", "address": {"city": "TACOMA", "state": "WA", "street": "2102 N PEARL ST", "postcode": "98406"}}},
{"geometry": {"type": "Point", "coordinates": [-122.515729938, 47.2661327598]}, "type": "Feature", "properties": {"collection_times": [{"days": "Mon-Fri", "time": "4:30pm"}, {"days": "Sat", "time": "3:15pm"}, {"days": "Sun", "time": "Closed"}], "id": "9840600036", "name": "USPS COLLECTION BOX - BLUE BOX", "address": {"city": "TACOMA", "state": "WA", "street": "1919 N PEARL ST", "postcode": "98406"}}},
{"geometry": {"type": "Point", "coordinates": [-122.4748533676, 47.2552193255]}, "type": "Feature", "properties": {"collection_times": [{"days": "Mon-Fri", "time": "12:15pm"}, {"days": "Sat", "time": "3:15pm"}, {"days": "Sun", "time": "Closed"}], "id": "9840600037", "name": "USPS COLLECTION BOX - BLUE BOX", "address": {"city": "TACOMA", "state": "WA", "street": "3002 6TH AVE", "postcode": "98406"}}},
{"geometry": {"type": "Point", "coordinates": [-122.5223840142, 47.255537495]}, "type": "Feature", "properties": {"collection_times": [{"days": "Mon-Fri", "time": "5:00pm"}, {"days": "Sat", "time": "11:30am"}, {"days": "Sun", "time": "Closed"}], "id": "9840600041", "name": "USPS COLLECTION BOX - BLUE BOX", "address": {"city": "TACOMA", "state": "WA", "street": "6411 6TH AVE", "postcode": "98406"}}},
{"geometry": {"type": "Point", "coordinates": [-122.511653141, 47.2655018941]}, "type": "Feature", "properties": {"collection_times": [{"days": "Mon-Fri", "time": "1:00pm"}, {"days": "Sat", "time": "11:45am"}, {"days": "Sun", "time": "Closed"}], "id": "9840600044", "name": "USPS COLLECTION BOX - BLUE BOX", "address": {"city": "TACOMA", "state": "WA", "street": "5518 N 18TH ST", "postcode": "98406"}}},
{"geometry": {"type": "Point", "coordinates": [-122.5090104107, 47.2898318112]}, "type": "Feature", "properties": {"collection_times": [{"days": "Mon-Fri", "time": "1:45pm"}, {"days": "Sat", "time": "12:30pm"}, {"days": "Sun", "time": "Closed"}], "id": "9840700004", "name": "USPS COLLECTION BOX - BLUE BOX", "address": {"city": "RUSTON", "state": "WA", "street": "5324 N 45TH ST", "postcode": "98407"}}},
{"geometry": {"type": "Point", "coordinates": [-122.4988913797, 47.289492302]}, "type": "Feature", "properties": {"collection_times": [{"days": "Mon-Sat", "time": "10:15am"}, {"days": "Sun", "time": "Closed"}], "id": "9840700006", "name": "USPS COLLECTION BOX - BLUE BOX", "address": {"city": "RUSTON", "state": "WA", "street": "4602 N 45TH ST", "postcode": "98407"}}},
{"geometry": {"type": "Point", "coordinates": [-122.5139282722, 47.2758355763]}, "type": "Feature", "properties": {"collection_times": [{"days": "Mon-Sat", "time": "11:15am"}, {"days": "Sun", "time": "Closed"}], "id": "9840700007", "name": "USPS COLLECTION BOX - BLUE BOX", "address": {"city": "RUSTON", "state": "WA", "street": "3018 N HIGHLAND ST", "postcode": "98407"}}},
{"geometry": {"type": "Point", "coordinates": [-122.5128609421, 47.2986756124]}, "type": "Feature", "properties": {"collection_times": [{"days": "Mon-Fri", "time": "1:45pm"}, {"days": "Sat", "time": "12:30pm"}, {"days": "Sun", "time": "Closed"}], "id": "9840700012", "name": "USPS COLLECTION BOX - BLUE BOX", "address": {"city": "RUSTON", "state": "WA", "street": "5117 N WINNIFRED ST", "postcode": "98407"}}},
{"geometry": {"type": "Point", "coordinates": [-122.4961693911, 47.2746047634]}, "type": "Feature", "properties": {"collection_times": [{"days": "Mon-Sat", "time": "12:30pm"}, {"days": "Sun", "time": "Closed"}], "id": "9840700017", "name": "USPS COLLECTION BOX - BLUE BOX", "address": {"city": "RUSTON", "state": "WA", "street": "2923 N STEVENS ST", "postcode": "98407"}}},
{"geometry": {"type": "Point", "coordinates": [-122.5122599989, 47.2817001512]}, "type": "Feature", "properties": {"collection_times": [{"days": "Mon-Fri", "time": "1:30pm"}, {"days": "Sat", "time": "12:15pm"}, {"days": "Sun", "time": "Closed"}], "id": "9840700020", "name": "USPS COLLECTION BOX - BLUE BOX", "address": {"city": "RUSTON", "state": "WA", "street": "5601 N 37TH ST", "postcode": "98407"}}},
{"geometry": {"type": "Point", "coordinates": [-122.4876596869, 47.2720371503]}, "type": "Feature", "properties": {"collection_times": [{"days": "Mon-Fri", "time": "4:45pm"}, {"days": "Sat", "time": "3:00pm"}, {"days": "Sun", "time": "Closed"}], "id": "9840700025", "name": "USPS COLLECTION BOX - BLUE BOX", "address": {"city": "RUSTON", "state": "WA", "street": "3801 N 27TH ST", "postcode": "98407"}}},
{"geometry": {"type": "Point", "coordinates": [-122.4876769287, 47.2720306447]}, "type": "Feature", "properties": {"collection_times": [{"days": "Mon-Fri", "time": "6:00pm"}, {"days": "Sat", "time": "3:00pm"}, {"days": "Sun", "time": "Closed"}], "id": "9840700030", "name": "USPS COLLECTION BOX - PO LOBBY", "address": {"city": "RUSTON", "state": "WA", "street": "3801 N 27TH ST", "postcode": "98407"}}},
{"geometry": {"type": "Point", "coordinates": [-122.5157775304, 47.2731523571]}, "type": "Feature", "properties": {"collection_times": [{"days": "Mon-Fri", "time": "4:30pm"}, {"days": "Sat", "time": "3:45pm"}, {"days": "Sun", "time": "Closed"}], "id": "9840700031", "name": "USPS COLLECTION BOX - BLUE BOX", "address": {"city": "RUSTON", "state": "WA", "street": "2665 N PEARL ST", "postcode": "98407"}}},
{"geometry": {"type": "Point", "coordinates": [-122.4578498013, 47.1917183776]}, "type": "Feature", "properties": {"collection_times": [{"days": "Mon-Sat", "time": "10:00am"}, {"days": "Sun", "time": "Closed"}], "id": "9840800002", "name": "USPS COLLECTION BOX - BLUE BOX", "address": {"city": "TACOMA", "state": "WA", "street": "7201 S ALASKA ST", "postcode": "98408"}}},
{"geometry": {"type": "Point", "coordinates": [-122.4418992683, 47.1820861256]}, "type": "Feature", "properties": {"collection_times": [{"days": "Mon-Fri", "time": "5:15pm"}, {"days": "Sat", "time": "3:15pm"}, {"days": "Sun", "time": "Closed"}], "id": "9840800005", "name": "USPS COLLECTION BOX - BLUE BOX", "address": {"city": "TACOMA", "state": "WA", "street": "8235 S PARK AVE", "postcode": "98408"}}},
{"geometry": {"type": "Point", "coordinates": [-122.4339691158, 47.2075692872]}, "type": "Feature", "properties": {"collection_times": [{"days": "Mon-Fri", "time": "5:15pm"}, {"days": "Sat", "time": "4:00pm"}, {"days": "Sun", "time": "Closed"}], "id": "9840800020", "name": "USPS COLLECTION BOX - BLUE BOX", "address": {"city": "TACOMA", "state": "WA", "street": "5415 PACIFIC AVE", "postcode": "98408"}}},
{"geometry": {"type": "Point", "coordinates": [-122.4340998424, 47.1905110424]}, "type": "Feature", "properties": {"collection_times": [{"days": "Mon-Fri", "time": "2:30pm"}, {"days": "Sat", "time": "2:45pm"}, {"days": "Sun", "time": "Closed"}], "id": "9840800021", "name": "USPS COLLECTION BOX - BLUE BOX", "address": {"city": "TACOMA", "state": "WA", "street": "7250 PACIFIC AVE", "postcode": "98408"}}},
{"geometry": {"type": "Point", "coordinates": [-122.4432248797, 47.1981016241]}, "type": "Feature", "properties": {"collection_times": [{"days": "Mon-Sat", "time": "1:00pm"}, {"days": "Sun", "time": "Closed"}], "id": "9840800030", "name": "USPS COLLECTION BOX - BLUE BOX", "address": {"city": "TACOMA", "state": "WA", "street": "6414 YAKIMA AVE", "postcode": "98408"}}},
{"geometry": {"type": "Point", "coordinates": [-122.4418992683, 47.1820861256]}, "type": "Feature", "properties": {"collection_times": [{"days": "Mon-Fri", "time": "5:15pm"}, {"days": "Sat", "time": "3:15pm"}, {"days": "Sun", "time": "Closed"}], "id": "9840800031", "name": "USPS COLLECTION BOX - BLUE BOX", "address": {"city": "TACOMA", "state": "WA", "street": "8235 S PARK AVE", "postcode": "98408"}}},
{"geometry": {"type": "Point", "coordinates": [-122.4565457741, 47.2065033021]}, "type": "Feature", "properties": {"collection_times": [{"days": "Mon-Fri", "time": "1:15pm"}, {"days": "Sat", "time": "12:15pm"}, {"days": "Sun", "time": "Closed"}], "id": "9840800033", "name": "USPS COLLECTION BOX - BLUE BOX", "address": {"city": "TACOMA", "state": "WA", "street": "5599 S ASOTIN ST", "postcode": "98408"}}},
{"geometry": {"type": "Point", "coordinates": [-122.4885215614, 47.1904833684]}, "type": "Feature", "properties": {"collection_times": [{"days": "Mon-Fri", "time": "5:00pm"}, {"days": "Sat", "time": "3:30pm"}, {"days": "Sun", "time": "Closed"}], "id": "9840900001", "name": "USPS COLLECTION BOX - BLUE BOX", "address": {"city": "TACOMA", "state": "WA", "street": "3866 S 74TH ST", "postcode": "98409"}}},
{"geometry": {"type": "Point", "coordinates": [-122.479165172, 47.2219021873]}, "type": "Feature", "properties": {"collection_times": [{"days": "Mon-Fri", "time": "2:45pm"}, {"days": "Sat", "time": "1:15pm"}, {"days": "Sun", "time": "Closed"}], "id": "9840900007", "name": "USPS COLLECTION BOX - BLUE BOX", "address": {"city": "TACOMA", "state": "WA", "street": "3825 S LAWRENCE ST", "postcode": "98409"}}},
{"geometry": {"type": "Point", "coordinates": [-122.4723067429, 47.1993768539]}, "type": "Feature", "properties": {"collection_times": [{"days": "Mon-Sat", "time": "9:30am"}, {"days": "Sun", "time": "Closed"}], "id": "9840900013", "name": "USPS COLLECTION BOX - BLUE BOX", "address": {"city": "TACOMA", "state": "WA", "street": "6248 S OAKES ST", "postcode": "98409"}}},
{"geometry": {"type": "Point", "coordinates": [-122.4936057606, 47.2200711209]}, "type": "Feature", "properties": {"collection_times": [{"days": "Mon-Fri", "time": "12:15pm"}, {"days": "Sat", "time": "11:30am"}, {"days": "Sun", "time": "Closed"}], "id": "9840900015", "name": "USPS COLLECTION BOX - BLUE BOX", "address": {"city": "TACOMA", "state": "WA", "street": "4100 S TYLER ST", "postcode": "98409"}}},
{"geometry": {"type": "Point", "coordinates": [-122.4830793669, 47.2148424895]}, "type": "Feature", "properties": {"collection_times": [{"days": "Mon-Fri", "time": "3:45pm"}, {"days": "Sat", "time": "1:15pm"}, {"days": "Sun", "time": "Closed"}], "id": "9840900020", "name": "USPS COLLECTION BOX - BLUE BOX", "address": {"city": "TACOMA", "state": "WA", "street": "3516 S 47TH ST", "postcode": "98409"}}},
{"geometry": {"type": "Point", "coordinates": [-122.4425044577, 47.2360911684]}, "type": "Feature", "properties": {"collection_times": [{"days": "Mon-Fri", "time": "1:45pm"}, {"days": "Sat", "time": "11:30am"}, {"days": "Sun", "time": "Closed"}], "id": "9840900035", "name": "USPS COLLECTION BOX - BLUE BOX", "address": {"city": "TACOMA", "state": "WA", "street": "714 S 27TH ST", "postcode": "98409"}}},
{"geometry": {"type": "Point", "coordinates": [-122.4645690083, 47.2064320212]}, "type": "Feature", "properties": {"collection_times": [{"days": "Mon-Fri", "time": "4:15pm"}, {"days": "Sat", "time": "4:00pm"}, {"days": "Sun", "time": "Closed"}], "id": "9840900040", "name": "USPS COLLECTION BOX - BLUE BOX", "address": {"city": "TACOMA", "state": "WA", "street": "2115 S 56TH ST", "postcode": "98409"}}},
{"geometry": {"type": "Point", "coordinates": [-122.4676588971, 47.2282067469]}, "type": "Feature", "properties": {"collection_times": [{"days": "Mon-Sat", "time": "11:00am"}, {"days": "Sun", "time": "Closed"}], "id": "9840900041", "name": "USPS COLLECTION BOX - BLUE BOX", "address": {"city": "TACOMA", "state": "WA", "street": "2401 S 35TH ST", "postcode": "98409"}}},
{"geometry": {"type": "Point", "coordinates": [-122.4724297706, 47.2192600282]}, "type": "Feature", "properties": {"collection_times": [{"days": "Mon-Fri", "time": "5:15pm"}, {"days": "Sat", "time": "1:45pm"}, {"days": "Sun", "time": "Closed"}], "id": "9840900043", "name": "USPS COLLECTION BOX - BLUE BOX", "address": {"city": "TACOMA", "state": "WA", "street": "2702 S 42ND ST", "postcode": "98409"}}},
{"geometry": {"type": "Point", "coordinates": [-122.4735250418, 47.2186609367]}, "type": "Feature", "properties": {"collection_times": [{"days": "Mon-Fri", "time": "4:45pm"}, {"days": "Sat", "time": "4:15pm"}, {"days": "Sun", "time": "Closed"}], "id": "9840900045", "name": "USPS COLLECTION BOX - BLUE BOX", "address": {"city": "TACOMA", "state": "WA", "street": "4301 S PINE ST", "postcode": "98409"}}},
{"geometry": {"type": "Point", "coordinates": [-122.4825114624, 47.2057966457]}, "type": "Feature", "properties": {"collection_times": [{"days": "Mon-Fri", "time": "5:15pm"}, {"days": "Sat", "time": "4:30pm"}, {"days": "Sun", "time": "Closed"}], "id": "9840900052", "name": "USPS COLLECTION BOX - BLUE BOX", "address": {"city": "TACOMA", "state": "WA", "street": "5634 S PUGET SOUND AVE", "postcode": "98409"}}},
{"geometry": {"type": "Point", "coordinates": [-122.4672602776, 47.2208789773]}, "type": "Feature", "properties": {"collection_times": [{"days": "Mon-Fri", "time": "3:00pm"}, {"days": "Sat", "time": "4:15pm"}, {"days": "Sun", "time": "Closed"}], "id": "9840900054", "name": "USPS COLLECTION BOX - BLUE BOX", "address": {"city": "TACOMA", "state": "WA", "street": "4000 TACOMA MALL BLVD", "postcode": "98409"}}},
{"geometry": {"type": "Point", "coordinates": [-122.4736009, 47.220477293]}, "type": "Feature", "properties": {"collection_times": [{"days": "Mon-Fri", "time": "8:30pm"}, {"days": "Sat", "time": "8:00pm"}, {"days": "Sun", "time": "Closed"}], "id": "9840900056", "name": "USPS COLLECTION BOX - BLUE BOX", "address": {"city": "TACOMA", "state": "WA", "street": "4001 S PINE ST", "postcode": "98409"}}},
{"geometry": {"type": "Point", "coordinates": [-122.4756587011, 47.226328713]}, "type": "Feature", "properties": {"collection_times": [{"days": "Mon-Fri", "time": "4:30pm"}, {"days": "Sat", "time": "2:00pm"}, {"days": "Sun", "time": "Closed"}], "id": "9840900061", "name": "USPS COLLECTION BOX - BLUE BOX", "address": {"city": "TACOMA", "state": "WA", "street": "3049 S 36TH ST", "postcode": "98409"}}},
{"geometry": {"type": "Point", "coordinates": [-122.4523040897, 47.2338269849]}, "type": "Feature", "properties": {"collection_times": [{"days": "Mon-Sat", "time": "12:00pm"}, {"days": "Sun", "time": "Closed"}], "id": "9840900062", "name": "USPS COLLECTION BOX - BLUE BOX", "address": {"city": "TACOMA", "state": "WA", "street": "1414 CENTER ST", "postcode": "98409"}}},
{"geometry": {"type": "Point", "coordinates": [-122.4855878232, 47.2312445855]}, "type": "Feature", "properties": {"collection_times": [{"days": "Mon-Fri", "time": "10:30am"}, {"days": "Sat", "time": "11:45am"}, {"days": "Sun", "time": "Closed"}], "id": "9840900065", "name": "USPS COLLECTION BOX - BLUE BOX", "address": {"city": "TACOMA", "state": "WA", "street": "3720 CENTER ST", "postcode": "98409"}}},
{"geometry": {"type": "Point", "coordinates": [-122.4736009, 47.220477293]}, "type": "Feature", "properties": {"collection_times": [{"days": "Mon-Fri", "time": "6:30pm"}, {"days": "Sat", "time": "3:00pm"}, {"days": "Sun", "time": "Closed"}], "id": "9840900070", "name": "USPS COLLECTION BOX - PO LOBBY", "address": {"city": "TACOMA", "state": "WA", "street": "4001 S PINE ST", "postcode": "98409"}}},
{"geometry": {"type": "Point", "coordinates": [-122.482489268, 47.2062554361]}, "type": "Feature", "properties": {"collection_times": [{"days": "Mon-Fri", "time": "3:00pm"}, {"days": "Sat-Sun", "time": "Closed"}], "id": "9840900073", "name": "USPS COLLECTION BOX - PO LOBBY", "address": {"city": "TACOMA", "state": "WA", "street": "3503 S 56TH ST", "postcode": "98409"}}},
{"geometry": {"type": "Point", "coordinates": [-122.4676868089, 47.2178580141]}, "type": "Feature", "properties": {"collection_times": [{"days": "Mon-Fri", "time": "3:00pm"}, {"days": "Sat", "time": "4:15pm"}, {"days": "Sun", "time": "Closed"}], "id": "9840900075", "name": "USPS COLLECTION BOX - BLUE BOX", "address": {"city": "TACOMA", "state": "WA", "street": "4502 S STEELE ST", "postcode": "98409"}}},
{"geometry": {"type": "Point", "coordinates": [-122.4629199635, 47.2001197521]}, "type": "Feature", "properties": {"collection_times": [{"days": "Mon-Fri", "time": "4:15pm"}, {"days": "Sat", "time": "4:00pm"}, {"days": "Sun", "time": "Closed"}], "id": "9840900077", "name": "USPS COLLECTION BOX - BLUE BOX", "address": {"city": "TACOMA", "state": "WA", "street": "6221 TACOMA MALL BLVD", "postcode": "98409"}}},
{"geometry": {"type": "Point", "coordinates": [-122.4736009, 47.220477293]}, "type": "Feature", "properties": {"collection_times": [{"days": "Mon-Fri", "time": "6:30pm"}, {"days": "Sat", "time": "3:00pm"}, {"days": "Sun", "time": "Closed"}], "id": "9840900081", "name": "USPS COLLECTION BOX - PO LOBBY", "address": {"city": "TACOMA", "state": "WA", "street": "4001 S PINE ST", "postcode": "98409"}}},
{"geometry": {"type": "Point", "coordinates": [-122.4645475825, 47.1846491808]}, "type": "Feature", "properties": {"collection_times": [{"days": "Mon-Fri", "time": "4:15pm"}, {"days": "Sat", "time": "4:00pm"}, {"days": "Sun", "time": "Closed"}], "id": "9840900082", "name": "USPS COLLECTION BOX - BLUE BOX", "address": {"city": "TACOMA", "state": "WA", "street": "6626 TACOMA MALL BLVD", "postcode": "98409"}}},
{"geometry": {"type": "Point", "coordinates": [-122.473599544, 47.2194792717]}, "type": "Feature", "properties": {"collection_times": [{"days": "Mon-Fri", "time": "6:30pm"}, {"days": "Sat", "time": "3:00pm"}, {"days": "Sun", "time": "Closed"}], "id": "9840900083", "name": "USPS COLLECTION BOX - APC", "address": {"city": "TACOMA", "state": "WA", "street": "4001 S PINE ST", "postcode": "98409"}}},
{"geometry": {"type": "Point", "coordinates": [-122.4124714954, 47.2231081937]}, "type": "Feature", "properties": {"collection_times": [{"days": "Mon-Fri", "time": "12:15pm"}, {"days": "Sat", "time": "2:15pm"}, {"days": "Sun", "time": "Closed"}], "id": "9841800001", "name": "USPS COLLECTION BOX - BLUE BOX", "address": {"city": "TACOMA", "state": "WA", "street": "1302 S 38TH ST", "postcode": "98418"}}},
{"geometry": {"type": "Point", "coordinates": [-122.440608564, 47.2245389411]}, "type": "Feature", "properties": {"collection_times": [{"days": "Mon-Fri", "time": "5:00pm"}, {"days": "Sat", "time": "4:15pm"}, {"days": "Sun", "time": "Closed"}], "id": "9841800004", "name": "USPS COLLECTION BOX - BLUE BOX", "address": {"city": "TACOMA", "state": "WA", "street": "3705 S G ST", "postcode": "98418"}}},
{"geometry": {"type": "Point", "coordinates": [-122.4405687529, 47.2242169736]}, "type": "Feature", "properties": {"collection_times": [{"days": "Mon-Fri", "time": "5:00pm"}, {"days": "Sat", "time": "2:30pm"}, {"days": "Sun", "time": "Closed"}], "id": "9841800005", "name": "USPS COLLECTION BOX - PO LOBBY", "address": {"city": "TACOMA", "state": "WA", "street": "3705 S G ST", "postcode": "98418"}}},
{"geometry": {"type": "Point", "coordinates": [-122.4341396533, 47.2298498083]}, "type": "Feature", "properties": {"collection_times": [{"days": "Mon-Fri", "time": "2:45pm"}, {"days": "Sat", "time": "2:00pm"}, {"days": "Sun", "time": "Closed"}], "id": "9841800006", "name": "USPS COLLECTION BOX - BLUE BOX", "address": {"city": "TACOMA", "state": "WA", "street": "3402 PACIFIC AVE", "postcode": "98418"}}},
{"geometry": {"type": "Point", "coordinates": [-122.4341168861, 47.2246176296]}, "type": "Feature", "properties": {"collection_times": [{"days": "Mon-Fri", "time": "5:00pm"}, {"days": "Sat", "time": "2:00pm"}, {"days": "Sun", "time": "Closed"}], "id": "9841800007", "name": "USPS COLLECTION BOX - BLUE BOX", "address": {"city": "TACOMA", "state": "WA", "street": "3702 PACIFIC AVE", "postcode": "98418"}}},
{"geometry": {"type": "Point", "coordinates": [-122.4339260255, 47.219630176]}, "type": "Feature", "properties": {"collection_times": [{"days": "Mon-Fri", "time": "2:30pm"}, {"days": "Sat", "time": "11:15am"}, {"days": "Sun", "time": "Closed"}], "id": "9841800008", "name": "USPS COLLECTION BOX - BLUE BOX", "address": {"city": "TACOMA", "state": "WA", "street": "4001 PACIFIC AVE", "postcode": "98418"}}},
{"geometry": {"type": "Point", "coordinates": [-122.433989519, 47.2164753428]}, "type": "Feature", "properties": {"collection_times": [{"days": "Mon-Fri", "time": "5:00pm"}, {"days": "Sat", "time": "1:45pm"}, {"days": "Sun", "time": "Closed"}], "id": "9841800009", "name": "USPS COLLECTION BOX - BLUE BOX", "address": {"city": "TACOMA", "state": "WA", "street": "4502 PACIFIC AVE", "postcode": "98418"}}},
{"geometry": {"type": "Point", "coordinates": [-122.4433283171, 47.2227464691]}, "type": "Feature", "properties": {"collection_times": [{"days": "Mon-Sat", "time": "12:00pm"}, {"days": "Sun", "time": "Closed"}], "id": "9841800010", "name": "USPS COLLECTION BOX - BLUE BOX", "address": {"city": "TACOMA", "state": "WA", "street": "3808 YAKIMA AVE", "postcode": "98418"}}},
{"geometry": {"type": "Point", "coordinates": [-122.4322280931, 47.2230975471]}, "type": "Feature", "properties": {"collection_times": [{"days": "Mon-Fri", "time": "12:15pm"}, {"days": "Sat", "time": "1:45pm"}, {"days": "Sun", "time": "Closed"}], "id": "9841800012", "name": "USPS COLLECTION BOX - BLUE BOX", "address": {"city": "TACOMA", "state": "WA", "street": "111 S 38TH ST", "postcode": "98418"}}},
{"geometry": {"type": "Point", "coordinates": [-122.4071427952, 47.2688928021]}, "type": "Feature", "properties": {"collection_times": [{"days": "Mon-Fri", "time": "3:45pm"}, {"days": "Sat", "time": "2:30pm"}, {"days": "Sun", "time": "Closed"}], "id": "9842100001", "name": "USPS COLLECTION BOX - BLUE BOX", "address": {"city": "TACOMA", "state": "WA", "street": "1 SITCUM WAY", "postcode": "98421"}}},
{"geometry": {"type": "Point", "coordinates": [-122.4059048902, 47.268965598]}, "type": "Feature", "properties": {"collection_times": [{"days": "Mon-Fri", "time": "4:00pm"}, {"days": "Sat", "time": "2:30pm"}, {"days": "Sun", "time": "Closed"}], "id": "9842100007", "name": "USPS COLLECTION BOX - BLUE BOX", "address": {"city": "TACOMA", "state": "WA", "street": "2504 E 11TH ST", "postcode": "98421"}}},
{"geometry": {"type": "Point", "coordinates": [-122.4044238256, 47.2547263209]}, "type": "Feature", "properties": {"collection_times": [{"days": "Mon-Sat", "time": "9:50am"}, {"days": "Sun", "time": "Closed"}], "id": "9842100008", "name": "USPS COLLECTION BOX - BLUE BOX", "address": {"city": "TACOMA", "state": "WA", "street": "1928 MILWAUKEE WAY", "postcode": "98421"}}},
{"geometry": {"type": "Point", "coordinates": [-122.4276193491, 47.2398881675]}, "type": "Feature", "properties": {"collection_times": [{"days": "Mon-Fri", "time": "2:00pm"}, {"days": "Sat", "time": "2:15pm"}, {"days": "Sun", "time": "Closed"}], "id": "9842100010", "name": "USPS COLLECTION BOX - BLUE BOX", "address": {"city": "TACOMA", "state": "WA", "street": "431 E 25TH ST", "postcode": "98421"}}},
{"geometry": {"type": "Point", "coordinates": [-122.4264304112, 47.2409330194]}, "type": "Feature", "properties": {"collection_times": [{"days": "Mon-Sat", "time": "2:15pm"}, {"days": "Sun", "time": "Closed"}], "id": "9842100012", "name": "USPS COLLECTION BOX - BLUE BOX", "address": {"city": "TACOMA", "state": "WA", "street": "610 PUYALLUP AVE", "postcode": "98421"}}},
{"geometry": {"type": "Point", "coordinates": [-122.3820634857, 47.2937345692]}, "type": "Feature", "properties": {"collection_times": [{"days": "Mon-Fri", "time": "4:45pm"}, {"days": "Sat", "time": "3:30pm"}, {"days": "Sun", "time": "Closed"}], "id": "9842200001", "name": "USPS COLLECTION BOX - BLUE BOX", "address": {"city": "TACOMA", "state": "WA", "street": "4101 49TH AVE NE", "postcode": "98422"}}},
{"geometry": {"type": "Point", "coordinates": [-122.4346281386, 47.3006902412]}, "type": "Feature", "properties": {"collection_times": [{"days": "Mon-Fri", "time": "4:15pm"}, {"days": "Sat", "time": "3:15pm"}, {"days": "Sun", "time": "Closed"}], "id": "9842200002", "name": "USPS COLLECTION BOX - BLUE BOX", "address": {"city": "TACOMA", "state": "WA", "street": "6622 E SIDE DR NE", "postcode": "98422"}}},
{"geometry": {"type": "Point", "coordinates": [-122.3820634857, 47.2937345692]}, "type": "Feature", "properties": {"collection_times": [{"days": "Mon-Fri", "time": "4:45pm"}, {"days": "Sat", "time": "3:30pm"}, {"days": "Sun", "time": "Closed"}], "id": "9842200003", "name": "USPS COLLECTION BOX - BLUE BOX", "address": {"city": "TACOMA", "state": "WA", "street": "4101 49TH AVE NE", "postcode": "98422"}}},
{"geometry": {"type": "Point", "coordinates": [-122.3739922062, 47.2389787712]}, "type": "Feature", "properties": {"collection_times": [{"days": "Mon-Sat", "time": "9:30am"}, {"days": "Sun", "time": "Closed"}], "id": "9842400004", "name": "USPS COLLECTION BOX - BLUE BOX", "address": {"city": "FIFE", "state": "WA", "street": "4011 20TH ST E", "postcode": "98424"}}},
{"geometry": {"type": "Point", "coordinates": [-122.3668069295, 47.2425216468]}, "type": "Feature", "properties": {"collection_times": [{"days": "Mon-Fri", "time": "1:00pm"}, {"days": "Sat", "time": "2:45pm"}, {"days": "Sun", "time": "Closed"}], "id": "9842400007", "name": "USPS COLLECTION BOX - BLUE BOX", "address": {"city": "FIFE", "state": "WA", "street": "4624 16TH ST E", "postcode": "98424"}}},
{"geometry": {"type": "Point", "coordinates": [-122.3855413877, 47.2447612302]}, "type": "Feature", "properties": {"collection_times": [{"days": "Mon-Sat", "time": "11:15am"}, {"days": "Sun", "time": "Closed"}], "id": "9842400008", "name": "USPS COLLECTION BOX - BLUE BOX", "address": {"city": "FIFE", "state": "WA", "street": "1501 33RD AVE E", "postcode": "98424"}}},
{"geometry": {"type": "Point", "coordinates": [-122.379237738, 47.2430730143]}, "type": "Feature", "properties": {"collection_times": [{"days": "Mon-Fri", "time": "4:00pm"}, {"days": "Sat", "time": "2:45pm"}, {"days": "Sun", "time": "Closed"}], "id": "9842400011", "name": "USPS COLLECTION BOX - BLUE BOX", "address": {"city": "FIFE", "state": "WA", "street": "3700 PACIFIC HWY E", "postcode": "98424"}}},
{"geometry": {"type": "Point", "coordinates": [-122.3856005826, 47.245816274]}, "type": "Feature", "properties": {"collection_times": [{"days": "Mon-Sat", "time": "12:00pm"}, {"days": "Sun", "time": "Closed"}], "id": "9842400013", "name": "USPS COLLECTION BOX - BLUE BOX", "address": {"city": "FIFE", "state": "WA", "street": "3600 PORT OF TACOMA RD", "postcode": "98424"}}},
{"geometry": {"type": "Point", "coordinates": [-122.362992413, 47.2431246187]}, "type": "Feature", "properties": {"collection_times": [{"days": "Mon-Fri", "time": "5:00pm"}, {"days": "Sat", "time": "4:00pm"}, {"days": "Sun", "time": "Closed"}], "id": "9842400018", "name": "USPS COLLECTION BOX - BLUE BOX", "address": {"city": "FIFE", "state": "WA", "street": "5005 PACIFIC HWY E", "postcode": "98424"}}},
{"geometry": {"type": "Point", "coordinates": [-122.3581957761, 47.2431050572]}, "type": "Feature", "properties": {"collection_times": [{"days": "Mon-Fri", "time": "5:15pm"}, {"days": "Sat", "time": "3:45pm"}, {"days": "Sun", "time": "Closed"}], "id": "9842400021", "name": "USPS COLLECTION BOX - BLUE BOX", "address": {"city": "FIFE", "state": "WA", "street": "5303 PACIFIC HWY E", "postcode": "98424"}}},
{"geometry": {"type": "Point", "coordinates": [-122.3581957761, 47.2431050572]}, "type": "Feature", "properties": {"collection_times": [{"days": "Mon-Fri", "time": "5:15pm"}, {"days": "Sat", "time": "3:45pm"}, {"days": "Sun", "time": "Closed"}], "id": "9842400022", "name": "USPS COLLECTION BOX - BLUE BOX", "address": {"city": "FIFE", "state": "WA", "street": "5303 PACIFIC HWY E", "postcode": "98424"}}},
{"geometry": {"type": "Point", "coordinates": [-122.3569478829, 47.2368643643]}, "type": "Feature", "properties": {"collection_times": [{"days": "Mon-Fri", "time": "2:30pm"}, {"days": "Sat", "time": "12:00pm"}, {"days": "Sun", "time": "Closed"}], "id": "9842400024", "name": "USPS COLLECTION BOX - BLUE BOX", "address": {"city": "FIFE", "state": "WA", "street": "5411 23RD ST E", "postcode": "98424"}}},
{"geometry": {"type": "Point", "coordinates": [-122.3593100763, 47.2438025544]}, "type": "Feature", "properties": {"collection_times": [{"days": "Mon-Fri", "time": "5:00pm"}, {"days": "Sat", "time": "3:45pm"}, {"days": "Sun", "time": "Closed"}], "id": "9842400026", "name": "USPS COLLECTION BOX - BLUE BOX", "address": {"city": "FIFE", "state": "WA", "street": "1421 52ND AVE E", "postcode": "98424"}}},
{"geometry": {"type": "Point", "coordinates": [-122.5900883451, 47.1149444727]}, "type": "Feature", "properties": {"collection_times": [{"days": "Mon-Fri", "time": "12:30pm"}, {"days": "Sat", "time": "11:30am"}, {"days": "Sun", "time": "Closed"}], "id": "9843300001", "name": "USPS COLLECTION BOX - BLUE BOX", "address": {"city": "FT LEWIS", "state": "WA", "street": "08197 AMERICAN LAKE AVE", "postcode": "98433"}}},
{"geometry": {"type": "Point", "coordinates": [-122.5766946051, 47.0632768818]}, "type": "Feature", "properties": {"collection_times": [{"days": "Mon-Fri", "time": "1:00pm"}, {"days": "Sat", "time": "12:00pm"}, {"days": "Sun", "time": "Closed"}], "id": "9843300009", "name": "USPS COLLECTION BOX - BLUE BOX", "address": {"city": "FT LEWIS", "state": "WA", "street": "2026 S DIVISION ST", "postcode": "98433"}}},
{"geometry": {"type": "Point", "coordinates": [-122.5766946051, 47.0632768818]}, "type": "Feature", "properties": {"collection_times": [{"days": "Mon-Fri", "time": "1:30pm"}, {"days": "Sat", "time": "12:30pm"}, {"days": "Sun", "time": "Closed"}], "id": "9843300010", "name": "USPS COLLECTION BOX - BLUE BOX", "address": {"city": "FT LEWIS", "state": "WA", "street": "6038 41ST DIVISION DR S", "postcode": "98433"}}},
{"geometry": {"type": "Point", "coordinates": [-122.5766946051, 47.0632768818]}, "type": "Feature", "properties": {"collection_times": [{"days": "Mon-Fri", "time": "1:00pm"}, {"days": "Sat", "time": "12:00pm"}, {"days": "Sun", "time": "Closed"}], "id": "9843300012", "name": "USPS COLLECTION BOX - BLUE BOX", "address": {"city": "FT LEWIS", "state": "WA", "street": "2310 PENDLETON AVE", "postcode": "98433"}}},
{"geometry": {"type": "Point", "coordinates": [-122.5766946051, 47.0632768818]}, "type": "Feature", "properties": {"collection_times": [{"days": "Mon-Fri", "time": "12:30pm"}, {"days": "Sat", "time": "11:30am"}, {"days": "Sun", "time": "Closed"}], "id": "9843300018", "name": "USPS COLLECTION BOX - BLUE BOX", "address": {"city": "FT LEWIS", "state": "WA", "street": "11566 A ST", "postcode": "98433"}}},
{"geometry": {"type": "Point", "coordinates": [-122.5766946051, 47.0632768818]}, "type": "Feature", "properties": {"collection_times": [{"days": "Mon-Fri", "time": "5:00pm"}, {"days": "Sat", "time": "4:15pm"}, {"days": "Sun", "time": "Closed"}], "id": "9843300024", "name": "USPS COLLECTION BOX - BLUE BOX", "address": {"city": "FT LEWIS", "state": "WA", "street": "4170 KAUFMAN AVE", "postcode": "98433"}}},
{"geometry": {"type": "Point", "coordinates": [-122.5766946051, 47.0632768818]}, "type": "Feature", "properties": {"collection_times": [{"days": "Mon-Fri", "time": "1:30pm"}, {"days": "Sat", "time": "12:30pm"}, {"days": "Sun", "time": "Closed"}], "id": "9843300026", "name": "USPS COLLECTION BOX - BLUE BOX", "address": {"city": "FT LEWIS", "state": "WA", "street": "9040 BEAUMONT AVE", "postcode": "98433"}}},
{"geometry": {"type": "Point", "coordinates": [-122.5766946051, 47.0632768818]}, "type": "Feature", "properties": {"collection_times": [{"days": "Mon-Fri", "time": "5:00pm"}, {"days": "Sat", "time": "4:15pm"}, {"days": "Sun", "time": "Closed"}], "id": "9843300027", "name": "USPS COLLECTION BOX - BLUE BOX", "address": {"city": "FT LEWIS", "state": "WA", "street": "4170 KAUFMAN AVE", "postcode": "98433"}}},
{"geometry": {"type": "Point", "coordinates": [-122.5766946051, 47.0632768818]}, "type": "Feature", "properties": {"collection_times": [{"days": "Mon-Fri", "time": "1:30pm"}, {"days": "Sat", "time": "12:30pm"}, {"days": "Sun", "time": "Closed"}], "id": "9843300028", "name": "USPS COLLECTION BOX - BLUE BOX", "address": {"city": "FT LEWIS", "state": "WA", "street": "6242 COLORADO AVE", "postcode": "98433"}}},
{"geometry": {"type": "Point", "coordinates": [-122.5766946051, 47.0632768818]}, "type": "Feature", "properties": {"collection_times": [{"days": "Mon-Fri", "time": "1:15pm"}, {"days": "Sat", "time": "12:15pm"}, {"days": "Sun", "time": "Closed"}], "id": "9843300029", "name": "USPS COLLECTION BOX - BLUE BOX", "address": {"city": "FT LEWIS", "state": "WA", "street": "1401 41ST DIVISION DR", "postcode": "98433"}}},
{"geometry": {"type": "Point", "coordinates": [-122.5766946051, 47.0632768818]}, "type": "Feature", "properties": {"collection_times": [{"days": "Mon-Fri", "time": "12:45pm"}, {"days": "Sat", "time": "11:45am"}, {"days": "Sun", "time": "Closed"}], "id": "9843300030", "name": "USPS COLLECTION BOX - BLUE BOX", "address": {"city": "FT LEWIS", "state": "WA", "street": "12430 19TH ST", "postcode": "98433"}}},
{"geometry": {"type": "Point", "coordinates": [-122.5886785376, 47.0997763981]}, "type": "Feature", "properties": {"collection_times": [{"days": "Mon-Fri", "time": "1:45pm"}, {"days": "Sat", "time": "12:45pm"}, {"days": "Sun", "time": "Closed"}], "id": "9843300031", "name": "USPS COLLECTION BOX - BLUE BOX", "address": {"city": "FT LEWIS", "state": "WA", "street": "9570 RAINIER", "postcode": "98433"}}},
{"geometry": {"type": "Point", "coordinates": [-122.5766946051, 47.0632768818]}, "type": "Feature", "properties": {"collection_times": [{"days": "Mon-Fri", "time": "5:00pm"}, {"days": "Sat", "time": "3:00pm"}, {"days": "Sun", "time": "Closed"}], "id": "9843300032", "name": "USPS COLLECTION BOX - PO LOBBY", "address": {"city": "FT LEWIS", "state": "WA", "street": "4170 KAUFMAN AVE", "postcode": "98433"}}},
{"geometry": {"type": "Point", "coordinates": [-122.5766946051, 47.0632768818]}, "type": "Feature", "properties": {"collection_times": [{"days": "Mon-Fri", "time": "4:30pm"}, {"days": "Sat-Sun", "time": "Closed"}], "id": "9843300035", "name": "USPS COLLECTION BOX - PO LOBBY", "address": {"city": "FT LEWIS", "state": "WA", "street": "9040A FITZSIMMONS ST", "postcode": "98433"}}},
{"geometry": {"type": "Point", "coordinates": [-122.5766946051, 47.0632768818]}, "type": "Feature", "properties": {"collection_times": [{"days": "Mon-Fri", "time": "5:00pm"}, {"days": "Sat", "time": "3:00pm"}, {"days": "Sun", "time": "Closed"}], "id": "9843300036", "name": "USPS COLLECTION BOX - APC", "address": {"city": "FT LEWIS", "state": "WA", "street": "4170 KAUFMAN AVE", "postcode": "98433"}}},
{"geometry": {"type": "Point", "coordinates": [-122.5886785376, 47.0997763981]}, "type": "Feature", "properties": {"collection_times": [{"days": "Mon-Sat", "time": "12:00pm"}, {"days": "Sun", "time": "Closed"}], "id": "9843300037", "name": "USPS COLLECTION BOX - BLUE BOX", "address": {"city": "FT LEWIS", "state": "WA", "street": "12324 22ND ST", "postcode": "98433"}}},
{"geometry": {"type": "Point", "coordinates": [-122.4873109728, 47.1265941742]}, "type": "Feature", "properties": {"collection_times": [{"days": "Mon-Fri", "time": "2:15pm"}, {"days": "Sat", "time": "1:00pm"}, {"days": "Sun", "time": "Closed"}], "id": "9843800000", "name": "USPS COLLECTION BOX - BLUE BOX", "address": {"city": "LEWIS MCCHORD", "state": "WA", "street": "565 OUTER DR", "postcode": "98438"}}},
{"geometry": {"type": "Point", "coordinates": [-122.4939605083, 47.1228210975]}, "type": "Feature", "properties": {"collection_times": [{"days": "Mon-Fri", "time": "2:15pm"}, {"days": "Sat", "time": "1:00pm"}, {"days": "Sun", "time": "Closed"}], "id": "9843800002", "name": "USPS COLLECTION BOX - BLUE BOX", "address": {"city": "LEWIS MCCHORD", "state": "WA", "street": "500 A ST", "postcode": "98438"}}},
{"geometry": {"type": "Point", "coordinates": [-122.4827489158, 47.1326279654]}, "type": "Feature", "properties": {"collection_times": [{"days": "Mon-Fri", "time": "4:30pm"}, {"days": "Sat", "time": "1:15pm"}, {"days": "Sun", "time": "Closed"}], "id": "9843800003", "name": "USPS COLLECTION BOX - BLUE BOX", "address": {"city": "LEWIS MCCHORD", "state": "WA", "street": "735 5TH ST", "postcode": "98438"}}},
{"geometry": {"type": "Point", "coordinates": [-122.4890692865, 47.1341975317]}, "type": "Feature", "properties": {"collection_times": [{"days": "Mon-Fri", "time": "2:30pm"}, {"days": "Sat", "time": "1:15pm"}, {"days": "Sun", "time": "Closed"}], "id": "9843800004", "name": "USPS COLLECTION BOX - BLUE BOX", "address": {"city": "LEWIS MCCHORD", "state": "WA", "street": "1188 BARNES BLVD", "postcode": "98438"}}},
{"geometry": {"type": "Point", "coordinates": [-122.4827489158, 47.1326279654]}, "type": "Feature", "properties": {"collection_times": [{"days": "Mon-Fri", "time": "4:30pm"}, {"days": "Sat-Sun", "time": "Closed"}], "id": "9843800005", "name": "USPS COLLECTION BOX - PO LOBBY", "address": {"city": "LEWIS MCCHORD", "state": "WA", "street": "735 5TH ST", "postcode": "98438"}}},
{"geometry": {"type": "Point", "coordinates": [-122.5284326449, 47.132690328]}, "type": "Feature", "properties": {"collection_times": [{"days": "Mon-Fri", "time": "1:30pm"}, {"days": "Sat", "time": "12:45pm"}, {"days": "Sun", "time": "Closed"}], "id": "9843900002", "name": "USPS COLLECTION BOX - BLUE BOX", "address": {"city": "MCCHORD AFB", "state": "WA", "street": "4370 BIRCH ST SW", "postcode": "98439"}}},
{"geometry": {"type": "Point", "coordinates": [-122.5214196001, 47.1305891108]}, "type": "Feature", "properties": {"collection_times": [{"days": "Mon-Sat", "time": "10:30am"}, {"days": "Sun", "time": "Closed"}], "id": "9843900004", "name": "USPS COLLECTION BOX - BLUE BOX", "address": {"city": "MCCHORD AFB", "state": "WA", "street": "3101A DOGWOOD ST SW", "postcode": "98439"}}},
{"geometry": {"type": "Point", "coordinates": [-122.4631388109, 47.1745489112]}, "type": "Feature", "properties": {"collection_times": [{"days": "Mon-Sat", "time": "10:00am"}, {"days": "Sun", "time": "Closed"}], "id": "9844400001", "name": "USPS COLLECTION BOX - BLUE BOX", "address": {"city": "TACOMA", "state": "WA", "street": "9020 S HOSMER ST", "postcode": "98444"}}},
{"geometry": {"type": "Point", "coordinates": [-122.4314672579, 47.1597393951]}, "type": "Feature", "properties": {"collection_times": [{"days": "Mon-Sat", "time": "11:00am"}, {"days": "Sun", "time": "Closed"}], "id": "9844400003", "name": "USPS COLLECTION BOX - BLUE BOX", "address": {"city": "TACOMA", "state": "WA", "street": "10801 A ST S", "postcode": "98444"}}},
{"geometry": {"type": "Point", "coordinates": [-122.439477818, 47.1553533158]}, "type": "Feature", "properties": {"collection_times": [{"days": "Mon-Fri", "time": "12:30pm"}, {"days": "Sat", "time": "11:30am"}, {"days": "Sun", "time": "Closed"}], "id": "9844400004", "name": "USPS COLLECTION BOX - BLUE BOX", "address": {"city": "TACOMA", "state": "WA", "street": "11205 PARK AVE S", "postcode": "98444"}}},
{"geometry": {"type": "Point", "coordinates": [-122.4342414893, 47.1548183386]}, "type": "Feature", "properties": {"collection_times": [{"days": "Mon-Fri", "time": "1:15pm"}, {"days": "Sat", "time": "12:00pm"}, {"days": "Sun", "time": "Closed"}], "id": "9844400007", "name": "USPS COLLECTION BOX - BLUE BOX", "address": {"city": "TACOMA", "state": "WA", "street": "11205 PACIFIC AVE S", "postcode": "98444"}}},
{"geometry": {"type": "Point", "coordinates": [-122.4595426156, 47.1810540025]}, "type": "Feature", "properties": {"collection_times": [{"days": "Mon-Sat", "time": "10:15am"}, {"days": "Sun", "time": "Closed"}], "id": "9844400022", "name": "USPS COLLECTION BOX - BLUE BOX", "address": {"city": "TACOMA", "state": "WA", "street": "1717 S 84TH ST", "postcode": "98444"}}},
{"geometry": {"type": "Point", "coordinates": [-122.4653142724, 47.1705978282]}, "type": "Feature", "properties": {"collection_times": [{"days": "Mon-Fri", "time": "12:30pm"}, {"days": "Sat", "time": "2:15pm"}, {"days": "Sun", "time": "Closed"}], "id": "9844400024", "name": "USPS COLLECTION BOX - BLUE BOX", "address": {"city": "TACOMA", "state": "WA", "street": "9517 S STEELE ST", "postcode": "98444"}}},
{"geometry": {"type": "Point", "coordinates": [-122.4341895149, 47.1670666513]}, "type": "Feature", "properties": {"collection_times": [{"days": "Mon-Fri", "time": "1:30pm"}, {"days": "Sat", "time": "2:30pm"}, {"days": "Sun", "time": "Closed"}], "id": "9844400026", "name": "USPS COLLECTION BOX - BLUE BOX", "address": {"city": "TACOMA", "state": "WA", "street": "9830 PACIFIC AVE", "postcode": "98444"}}},
{"geometry": {"type": "Point", "coordinates": [-122.4367196122, 47.1461123363]}, "type": "Feature", "properties": {"collection_times": [{"days": "Mon-Fri", "time": "5:00pm"}, {"days": "Sat", "time": "3:15pm"}, {"days": "Sun", "time": "Closed"}], "id": "9844400027", "name": "USPS COLLECTION BOX - BLUE BOX", "address": {"city": "TACOMA", "state": "WA", "street": "320 GARFIELD ST S", "postcode": "98444"}}},
{"geometry": {"type": "Point", "coordinates": [-122.4640922758, 47.1717311029]}, "type": "Feature", "properties": {"collection_times": [{"days": "Mon-Sat", "time": "11:15am"}, {"days": "Sun", "time": "Closed"}], "id": "9844400031", "name": "USPS COLLECTION BOX - BLUE BOX", "address": {"city": "TACOMA", "state": "WA", "street": "9318 S STEELE ST", "postcode": "98444"}}},
{"geometry": {"type": "Point", "coordinates": [-122.4360395344, 47.1460585056]}, "type": "Feature", "properties": {"collection_times": [{"days": "Mon-Fri", "time": "6:00pm"}, {"days": "Sat", "time": "3:00pm"}, {"days": "Sun", "time": "Closed"}], "id": "9844400032", "name": "USPS COLLECTION BOX - PO LOBBY", "address": {"city": "TACOMA", "state": "WA", "street": "320 GARFIELD ST S", "postcode": "98444"}}},
{"geometry": {"type": "Point", "coordinates": [-122.4360395344, 47.1460585056]}, "type": "Feature", "properties": {"collection_times": [{"days": "Mon-Fri", "time": "6:00pm"}, {"days": "Sat", "time": "3:00pm"}, {"days": "Sun", "time": "Closed"}], "id": "9844400033", "name": "USPS COLLECTION BOX - PO LOBBY", "address": {"city": "TACOMA", "state": "WA", "street": "320 GARFIELD ST S", "postcode": "98444"}}},
{"geometry": {"type": "Point", "coordinates": [-122.4425964442, 47.1440102966]}, "type": "Feature", "properties": {"collection_times": [{"days": "Mon-Fri", "time": "12:00pm"}, {"days": "Sat", "time": "11:45am"}, {"days": "Sun", "time": "Closed"}], "id": "9844400035", "name": "USPS COLLECTION BOX - BLUE BOX", "address": {"city": "TACOMA", "state": "WA", "street": "12402 YAKIMA AVE S", "postcode": "98444"}}},
{"geometry": {"type": "Point", "coordinates": [-122.4053701928, 47.1625726346]}, "type": "Feature", "properties": {"collection_times": [{"days": "Mon-Fri", "time": "1:45pm"}, {"days": "Sat", "time": "12:30pm"}, {"days": "Sun", "time": "Closed"}], "id": "9844500003", "name": "USPS COLLECTION BOX - BLUE BOX", "address": {"city": "TACOMA", "state": "WA", "street": "10323 PORTLAND AVE E", "postcode": "98445"}}},
{"geometry": {"type": "Point", "coordinates": [-122.5264394796, 47.2466294503]}, "type": "Feature", "properties": {"collection_times": [{"days": "Mon-Fri", "time": "1:15pm"}, {"days": "Sat", "time": "12:30pm"}, {"days": "Sun", "time": "Closed"}], "id": "9846500001", "name": "USPS COLLECTION BOX - BLUE BOX", "address": {"city": "TACOMA", "state": "WA", "street": "1506 S MILDRED ST", "postcode": "98465"}}},
{"geometry": {"type": "Point", "coordinates": [-122.5266970342, 47.2499571682]}, "type": "Feature", "properties": {"collection_times": [{"days": "Mon-Fri", "time": "12:30pm"}, {"days": "Sat", "time": "12:15pm"}, {"days": "Sun", "time": "Closed"}], "id": "9846500002", "name": "USPS COLLECTION BOX - BLUE BOX", "address": {"city": "TACOMA", "state": "WA", "street": "6501 12TH ST E", "postcode": "98465"}}},
{"geometry": {"type": "Point", "coordinates": [-122.5084934576, 47.2501447209]}, "type": "Feature", "properties": {"collection_times": [{"days": "Mon-Fri", "time": "1:00pm"}, {"days": "Sat", "time": "12:00pm"}, {"days": "Sun", "time": "Closed"}], "id": "9846500003", "name": "USPS COLLECTION BOX - BLUE BOX", "address": {"city": "TACOMA", "state": "WA", "street": "5401 S 12TH ST", "postcode": "98465"}}},
{"geometry": {"type": "Point", "coordinates": [-122.5263656016, 47.2482981219]}, "type": "Feature", "properties": {"collection_times": [{"days": "Mon-Fri", "time": "1:15pm"}, {"days": "Sat", "time": "12:15pm"}, {"days": "Sun", "time": "Closed"}], "id": "9846500004", "name": "USPS COLLECTION BOX - BLUE BOX", "address": {"city": "TACOMA", "state": "WA", "street": "1414 S MILDRED ST", "postcode": "98465"}}},
{"geometry": {"type": "Point", "coordinates": [-122.5225327938, 47.2514259273]}, "type": "Feature", "properties": {"collection_times": [{"days": "Mon-Fri", "time": "1:00pm"}, {"days": "Sat", "time": "12:15pm"}, {"days": "Sun", "time": "Closed"}], "id": "9846500005", "name": "USPS COLLECTION BOX - BLUE BOX", "address": {"city": "TACOMA", "state": "WA", "street": "1036 S WHITMAN ST", "postcode": "98465"}}},
{"geometry": {"type": "Point", "coordinates": [-122.5063250938, 47.2554077053]}, "type": "Feature", "properties": {"collection_times": [{"days": "Mon-Fri", "time": "12:45pm"}, {"days": "Sat", "time": "12:00pm"}, {"days": "Sun", "time": "Closed"}], "id": "9846500007", "name": "USPS COLLECTION BOX - BLUE BOX", "address": {"city": "TACOMA", "state": "WA", "street": "5132 6TH AVE", "postcode": "98465"}}},
{"geometry": {"type": "Point", "coordinates": [-122.5277045171, 47.248582767]}, "type": "Feature", "properties": {"collection_times": [{"days": "Mon-Fri", "time": "2:00pm"}, {"days": "Sat", "time": "1:30pm"}, {"days": "Sun", "time": "Closed"}], "id": "9846500008", "name": "USPS COLLECTION BOX - BLUE BOX", "address": {"city": "TACOMA", "state": "WA", "street": "4922 BRIDGEPORT WAY W", "postcode": "98465"}}},
{"geometry": {"type": "Point", "coordinates": [-122.5195284411, 47.2388785163]}, "type": "Feature", "properties": {"collection_times": [{"days": "Mon-Fri", "time": "4:30pm"}, {"days": "Sat", "time": "4:15pm"}, {"days": "Sun", "time": "Closed"}], "id": "9846600001", "name": "USPS COLLECTION BOX - BLUE BOX", "address": {"city": "UNIVERSITY PL", "state": "WA", "street": "1115 REGENTS BLVD", "postcode": "98466"}}},
{"geometry": {"type": "Point", "coordinates": [-122.5679796735, 47.2144618798]}, "type": "Feature", "properties": {"collection_times": [{"days": "Mon-Sat", "time": "12:30pm"}, {"days": "Sun", "time": "Closed"}], "id": "9846600005", "name": "USPS COLLECTION BOX - BLUE BOX", "address": {"city": "UNIVERSITY PL", "state": "WA", "street": "4601 GRANDVIEW DR W", "postcode": "98466"}}},
{"geometry": {"type": "Point", "coordinates": [-122.5551673465, 47.2360813974]}, "type": "Feature", "properties": {"collection_times": [{"days": "Mon-Sat", "time": "12:30pm"}, {"days": "Sun", "time": "Closed"}], "id": "9846600006", "name": "USPS COLLECTION BOX - BLUE BOX", "address": {"city": "UNIVERSITY PL", "state": "WA", "street": "2602 WESTRIDGE AVE W", "postcode": "98466"}}},
{"geometry": {"type": "Point", "coordinates": [-122.5215295905, 47.2209414069]}, "type": "Feature", "properties": {"collection_times": [{"days": "Mon-Fri", "time": "2:15pm"}, {"days": "Sat", "time": "1:30pm"}, {"days": "Sun", "time": "Closed"}], "id": "9846600007", "name": "USPS COLLECTION BOX - BLUE BOX", "address": {"city": "UNIVERSITY PL", "state": "WA", "street": "1250 EMERSON ST", "postcode": "98466"}}},
{"geometry": {"type": "Point", "coordinates": [-122.5263809801, 47.2384097679]}, "type": "Feature", "properties": {"collection_times": [{"days": "Mon-Sat", "time": "1:30pm"}, {"days": "Sun", "time": "Closed"}], "id": "9846600008", "name": "USPS COLLECTION BOX - BLUE BOX", "address": {"city": "UNIVERSITY PL", "state": "WA", "street": "2310 MILDRED ST W", "postcode": "98466"}}},
{"geometry": {"type": "Point", "coordinates": [-122.5288880154, 47.24266036]}, "type": "Feature", "properties": {"collection_times": [{"days": "Mon-Fri", "time": "5:00pm"}, {"days": "Sat", "time": "3:00pm"}, {"days": "Sun", "time": "Closed"}], "id": "9846600009", "name": "USPS COLLECTION BOX - BLUE BOX", "address": {"city": "UNIVERSITY PL", "state": "WA", "street": "6824 19TH ST W", "postcode": "98466"}}},
{"geometry": {"type": "Point", "coordinates": [-122.5405435076, 47.2172444492]}, "type": "Feature", "properties": {"collection_times": [{"days": "Mon-Sat", "time": "11:00am"}, {"days": "Sun", "time": "Closed"}], "id": "9846600010", "name": "USPS COLLECTION BOX - BLUE BOX", "address": {"city": "UNIVERSITY PL", "state": "WA", "street": "7713 44TH ST W", "postcode": "98466"}}},
{"geometry": {"type": "Point", "coordinates": [-122.5207094562, 47.2427170077]}, "type": "Feature", "properties": {"collection_times": [{"days": "Mon-Fri", "time": "4:15pm"}, {"days": "Sat", "time": "4:00pm"}, {"days": "Sun", "time": "Closed"}], "id": "9846600011", "name": "USPS COLLECTION BOX - BLUE BOX", "address": {"city": "UNIVERSITY PL", "state": "WA", "street": "6314 19TH ST W", "postcode": "98466"}}},
{"geometry": {"type": "Point", "coordinates": [-122.5369560985, 47.221734226]}, "type": "Feature", "properties": {"collection_times": [{"days": "Mon-Fri", "time": "3:45pm"}, {"days": "Sat", "time": "3:30pm"}, {"days": "Sun", "time": "Closed"}], "id": "9846600013", "name": "USPS COLLECTION BOX - BLUE BOX", "address": {"city": "UNIVERSITY PL", "state": "WA", "street": "3915 BRIDGEPORT WAY W", "postcode": "98466"}}},
{"geometry": {"type": "Point", "coordinates": [-122.5479045447, 47.2352971617]}, "type": "Feature", "properties": {"collection_times": [{"days": "Mon-Sat", "time": "11:00am"}, {"days": "Sun", "time": "Closed"}], "id": "9846600017", "name": "USPS COLLECTION BOX - BLUE BOX", "address": {"city": "UNIVERSITY PL", "state": "WA", "street": "8313 27TH ST W", "postcode": "98466"}}},
{"geometry": {"type": "Point", "coordinates": [-122.5372299429, 47.223054364]}, "type": "Feature", "properties": {"collection_times": [{"days": "Mon-Fri", "time": "3:45pm"}, {"days": "Sat", "time": "3:30pm"}, {"days": "Sun", "time": "Closed"}], "id": "9846600019", "name": "USPS COLLECTION BOX - BLUE BOX", "address": {"city": "UNIVERSITY PL", "state": "WA", "street": "3830 BRIDGEPORT WAY W", "postcode": "98466"}}},
{"geometry": {"type": "Point", "coordinates": [-122.5292475969, 47.2427690867]}, "type": "Feature", "properties": {"collection_times": [{"days": "Mon-Fri", "time": "1:15pm"}, {"days": "Sat", "time": "3:00pm"}, {"days": "Sun", "time": "Closed"}], "id": "9846600024", "name": "USPS COLLECTION BOX - BLUE BOX", "address": {"city": "UNIVERSITY PL", "state": "WA", "street": "6909 S 19TH ST", "postcode": "98466"}}},
{"geometry": {"type": "Point", "coordinates": [-122.5054988202, 47.2328417262]}, "type": "Feature", "properties": {"collection_times": [{"days": "Mon-Fri", "time": "4:30pm"}, {"days": "Sat", "time": "4:15pm"}, {"days": "Sun", "time": "Closed"}], "id": "9846600025", "name": "USPS COLLECTION BOX - BLUE BOX", "address": {"city": "UNIVERSITY PL", "state": "WA", "street": "115 CORNELL ST", "postcode": "98466"}}},
{"geometry": {"type": "Point", "coordinates": [-122.528426295, 47.235576236]}, "type": "Feature", "properties": {"collection_times": [{"days": "Mon-Fri", "time": "5:00pm"}, {"days": "Sat", "time": "4:00pm"}, {"days": "Sun", "time": "Closed"}], "id": "9846600027", "name": "USPS COLLECTION BOX - BLUE BOX", "address": {"city": "UNIVERSITY PL", "state": "WA", "street": "6817 27TH ST W", "postcode": "98466"}}},
{"geometry": {"type": "Point", "coordinates": [-122.527835804, 47.2354899926]}, "type": "Feature", "properties": {"collection_times": [{"days": "Mon-Fri", "time": "5:00pm"}, {"days": "Sat", "time": "4:00pm"}, {"days": "Sun", "time": "Closed"}], "id": "9846600028", "name": "USPS COLLECTION BOX - BLUE BOX", "address": {"city": "UNIVERSITY PL", "state": "WA", "street": "6817 27TH ST W", "postcode": "98466"}}},
{"geometry": {"type": "Point", "coordinates": [-122.5370098664, 47.2239871322]}, "type": "Feature", "properties": {"collection_times": [{"days": "Mon-Fri", "time": "4:00pm"}, {"days": "Sat", "time": "3:45pm"}, {"days": "Sun", "time": "Closed"}], "id": "9846600031", "name": "USPS COLLECTION BOX - BLUE BOX", "address": {"city": "UNIVERSITY PL", "state": "WA", "street": "3715 BRIDGEPORT WAY W", "postcode": "98466"}}},
{"geometry": {"type": "Point", "coordinates": [-122.527835804, 47.2354899926]}, "type": "Feature", "properties": {"collection_times": [{"days": "Mon-Fri", "time": "6:00pm"}, {"days": "Sat", "time": "3:00pm"}, {"days": "Sun", "time": "Closed"}], "id": "9846600032", "name": "USPS COLLECTION BOX - PO LOBBY", "address": {"city": "UNIVERSITY PL", "state": "WA", "street": "6817 27TH ST W", "postcode": "98466"}}},
{"geometry": {"type": "Point", "coordinates": [-122.527835804, 47.2354899926]}, "type": "Feature", "properties": {"collection_times": [{"days": "Mon-Fri", "time": "6:00pm"}, {"days": "Sat", "time": "3:00pm"}, {"days": "Sun", "time": "Closed"}], "id": "9846600033", "name": "USPS COLLECTION BOX - APC", "address": {"city": "UNIVERSITY PL", "state": "WA", "street": "6817 27TH ST W", "postcode": "98466"}}},
{"geometry": {"type": "Point", "coordinates": [-122.527835804, 47.2354899926]}, "type": "Feature", "properties": {"collection_times": [{"days": "Mon-Fri", "time": "6:00pm"}, {"days": "Sat", "time": "3:00pm"}, {"days": "Sun", "time": "Closed"}], "id": "9846600035", "name": "USPS COLLECTION BOX - PO LOBBY", "address": {"city": "UNIVERSITY PL", "state": "WA", "street": "6817 27TH ST W", "postcode": "98466"}}},
{"geometry": {"type": "Point", "coordinates": [-122.528426295, 47.235576236]}, "type": "Feature", "properties": {"collection_times": [{"days": "Mon-Fri", "time": "5:00pm"}, {"days": "Sat", "time": "4:00pm"}, {"days": "Sun", "time": "Closed"}], "id": "9846600037", "name": "USPS COLLECTION BOX - BLUE BOX", "address": {"city": "UNIVERSITY PL", "state": "WA", "street": "6817 27TH ST W", "postcode": "98466"}}},
{"geometry": {"type": "Point", "coordinates": [-122.5088069417, 47.1913433796]}, "type": "Feature", "properties": {"collection_times": [{"days": "Mon-Fri", "time": "3:45pm"}, {"days": "Sat", "time": "1:30pm"}, {"days": "Sun", "time": "Closed"}], "id": "9846700006", "name": "USPS COLLECTION BOX - BLUE BOX", "address": {"city": "LAKEWOOD", "state": "WA", "street": "7304 LAKEWOOD DR W", "postcode": "98467"}}},
{"geometry": {"type": "Point", "coordinates": [-122.5053026498, 47.2071680175]}, "type": "Feature", "properties": {"collection_times": [{"days": "Mon-Fri", "time": "5:00pm"}, {"days": "Sat", "time": "3:15pm"}, {"days": "Sun", "time": "Closed"}], "id": "9846700008", "name": "USPS COLLECTION BOX - BLUE BOX", "address": {"city": "LAKEWOOD", "state": "WA", "street": "5510 ORCHARD ST W", "postcode": "98467"}}},
{"geometry": {"type": "Point", "coordinates": [-122.5441684982, 47.1799841407]}, "type": "Feature", "properties": {"collection_times": [{"days": "Mon-Fri", "time": "4:00pm"}, {"days": "Sat", "time": "3:45pm"}, {"days": "Sun", "time": "Closed"}], "id": "9849800000", "name": "USPS COLLECTION BOX - BLUE BOX", "address": {"city": "TACOMA", "state": "WA", "street": "8017 STEILACOOM BLVD SW", "postcode": "98498"}}},
{"geometry": {"type": "Point", "coordinates": [-122.5477831359, 47.1810707432]}, "type": "Feature", "properties": {"collection_times": [{"days": "Mon-Fri", "time": "4:00pm"}, {"days": "Sat", "time": "3:45pm"}, {"days": "Sun", "time": "Closed"}], "id": "9849800005", "name": "USPS COLLECTION BOX - BLUE BOX", "address": {"city": "TACOMA", "state": "WA", "street": "8404 83RD AVE SW", "postcode": "98498"}}},
{"geometry": {"type": "Point", "coordinates": [-122.5532564768, 47.1238287954]}, "type": "Feature", "properties": {"collection_times": [{"days": "Mon-Fri", "time": "12:15pm"}, {"days": "Sat", "time": "11:15am"}, {"days": "Sun", "time": "Closed"}], "id": "9849800007", "name": "USPS COLLECTION BOX - BLUE BOX", "address": {"city": "TACOMA", "state": "WA", "street": "14916 WASHINGTON AVE SW", "postcode": "98498"}}},
{"geometry": {"type": "Point", "coordinates": [-122.5706123281, 47.1768755746]}, "type": "Feature", "properties": {"collection_times": [{"days": "Mon-Fri", "time": "3:00pm"}, {"days": "Sat", "time": "1:45pm"}, {"days": "Sun", "time": "Closed"}], "id": "9849800008", "name": "USPS COLLECTION BOX - BLUE BOX", "address": {"city": "TACOMA", "state": "WA", "street": "9601 STEILACOOM BLVD SW", "postcode": "98498"}}},
{"geometry": {"type": "Point", "coordinates": [-122.5371357691, 47.1800771208]}, "type": "Feature", "properties": {"collection_times": [{"days": "Mon-Fri", "time": "1:30pm"}, {"days": "Sat", "time": "1:45pm"}, {"days": "Sun", "time": "Closed"}], "id": "9849800009", "name": "USPS COLLECTION BOX - BLUE BOX", "address": {"city": "TACOMA", "state": "WA", "street": "8500 PHILLIPS RD SW", "postcode": "98498"}}},
{"geometry": {"type": "Point", "coordinates": [-122.5594531122, 47.1442019858]}, "type": "Feature", "properties": {"collection_times": [{"days": "Mon-Sat", "time": "10:00am"}, {"days": "Sun", "time": "Closed"}], "id": "9849800010", "name": "USPS COLLECTION BOX - BLUE BOX", "address": {"city": "TACOMA", "state": "WA", "street": "9126 VETERANS DR SW", "postcode": "98498"}}},
{"geometry": {"type": "Point", "coordinates": [-122.564342074, 47.1422693166]}, "type": "Feature", "properties": {"collection_times": [{"days": "Mon-Fri", "time": "1:00pm"}, {"days": "Sat-Sun", "time": "Closed"}], "id": "9849800011", "name": "USPS COLLECTION BOX - BLUE BOX", "address": {"city": "TACOMA", "state": "WA", "street": "9600 VETERANS DR SW", "postcode": "98498"}}},
{"geometry": {"type": "Point", "coordinates": [-122.5045905145, 47.1557370737]}, "type": "Feature", "properties": {"collection_times": [{"days": "Mon-Sat", "time": "10:30am"}, {"days": "Sun", "time": "Closed"}], "id": "9849900013", "name": "USPS COLLECTION BOX - BLUE BOX", "address": {"city": "TACOMA", "state": "WA", "street": "11202 BRIDGEPORT WAY SW", "postcode": "98499"}}},
{"geometry": {"type": "Point", "coordinates": [-122.5044938733, 47.1542895559]}, "type": "Feature", "properties": {"collection_times": [{"days": "Mon-Fri", "time": "2:30pm"}, {"days": "Sat", "time": "12:15pm"}, {"days": "Sun", "time": "Closed"}], "id": "9849900016", "name": "USPS COLLECTION BOX - BLUE BOX", "address": {"city": "TACOMA", "state": "WA", "street": "11315 BRIDGEPORT WAY SW", "postcode": "98499"}}},
{"geometry": {"type": "Point", "coordinates": [-122.5022356047, 47.1397699176]}, "type": "Feature", "properties": {"collection_times": [{"days": "Mon-Sat", "time": "10:30am"}, {"days": "Sun", "time": "Closed"}], "id": "9849900017", "name": "USPS COLLECTION BOX - BLUE BOX", "address": {"city": "TACOMA", "state": "WA", "street": "12928 BRIDGEPORT WAY SW", "postcode": "98499"}}},
{"geometry": {"type": "Point", "coordinates": [-122.5195018485, 47.1704878304]}, "type": "Feature", "properties": {"collection_times": [{"days": "Mon-Fri", "time": "1:15pm"}, {"days": "Sat", "time": "12:45pm"}, {"days": "Sun", "time": "Closed"}], "id": "9849900018", "name": "USPS COLLECTION BOX - BLUE BOX", "address": {"city": "TACOMA", "state": "WA", "street": "9533 GRAVELLY LAKE DR SW", "postcode": "98499"}}},
{"geometry": {"type": "Point", "coordinates": [-122.5214052178, 47.1558901105]}, "type": "Feature", "properties": {"collection_times": [{"days": "Mon-Sat", "time": "10:15am"}, {"days": "Sun", "time": "Closed"}], "id": "9849900020", "name": "USPS COLLECTION BOX - BLUE BOX", "address": {"city": "TACOMA", "state": "WA", "street": "11120 GRAVELLY LAKE DR SW", "postcode": "98499"}}},
{"geometry": {"type": "Point", "coordinates": [-122.4835235598, 47.1656223028]}, "type": "Feature", "properties": {"collection_times": [{"days": "Mon-Fri", "time": "2:15pm"}, {"days": "Sat", "time": "12:00pm"}, {"days": "Sun", "time": "Closed"}], "id": "9849900026", "name": "USPS COLLECTION BOX - BLUE BOX", "address": {"city": "TACOMA", "state": "WA", "street": "10107 SOUTH TACOMA WAY", "postcode": "98499"}}},
{"geometry": {"type": "Point", "coordinates": [-122.4967652435, 47.1764765468]}, "type": "Feature", "properties": {"collection_times": [{"days": "Mon-Sat", "time": "10:00am"}, {"days": "Sun", "time": "Closed"}], "id": "9849900027", "name": "USPS COLLECTION BOX - BLUE BOX", "address": {"city": "TACOMA", "state": "WA", "street": "4500 STEILACOOM BLVD SW", "postcode": "98499"}}},
{"geometry": {"type": "Point", "coordinates": [-122.4837891721, 47.1836513731]}, "type": "Feature", "properties": {"collection_times": [{"days": "Mon-Fri", "time": "12:00pm"}, {"days": "Sat", "time": "11:30am"}, {"days": "Sun", "time": "Closed"}], "id": "9849900033", "name": "USPS COLLECTION BOX - BLUE BOX", "address": {"city": "TACOMA", "state": "WA", "street": "8012 SOUTH TACOMA WAY", "postcode": "98499"}}},
{"geometry": {"type": "Point", "coordinates": [-122.4837164949, 47.177566427]}, "type": "Feature", "properties": {"collection_times": [{"days": "Mon-Fri", "time": "12:30pm"}, {"days": "Sat", "time": "11:45am"}, {"days": "Sun", "time": "Closed"}], "id": "9849900034", "name": "USPS COLLECTION BOX - BLUE BOX", "address": {"city": "TACOMA", "state": "WA", "street": "8797 SOUTH TACOMA WAY", "postcode": "98499"}}},
{"geometry": {"type": "Point", "coordinates": [-122.4850315781, 47.1660394822]}, "type": "Feature", "properties": {"collection_times": [{"days": "Mon-Fri", "time": "2:00pm"}, {"days": "Sat", "time": "12:00pm"}, {"days": "Sun", "time": "Closed"}], "id": "9849900035", "name": "USPS COLLECTION BOX - BLUE BOX", "address": {"city": "TACOMA", "state": "WA", "street": "10116 36TH AVENUE CT SW", "postcode": "98499"}}},
{"geometry": {"type": "Point", "coordinates": [-122.53924211, 47.1484611171]}, "type": "Feature", "properties": {"collection_times": [{"days": "Mon-Fri", "time": "4:30pm"}, {"days": "Sat", "time": "2:30pm"}, {"days": "Sun", "time": "Closed"}], "id": "9849900039", "name": "USPS COLLECTION BOX - BLUE BOX", "address": {"city": "TACOMA", "state": "WA", "street": "11900 GRAVELLY LAKE DR SW", "postcode": "98499"}}},
{"geometry": {"type": "Point", "coordinates": [-122.53924211, 47.1484611171]}, "type": "Feature", "properties": {"collection_times": [{"days": "Mon-Fri", "time": "4:30pm"}, {"days": "Sat", "time": "2:30pm"}, {"days": "Sun", "time": "Closed"}], "id": "9849900040", "name": "USPS COLLECTION BOX - BLUE BOX", "address": {"city": "TACOMA", "state": "WA", "street": "11900 GRAVELLY LAKE DR SW", "postcode": "98499"}}},
{"geometry": {"type": "Point", "coordinates": [-122.4988933401, 47.1665751319]}, "type": "Feature", "properties": {"collection_times": [{"days": "Mon-Fri", "time": "4:30pm"}, {"days": "Sat", "time": "3:15pm"}, {"days": "Sun", "time": "Closed"}], "id": "9849900043", "name": "USPS COLLECTION BOX - BLUE BOX", "address": {"city": "TACOMA", "state": "WA", "street": "4700 100TH ST SW", "postcode": "98499"}}},
{"geometry": {"type": "Point", "coordinates": [-122.5091058908, 47.1666639585]}, "type": "Feature", "properties": {"collection_times": [{"days": "Mon-Fri", "time": "5:00pm"}, {"days": "Sat", "time": "4:00pm"}, {"days": "Sun", "time": "Closed"}], "id": "9849900053", "name": "USPS COLLECTION BOX - BLUE BOX", "address": {"city": "TACOMA", "state": "WA", "street": "5409 100TH ST SW", "postcode": "98499"}}},
{"geometry": {"type": "Point", "coordinates": [-122.5195297816, 47.171289848]}, "type": "Feature", "properties": {"collection_times": [{"days": "Mon-Fri", "time": "4:00pm"}, {"days": "Sat", "time": "3:00pm"}, {"days": "Sun", "time": "Closed"}], "id": "9849900059", "name": "USPS COLLECTION BOX - BLUE BOX", "address": {"city": "TACOMA", "state": "WA", "street": "6132 MOTOR AVE SW", "postcode": "98499"}}},
{"geometry": {"type": "Point", "coordinates": [-122.520556002, 47.1639938777]}, "type": "Feature", "properties": {"collection_times": [{"days": "Mon-Fri", "time": "4:15pm"}, {"days": "Sat", "time": "2:45pm"}, {"days": "Sun", "time": "Closed"}], "id": "9849900064", "name": "USPS COLLECTION BOX - BLUE BOX", "address": {"city": "TACOMA", "state": "WA", "street": "10225 GRAVELLY LAKE DR SW", "postcode": "98499"}}},
{"geometry": {"type": "Point", "coordinates": [-122.520556002, 47.1639938777]}, "type": "Feature", "properties": {"collection_times": [{"days": "Mon-Fri", "time": "4:15pm"}, {"days": "Sat", "time": "2:45pm"}, {"days": "Sun", "time": "Closed"}], "id": "9849900065", "name": "USPS COLLECTION BOX - BLUE BOX", "address": {"city": "TACOMA", "state": "WA", "street": "10225 GRAVELLY LAKE DR SW", "postcode": "98499"}}},
{"geometry": {"type": "Point", "coordinates": [-122.520556002, 47.1639938777]}, "type": "Feature", "properties": {"collection_times": [{"days": "Mon-Fri", "time": "4:15pm"}, {"days": "Sat", "time": "2:45pm"}, {"days": "Sun", "time": "Closed"}], "id": "9849900066", "name": "USPS COLLECTION BOX - BLUE BOX", "address": {"city": "TACOMA", "state": "WA", "street": "10225 GRAVELLY LAKE DR SW", "postcode": "98499"}}},
{"geometry": {"type": "Point", "coordinates": [-122.5088160054, 47.1667247897]}, "type": "Feature", "properties": {"collection_times": [{"days": "Mon-Fri", "time": "5:45pm"}, {"days": "Sat", "time": "2:45pm"}, {"days": "Sun", "time": "Closed"}], "id": "9849900070", "name": "USPS COLLECTION BOX - PO LOBBY", "address": {"city": "TACOMA", "state": "WA", "street": "5409 100TH ST SW", "postcode": "98499"}}},
{"geometry": {"type": "Point", "coordinates": [-122.5065149294, 47.1659143911]}, "type": "Feature", "properties": {"collection_times": [{"days": "Mon-Fri", "time": "2:15pm"}, {"days": "Sat", "time": "1:30pm"}, {"days": "Sun", "time": "Closed"}], "id": "9849900071", "name": "USPS COLLECTION BOX - BLUE BOX", "address": {"city": "TACOMA", "state": "WA", "street": "6305 BRIDGEPORT WAY W", "postcode": "98499"}}},
{"geometry": {"type": "Point", "coordinates": [-122.5170937211, 47.1619115706]}, "type": "Feature", "properties": {"collection_times": [{"days": "Mon-Fri", "time": "4:30pm"}, {"days": "Sat", "time": "2:45pm"}, {"days": "Sun", "time": "Closed"}], "id": "9849900073", "name": "USPS COLLECTION BOX - BLUE BOX", "address": {"city": "TACOMA", "state": "WA", "street": "6000 MAIN ST SW", "postcode": "98499"}}},
{"geometry": {"type": "Point", "coordinates": [-122.5088160054, 47.1667247897]}, "type": "Feature", "properties": {"collection_times": [{"days": "Mon-Fri", "time": "5:45pm"}, {"days": "Sat", "time": "2:45pm"}, {"days": "Sun", "time": "Closed"}], "id": "9849900074", "name": "USPS COLLECTION BOX - APC", "address": {"city": "TACOMA", "state": "WA", "street": "5409 100TH ST SW", "postcode": "98499"}}},
{"geometry": {"type": "Point", "coordinates": [-122.5088160054, 47.1667247897]}, "type": "Feature", "properties": {"collection_times": [{"days": "Mon-Fri", "time": "5:45pm"}, {"days": "Sat", "time": "2:45pm"}, {"days": "Sun", "time": "Closed"}], "id": "9849900076", "name": "USPS COLLECTION BOX - APC", "address": {"city": "TACOMA", "state": "WA", "street": "5409 100TH ST SW", "postcode": "98499"}}},
{"geometry": {"type": "Point", "coordinates": [-122.5088160054, 47.1667247897]}, "type": "Feature", "properties": {"collection_times": [{"days": "Mon-Fri", "time": "5:45pm"}, {"days": "Sat", "time": "2:45pm"}, {"days": "Sun", "time": "Closed"}], "id": "9849900078", "name": "USPS COLLECTION BOX - APC", "address": {"city": "TACOMA", "state": "WA", "street": "5409 100TH ST SW", "postcode": "98499"}}}
]}
