{"type": "FeatureCollection", "features": [
{"geometry": {"type": "Point", "coordinates": [-122.9020189528, 47.0471773535]}, "type": "Feature", "properties": {"collection_times": [{"days": "Mon-Fri", "time": "2:00pm"}, {"days": "Sat", "time": "1:00pm"}, {"days": "Sun", "time": "Closed"}], "id": "9850100001", "name": "USPS COLLECTION BOX - BLUE BOX", "address": {"city": "TUMWATER", "state": "WA", "street": "317 CAPITOL WAY N", "postcode": "98501"}}},
{"geometry": {"type": "Point", "coordinates": [-122.8986305801, 47.0176623331]}, "type": "Feature", "properties": {"collection_times": [{"days": "Mon-Fri", "time": "3:00pm"}, {"days": "Sat-Sun", "time": "Closed"}], "id": "9850100002", "name": "USPS COLLECTION BOX - BLUE BOX", "address": {"city": "TUMWATER", "state": "WA", "street": "408 CLEVELAND AVE SE", "postcode": "98501"}}},
{"geometry": {"type": "Point", "coordinates": [-122.9096314431, 47.0016830132]}, "type": "Feature", "properties": {"collection_times": [{"days": "Mon-Fri", "time": "2:00pm"}, {"days": "Sat", "time": "3:00pm"}, {"days": "Sun", "time": "Closed"}], "id": "9850100005", "name": "USPS COLLECTION BOX - BLUE BOX", "address": {"city": "TUMWATER", "state": "WA", "street": "5201 CAPITOL BLVD SW", "postcode": "98501"}}},
{"geometry": {"type": "Point", "coordinates": [-122.9022508128, 47.0403209233]}, "type": "Feature", "properties": {"collection_times": [{"days": "Mon-Fri", "time": "3:00pm"}, {"days": "Sat-Sun", "time": "Closed"}], "id": "9850100014", "name": "USPS COLLECTION BOX - BLUE BOX", "address": {"city": "TUMWATER", "state": "WA", "street": "906 COLUMBIA ST SE", "postcode": "98501"}}},
{"geometry": {"type": "Point", "coordinates": [-122.9006564964, 47.0173702759]}, "type": "Feature", "properties": {"collection_times": [{"days": "Mon-Fri", "time": "12:00pm"}, {"days": "Sat-Sun", "time": "Closed"}], "id": "9850100026", "name": "USPS COLLECTION BOX - BLUE BOX", "address": {"city": "TUMWATER", "state": "WA", "street": "3405 CAPITOL BLVD SE", "postcode": "98501"}}},
{"geometry": {"type": "Point", "coordinates": [-122.9179699262, 47.0195531665]}, "type": "Feature", "properties": {"collection_times": [{"days": "Mon-Fri", "time": "3:00pm"}, {"days": "Sat-Sun", "time": "Closed"}], "id": "9850100028", "name": "USPS COLLECTION BOX - BLUE BOX", "address": {"city": "TUMWATER", "state": "WA", "street": "415 12TH AVE SW", "postcode": "98501"}}},
{"geometry": {"type": "Point", "coordinates": [-122.9133410531, 46.9854032363]}, "type": "Feature", "properties": {"collection_times": [{"days": "Mon-Fri", "time": "1:45pm"}, {"days": "Sat-Sun", "time": "Closed"}], "id": "9850100031", "name": "USPS COLLECTION BOX - BLUE BOX", "address": {"city": "TUMWATER", "state": "WA", "street": "555 ISRAEL RD SW", "postcode": "98501"}}},
{"geometry": {"type": "Point", "coordinates": [-122.9011814179, 47.0414317218]}, "type": "Feature", "properties": {"collection_times": [{"days": "Mon-Fri", "time": "2:30pm"}, {"days": "Sat", "time": "10:45am"}, {"days": "Sun", "time": "Closed"}], "id": "9850100032", "name": "USPS COLLECTION BOX - BLUE BOX", "address": {"city": "TUMWATER", "state": "WA", "street": "801 CAPITOL WAY S", "postcode": "98501"}}},
{"geometry": {"type": "Point", "coordinates": [-122.8999511405, 47.0390102048]}, "type": "Feature", "properties": {"collection_times": [{"days": "Mon-Fri", "time": "3:00pm"}, {"days": "Sat-Sun", "time": "Closed"}], "id": "9850100034", "name": "USPS COLLECTION BOX - BLUE BOX", "address": {"city": "TUMWATER", "state": "WA", "street": "120 UNION AVE SE", "postcode": "98501"}}},
{"geometry": {"type": "Point", "coordinates": [-122.9182976511, 46.983279825]}, "type": "Feature", "properties": {"collection_times": [{"days": "Mon-Fri", "time": "1:45pm"}, {"days": "Sat-Sun", "time": "Closed"}], "id": "9850100042", "name": "USPS COLLECTION BOX - BLUE BOX", "address": {"city": "TUMWATER", "state": "WA", "street": "7273 LINDERSON WAY SW", "postcode": "98501"}}},
{"geometry": {"type": "Point", "coordinates": [-122.8995146287, 47.0371919969]}, "type": "Feature", "properties": {"collection_times": [{"days": "Mon-Fri", "time": "3:00pm"}, {"days": "Sat-Sun", "time": "Closed"}], "id": "9850100052", "name": "USPS COLLECTION BOX - BLUE BOX", "address": {"city": "TUMWATER", "state": "WA", "street": "1125 WASHINGTON ST SE", "postcode": "98501"}}},
{"geometry": {"type": "Point", "coordinates": [-122.8451671279, 47.0419037224]}, "type": "Feature", "properties": {"collection_times": [{"days": "Mon-Fri", "time": "12:15pm"}, {"days": "Sat", "time": "1:15pm"}, {"days": "Sun", "time": "Closed"}], "id": "9850100053", "name": "USPS COLLECTION BOX - BLUE BOX", "address": {"city": "TUMWATER", "state": "WA", "street": "3520 PACIFIC AVE SE", "postcode": "98501"}}},
{"geometry": {"type": "Point", "coordinates": [-122.9074982838, 46.9963109761]}, "type": "Feature", "properties": {"collection_times": [{"days": "Mon-Fri", "time": "3:00pm"}, {"days": "Sat-Sun", "time": "Closed"}], "id": "9850100055", "name": "USPS COLLECTION BOX - BLUE BOX", "address": {"city": "TUMWATER", "state": "WA", "street": "5720 CAPITOL BLVD SE", "postcode": "98501"}}},
{"geometry": {"type": "Point", "coordinates": [-122.8883723382, 47.039840642]}, "type": "Feature", "properties": {"collection_times": [{"days": "Mon-Fri", "time": "2:00pm"}, {"days": "Sat-Sun", "time": "Closed"}], "id": "9850100058", "name": "USPS COLLECTION BOX - BLUE BOX", "address": {"city": "TUMWATER", "state": "WA", "street": "1025 UNION AVE SE", "postcode": "98501"}}},
{"geometry": {"type": "Point", "coordinates": [-122.8909677502, 47.0426466206]}, "type": "Feature", "properties": {"collection_times": [{"days": "Mon-Fri", "time": "2:00pm"}, {"days": "Sat-Sun", "time": "Closed"}], "id": "9850100067", "name": "USPS COLLECTION BOX - BLUE BOX", "address": {"city": "TUMWATER", "state": "WA", "street": "712 PEAR ST SE", "postcode": "98501"}}},
{"geometry": {"type": "Point", "coordinates": [-122.9012945277, 47.0440189714]}, "type": "Feature", "properties": {"collection_times": [{"days": "Mon-Fri", "time": "3:00pm"}, {"days": "Sat-Sun", "time": "Closed"}], "id": "9850100068", "name": "USPS COLLECTION BOX - BLUE BOX", "address": {"city": "TUMWATER", "state": "WA", "street": "121 5TH AVE SE", "postcode": "98501"}}},
{"geometry": {"type": "Point", "coordinates": [-122.9015584098, 47.0449338181]}, "type": "Feature", "properties": {"collection_times": [{"days": "Mon-Fri", "time": "5:00pm"}, {"days": "Sat-Sun", "time": "Closed"}], "id": "9850100072", "name": "USPS COLLECTION BOX - BLUE BOX", "address": {"city": "TUMWATER", "state": "WA", "street": "100 4TH AVE E", "postcode": "98501"}}},
{"geometry": {"type": "Point", "coordinates": [-122.8875781211, 47.0389378735]}, "type": "Feature", "properties": {"collection_times": [{"days": "Mon-Fri", "time": "2:00pm"}, {"days": "Sat-Sun", "time": "Closed"}], "id": "9850100074", "name": "USPS COLLECTION BOX - BLUE BOX", "address": {"city": "TUMWATER", "state": "WA", "street": "1107 EASTSIDE ST SE", "postcode": "98501"}}},
{"geometry": {"type": "Point", "coordinates": [-122.9075085755, 46.9938870443]}, "type": "Feature", "properties": {"collection_times": [{"days": "Mon-Fri", "time": "3:00pm"}, {"days": "Sat-Sun", "time": "Closed"}], "id": "9850100075", "name": "USPS COLLECTION BOX - BLUE BOX", "address": {"city": "TUMWATER", "state": "WA", "street": "6140 CAPITOL BLVD SE", "postcode": "98501"}}},
{"geometry": {"type": "Point", "coordinates": [-122.9008359938, 47.034332785]}, "type": "Feature", "properties": {"collection_times": [{"days": "Mon-Fri", "time": "3:00pm"}, {"days": "Sat-Sun", "time": "Closed"}], "id": "9850100076", "name": "USPS COLLECTION BOX - BLUE BOX", "address": {"city": "TUMWATER", "state": "WA", "street": "1501 CAPITOL WAY S", "postcode": "98501"}}},
{"geometry": {"type": "Point", "coordinates": [-122.8958462729, 47.0383075272]}, "type": "Feature", "properties": {"collection_times": [{"days": "Mon-Fri", "time": "2:00pm"}, {"days": "Sat-Sun", "time": "Closed"}], "id": "9850100077", "name": "USPS COLLECTION BOX - BLUE BOX", "address": {"city": "TUMWATER", "state": "WA", "street": "1110 JEFFERSON ST SE", "postcode": "98501"}}},
{"geometry": {"type": "Point", "coordinates": [-122.89878356, 47.0423804549]}, "type": "Feature", "properties": {"collection_times": [{"days": "Mon-Fri", "time": "3:00pm"}, {"days": "Sat-Sun", "time": "Closed"}], "id": "9850100078", "name": "USPS COLLECTION BOX - BLUE BOX", "address": {"city": "TUMWATER", "state": "WA", "street": "706 FRANKLIN ST SE", "postcode": "98501"}}},
{"geometry": {"type": "Point", "coordinates": [-122.8926392712, 47.0444198761]}, "type": "Feature", "properties": {"collection_times": [{"days": "Mon-Fri", "time": "12:00pm"}, {"days": "Sat-Sun", "time": "Closed"}], "id": "9850100079", "name": "USPS COLLECTION BOX - BLUE BOX", "address": {"city": "TUMWATER", "state": "WA", "street": "510 PLUM ST SE", "postcode": "98501"}}},
{"geometry": {"type": "Point", "coordinates": [-122.9015457692, 47.043874532]}, "type": "Feature", "properties": {"collection_times": [{"days": "Mon-Fri", "time": "2:00pm"}, {"days": "Sat", "time": "1:00pm"}, {"days": "Sun", "time": "Closed"}], "id": "9850100080", "name": "USPS COLLECTION BOX - BLUE BOX", "address": {"city": "TUMWATER", "state": "WA", "street": "501 CAPITOL WAY S", "postcode": "98501"}}},
{"geometry": {"type": "Point", "coordinates": [-122.9002220381, 47.0458630861]}, "type": "Feature", "properties": {"collection_times": [{"days": "Mon-Fri", "time": "2:00pm"}, {"days": "Sat-Sun", "time": "Closed"}], "id": "9850100082", "name": "USPS COLLECTION BOX - BLUE BOX", "address": {"city": "TUMWATER", "state": "WA", "street": "222 STATE AVE NE", "postcode": "98501"}}},
{"geometry": {"type": "Point", "coordinates": [-122.9029144527, 47.0380496421]}, "type": "Feature", "properties": {"collection_times": [{"days": "Mon-Fri", "time": "3:00pm"}, {"days": "Sat-Sun", "time": "Closed"}], "id": "9850100088", "name": "USPS COLLECTION BOX - BLUE BOX", "address": {"city": "TUMWATER", "state": "WA", "street": "210 11TH AVE SW", "postcode": "98501"}}},
{"geometry": {"type": "Point", "coordinates": [-122.9033460746, 47.0355091761]}, "type": "Feature", "properties": {"collection_times": [{"days": "Mon-Fri", "time": "2:30pm"}, {"days": "Sat-Sun", "time": "Closed"}], "id": "9850100089", "name": "USPS COLLECTION BOX - BLUE BOX", "address": {"city": "TUMWATER", "state": "WA", "street": "304 SID SNYDER AVE SW", "postcode": "98501"}}},
{"geometry": {"type": "Point", "coordinates": [-122.8961171705, 47.0411702879]}, "type": "Feature", "properties": {"collection_times": [{"days": "Mon-Fri", "time": "5:00pm"}, {"days": "Sat", "time": "3:00pm"}, {"days": "Sun", "time": "Closed"}], "id": "9850100090", "name": "USPS COLLECTION BOX - PO LOBBY", "address": {"city": "TUMWATER", "state": "WA", "street": "900 JEFFERSON ST SE", "postcode": "98501"}}},
{"geometry": {"type": "Point", "coordinates": [-122.8961171705, 47.0411702879]}, "type": "Feature", "properties": {"collection_times": [{"days": "Mon-Fri", "time": "5:00pm"}, {"days": "Sat", "time": "3:00pm"}, {"days": "Sun", "time": "Closed"}], "id": "9850100091", "name": "USPS COLLECTION BOX - BLUE BOX", "address": {"city": "TUMWATER", "state": "WA", "street": "900 JEFFERSON ST SE", "postcode": "98501"}}},
{"geometry": {"type": "Point", "coordinates": [-122.8961171705, 47.0411702879]}, "type": "Feature", "properties": {"collection_times": [{"days": "Mon-Fri", "time": "5:00pm"}, {"days": "Sat", "time": "3:00pm"}, {"days": "Sun", "time": "Closed"}], "id": "9850100092", "name": "USPS COLLECTION BOX - BLUE BOX", "address": {"city": "TUMWATER", "state": "WA", "street": "900 JEFFERSON ST SE", "postcode": "98501"}}},
{"geometry": {"type": "Point", "coordinates": [-122.8961171705, 47.0411702879]}, "type": "Feature", "properties": {"collection_times": [{"days": "Mon-Fri", "time": "5:00pm"}, {"days": "Sat", "time": "3:00pm"}, {"days": "Sun", "time": "Closed"}], "id": "9850100102", "name": "USPS COLLECTION BOX - BLUE BOX", "address": {"city": "TUMWATER", "state": "WA", "street": "900 JEFFERSON ST SE", "postcode": "98501"}}},
{"geometry": {"type": "Point", "coordinates": [-122.8961171705, 47.0411702879]}, "type": "Feature", "properties": {"collection_times": [{"days": "Mon-Fri", "time": "5:00pm"}, {"days": "Sat", "time": "3:00pm"}, {"days": "Sun", "time": "Closed"}], "id": "9850100103", "name": "USPS COLLECTION BOX - BLUE BOX", "address": {"city": "TUMWATER", "state": "WA", "street": "900 JEFFERSON ST SE", "postcode": "98501"}}},
{"geometry": {"type": "Point", "coordinates": [-122.8958853106, 47.0114780178]}, "type": "Feature", "properties": {"collection_times": [{"days": "Mon-Sat", "time": "3:00pm"}, {"days": "Sun", "time": "Closed"}], "id": "9850100113", "name": "USPS COLLECTION BOX - BLUE BOX", "address": {"city": "TUMWATER", "state": "WA", "street": "3900 CLEVELAND AVE SE", "postcode": "98501"}}},
{"geometry": {"type": "Point", "coordinates": [-122.8961171705, 47.0411702879]}, "type": "Feature", "properties": {"collection_times": [{"days": "Mon-Fri", "time": "5:00pm"}, {"days": "Sat", "time": "3:00pm"}, {"days": "Sun", "time": "Closed"}], "id": "9850100115", "name": "USPS COLLECTION BOX - APC", "address": {"city": "TUMWATER", "state": "WA", "street": "900 JEFFERSON ST SE", "postcode": "98501"}}},
{"geometry": {"type": "Point", "coordinates": [-122.8674292327, 47.0452443985]}, "type": "Feature", "properties": {"collection_times": [{"days": "Mon-Fri", "time": "3:00pm"}, {"days": "Sat-Sun", "time": "Closed"}], "id": "9850100118", "name": "USPS COLLECTION BOX - BLUE BOX", "address": {"city": "TUMWATER", "state": "WA", "street": "2421 PACIFIC AVE SE", "postcode": "98501"}}},
{"geometry": {"type": "Point", "coordinates": [-122.9029840909, 47.0502665588]}, "type": "Feature", "properties": {"collection_times": [{"days": "Mon-Fri", "time": "2:00pm"}, {"days": "Sat-Sun", "time": "Closed"}], "id": "9850100121", "name": "USPS COLLECTION BOX - BLUE BOX", "address": {"city": "TUMWATER", "state": "WA", "street": "724 COLUMBIA ST NW", "postcode": "98501"}}},
{"geometry": {"type": "Point", "coordinates": [-122.9037761218, 47.0058429445]}, "type": "Feature", "properties": {"collection_times": [{"days": "Mon-Fri", "time": "3:00pm"}, {"days": "Sat-Sun", "time": "Closed"}], "id": "9850100122", "name": "USPS COLLECTION BOX - BLUE BOX", "address": {"city": "TUMWATER", "state": "WA", "street": "4833 TUMWATER VALLEY DR SE", "postcode": "98501"}}},
{"geometry": {"type": "Point", "coordinates": [-122.9076983801, 46.9877632034]}, "type": "Feature", "properties": {"collection_times": [{"days": "Mon-Fri", "time": "1:45pm"}, {"days": "Sat-Sun", "time": "Closed"}], "id": "9850100123", "name": "USPS COLLECTION BOX - BLUE BOX", "address": {"city": "TUMWATER", "state": "WA", "street": "6737 CAPITOL BLVD SW", "postcode": "98501"}}},
{"geometry": {"type": "Point", "coordinates": [-122.8584162683, 47.0429293478]}, "type": "Feature", "properties": {"collection_times": [{"days": "Mon-Fri", "time": "1:45pm"}, {"days": "Sat-Sun", "time": "Closed"}], "id": "9850100124", "name": "USPS COLLECTION BOX - BLUE BOX", "address": {"city": "TUMWATER", "state": "WA", "street": "3000 PACIFIC AVE SE", "postcode": "98501"}}},
{"geometry": {"type": "Point", "coordinates": [-122.8995252753, 47.0375598971]}, "type": "Feature", "properties": {"collection_times": [{"days": "Mon-Fri", "time": "3:00pm"}, {"days": "Sat-Sun", "time": "Closed"}], "id": "9850100125", "name": "USPS COLLECTION BOX - BLUE BOX", "address": {"city": "TUMWATER", "state": "WA", "street": "1115 WASHINGTON ST SE", "postcode": "98501"}}},
{"geometry": {"type": "Point", "coordinates": [-122.9099388631, 46.9854056022]}, "type": "Feature", "properties": {"collection_times": [{"days": "Mon-Fri", "time": "5:00pm"}, {"days": "Sat", "time": "3:00pm"}, {"days": "Sun", "time": "Closed"}], "id": "9850100126", "name": "USPS COLLECTION BOX - PO LOBBY", "address": {"city": "TUMWATER", "state": "WA", "street": "200 ISRAEL RD SE", "postcode": "98501"}}},
{"geometry": {"type": "Point", "coordinates": [-122.9099388631, 46.9854056022]}, "type": "Feature", "properties": {"collection_times": [{"days": "Mon-Fri", "time": "5:00pm"}, {"days": "Sat", "time": "3:00pm"}, {"days": "Sun", "time": "Closed"}], "id": "9850100127", "name": "USPS COLLECTION BOX - BLUE BOX", "address": {"city": "TUMWATER", "state": "WA", "street": "200 ISRAEL RD SE", "postcode": "98501"}}},
{"geometry": {"type": "Point", "coordinates": [-122.898324572, 47.0338217468]}, "type": "Feature", "properties": {"collection_times": [{"days": "Mon-Fri", "time": "2:00pm"}, {"days": "Sat-Sun", "time": "Closed"}], "id": "9850100129", "name": "USPS COLLECTION BOX - BLUE BOX", "address": {"city": "TUMWATER", "state": "WA", "street": "310 MAPLE PARK AVE SE", "postcode": "98501"}}},
{"geometry": {"type": "Point", "coordinates": [-122.9099388631, 46.9854056022]}, "type": "Feature", "properties": {"collection_times": [{"days": "Mon-Fri", "time": "5:00pm"}, {"days": "Sat", "time": "3:00pm"}, {"days": "Sun", "time": "Closed"}], "id": "9850100130", "name": "USPS COLLECTION BOX - PO LOBBY", "address": {"city": "TUMWATER", "state": "WA", "street": "200 ISRAEL RD SE", "postcode": "98501"}}},
{"geometry": {"type": "Point", "coordinates": [-122.9031250194, 47.0462806706]}, "type": "Feature", "properties": {"collection_times": [{"days": "Mon-Fri", "time": "2:00pm"}, {"days": "Sat-Sun", "time": "Closed"}], "id": "9850100133", "name": "USPS COLLECTION BOX - BLUE BOX", "address": {"city": "TUMWATER", "state": "WA", "street": "222 COLUMBIA ST NW", "postcode": "98501"}}},
{"geometry": {"type": "Point", "coordinates": [-122.8697670336, 46.9736566048]}, "type": "Feature", "properties": {"collection_times": [{"days": "Mon-Fri", "time": "2:00pm"}, {"days": "Sat-Sun", "time": "Closed"}], "id": "9850100135", "name": "USPS COLLECTION BOX - BLUE BOX", "address": {"city": "TUMWATER", "state": "WA", "street": "415 15TH AVE SW", "postcode": "98501"}}},
{"geometry": {"type": "Point", "coordinates": [-122.902328061, 47.0354115775]}, "type": "Feature", "properties": {"collection_times": [{"days": "Mon-Fri", "time": "3:00pm"}, {"days": "Sat-Sun", "time": "Closed"}], "id": "9850100136", "name": "USPS COLLECTION BOX - BLUE BOX", "address": {"city": "TUMWATER", "state": "WA", "street": "215 SID SNYDER AVE SW", "postcode": "98501"}}},
{"geometry": {"type": "Point", "coordinates": [-122.9019799152, 47.0502447661]}, "type": "Feature", "properties": {"collection_times": [{"days": "Mon-Fri", "time": "2:00pm"}, {"days": "Sat-Sun", "time": "Closed"}], "id": "9850100137", "name": "USPS COLLECTION BOX - BLUE BOX", "address": {"city": "TUMWATER", "state": "WA", "street": "111 MARKET ST NE", "postcode": "98501"}}},
{"geometry": {"type": "Point", "coordinates": [-122.8996755111, 47.0396359901]}, "type": "Feature", "properties": {"collection_times": [{"days": "Mon-Fri", "time": "2:30pm"}, {"days": "Sat-Sun", "time": "Closed"}], "id": "9850100141", "name": "USPS COLLECTION BOX - BLUE BOX", "address": {"city": "TUMWATER", "state": "WA", "street": "1007 WASHINGTON ST SE", "postcode": "98501"}}},
{"geometry": {"type": "Point", "coordinates": [-122.9057594691, 47.0131270626]}, "type": "Feature", "properties": {"collection_times": [{"days": "Mon-Fri", "time": "2:00pm"}, {"days": "Sat-Sun", "time": "Closed"}], "id": "9850100142", "name": "USPS COLLECTION BOX - BLUE BOX", "address": {"city": "TUMWATER", "state": "WA", "street": "300 DESCHUTES WAY SW", "postcode": "98501"}}},
{"geometry": {"type": "Point", "coordinates": [-122.918173024, 46.9904221765]}, "type": "Feature", "properties": {"collection_times": [{"days": "Mon-Fri", "time": "1:45pm"}, {"days": "Sat", "time": "3:00pm"}, {"days": "Sun", "time": "Closed"}], "id": "9850100143", "name": "USPS COLLECTION BOX - BLUE BOX", "address": {"city": "TUMWATER", "state": "WA", "street": "6500 LINDERSON WAY SW", "postcode": "98501"}}},
{"geometry": {"type": "Point", "coordinates": [-122.9096951735, 47.0026673395]}, "type": "Feature", "properties": {"collection_times": [{"days": "Mon-Fri", "time": "12:00pm"}, {"days": "Sat", "time": "3:00pm"}, {"days": "Sun", "time": "Closed"}], "id": "9850100144", "name": "USPS COLLECTION BOX - BLUE BOX", "address": {"city": "TUMWATER", "state": "WA", "street": "5000 CAPITOL BLVD SE", "postcode": "98501"}}},
{"geometry": {"type": "Point", "coordinates": [-122.8697670336, 46.9736566048]}, "type": "Feature", "properties": {"collection_times": [{"days": "Mon-Fri", "time": "3:00pm"}, {"days": "Sat-Sun", "time": "Closed"}], "id": "9850100145", "name": "USPS COLLECTION BOX - BLUE BOX", "address": {"city": "TUMWATER", "state": "WA", "street": "416 SID SNYDER AVE SW", "postcode": "98501"}}},
{"geometry": {"type": "Point", "coordinates": [-122.8416289498, 47.0410485303]}, "type": "Feature", "properties": {"collection_times": [{"days": "Mon-Fri", "time": "4:30pm"}, {"days": "Sat-Sun", "time": "Closed"}], "id": "9850100146", "name": "USPS COLLECTION BOX - BLUE BOX", "address": {"city": "TUMWATER", "state": "WA", "street": "3701 PACIFIC AVE SE", "postcode": "98501"}}},
{"geometry": {"type": "Point", "coordinates": [-122.8479943998, 47.0416659477]}, "type": "Feature", "properties": {"collection_times": [{"days": "Mon-Fri", "time": "12:00pm"}, {"days": "Sat", "time": "1:15pm"}, {"days": "Sun", "time": "Closed"}], "id": "9850100147", "name": "USPS COLLECTION BOX - BLUE BOX", "address": {"city": "TUMWATER", "state": "WA", "street": "3415 PACIFIC AVE SE", "postcode": "98501"}}},
{"geometry": {"type": "Point", "coordinates": [-122.9497560789, 47.0464888714]}, "type": "Feature", "properties": {"collection_times": [{"days": "Mon-Fri", "time": "2:00pm"}, {"days": "Sat-Sun", "time": "Closed"}], "id": "9850200000", "name": "USPS COLLECTION BOX - BLUE BOX", "address": {"city": "OLYMPIA", "state": "WA", "street": "404 YAUGER WAY SW", "postcode": "98502"}}},
{"geometry": {"type": "Point", "coordinates": [-122.9379111108, 47.047768833]}, "type": "Feature", "properties": {"collection_times": [{"days": "Mon-Fri", "time": "3:00pm"}, {"days": "Sat-Sun", "time": "Closed"}], "id": "9850200001", "name": "USPS COLLECTION BOX - BLUE BOX", "address": {"city": "OLYMPIA", "state": "WA", "street": "2940 LIMITED LN NW", "postcode": "98502"}}},
{"geometry": {"type": "Point", "coordinates": [-122.9161908012, 47.030586354]}, "type": "Feature", "properties": {"collection_times": [{"days": "Mon-Fri", "time": "3:00pm"}, {"days": "Sat-Sun", "time": "Closed"}], "id": "9850200002", "name": "USPS COLLECTION BOX - BLUE BOX", "address": {"city": "OLYMPIA", "state": "WA", "street": "1919 EVERGREEN PARK DR SW", "postcode": "98502"}}},
{"geometry": {"type": "Point", "coordinates": [-122.9349750066, 47.0360445267]}, "type": "Feature", "properties": {"collection_times": [{"days": "Mon-Fri", "time": "3:00pm"}, {"days": "Sat-Sun", "time": "Closed"}], "id": "9850200004", "name": "USPS COLLECTION BOX - BLUE BOX", "address": {"city": "OLYMPIA", "state": "WA", "street": "2629 12TH CT SW", "postcode": "98502"}}},
{"geometry": {"type": "Point", "coordinates": [-122.9387462798, 47.0351442949]}, "type": "Feature", "properties": {"collection_times": [{"days": "Mon-Fri", "time": "3:00pm"}, {"days": "Sat", "time": "2:45pm"}, {"days": "Sun", "time": "Closed"}], "id": "9850200006", "name": "USPS COLLECTION BOX - BLUE BOX", "address": {"city": "OLYMPIA", "state": "WA", "street": "1313 COOPER POINT RD SW", "postcode": "98502"}}},
{"geometry": {"type": "Point", "coordinates": [-122.9131328523, 47.0299570198]}, "type": "Feature", "properties": {"collection_times": [{"days": "Mon-Fri", "time": "3:00pm"}, {"days": "Sat-Sun", "time": "Closed"}], "id": "9850200007", "name": "USPS COLLECTION BOX - BLUE BOX", "address": {"city": "OLYMPIA", "state": "WA", "street": "2000 LAKERIDGE DR SW", "postcode": "98502"}}},
{"geometry": {"type": "Point", "coordinates": [-122.942286876, 47.0471122907]}, "type": "Feature", "properties": {"collection_times": [{"days": "Mon-Fri", "time": "3:00pm"}, {"days": "Sat-Sun", "time": "Closed"}], "id": "9850200008", "name": "USPS COLLECTION BOX - BLUE BOX", "address": {"city": "OLYMPIA", "state": "WA", "street": "3215 HARRISON AVE NW", "postcode": "98502"}}},
{"geometry": {"type": "Point", "coordinates": [-122.9358480303, 47.0464687611]}, "type": "Feature", "properties": {"collection_times": [{"days": "Mon-Fri", "time": "11:30am"}, {"days": "Sat-Sun", "time": "Closed"}], "id": "9850200009", "name": "USPS COLLECTION BOX - BLUE BOX", "address": {"city": "OLYMPIA", "state": "WA", "street": "2915 HARRISON AVE NW", "postcode": "98502"}}},
{"geometry": {"type": "Point", "coordinates": [-122.9262151402, 47.044431886]}, "type": "Feature", "properties": {"collection_times": [{"days": "Mon-Fri", "time": "3:00pm"}, {"days": "Sat-Sun", "time": "Closed"}], "id": "9850200010", "name": "USPS COLLECTION BOX - BLUE BOX", "address": {"city": "OLYMPIA", "state": "WA", "street": "405 BLACK LAKE BLVD SW", "postcode": "98502"}}},
{"geometry": {"type": "Point", "coordinates": [-122.9347395978, 47.0323809027]}, "type": "Feature", "properties": {"collection_times": [{"days": "Mon-Fri", "time": "3:00pm"}, {"days": "Sat-Sun", "time": "Closed"}], "id": "9850200015", "name": "USPS COLLECTION BOX - BLUE BOX", "address": {"city": "OLYMPIA", "state": "WA", "street": "1800 COOPER POINT RD SW", "postcode": "98502"}}},
{"geometry": {"type": "Point", "coordinates": [-122.9152314215, 47.0273213872]}, "type": "Feature", "properties": {"collection_times": [{"days": "Mon-Fri", "time": "2:00pm"}, {"days": "Sat", "time": "2:45pm"}, {"days": "Sun", "time": "Closed"}], "id": "9850200019", "name": "USPS COLLECTION BOX - BLUE BOX", "address": {"city": "OLYMPIA", "state": "WA", "street": "2415 EVERGREEN PARK DR SW", "postcode": "98502"}}},
{"geometry": {"type": "Point", "coordinates": [-122.9311067308, 47.0403102767]}, "type": "Feature", "properties": {"collection_times": [{"days": "Mon-Fri", "time": "3:00pm"}, {"days": "Sat", "time": "2:45pm"}, {"days": "Sun", "time": "Closed"}], "id": "9850200020", "name": "USPS COLLECTION BOX - BLUE BOX", "address": {"city": "OLYMPIA", "state": "WA", "street": "625 BLACK LAKE BLVD SW", "postcode": "98502"}}},
{"geometry": {"type": "Point", "coordinates": [-122.9385357131, 47.0342878326]}, "type": "Feature", "properties": {"collection_times": [{"days": "Mon-Fri", "time": "12:45pm"}, {"days": "Sat-Sun", "time": "Closed"}], "id": "9850200023", "name": "USPS COLLECTION BOX - BLUE BOX", "address": {"city": "OLYMPIA", "state": "WA", "street": "1500 BLACK LAKE BLVD SW", "postcode": "98502"}}},
{"geometry": {"type": "Point", "coordinates": [-122.9412423232, 47.0457163992]}, "type": "Feature", "properties": {"collection_times": [{"days": "Mon-Fri", "time": "5:00pm"}, {"days": "Sat", "time": "3:00pm"}, {"days": "Sun", "time": "Closed"}], "id": "9850200025", "name": "USPS COLLECTION BOX - BLUE BOX", "address": {"city": "OLYMPIA", "state": "WA", "street": "400 COOPER POINT RD SW", "postcode": "98502"}}},
{"geometry": {"type": "Point", "coordinates": [-122.9391070823, 47.0357653483]}, "type": "Feature", "properties": {"collection_times": [{"days": "Mon-Fri", "time": "3:00pm"}, {"days": "Sat", "time": "2:30pm"}, {"days": "Sun", "time": "Closed"}], "id": "9850200026", "name": "USPS COLLECTION BOX - BLUE BOX", "address": {"city": "OLYMPIA", "state": "WA", "street": "1200 COOPER POINT RD SW", "postcode": "98502"}}},
{"geometry": {"type": "Point", "coordinates": [-122.9273858157, 47.0460913454]}, "type": "Feature", "properties": {"collection_times": [{"days": "Mon-Fri", "time": "2:00pm"}, {"days": "Sat", "time": "2:45pm"}, {"days": "Sun", "time": "Closed"}], "id": "9850200030", "name": "USPS COLLECTION BOX - BLUE BOX", "address": {"city": "OLYMPIA", "state": "WA", "street": "2104 HARRISON AVE NW", "postcode": "98502"}}},
{"geometry": {"type": "Point", "coordinates": [-122.9412423232, 47.0457163992]}, "type": "Feature", "properties": {"collection_times": [{"days": "Mon-Fri", "time": "5:00pm"}, {"days": "Sat", "time": "3:00pm"}, {"days": "Sun", "time": "Closed"}], "id": "9850200031", "name": "USPS COLLECTION BOX - PO LOBBY", "address": {"city": "OLYMPIA", "state": "WA", "street": "400 COOPER POINT RD SW", "postcode": "98502"}}},
{"geometry": {"type": "Point", "coordinates": [-122.9347395978, 47.0323809027]}, "type": "Feature", "properties": {"collection_times": [{"days": "Mon-Fri", "time": "2:00pm"}, {"days": "Sat-Sun", "time": "Closed"}], "id": "9850200032", "name": "USPS COLLECTION BOX - BLUE BOX", "address": {"city": "OLYMPIA", "state": "WA", "street": "1800 COOPER POINT RD SW", "postcode": "98502"}}},
{"geometry": {"type": "Point", "coordinates": [-122.9354931426, 47.0330776656]}, "type": "Feature", "properties": {"collection_times": [{"days": "Mon-Fri", "time": "3:00pm"}, {"days": "Sat-Sun", "time": "Closed"}], "id": "9850200034", "name": "USPS COLLECTION BOX - BLUE BOX", "address": {"city": "OLYMPIA", "state": "WA", "street": "1700 COOPER POINT RD SW", "postcode": "98502"}}},
{"geometry": {"type": "Point", "coordinates": [-122.95014, 47.04157]}, "type": "Feature", "properties": {"collection_times": [{"days": "Mon-Fri", "time": "3:00pm"}, {"days": "Sat-Sun", "time": "Closed"}], "id": "9850200035", "name": "USPS COLLECTION BOX - BLUE BOX", "address": {"city": "OLYMPIA", "state": "WA", "street": "3920 CAPITAL MALL DR SW", "postcode": "98502"}}},
{"geometry": {"type": "Point", "coordinates": [-122.8337231829, 47.0406296756]}, "type": "Feature", "properties": {"collection_times": [{"days": "Mon-Fri", "time": "2:15pm"}, {"days": "Sat", "time": "2:30pm"}, {"days": "Sun", "time": "Closed"}], "id": "9850300000", "name": "USPS COLLECTION BOX - BLUE BOX", "address": {"city": "LACEY", "state": "WA", "street": "700 SLEATER KINNEY RD SE", "postcode": "98503"}}},
{"geometry": {"type": "Point", "coordinates": [-122.8249182081, 47.0363583488]}, "type": "Feature", "properties": {"collection_times": [{"days": "Mon-Fri", "time": "3:00pm"}, {"days": "Sat", "time": "2:00pm"}, {"days": "Sun", "time": "Closed"}], "id": "9850300002", "name": "USPS COLLECTION BOX - BLUE BOX", "address": {"city": "LACEY", "state": "WA", "street": "4522 LACEY BLVD SE", "postcode": "98503"}}},
{"geometry": {"type": "Point", "coordinates": [-122.80777, 47.036358]}, "type": "Feature", "properties": {"collection_times": [{"days": "Mon-Fri", "time": "5:00pm"}, {"days": "Sat", "time": "3:00pm"}, {"days": "Sun", "time": "Closed"}], "id": "9850300003", "name": "USPS COLLECTION BOX - APC", "address": {"city": "LACEY", "state": "WA", "street": "5815 LACEY BLVD SE", "postcode": "98503"}}},
{"geometry": {"type": "Point", "coordinates": [-122.8073053433, 47.0364774896]}, "type": "Feature", "properties": {"collection_times": [{"days": "Mon-Fri", "time": "5:00pm"}, {"days": "Sat", "time": "3:00pm"}, {"days": "Sun", "time": "Closed"}], "id": "9850300004", "name": "USPS COLLECTION BOX - BLUE BOX", "address": {"city": "LACEY", "state": "WA", "street": "5815 LACEY BLVD SE", "postcode": "98503"}}},
{"geometry": {"type": "Point", "coordinates": [-122.8337101703, 47.0430736688]}, "type": "Feature", "properties": {"collection_times": [{"days": "Mon-Fri", "time": "3:00pm"}, {"days": "Sat-Sun", "time": "Closed"}], "id": "9850300014", "name": "USPS COLLECTION BOX - BLUE BOX", "address": {"city": "LACEY", "state": "WA", "street": "602 SLEATER KINNEY RD SE", "postcode": "98503"}}},
{"geometry": {"type": "Point", "coordinates": [-122.8337231829, 47.0406296756]}, "type": "Feature", "properties": {"collection_times": [{"days": "Mon-Fri", "time": "2:15pm"}, {"days": "Sat", "time": "2:30pm"}, {"days": "Sun", "time": "Closed"}], "id": "9850300015", "name": "USPS COLLECTION BOX - BLUE BOX", "address": {"city": "LACEY", "state": "WA", "street": "700 SLEATER KINNEY RD SE", "postcode": "98503"}}},
{"geometry": {"type": "Point", "coordinates": [-122.8033412478, 47.0372322175]}, "type": "Feature", "properties": {"collection_times": [{"days": "Mon-Fri", "time": "3:00pm"}, {"days": "Sat-Sun", "time": "Closed"}], "id": "9850300016", "name": "USPS COLLECTION BOX - BLUE BOX", "address": {"city": "LACEY", "state": "WA", "street": "6100 PACIFIC AVE SE", "postcode": "98503"}}},
{"geometry": {"type": "Point", "coordinates": [-122.8096494606, 47.0494844021]}, "type": "Feature", "properties": {"collection_times": [{"days": "Mon-Fri", "time": "3:00pm"}, {"days": "Sat-Sun", "time": "Closed"}], "id": "9850300017", "name": "USPS COLLECTION BOX - BLUE BOX", "address": {"city": "LACEY", "state": "WA", "street": "300 DESMOND DR SE", "postcode": "98503"}}},
{"geometry": {"type": "Point", "coordinates": [-122.8273115453, 47.0426123148]}, "type": "Feature", "properties": {"collection_times": [{"days": "Mon-Fri", "time": "2:30pm"}, {"days": "Sat-Sun", "time": "Closed"}], "id": "9850300019", "name": "USPS COLLECTION BOX - BLUE BOX", "address": {"city": "LACEY", "state": "WA", "street": "605 WOODLAND SQUARE LOOP SE", "postcode": "98503"}}},
{"geometry": {"type": "Point", "coordinates": [-122.8276787898, 47.0406953429]}, "type": "Feature", "properties": {"collection_times": [{"days": "Mon-Fri", "time": "2:30pm"}, {"days": "Sat-Sun", "time": "Closed"}], "id": "9850300022", "name": "USPS COLLECTION BOX - BLUE BOX", "address": {"city": "LACEY", "state": "WA", "street": "629 WOODLAND SQUARE LOOP SE", "postcode": "98503"}}},
{"geometry": {"type": "Point", "coordinates": [-122.8339323809, 47.0416817355]}, "type": "Feature", "properties": {"collection_times": [{"days": "Mon-Fri", "time": "3:00pm"}, {"days": "Sat", "time": "2:30pm"}, {"days": "Sun", "time": "Closed"}], "id": "9850300024", "name": "USPS COLLECTION BOX - BLUE BOX", "address": {"city": "LACEY", "state": "WA", "street": "681 SLEATER KINNEY RD SE", "postcode": "98503"}}},
{"geometry": {"type": "Point", "coordinates": [-122.8073053433, 47.0364774896]}, "type": "Feature", "properties": {"collection_times": [{"days": "Mon-Sat", "time": "3:00pm"}, {"days": "Sun", "time": "Closed"}], "id": "9850300027", "name": "USPS COLLECTION BOX - PO LOBBY", "address": {"city": "LACEY", "state": "WA", "street": "5815 LACEY BLVD SE", "postcode": "98503"}}},
{"geometry": {"type": "Point", "coordinates": [-122.820813293, 46.9962841106]}, "type": "Feature", "properties": {"collection_times": [{"days": "Mon-Fri", "time": "2:15pm"}, {"days": "Sat-Sun", "time": "Closed"}], "id": "9850300028", "name": "USPS COLLECTION BOX - BLUE BOX", "address": {"city": "LACEY", "state": "WA", "street": "4775 YELM HWY SE", "postcode": "98503"}}},
{"geometry": {"type": "Point", "coordinates": [-122.8203255307, 46.9962848728]}, "type": "Feature", "properties": {"collection_times": [{"days": "Mon-Fri", "time": "2:15pm"}, {"days": "Sat-Sun", "time": "Closed"}], "id": "9850300029", "name": "USPS COLLECTION BOX - BLUE BOX", "address": {"city": "LACEY", "state": "WA", "street": "4820 YELM HWY SE", "postcode": "98503"}}},
{"geometry": {"type": "Point", "coordinates": [-122.7988187132, 47.0259755921]}, "type": "Feature", "properties": {"collection_times": [{"days": "Mon-Fri", "time": "2:30pm"}, {"days": "Sat-Sun", "time": "Closed"}], "id": "9850300032", "name": "USPS COLLECTION BOX - BLUE BOX", "address": {"city": "LACEY", "state": "WA", "street": "4450 10TH AVE SE", "postcode": "98503"}}},
{"geometry": {"type": "Point", "coordinates": [-122.8215449365, 46.9962829674]}, "type": "Feature", "properties": {"collection_times": [{"days": "Mon-Fri", "time": "2:15pm"}, {"days": "Sat-Sun", "time": "Closed"}], "id": "9850300033", "name": "USPS COLLECTION BOX - BLUE BOX", "address": {"city": "LACEY", "state": "WA", "street": "4710 YELM HWY SE", "postcode": "98503"}}},
{"geometry": {"type": "Point", "coordinates": [-122.8336375829, 47.0411465885]}, "type": "Feature", "properties": {"collection_times": [{"days": "Mon-Fri", "time": "2:15pm"}, {"days": "Sat-Sun", "time": "Closed"}], "id": "9850300035", "name": "USPS COLLECTION BOX - BLUE BOX", "address": {"city": "LACEY", "state": "WA", "street": "720 SLEATER KINNEY RD SE", "postcode": "98503"}}},
{"geometry": {"type": "Point", "coordinates": [-122.823056561, 47.0440698762]}, "type": "Feature", "properties": {"collection_times": [{"days": "Mon-Fri", "time": "2:30pm"}, {"days": "Sat-Sun", "time": "Closed"}], "id": "9850300036", "name": "USPS COLLECTION BOX - BLUE BOX", "address": {"city": "LACEY", "state": "WA", "street": "500 COLLEGE ST SE", "postcode": "98503"}}},
{"geometry": {"type": "Point", "coordinates": [-122.7992801497, 47.0379538224]}, "type": "Feature", "properties": {"collection_times": [{"days": "Mon-Fri", "time": "3:00pm"}, {"days": "Sat", "time": "2:00pm"}, {"days": "Sun", "time": "Closed"}], "id": "9850300037", "name": "USPS COLLECTION BOX - BLUE BOX", "address": {"city": "LACEY", "state": "WA", "street": "6200 PACIFIC AVE SE", "postcode": "98503"}}},
{"geometry": {"type": "Point", "coordinates": [-122.8297909439, 47.0314808254]}, "type": "Feature", "properties": {"collection_times": [{"days": "Mon-Fri", "time": "3:00pm"}, {"days": "Sat", "time": "2:15pm"}, {"days": "Sun", "time": "Closed"}], "id": "9850300038", "name": "USPS COLLECTION BOX - BLUE BOX", "address": {"city": "LACEY", "state": "WA", "street": "1751 CIRCLE LN SE", "postcode": "98503"}}},
{"geometry": {"type": "Point", "coordinates": [-122.8073053433, 47.0364774896]}, "type": "Feature", "properties": {"collection_times": [{"days": "Mon-Fri", "time": "5:00pm"}, {"days": "Sat", "time": "3:00pm"}, {"days": "Sun", "time": "Closed"}], "id": "9850300039", "name": "USPS COLLECTION BOX - APC", "address": {"city": "LACEY", "state": "WA", "street": "5815 LACEY BLVD SE", "postcode": "98503"}}},
{"geometry": {"type": "Point", "coordinates": [-122.8073053433, 47.0364774896]}, "type": "Feature", "properties": {"collection_times": [{"days": "Mon-Fri", "time": "5:00pm"}, {"days": "Sat", "time": "3:00pm"}, {"days": "Sun", "time": "Closed"}], "id": "9850300040", "name": "USPS COLLECTION BOX - APC", "address": {"city": "LACEY", "state": "WA", "street": "5815 LACEY BLVD SE", "postcode": "98503"}}},
{"geometry": {"type": "Point", "coordinates": [-122.8073053433, 47.0364774896]}, "type": "Feature", "properties": {"collection_times": [{"days": "Mon-Fri", "time": "5:00pm"}, {"days": "Sat", "time": "3:00pm"}, {"days": "Sun", "time": "Closed"}], "id": "9850300041", "name": "USPS COLLECTION BOX - APC", "address": {"city": "LACEY", "state": "WA", "street": "5815 LACEY BLVD SE", "postcode": "98503"}}},
{"geometry": {"type": "Point", "coordinates": [-122.8443686306, 47.0525834759]}, "type": "Feature", "properties": {"collection_times": [{"days": "Mon-Fri", "time": "2:00pm"}, {"days": "Sat", "time": "1:30pm"}, {"days": "Sun", "time": "Closed"}], "id": "9850600013", "name": "USPS COLLECTION BOX - BLUE BOX", "address": {"city": "OLYMPIA", "state": "WA", "street": "413 LILLY RD NE", "postcode": "98506"}}},
{"geometry": {"type": "Point", "coordinates": [-122.917493239, 46.9999666441]}, "type": "Feature", "properties": {"collection_times": [{"days": "Mon-Fri", "time": "3:00pm"}, {"days": "Sat-Sun", "time": "Closed"}], "id": "9851200006", "name": "USPS COLLECTION BOX - BLUE BOX", "address": {"city": "TUMWATER", "state": "WA", "street": "705 TROSPER RD SW", "postcode": "98512"}}},
{"geometry": {"type": "Point", "coordinates": [-122.9399127298, 47.017991427]}, "type": "Feature", "properties": {"collection_times": [{"days": "Mon-Fri", "time": "3:00pm"}, {"days": "Sat-Sun", "time": "Closed"}], "id": "9851200009", "name": "USPS COLLECTION BOX - BLUE BOX", "address": {"city": "TUMWATER", "state": "WA", "street": "2801 32ND AVE SW", "postcode": "98512"}}},
{"geometry": {"type": "Point", "coordinates": [-122.9311221093, 47.0254014448]}, "type": "Feature", "properties": {"collection_times": [{"days": "Mon-Fri", "time": "3:00pm"}, {"days": "Sat-Sun", "time": "Closed"}], "id": "9851200010", "name": "USPS COLLECTION BOX - BLUE BOX", "address": {"city": "TUMWATER", "state": "WA", "street": "2011 MOTTMAN RD SW", "postcode": "98512"}}},
{"geometry": {"type": "Point", "coordinates": [-122.9153852062, 46.9999205087]}, "type": "Feature", "properties": {"collection_times": [{"days": "Mon-Sat", "time": "3:00pm"}, {"days": "Sun", "time": "Closed"}], "id": "9851200011", "name": "USPS COLLECTION BOX - BLUE BOX", "address": {"city": "TUMWATER", "state": "WA", "street": "555 TROSPER RD SW", "postcode": "98512"}}},
{"geometry": {"type": "Point", "coordinates": [-122.7646715095, 47.0580469924]}, "type": "Feature", "properties": {"collection_times": [{"days": "Mon-Fri", "time": "3:00pm"}, {"days": "Sat-Sun", "time": "Closed"}], "id": "9851600003", "name": "USPS COLLECTION BOX - BLUE BOX", "address": {"city": "LACEY", "state": "WA", "street": "1243 MARVIN RD NE", "postcode": "98516"}}},
{"geometry": {"type": "Point", "coordinates": [-122.784180987, 47.0527645444]}, "type": "Feature", "properties": {"collection_times": [{"days": "Mon-Fri", "time": "3:00pm"}, {"days": "Sat", "time": "1:45pm"}, {"days": "Sun", "time": "Closed"}], "id": "9851600004", "name": "USPS COLLECTION BOX - BLUE BOX", "address": {"city": "LACEY", "state": "WA", "street": "7205 MARTIN WAY E STE A", "postcode": "98516"}}},
{"geometry": {"type": "Point", "coordinates": [-122.7637854659, 47.0612805903]}, "type": "Feature", "properties": {"collection_times": [{"days": "Mon-Fri", "time": "1:30pm"}, {"days": "Sat-Sun", "time": "Closed"}], "id": "9851600006", "name": "USPS COLLECTION BOX - BLUE BOX", "address": {"city": "LACEY", "state": "WA", "street": "8306 QUINAULT DR NE", "postcode": "98516"}}},
{"geometry": {"type": "Point", "coordinates": [-122.7699628776, 47.0600313856]}, "type": "Feature", "properties": {"collection_times": [{"days": "Mon-Fri", "time": "3:00pm"}, {"days": "Sat", "time": "1:45pm"}, {"days": "Sun", "time": "Closed"}], "id": "9851600009", "name": "USPS COLLECTION BOX - BLUE BOX", "address": {"city": "LACEY", "state": "WA", "street": "1401 GALAXY DR NE", "postcode": "98516"}}},
{"geometry": {"type": "Point", "coordinates": [-122.8289381139, 47.0482431995]}, "type": "Feature", "properties": {"collection_times": [{"days": "Mon-Fri", "time": "3:00pm"}, {"days": "Sat", "time": "1:30pm"}, {"days": "Sun", "time": "Closed"}], "id": "9851600010", "name": "USPS COLLECTION BOX - BLUE BOX", "address": {"city": "LACEY", "state": "WA", "street": "4280 MARTIN WAY E", "postcode": "98516"}}},
{"geometry": {"type": "Point", "coordinates": [-122.811081041, 47.0519015786]}, "type": "Feature", "properties": {"collection_times": [{"days": "Mon-Fri", "time": "3:00pm"}, {"days": "Sat", "time": "1:45pm"}, {"days": "Sun", "time": "Closed"}], "id": "9851600011", "name": "USPS COLLECTION BOX - BLUE BOX", "address": {"city": "LACEY", "state": "WA", "street": "5500 MARTIN WAY E", "postcode": "98516"}}},
{"geometry": {"type": "Point", "coordinates": [-123.8043591017, 46.9594421555]}, "type": "Feature", "properties": {"collection_times": [{"days": "Mon-Fri", "time": "1:00pm"}, {"days": "Sat", "time": "12:30pm"}, {"days": "Sun", "time": "Closed"}], "id": "9852000017", "name": "USPS COLLECTION BOX - BLUE BOX", "address": {"city": "ABERDEEN", "state": "WA", "street": "1219 S BOONE ST", "postcode": "98520"}}},
{"geometry": {"type": "Point", "coordinates": [-123.8022481014, 46.969912435]}, "type": "Feature", "properties": {"collection_times": [{"days": "Mon-Fri", "time": "1:00pm"}, {"days": "Sat", "time": "12:30pm"}, {"days": "Sun", "time": "Closed"}], "id": "9852000018", "name": "USPS COLLECTION BOX - BLUE BOX", "address": {"city": "ABERDEEN", "state": "WA", "street": "220 N BOONE ST", "postcode": "98520"}}},
{"geometry": {"type": "Point", "coordinates": [-123.8074719671, 46.9771748196]}, "type": "Feature", "properties": {"collection_times": [{"days": "Mon-Fri", "time": "1:00pm"}, {"days": "Sat", "time": "12:30pm"}, {"days": "Sun", "time": "Closed"}], "id": "9852000019", "name": "USPS COLLECTION BOX - BLUE BOX", "address": {"city": "ABERDEEN", "state": "WA", "street": "909 E WISHKAH ST", "postcode": "98520"}}},
{"geometry": {"type": "Point", "coordinates": [-123.8174891945, 46.9757257334]}, "type": "Feature", "properties": {"collection_times": [{"days": "Mon-Sat", "time": "9:00am"}, {"days": "Sun", "time": "Closed"}], "id": "9852000026", "name": "USPS COLLECTION BOX - BLUE BOX", "address": {"city": "ABERDEEN", "state": "WA", "street": "100 S I ST", "postcode": "98520"}}},
{"geometry": {"type": "Point", "coordinates": [-123.8446293037, 46.9695016367]}, "type": "Feature", "properties": {"collection_times": [{"days": "Mon-Fri", "time": "1:00pm"}, {"days": "Sat-Sun", "time": "Closed"}], "id": "9852000030", "name": "USPS COLLECTION BOX - BLUE BOX", "address": {"city": "ABERDEEN", "state": "WA", "street": "111 S WOODING ST", "postcode": "98520"}}},
{"geometry": {"type": "Point", "coordinates": [-123.8488677966, 46.9751717472]}, "type": "Feature", "properties": {"collection_times": [{"days": "Mon-Sat", "time": "9:30am"}, {"days": "Sun", "time": "Closed"}], "id": "9852000034", "name": "USPS COLLECTION BOX - BLUE BOX", "address": {"city": "ABERDEEN", "state": "WA", "street": "2600 SIMPSON AVE", "postcode": "98520"}}},
{"geometry": {"type": "Point", "coordinates": [-123.8223529843, 46.9782289764]}, "type": "Feature", "properties": {"collection_times": [{"days": "Mon-Sat", "time": "9:30am"}, {"days": "Sun", "time": "Closed"}], "id": "9852000038", "name": "USPS COLLECTION BOX - BLUE BOX", "address": {"city": "ABERDEEN", "state": "WA", "street": "501 N BROADWAY ST", "postcode": "98520"}}},
{"geometry": {"type": "Point", "coordinates": [-123.820266513, 46.9745467724]}, "type": "Feature", "properties": {"collection_times": [{"days": "Mon-Fri", "time": "5:00pm"}, {"days": "Sat", "time": "2:00pm"}, {"days": "Sun", "time": "Closed"}], "id": "9852000039", "name": "USPS COLLECTION BOX - BLUE BOX", "address": {"city": "ABERDEEN", "state": "WA", "street": "115 N K ST", "postcode": "98520"}}},
{"geometry": {"type": "Point", "coordinates": [-123.8462989153, 46.9811406312]}, "type": "Feature", "properties": {"collection_times": [{"days": "Mon-Fri", "time": "9:30am"}, {"days": "Sat-Sun", "time": "Closed"}], "id": "9852000042", "name": "USPS COLLECTION BOX - BLUE BOX", "address": {"city": "ABERDEEN", "state": "WA", "street": "954 ANDERSON DR", "postcode": "98520"}}},
{"geometry": {"type": "Point", "coordinates": [-123.820266513, 46.9745467724]}, "type": "Feature", "properties": {"collection_times": [{"days": "Mon-Sat", "time": "1:00pm"}, {"days": "Sun", "time": "Closed"}], "id": "9852000043", "name": "USPS COLLECTION BOX - PO LOBBY", "address": {"city": "ABERDEEN", "state": "WA", "street": "115 N K ST", "postcode": "98520"}}},
{"geometry": {"type": "Point", "coordinates": [-123.8194081148, 46.9721748157]}, "type": "Feature", "properties": {"collection_times": [{"days": "Mon-Sat", "time": "11:00am"}, {"days": "Sun", "time": "Closed"}], "id": "9852000045", "name": "USPS COLLECTION BOX - BLUE BOX", "address": {"city": "ABERDEEN", "state": "WA", "street": "301 W HERON ST", "postcode": "98520"}}},
{"geometry": {"type": "Point", "coordinates": [-123.81978, 46.972076]}, "type": "Feature", "properties": {"collection_times": [{"days": "Mon-Sat", "time": "9:00am"}, {"days": "Sun", "time": "Closed"}], "id": "9852000047", "name": "USPS COLLECTION BOX - BLUE BOX", "address": {"city": "ABERDEEN", "state": "WA", "street": "324 W HERON ST", "postcode": "98520"}}},
{"geometry": {"type": "Point", "coordinates": [-123.8378367147, 46.9760992739]}, "type": "Feature", "properties": {"collection_times": [{"days": "Mon-Fri", "time": "1:00pm"}, {"days": "Sat", "time": "12:30pm"}, {"days": "Sun", "time": "Closed"}], "id": "9852000048", "name": "USPS COLLECTION BOX - BLUE BOX", "address": {"city": "ABERDEEN", "state": "WA", "street": "1812 SUMNER AVE", "postcode": "98520"}}},
{"geometry": {"type": "Point", "coordinates": [-123.06, 46.6291]}, "type": "Feature", "properties": {"collection_times": [{"days": "Mon-Fri", "time": "1:45pm"}, {"days": "Sat", "time": "10:30am"}, {"days": "Sun", "time": "Closed"}], "id": "9852200000", "name": "USPS COLLECTION BOX - BLUE BOX", "address": {"city": "ADNA", "state": "WA", "street": "109 BUNKER CREEK HWY", "postcode": "98522"}}},
{"geometry": {"type": "Point", "coordinates": [-123.06, 46.6291]}, "type": "Feature", "properties": {"collection_times": [{"days": "Mon-Fri", "time": "1:45pm"}, {"days": "Sat", "time": "10:30am"}, {"days": "Sun", "time": "Closed"}], "id": "9852200001", "name": "USPS COLLECTION BOX - PO LOBBY", "address": {"city": "ADNA", "state": "WA", "street": "109 BUNKER CREEK HWY", "postcode": "98522"}}},
{"geometry": {"type": "Point", "coordinates": [-122.8472574467, 47.3560882466]}, "type": "Feature", "properties": {"collection_times": [{"days": "Mon-Fri", "time": "1:30pm"}, {"days": "Sat", "time": "9:45am"}, {"days": "Sun", "time": "Closed"}], "id": "9852400001", "name": "USPS COLLECTION BOX - BLUE BOX", "address": {"city": "ALLYN", "state": "WA", "street": "18329 E STATE ROUTE 3", "postcode": "98524"}}},
{"geometry": {"type": "Point", "coordinates": [-122.8472574467, 47.3560882466]}, "type": "Feature", "properties": {"collection_times": [{"days": "Mon-Fri", "time": "1:30pm"}, {"days": "Sat", "time": "10:00am"}, {"days": "Sun", "time": "Closed"}], "id": "9852400002", "name": "USPS COLLECTION BOX - PO LOBBY", "address": {"city": "ALLYN", "state": "WA", "street": "18329 E STATE ROUTE 3", "postcode": "98524"}}},
{"geometry": {"type": "Point", "coordinates": [-122.8472574467, 47.3560882466]}, "type": "Feature", "properties": {"collection_times": [{"days": "Mon-Fri", "time": "1:30pm"}, {"days": "Sat", "time": "10:00am"}, {"days": "Sun", "time": "Closed"}], "id": "9852400003", "name": "USPS COLLECTION BOX - PO LOBBY", "address": {"city": "ALLYN", "state": "WA", "street": "18329 E STATE ROUTE 3", "postcode": "98524"}}},
{"geometry": {"type": "Point", "coordinates": [-123.89195, 47.45907]}, "type": "Feature", "properties": {"collection_times": [{"days": "Mon-Fri", "time": "12:00pm"}, {"days": "Sat", "time": "10:00am"}, {"days": "Sun", "time": "Closed"}], "id": "9852600001", "name": "USPS COLLECTION BOX - PO LOBBY", "address": {"city": "AMANDA PARK", "state": "WA", "street": "6094 US HIGHWAY 101", "postcode": "98526"}}},
{"geometry": {"type": "Point", "coordinates": [-123.9551089023, 46.6315499154]}, "type": "Feature", "properties": {"collection_times": [{"days": "Mon-Fri", "time": "12:45pm"}, {"days": "Sat", "time": "11:30am"}, {"days": "Sun", "time": "Closed"}], "id": "9852700000", "name": "USPS COLLECTION BOX - BLUE BOX", "address": {"city": "BAY CENTER", "state": "WA", "street": "3 MAIN ST E", "postcode": "98527"}}},
{"geometry": {"type": "Point", "coordinates": [-123.9551089023, 46.6315499154]}, "type": "Feature", "properties": {"collection_times": [{"days": "Mon-Fri", "time": "12:45pm"}, {"days": "Sat", "time": "11:30am"}, {"days": "Sun", "time": "Closed"}], "id": "9852700001", "name": "USPS COLLECTION BOX - PO LOBBY", "address": {"city": "BAY CENTER", "state": "WA", "street": "3 MAIN ST E", "postcode": "98527"}}},
{"geometry": {"type": "Point", "coordinates": [-122.8898924533, 47.4437957862]}, "type": "Feature", "properties": {"collection_times": [{"days": "Mon-Fri", "time": "1:15pm"}, {"days": "Sat", "time": "1:00pm"}, {"days": "Sun", "time": "Closed"}], "id": "9852800002", "name": "USPS COLLECTION BOX - BLUE BOX", "address": {"city": "BELFAIR", "state": "WA", "street": "60 NE RIDGE POINT BLVD", "postcode": "98528"}}},
{"geometry": {"type": "Point", "coordinates": [-122.8898924533, 47.4437957862]}, "type": "Feature", "properties": {"collection_times": [{"days": "Mon-Fri", "time": "1:15pm"}, {"days": "Sat", "time": "12:00pm"}, {"days": "Sun", "time": "Closed"}], "id": "9852800004", "name": "USPS COLLECTION BOX - PO LOBBY", "address": {"city": "BELFAIR", "state": "WA", "street": "60 NE RIDGE POINT BLVD", "postcode": "98528"}}},
{"geometry": {"type": "Point", "coordinates": [-122.8898924533, 47.4437957862]}, "type": "Feature", "properties": {"collection_times": [{"days": "Mon-Fri", "time": "1:15pm"}, {"days": "Sat", "time": "12:00pm"}, {"days": "Sun", "time": "Closed"}], "id": "9852800005", "name": "USPS COLLECTION BOX - PO LOBBY", "address": {"city": "BELFAIR", "state": "WA", "street": "60 NE RIDGE POINT BLVD", "postcode": "98528"}}},
{"geometry": {"type": "Point", "coordinates": [-122.8281256837, 47.4538780531]}, "type": "Feature", "properties": {"collection_times": [{"days": "Mon-Sat", "time": "10:00am"}, {"days": "Sun", "time": "Closed"}], "id": "9852800006", "name": "USPS COLLECTION BOX - BLUE BOX", "address": {"city": "BELFAIR", "state": "WA", "street": "51 NE STATE ROUTE 300", "postcode": "98528"}}},
{"geometry": {"type": "Point", "coordinates": [-122.8232182947, 47.4530479022]}, "type": "Feature", "properties": {"collection_times": [{"days": "Mon-Sat", "time": "10:00am"}, {"days": "Sun", "time": "Closed"}], "id": "9852800007", "name": "USPS COLLECTION BOX - BLUE BOX", "address": {"city": "BELFAIR", "state": "WA", "street": "23961 NE STATE ROUTE 3", "postcode": "98528"}}},
{"geometry": {"type": "Point", "coordinates": [-122.8681789531, 46.7995345554]}, "type": "Feature", "properties": {"collection_times": [{"days": "Mon-Fri", "time": "1:45pm"}, {"days": "Sat", "time": "9:30am"}, {"days": "Sun", "time": "Closed"}], "id": "9853000001", "name": "USPS COLLECTION BOX - BLUE BOX", "address": {"city": "BUCODA", "state": "WA", "street": "108 MAIN ST", "postcode": "98530"}}},
{"geometry": {"type": "Point", "coordinates": [-122.9839914695, 46.7136828205]}, "type": "Feature", "properties": {"collection_times": [{"days": "Mon-Sat", "time": "2:00pm"}, {"days": "Sun", "time": "Closed"}], "id": "9853100004", "name": "USPS COLLECTION BOX - BLUE BOX", "address": {"city": "CENTRALIA", "state": "WA", "street": "1800 COOKS HILL RD", "postcode": "98531"}}},
{"geometry": {"type": "Point", "coordinates": [-122.9551770824, 46.7173873382]}, "type": "Feature", "properties": {"collection_times": [{"days": "Mon-Sat", "time": "2:00pm"}, {"days": "Sun", "time": "Closed"}], "id": "9853100014", "name": "USPS COLLECTION BOX - BLUE BOX", "address": {"city": "CENTRALIA", "state": "WA", "street": "202 W PINE ST", "postcode": "98531"}}},
{"geometry": {"type": "Point", "coordinates": [-122.9802655496, 46.7285623662]}, "type": "Feature", "properties": {"collection_times": [{"days": "Mon-Sat", "time": "2:00pm"}, {"days": "Sun", "time": "Closed"}], "id": "9853100019", "name": "USPS COLLECTION BOX - BLUE BOX", "address": {"city": "CENTRALIA", "state": "WA", "street": "1121 HARRISON AVE", "postcode": "98531"}}},
{"geometry": {"type": "Point", "coordinates": [-122.9793322906, 46.7408055699]}, "type": "Feature", "properties": {"collection_times": [{"days": "Mon-Sat", "time": "2:00pm"}, {"days": "Sun", "time": "Closed"}], "id": "9853100043", "name": "USPS COLLECTION BOX - PO LOBBY", "address": {"city": "CENTRALIA", "state": "WA", "street": "214 CENTRALIA COLLEGE BLVD", "postcode": "98531"}}},
{"geometry": {"type": "Point", "coordinates": [-122.9562428514, 46.7155680257]}, "type": "Feature", "properties": {"collection_times": [{"days": "Mon-Sat", "time": "2:00pm"}, {"days": "Sun", "time": "Closed"}], "id": "9853100046", "name": "USPS COLLECTION BOX - BLUE BOX", "address": {"city": "CENTRALIA", "state": "WA", "street": "214 CENTRALIA COLLEGE BLVD", "postcode": "98531"}}},
{"geometry": {"type": "Point", "coordinates": [-123.0006825285, 46.7381920939]}, "type": "Feature", "properties": {"collection_times": [{"days": "Mon-Sat", "time": "2:00pm"}, {"days": "Sun", "time": "Closed"}], "id": "9853100051", "name": "USPS COLLECTION BOX - BLUE BOX", "address": {"city": "CENTRALIA", "state": "WA", "street": "3615 NORTHPARK DR", "postcode": "98531"}}},
{"geometry": {"type": "Point", "coordinates": [-122.9541906984, 46.7162819137]}, "type": "Feature", "properties": {"collection_times": [{"days": "Mon-Sat", "time": "2:00pm"}, {"days": "Sun", "time": "Closed"}], "id": "9853100054", "name": "USPS COLLECTION BOX - BLUE BOX", "address": {"city": "CENTRALIA", "state": "WA", "street": "102 N TOWER AVE", "postcode": "98531"}}},
{"geometry": {"type": "Point", "coordinates": [-122.9546818565, 46.7186270608]}, "type": "Feature", "properties": {"collection_times": [{"days": "Mon-Sat", "time": "2:00pm"}, {"days": "Sun", "time": "Closed"}], "id": "9853100055", "name": "USPS COLLECTION BOX - BLUE BOX", "address": {"city": "CENTRALIA", "state": "WA", "street": "321 N PEARL ST", "postcode": "98531"}}},
{"geometry": {"type": "Point", "coordinates": [-122.957302424, 46.6971377577]}, "type": "Feature", "properties": {"collection_times": [{"days": "Mon-Sat", "time": "2:00pm"}, {"days": "Sun", "time": "Closed"}], "id": "9853100056", "name": "USPS COLLECTION BOX - BLUE BOX", "address": {"city": "CENTRALIA", "state": "WA", "street": "1626 S GOLD ST", "postcode": "98531"}}},
{"geometry": {"type": "Point", "coordinates": [-122.9562428514, 46.7155680257]}, "type": "Feature", "properties": {"collection_times": [{"days": "Mon-Sat", "time": "2:00pm"}, {"days": "Sun", "time": "Closed"}], "id": "9853100057", "name": "USPS COLLECTION BOX - BLUE BOX", "address": {"city": "CENTRALIA", "state": "WA", "street": "214 CENTRALIA COLLEGE BLVD", "postcode": "98531"}}},
{"geometry": {"type": "Point", "coordinates": [-122.9693415884, 46.661903292]}, "type": "Feature", "properties": {"collection_times": [{"days": "Mon-Sat", "time": "2:00pm"}, {"days": "Sun", "time": "Closed"}], "id": "9853200001", "name": "USPS COLLECTION BOX - BLUE BOX", "address": {"city": "CHEHALIS", "state": "WA", "street": "351 NW NORTH ST", "postcode": "98532"}}},
{"geometry": {"type": "Point", "coordinates": [-122.9620038762, 46.682665739]}, "type": "Feature", "properties": {"collection_times": [{"days": "Mon-Sat", "time": "2:00pm"}, {"days": "Sun", "time": "Closed"}], "id": "9853200005", "name": "USPS COLLECTION BOX - BLUE BOX", "address": {"city": "CHEHALIS", "state": "WA", "street": "2100 N NATIONAL AVE", "postcode": "98532"}}},
{"geometry": {"type": "Point", "coordinates": [-122.9575460163, 46.6880217692]}, "type": "Feature", "properties": {"collection_times": [{"days": "Mon-Sat", "time": "2:00pm"}, {"days": "Sun", "time": "Closed"}], "id": "9853200006", "name": "USPS COLLECTION BOX - BLUE BOX", "address": {"city": "CHEHALIS", "state": "WA", "street": "151 NE HAMPE WAY", "postcode": "98532"}}},
{"geometry": {"type": "Point", "coordinates": [-122.9699810852, 46.6653864799]}, "type": "Feature", "properties": {"collection_times": [{"days": "Mon-Sat", "time": "2:00pm"}, {"days": "Sun", "time": "Closed"}], "id": "9853200007", "name": "USPS COLLECTION BOX - BLUE BOX", "address": {"city": "CHEHALIS", "state": "WA", "street": "510 N MARKET BLVD", "postcode": "98532"}}},
{"geometry": {"type": "Point", "coordinates": [-122.9672333151, 46.6630092673]}, "type": "Feature", "properties": {"collection_times": [{"days": "Mon-Sat", "time": "2:00pm"}, {"days": "Sun", "time": "Closed"}], "id": "9853200009", "name": "USPS COLLECTION BOX - PO LOBBY", "address": {"city": "CHEHALIS", "state": "WA", "street": "225 NW CASCADE AVE", "postcode": "98532"}}},
{"geometry": {"type": "Point", "coordinates": [-122.9672333151, 46.6630092673]}, "type": "Feature", "properties": {"collection_times": [{"days": "Mon-Sat", "time": "2:00pm"}, {"days": "Sun", "time": "Closed"}], "id": "9853200010", "name": "USPS COLLECTION BOX - PO LOBBY", "address": {"city": "CHEHALIS", "state": "WA", "street": "225 NW CASCADE AVE", "postcode": "98532"}}},
{"geometry": {"type": "Point", "coordinates": [-122.9672333151, 46.6630092673]}, "type": "Feature", "properties": {"collection_times": [{"days": "Mon-Fri", "time": "5:00pm"}, {"days": "Sat", "time": "2:00pm"}, {"days": "Sun", "time": "Closed"}], "id": "9853200011", "name": "USPS COLLECTION BOX - BLUE BOX", "address": {"city": "CHEHALIS", "state": "WA", "street": "225 NW CASCADE AVE", "postcode": "98532"}}},
{"geometry": {"type": "Point", "coordinates": [-122.978202464, 46.6745690855]}, "type": "Feature", "properties": {"collection_times": [{"days": "Mon-Sat", "time": "2:00pm"}, {"days": "Sun", "time": "Closed"}], "id": "9853200017", "name": "USPS COLLECTION BOX - BLUE BOX", "address": {"city": "CHEHALIS", "state": "WA", "street": "1601 NW LOUISIANA AVE", "postcode": "98532"}}},
{"geometry": {"type": "Point", "coordinates": [-122.5409399622, 46.5780672427]}, "type": "Feature", "properties": {"collection_times": [{"days": "Mon-Fri", "time": "1:45pm"}, {"days": "Sat", "time": "11:15am"}, {"days": "Sun", "time": "Closed"}], "id": "9853300000", "name": "USPS COLLECTION BOX - BLUE BOX", "address": {"city": "CINEBAR", "state": "WA", "street": "110B JUSTUS RD", "postcode": "98533"}}},
{"geometry": {"type": "Point", "coordinates": [-124.1659291031, 47.114787312]}, "type": "Feature", "properties": {"collection_times": [{"days": "Mon-Fri", "time": "12:30pm"}, {"days": "Sat", "time": "10:00am"}, {"days": "Sun", "time": "Closed"}], "id": "9853500000", "name": "USPS COLLECTION BOX - BLUE BOX", "address": {"city": "COPALIS BEACH", "state": "WA", "street": "731 COPALIS BEACH RD", "postcode": "98535"}}},
{"geometry": {"type": "Point", "coordinates": [-124.1659291031, 47.114787312]}, "type": "Feature", "properties": {"collection_times": [{"days": "Mon-Fri", "time": "12:30pm"}, {"days": "Sat", "time": "10:00am"}, {"days": "Sun", "time": "Closed"}], "id": "9853500001", "name": "USPS COLLECTION BOX - PO LOBBY", "address": {"city": "COPALIS BEACH", "state": "WA", "street": "731 COPALIS BEACH RD", "postcode": "98535"}}},
{"geometry": {"type": "Point", "coordinates": [-124.0749168781, 47.1108088459]}, "type": "Feature", "properties": {"collection_times": [{"days": "Mon-Fri", "time": "12:30pm"}, {"days": "Sat", "time": "10:30am"}, {"days": "Sun", "time": "Closed"}], "id": "9853600000", "name": "USPS COLLECTION BOX - PO LOBBY", "address": {"city": "COPALIS XING", "state": "WA", "street": "1663 OCEAN BEACH RD", "postcode": "98536"}}},
{"geometry": {"type": "Point", "coordinates": [-124.0692868338, 47.1079268327]}, "type": "Feature", "properties": {"collection_times": [{"days": "Mon-Fri", "time": "12:30pm"}, {"days": "Sat", "time": "10:30am"}, {"days": "Sun", "time": "Closed"}], "id": "9853600001", "name": "USPS COLLECTION BOX - BLUE BOX", "address": {"city": "COPALIS XING", "state": "WA", "street": "1663 OCEAN BEACH RD", "postcode": "98536"}}},
{"geometry": {"type": "Point", "coordinates": [-124.0987460941, 47.1413189957]}, "type": "Feature", "properties": {"collection_times": [{"days": "Mon-Sat", "time": "10:30am"}, {"days": "Sun", "time": "Closed"}], "id": "9853600002", "name": "USPS COLLECTION BOX - BLUE BOX", "address": {"city": "COPALIS XING", "state": "WA", "street": "1683 OCEAN BEACH RD", "postcode": "98536"}}},
{"geometry": {"type": "Point", "coordinates": [-123.6294985351, 46.8479789844]}, "type": "Feature", "properties": {"collection_times": [{"days": "Mon-Fri", "time": "1:00pm"}, {"days": "Sat", "time": "10:00am"}, {"days": "Sun", "time": "Closed"}], "id": "9853700000", "name": "USPS COLLECTION BOX - BLUE BOX", "address": {"city": "COSMOPOLIS", "state": "WA", "street": "114 F ST", "postcode": "98537"}}},
{"geometry": {"type": "Point", "coordinates": [-123.772449122, 46.9562530487]}, "type": "Feature", "properties": {"collection_times": [{"days": "Mon-Fri", "time": "1:00pm"}, {"days": "Sat", "time": "10:00am"}, {"days": "Sun", "time": "Closed"}], "id": "9853700001", "name": "USPS COLLECTION BOX - PO LOBBY", "address": {"city": "COSMOPOLIS", "state": "WA", "street": "114 F ST", "postcode": "98537"}}},
{"geometry": {"type": "Point", "coordinates": [-123.772449122, 46.9562530487]}, "type": "Feature", "properties": {"collection_times": [{"days": "Mon-Fri", "time": "1:00pm"}, {"days": "Sat", "time": "10:00am"}, {"days": "Sun", "time": "Closed"}], "id": "9853700002", "name": "USPS COLLECTION BOX - PO LOBBY", "address": {"city": "COSMOPOLIS", "state": "WA", "street": "114 F ST", "postcode": "98537"}}},
{"geometry": {"type": "Point", "coordinates": [-123.1250103053, 46.5686902402]}, "type": "Feature", "properties": {"collection_times": [{"days": "Mon-Fri", "time": "1:45pm"}, {"days": "Sat", "time": "9:30am"}, {"days": "Sun", "time": "Closed"}], "id": "9853800000", "name": "USPS COLLECTION BOX - BLUE BOX", "address": {"city": "CURTIS", "state": "WA", "street": "388 BOISTFORT RD", "postcode": "98538"}}},
{"geometry": {"type": "Point", "coordinates": [-123.1250103053, 46.5686902402]}, "type": "Feature", "properties": {"collection_times": [{"days": "Mon-Fri", "time": "1:45pm"}, {"days": "Sat", "time": "9:30am"}, {"days": "Sun", "time": "Closed"}], "id": "9853800001", "name": "USPS COLLECTION BOX - PO LOBBY", "address": {"city": "CURTIS", "state": "WA", "street": "388 BOISTFORT RD", "postcode": "98538"}}},
{"geometry": {"type": "Point", "coordinates": [-123.2815157346, 46.6378458284]}, "type": "Feature", "properties": {"collection_times": [{"days": "Mon-Fri", "time": "1:30pm"}, {"days": "Sat", "time": "9:30am"}, {"days": "Sun", "time": "Closed"}], "id": "9853900000", "name": "USPS COLLECTION BOX - BLUE BOX", "address": {"city": "DOTY", "state": "WA", "street": "212 STEVENS RD", "postcode": "98539"}}},
{"geometry": {"type": "Point", "coordinates": [-123.2813144619, 46.6377261964]}, "type": "Feature", "properties": {"collection_times": [{"days": "Mon-Fri", "time": "1:30pm"}, {"days": "Sat", "time": "9:30am"}, {"days": "Sun", "time": "Closed"}], "id": "9853900001", "name": "USPS COLLECTION BOX - PO LOBBY", "address": {"city": "DOTY", "state": "WA", "street": "212 STEVENS RD", "postcode": "98539"}}},
{"geometry": {"type": "Point", "coordinates": [-122.8351425028, 46.9668837226]}, "type": "Feature", "properties": {"collection_times": [{"days": "Mon-Fri", "time": "3:00pm"}, {"days": "Sat", "time": "10:45am"}, {"days": "Sun", "time": "Closed"}], "id": "9854000001", "name": "USPS COLLECTION BOX - PO LOBBY", "address": {"city": "EAST OLYMPIA", "state": "WA", "street": "8315 NORMANDY ST SE", "postcode": "98540"}}},
{"geometry": {"type": "Point", "coordinates": [-122.8351425028, 46.9668837226]}, "type": "Feature", "properties": {"collection_times": [{"days": "Mon-Fri", "time": "3:00pm"}, {"days": "Sat", "time": "10:45am"}, {"days": "Sun", "time": "Closed"}], "id": "9854000003", "name": "USPS COLLECTION BOX - PO LOBBY", "address": {"city": "EAST OLYMPIA", "state": "WA", "street": "8315 NORMANDY ST SE", "postcode": "98540"}}},
{"geometry": {"type": "Point", "coordinates": [-122.8351425028, 46.9668837226]}, "type": "Feature", "properties": {"collection_times": [{"days": "Mon-Fri", "time": "3:00pm"}, {"days": "Sat", "time": "10:45am"}, {"days": "Sun", "time": "Closed"}], "id": "9854000004", "name": "USPS COLLECTION BOX - BLUE BOX", "address": {"city": "EAST OLYMPIA", "state": "WA", "street": "8315 NORMANDY ST SE", "postcode": "98540"}}},
{"geometry": {"type": "Point", "coordinates": [-123.4029040036, 47.0053378265]}, "type": "Feature", "properties": {"collection_times": [{"days": "Mon-Sat", "time": "2:00pm"}, {"days": "Sun", "time": "Closed"}], "id": "9854100001", "name": "USPS COLLECTION BOX - BLUE BOX", "address": {"city": "ELMA", "state": "WA", "street": "204 W YOUNG ST", "postcode": "98541"}}},
{"geometry": {"type": "Point", "coordinates": [-123.4029040036, 47.0053378265]}, "type": "Feature", "properties": {"collection_times": [{"days": "Mon-Sat", "time": "2:00pm"}, {"days": "Sun", "time": "Closed"}], "id": "9854100002", "name": "USPS COLLECTION BOX - PO LOBBY", "address": {"city": "ELMA", "state": "WA", "street": "204 W YOUNG ST", "postcode": "98541"}}},
{"geometry": {"type": "Point", "coordinates": [-123.4029040036, 47.0053378265]}, "type": "Feature", "properties": {"collection_times": [{"days": "Mon-Sat", "time": "2:00pm"}, {"days": "Sun", "time": "Closed"}], "id": "9854100003", "name": "USPS COLLECTION BOX - PO LOBBY", "address": {"city": "ELMA", "state": "WA", "street": "204 W YOUNG ST", "postcode": "98541"}}},
{"geometry": {"type": "Point", "coordinates": [-123.3924882075, 47.0055979283]}, "type": "Feature", "properties": {"collection_times": [{"days": "Mon-Fri", "time": "1:30pm"}, {"days": "Sat", "time": "12:30pm"}, {"days": "Sun", "time": "Closed"}], "id": "9854100006", "name": "USPS COLLECTION BOX - BLUE BOX", "address": {"city": "ELMA", "state": "WA", "street": "800 E MAIN ST", "postcode": "98541"}}},
{"geometry": {"type": "Point", "coordinates": [-122.7617372116, 46.5355591954]}, "type": "Feature", "properties": {"collection_times": [{"days": "Mon-Fri", "time": "3:30pm"}, {"days": "Sat", "time": "9:15am"}, {"days": "Sun", "time": "Closed"}], "id": "9854200000", "name": "USPS COLLECTION BOX - BLUE BOX", "address": {"city": "ETHEL", "state": "WA", "street": "1421 US HIGHWAY 12", "postcode": "98542"}}},
{"geometry": {"type": "Point", "coordinates": [-122.7617372116, 46.5355591954]}, "type": "Feature", "properties": {"collection_times": [{"days": "Mon-Fri", "time": "11:30am"}, {"days": "Sat", "time": "9:15am"}, {"days": "Sun", "time": "Closed"}], "id": "9854200001", "name": "USPS COLLECTION BOX - PO LOBBY", "address": {"city": "ETHEL", "state": "WA", "street": "1421 US HIGHWAY 12", "postcode": "98542"}}},
{"geometry": {"type": "Point", "coordinates": [-123.0257991254, 46.742497871]}, "type": "Feature", "properties": {"collection_times": [{"days": "Mon-Fri", "time": "2:00pm"}, {"days": "Sat", "time": "9:30am"}, {"days": "Sun", "time": "Closed"}], "id": "9854400000", "name": "USPS COLLECTION BOX - BLUE BOX", "address": {"city": "GALVIN", "state": "WA", "street": "4810 GALVIN RD", "postcode": "98544"}}},
{"geometry": {"type": "Point", "coordinates": [-123.0262537156, 46.7415628483]}, "type": "Feature", "properties": {"collection_times": [{"days": "Mon-Fri", "time": "2:00pm"}, {"days": "Sat", "time": "9:30am"}, {"days": "Sun", "time": "Closed"}], "id": "9854400001", "name": "USPS COLLECTION BOX - PO LOBBY", "address": {"city": "GALVIN", "state": "WA", "street": "4810 GALVIN RD", "postcode": "98544"}}},
{"geometry": {"type": "Point", "coordinates": [-122.834359812, 47.3499539013]}, "type": "Feature", "properties": {"collection_times": [{"days": "Mon-Fri", "time": "1:30pm"}, {"days": "Sat", "time": "11:00am"}, {"days": "Sun", "time": "Closed"}], "id": "9854600000", "name": "USPS COLLECTION BOX - BLUE BOX", "address": {"city": "GRAPEVIEW", "state": "WA", "street": "4290 E GRAPEVIEW LOOP RD", "postcode": "98546"}}},
{"geometry": {"type": "Point", "coordinates": [-122.834359812, 47.3499539013]}, "type": "Feature", "properties": {"collection_times": [{"days": "Mon-Fri", "time": "1:30pm"}, {"days": "Sat", "time": "11:00am"}, {"days": "Sun", "time": "Closed"}], "id": "9854600001", "name": "USPS COLLECTION BOX - PO LOBBY", "address": {"city": "GRAPEVIEW", "state": "WA", "street": "4290 E GRAPEVIEW LOOP RD", "postcode": "98546"}}},
{"geometry": {"type": "Point", "coordinates": [-124.09243096, 46.8099323672]}, "type": "Feature", "properties": {"collection_times": [{"days": "Mon-Fri", "time": "12:30pm"}, {"days": "Sat", "time": "11:00am"}, {"days": "Sun", "time": "Closed"}], "id": "9854700000", "name": "USPS COLLECTION BOX - BLUE BOX", "address": {"city": "GRAYLAND", "state": "WA", "street": "883 CRANBERRY RD", "postcode": "98547"}}},
{"geometry": {"type": "Point", "coordinates": [-124.09243096, 46.8099323672]}, "type": "Feature", "properties": {"collection_times": [{"days": "Mon-Fri", "time": "12:30pm"}, {"days": "Sat", "time": "11:00am"}, {"days": "Sun", "time": "Closed"}], "id": "9854700002", "name": "USPS COLLECTION BOX - PO LOBBY", "address": {"city": "GRAYLAND", "state": "WA", "street": "883 CRANBERRY RD", "postcode": "98547"}}},
{"geometry": {"type": "Point", "coordinates": [-124.09243096, 46.8099323672]}, "type": "Feature", "properties": {"collection_times": [{"days": "Mon-Fri", "time": "12:30pm"}, {"days": "Sat", "time": "11:00am"}, {"days": "Sun", "time": "Closed"}], "id": "9854700003", "name": "USPS COLLECTION BOX - PO LOBBY", "address": {"city": "GRAYLAND", "state": "WA", "street": "883 CRANBERRY RD", "postcode": "98547"}}},
{"geometry": {"type": "Point", "coordinates": [-123.1415165623, 47.4063774776]}, "type": "Feature", "properties": {"collection_times": [{"days": "Mon-Sat", "time": "1:00pm"}, {"days": "Sun", "time": "Closed"}], "id": "9854800001", "name": "USPS COLLECTION BOX - PO LOBBY", "address": {"city": "HOODSPORT", "state": "WA", "street": "76 N LAKE CUSHMAN RD", "postcode": "98548"}}},
{"geometry": {"type": "Point", "coordinates": [-123.1415165623, 47.4063774776]}, "type": "Feature", "properties": {"collection_times": [{"days": "Mon-Sat", "time": "1:00pm"}, {"days": "Sun", "time": "Closed"}], "id": "9854800002", "name": "USPS COLLECTION BOX - PO LOBBY", "address": {"city": "HOODSPORT", "state": "WA", "street": "76 N LAKE CUSHMAN RD", "postcode": "98548"}}},
{"geometry": {"type": "Point", "coordinates": [-123.1415165623, 47.4063774776]}, "type": "Feature", "properties": {"collection_times": [{"days": "Mon-Sat", "time": "1:00pm"}, {"days": "Sun", "time": "Closed"}], "id": "9854800003", "name": "USPS COLLECTION BOX - BLUE BOX", "address": {"city": "HOODSPORT", "state": "WA", "street": "76 N LAKE CUSHMAN RD", "postcode": "98548"}}},
{"geometry": {"type": "Point", "coordinates": [-123.8666184853, 46.9751902663]}, "type": "Feature", "properties": {"collection_times": [{"days": "Mon-Sat", "time": "1:00pm"}, {"days": "Sun", "time": "Closed"}], "id": "9855000000", "name": "USPS COLLECTION BOX - BLUE BOX", "address": {"city": "HOQUIAM", "state": "WA", "street": "2544 SIMPSON AVE", "postcode": "98550"}}},
{"geometry": {"type": "Point", "coordinates": [-123.889339063, 46.980930485]}, "type": "Feature", "properties": {"collection_times": [{"days": "Mon-Sat", "time": "1:00pm"}, {"days": "Sun", "time": "Closed"}], "id": "9855000001", "name": "USPS COLLECTION BOX - BLUE BOX", "address": {"city": "HOQUIAM", "state": "WA", "street": "305 SIMPSON AVE", "postcode": "98550"}}},
{"geometry": {"type": "Point", "coordinates": [-123.8846973218, 46.9765744609]}, "type": "Feature", "properties": {"collection_times": [{"days": "Mon-Sat", "time": "1:00pm"}, {"days": "Sun", "time": "Closed"}], "id": "9855000002", "name": "USPS COLLECTION BOX - BLUE BOX", "address": {"city": "HOQUIAM", "state": "WA", "street": "400 8TH ST", "postcode": "98550"}}},
{"geometry": {"type": "Point", "coordinates": [-123.8847647602, 46.9777776392]}, "type": "Feature", "properties": {"collection_times": [{"days": "Mon-Sat", "time": "1:00pm"}, {"days": "Sun", "time": "Closed"}], "id": "9855000003", "name": "USPS COLLECTION BOX - BLUE BOX", "address": {"city": "HOQUIAM", "state": "WA", "street": "727 SIMPSON AVE", "postcode": "98550"}}},
{"geometry": {"type": "Point", "coordinates": [-123.8870836262, 46.9749775548]}, "type": "Feature", "properties": {"collection_times": [{"days": "Mon-Fri", "time": "5:00pm"}, {"days": "Sat", "time": "2:00pm"}, {"days": "Sun", "time": "Closed"}], "id": "9855000006", "name": "USPS COLLECTION BOX - BLUE BOX", "address": {"city": "HOQUIAM", "state": "WA", "street": "620 8TH ST", "postcode": "98550"}}},
{"geometry": {"type": "Point", "coordinates": [-123.8880627263, 46.974191402]}, "type": "Feature", "properties": {"collection_times": [{"days": "Mon-Sat", "time": "1:00pm"}, {"days": "Sun", "time": "Closed"}], "id": "9855000007", "name": "USPS COLLECTION BOX - BLUE BOX", "address": {"city": "HOQUIAM", "state": "WA", "street": "719 8TH ST", "postcode": "98550"}}},
{"geometry": {"type": "Point", "coordinates": [-123.8931637898, 46.9796546907]}, "type": "Feature", "properties": {"collection_times": [{"days": "Mon-Sat", "time": "1:00pm"}, {"days": "Sun", "time": "Closed"}], "id": "9855000013", "name": "USPS COLLECTION BOX - BLUE BOX", "address": {"city": "HOQUIAM", "state": "WA", "street": "219 L ST", "postcode": "98550"}}},
{"geometry": {"type": "Point", "coordinates": [-123.8997157555, 46.9809774558]}, "type": "Feature", "properties": {"collection_times": [{"days": "Mon-Sat", "time": "9:00am"}, {"days": "Sun", "time": "Closed"}], "id": "9855000017", "name": "USPS COLLECTION BOX - BLUE BOX", "address": {"city": "HOQUIAM", "state": "WA", "street": "356 EMERSON AVE", "postcode": "98550"}}},
{"geometry": {"type": "Point", "coordinates": [-123.8855414653, 46.9842581137]}, "type": "Feature", "properties": {"collection_times": [{"days": "Mon-Sat", "time": "9:30am"}, {"days": "Sun", "time": "Closed"}], "id": "9855000019", "name": "USPS COLLECTION BOX - BLUE BOX", "address": {"city": "HOQUIAM", "state": "WA", "street": "413 LINCOLN ST", "postcode": "98550"}}},
{"geometry": {"type": "Point", "coordinates": [-123.8870836262, 46.9749775548]}, "type": "Feature", "properties": {"collection_times": [{"days": "Mon-Fri", "time": "1:00pm"}, {"days": "Sat", "time": "10:00am"}, {"days": "Sun", "time": "Closed"}], "id": "9855000021", "name": "USPS COLLECTION BOX - PO LOBBY", "address": {"city": "HOQUIAM", "state": "WA", "street": "620 8TH ST", "postcode": "98550"}}},
{"geometry": {"type": "Point", "coordinates": [-123.8870836262, 46.9749775548]}, "type": "Feature", "properties": {"collection_times": [{"days": "Mon-Fri", "time": "1:00pm"}, {"days": "Sat", "time": "10:00am"}, {"days": "Sun", "time": "Closed"}], "id": "9855000022", "name": "USPS COLLECTION BOX - PO LOBBY", "address": {"city": "HOQUIAM", "state": "WA", "street": "620 8TH ST", "postcode": "98550"}}},
{"geometry": {"type": "Point", "coordinates": [-123.9213155955, 47.3042505446]}, "type": "Feature", "properties": {"collection_times": [{"days": "Mon-Fri", "time": "12:30pm"}, {"days": "Sat", "time": "9:00am"}, {"days": "Sun", "time": "Closed"}], "id": "9855200001", "name": "USPS COLLECTION BOX - PO LOBBY", "address": {"city": "HUMPTULIPS", "state": "WA", "street": "1933 KIRKPATRICK RD", "postcode": "98552"}}},
{"geometry": {"type": "Point", "coordinates": [-120.5562630964, 47.4112505258]}, "type": "Feature", "properties": {"collection_times": [{"days": "Mon-Fri", "time": "12:30pm"}, {"days": "Sat", "time": "9:00am"}, {"days": "Sun", "time": "Closed"}], "id": "9855200002", "name": "USPS COLLECTION BOX - BLUE BOX", "address": {"city": "HUMPTULIPS", "state": "WA", "street": "1933 KIRKPATRICK RD", "postcode": "98552"}}},
{"geometry": {"type": "Point", "coordinates": [-123.5597923288, 46.5622526458]}, "type": "Feature", "properties": {"collection_times": [{"days": "Mon-Fri", "time": "1:15pm"}, {"days": "Sat", "time": "9:00am"}, {"days": "Sun", "time": "Closed"}], "id": "9855400000", "name": "USPS COLLECTION BOX - BLUE BOX", "address": {"city": "LEBAM", "state": "WA", "street": "142 LEBAM RD", "postcode": "98554"}}},
{"geometry": {"type": "Point", "coordinates": [-123.5597923288, 46.5622526458]}, "type": "Feature", "properties": {"collection_times": [{"days": "Mon-Fri", "time": "1:15pm"}, {"days": "Sat", "time": "9:00am"}, {"days": "Sun", "time": "Closed"}], "id": "9855400001", "name": "USPS COLLECTION BOX - PO LOBBY", "address": {"city": "LEBAM", "state": "WA", "street": "142 LEBAM RD", "postcode": "98554"}}},
{"geometry": {"type": "Point", "coordinates": [-123.188547146, 47.5521704254]}, "type": "Feature", "properties": {"collection_times": [{"days": "Mon-Fri", "time": "1:15pm"}, {"days": "Sat", "time": "12:15pm"}, {"days": "Sun", "time": "Closed"}], "id": "9855500000", "name": "USPS COLLECTION BOX - BLUE BOX", "address": {"city": "LILLIWAUP", "state": "WA", "street": "28611 N US HIGHWAY 101", "postcode": "98555"}}},
{"geometry": {"type": "Point", "coordinates": [-123.188547146, 47.5521704254]}, "type": "Feature", "properties": {"collection_times": [{"days": "Mon-Fri", "time": "1:15pm"}, {"days": "Sat", "time": "12:15pm"}, {"days": "Sun", "time": "Closed"}], "id": "9855500001", "name": "USPS COLLECTION BOX - PO LOBBY", "address": {"city": "LILLIWAUP", "state": "WA", "street": "28611 N US HIGHWAY 101", "postcode": "98555"}}},
{"geometry": {"type": "Point", "coordinates": [-123.0178696633, 46.9018799667]}, "type": "Feature", "properties": {"collection_times": [{"days": "Mon-Fri", "time": "2:30pm"}, {"days": "Sat", "time": "9:30am"}, {"days": "Sun", "time": "Closed"}], "id": "9855600000", "name": "USPS COLLECTION BOX - BLUE BOX", "address": {"city": "LITTLEROCK", "state": "WA", "street": "6310 128TH AVE SW", "postcode": "98556"}}},
{"geometry": {"type": "Point", "coordinates": [-123.0178696633, 46.9018799667]}, "type": "Feature", "properties": {"collection_times": [{"days": "Mon-Fri", "time": "2:30pm"}, {"days": "Sat", "time": "9:30am"}, {"days": "Sun", "time": "Closed"}], "id": "9855600001", "name": "USPS COLLECTION BOX - PO LOBBY", "address": {"city": "LITTLEROCK", "state": "WA", "street": "6310 128TH AVE SW", "postcode": "98556"}}},
{"geometry": {"type": "Point", "coordinates": [-123.2664710452, 47.0553459182]}, "type": "Feature", "properties": {"collection_times": [{"days": "Mon-Fri", "time": "1:30pm"}, {"days": "Sat", "time": "10:00am"}, {"days": "Sun", "time": "Closed"}], "id": "9855700002", "name": "USPS COLLECTION BOX - BLUE BOX", "address": {"city": "MC CLEARY", "state": "WA", "street": "117 S 4TH ST", "postcode": "98557"}}},
{"geometry": {"type": "Point", "coordinates": [-123.2664710452, 47.0553459182]}, "type": "Feature", "properties": {"collection_times": [{"days": "Mon-Fri", "time": "1:30pm"}, {"days": "Sat", "time": "10:00am"}, {"days": "Sun", "time": "Closed"}], "id": "9855700005", "name": "USPS COLLECTION BOX - PO LOBBY", "address": {"city": "MC CLEARY", "state": "WA", "street": "117 S 4TH ST", "postcode": "98557"}}},
{"geometry": {"type": "Point", "coordinates": [-122.5557223976, 46.936150722]}, "type": "Feature", "properties": {"collection_times": [{"days": "Mon-Fri", "time": "1:15pm"}, {"days": "Sat", "time": "11:30am"}, {"days": "Sun", "time": "Closed"}], "id": "9855800000", "name": "USPS COLLECTION BOX - BLUE BOX", "address": {"city": "MCKENNA", "state": "WA", "street": "9111 350TH ST S", "postcode": "98558"}}},
{"geometry": {"type": "Point", "coordinates": [-122.5557223976, 46.936150722]}, "type": "Feature", "properties": {"collection_times": [{"days": "Mon-Fri", "time": "1:15pm"}, {"days": "Sat", "time": "11:30am"}, {"days": "Sun", "time": "Closed"}], "id": "9855800002", "name": "USPS COLLECTION BOX - PO LOBBY", "address": {"city": "MCKENNA", "state": "WA", "street": "9111 350TH ST S", "postcode": "98558"}}},
{"geometry": {"type": "Point", "coordinates": [-122.5557223976, 46.936150722]}, "type": "Feature", "properties": {"collection_times": [{"days": "Mon-Fri", "time": "1:15pm"}, {"days": "Sat", "time": "11:30am"}, {"days": "Sun", "time": "Closed"}], "id": "9855800003", "name": "USPS COLLECTION BOX - PO LOBBY", "address": {"city": "MCKENNA", "state": "WA", "street": "9111 350TH ST S", "postcode": "98558"}}},
{"geometry": {"type": "Point", "coordinates": [-123.3285271478, 46.9594103935]}, "type": "Feature", "properties": {"collection_times": [{"days": "Mon-Sat", "time": "10:00am"}, {"days": "Sun", "time": "Closed"}], "id": "9855900000", "name": "USPS COLLECTION BOX - BLUE BOX", "address": {"city": "MALONE", "state": "WA", "street": "5397 STATE ROUTE 12", "postcode": "98559"}}},
{"geometry": {"type": "Point", "coordinates": [-123.3959633288, 47.2367437638]}, "type": "Feature", "properties": {"collection_times": [{"days": "Mon-Fri", "time": "1:30pm"}, {"days": "Sat", "time": "11:30am"}, {"days": "Sun", "time": "Closed"}], "id": "9856000000", "name": "USPS COLLECTION BOX - PO LOBBY", "address": {"city": "MATLOCK", "state": "WA", "street": "17490 W SHELTON MATLOCK RD STE 1", "postcode": "98560"}}},
{"geometry": {"type": "Point", "coordinates": [-123.3959633288, 47.2367437638]}, "type": "Feature", "properties": {"collection_times": [{"days": "Mon-Fri", "time": "1:30pm"}, {"days": "Sat", "time": "11:30am"}, {"days": "Sun", "time": "Closed"}], "id": "9856000001", "name": "USPS COLLECTION BOX - PO LOBBY", "address": {"city": "MATLOCK", "state": "WA", "street": "17490 W SHELTON MATLOCK RD STE 1", "postcode": "98560"}}},
{"geometry": {"type": "Point", "coordinates": [-123.6457966507, 46.6215998528]}, "type": "Feature", "properties": {"collection_times": [{"days": "Mon-Fri", "time": "1:25pm"}, {"days": "Sat", "time": "10:00am"}, {"days": "Sun", "time": "Closed"}], "id": "9856100000", "name": "USPS COLLECTION BOX - BLUE BOX", "address": {"city": "MENLO", "state": "WA", "street": "1000 HIGHWAY 6", "postcode": "98561"}}},
{"geometry": {"type": "Point", "coordinates": [-123.6457966507, 46.6215998528]}, "type": "Feature", "properties": {"collection_times": [{"days": "Mon-Fri", "time": "1:25pm"}, {"days": "Sat", "time": "10:00am"}, {"days": "Sun", "time": "Closed"}], "id": "9856100001", "name": "USPS COLLECTION BOX - PO LOBBY", "address": {"city": "MENLO", "state": "WA", "street": "1000 HIGHWAY 6", "postcode": "98561"}}},
{"geometry": {"type": "Point", "coordinates": [-124.0641471128, 47.2467101724]}, "type": "Feature", "properties": {"collection_times": [{"days": "Mon-Fri", "time": "12:15pm"}, {"days": "Sat", "time": "10:00am"}, {"days": "Sun", "time": "Closed"}], "id": "9856200001", "name": "USPS COLLECTION BOX - PO LOBBY", "address": {"city": "MOCLIPS", "state": "WA", "street": "4758 STATE ROUTE 109", "postcode": "98562"}}},
{"geometry": {"type": "Point", "coordinates": [-124.0641471128, 47.2467101724]}, "type": "Feature", "properties": {"collection_times": [{"days": "Mon-Fri", "time": "12:15pm"}, {"days": "Sat", "time": "10:00am"}, {"days": "Sun", "time": "Closed"}], "id": "9856200002", "name": "USPS COLLECTION BOX - PO LOBBY", "address": {"city": "MOCLIPS", "state": "WA", "street": "4758 STATE ROUTE 109", "postcode": "98562"}}},
{"geometry": {"type": "Point", "coordinates": [-124.0116678387, 47.3685280692]}, "type": "Feature", "properties": {"collection_times": [{"days": "Mon-Fri", "time": "12:15pm"}, {"days": "Sat", "time": "10:00am"}, {"days": "Sun", "time": "Closed"}], "id": "9856200003", "name": "USPS COLLECTION BOX - BLUE BOX", "address": {"city": "MOCLIPS", "state": "WA", "street": "4758 STATE ROUTE 109", "postcode": "98562"}}},
{"geometry": {"type": "Point", "coordinates": [-123.6008263494, 46.9814905229]}, "type": "Feature", "properties": {"collection_times": [{"days": "Mon-Sat", "time": "1:30pm"}, {"days": "Sun", "time": "Closed"}], "id": "9856300004", "name": "USPS COLLECTION BOX - BLUE BOX", "address": {"city": "MONTESANO", "state": "WA", "street": "100 W BROADWAY AVE", "postcode": "98563"}}},
{"geometry": {"type": "Point", "coordinates": [-123.6008263494, 46.9814905229]}, "type": "Feature", "properties": {"collection_times": [{"days": "Mon-Sat", "time": "1:30pm"}, {"days": "Sun", "time": "Closed"}], "id": "9856300005", "name": "USPS COLLECTION BOX - BLUE BOX", "address": {"city": "MONTESANO", "state": "WA", "street": "100 W BROADWAY AVE", "postcode": "98563"}}},
{"geometry": {"type": "Point", "coordinates": [-123.5986794114, 46.9879968329]}, "type": "Feature", "properties": {"collection_times": [{"days": "Mon-Sat", "time": "1:30pm"}, {"days": "Sun", "time": "Closed"}], "id": "9856300008", "name": "USPS COLLECTION BOX - BLUE BOX", "address": {"city": "MONTESANO", "state": "WA", "street": "210 S MAIN ST", "postcode": "98563"}}},
{"geometry": {"type": "Point", "coordinates": [-123.5994093749, 46.9794433561]}, "type": "Feature", "properties": {"collection_times": [{"days": "Mon-Sat", "time": "1:30pm"}, {"days": "Sun", "time": "Closed"}], "id": "9856300009", "name": "USPS COLLECTION BOX - BLUE BOX", "address": {"city": "MONTESANO", "state": "WA", "street": "211 E PIONEER AVE", "postcode": "98563"}}},
{"geometry": {"type": "Point", "coordinates": [-123.6022087103, 46.9794227003]}, "type": "Feature", "properties": {"collection_times": [{"days": "Mon-Fri", "time": "5:00pm"}, {"days": "Sat", "time": "1:30pm"}, {"days": "Sun", "time": "Closed"}], "id": "9856300010", "name": "USPS COLLECTION BOX - BLUE BOX", "address": {"city": "MONTESANO", "state": "WA", "street": "211 W PIONEER AVE", "postcode": "98563"}}},
{"geometry": {"type": "Point", "coordinates": [-123.6022087103, 46.9794227003]}, "type": "Feature", "properties": {"collection_times": [{"days": "Mon-Sat", "time": "1:30pm"}, {"days": "Sun", "time": "Closed"}], "id": "9856300012", "name": "USPS COLLECTION BOX - PO LOBBY", "address": {"city": "MONTESANO", "state": "WA", "street": "211 W PIONEER AVE", "postcode": "98563"}}},
{"geometry": {"type": "Point", "coordinates": [-123.6022087103, 46.9794227003]}, "type": "Feature", "properties": {"collection_times": [{"days": "Mon-Sat", "time": "1:30pm"}, {"days": "Sun", "time": "Closed"}], "id": "9856300013", "name": "USPS COLLECTION BOX - PO LOBBY", "address": {"city": "MONTESANO", "state": "WA", "street": "211 W PIONEER AVE", "postcode": "98563"}}},
{"geometry": {"type": "Point", "coordinates": [-122.4828887067, 46.5296328875]}, "type": "Feature", "properties": {"collection_times": [{"days": "Mon-Fri", "time": "1:00pm"}, {"days": "Sat", "time": "11:30am"}, {"days": "Sun", "time": "Closed"}], "id": "9856400000", "name": "USPS COLLECTION BOX - BLUE BOX", "address": {"city": "MOSSYROCK", "state": "WA", "street": "243 E MAIN", "postcode": "98564"}}},
{"geometry": {"type": "Point", "coordinates": [-122.4828887067, 46.5296328875]}, "type": "Feature", "properties": {"collection_times": [{"days": "Mon-Fri", "time": "1:00pm"}, {"days": "Sat", "time": "11:30am"}, {"days": "Sun", "time": "Closed"}], "id": "9856400001", "name": "USPS COLLECTION BOX - PO LOBBY", "address": {"city": "MOSSYROCK", "state": "WA", "street": "243 E MAIN", "postcode": "98564"}}},
{"geometry": {"type": "Point", "coordinates": [-122.9068980504, 46.5746998635]}, "type": "Feature", "properties": {"collection_times": [{"days": "Mon-Fri", "time": "1:45pm"}, {"days": "Sat", "time": "10:00am"}, {"days": "Sun", "time": "Closed"}], "id": "9856500000", "name": "USPS COLLECTION BOX - BLUE BOX", "address": {"city": "NAPAVINE", "state": "WA", "street": "111C 2ND AVE NE", "postcode": "98565"}}},
{"geometry": {"type": "Point", "coordinates": [-122.9068980504, 46.5746998635]}, "type": "Feature", "properties": {"collection_times": [{"days": "Mon-Fri", "time": "1:45pm"}, {"days": "Sat", "time": "10:00am"}, {"days": "Sun", "time": "Closed"}], "id": "9856500001", "name": "USPS COLLECTION BOX - PO LOBBY", "address": {"city": "NAPAVINE", "state": "WA", "street": "111C 2ND AVE NE", "postcode": "98565"}}},
{"geometry": {"type": "Point", "coordinates": [-123.8817536777, 47.4128236845]}, "type": "Feature", "properties": {"collection_times": [{"days": "Mon-Fri", "time": "12:25pm"}, {"days": "Sat", "time": "9:30am"}, {"days": "Sun", "time": "Closed"}], "id": "9856600000", "name": "USPS COLLECTION BOX - BLUE BOX", "address": {"city": "NEILTON", "state": "WA", "street": "5513 US HIGHWAY 101", "postcode": "98566"}}},
{"geometry": {"type": "Point", "coordinates": [-123.8817536777, 47.4128236845]}, "type": "Feature", "properties": {"collection_times": [{"days": "Mon-Fri", "time": "12:25pm"}, {"days": "Sat", "time": "9:30am"}, {"days": "Sun", "time": "Closed"}], "id": "9856600001", "name": "USPS COLLECTION BOX - PO LOBBY", "address": {"city": "NEILTON", "state": "WA", "street": "5513 US HIGHWAY 101", "postcode": "98566"}}},
{"geometry": {"type": "Point", "coordinates": [-123.2342065089, 46.8408204468]}, "type": "Feature", "properties": {"collection_times": [{"days": "Mon-Fri", "time": "2:15pm"}, {"days": "Sat", "time": "10:00am"}, {"days": "Sun", "time": "Closed"}], "id": "9856800001", "name": "USPS COLLECTION BOX - BLUE BOX", "address": {"city": "OAKVILLE", "state": "WA", "street": "114 E PINE ST", "postcode": "98568"}}},
{"geometry": {"type": "Point", "coordinates": [-123.2342065089, 46.8408204468]}, "type": "Feature", "properties": {"collection_times": [{"days": "Mon-Fri", "time": "2:15pm"}, {"days": "Sat", "time": "10:00am"}, {"days": "Sun", "time": "Closed"}], "id": "9856800002", "name": "USPS COLLECTION BOX - PO LOBBY", "address": {"city": "OAKVILLE", "state": "WA", "street": "114 E PINE ST", "postcode": "98568"}}},
{"geometry": {"type": "Point", "coordinates": [-124.1655221433, 47.0718397161]}, "type": "Feature", "properties": {"collection_times": [{"days": "Mon-Sat", "time": "11:00am"}, {"days": "Sun", "time": "Closed"}], "id": "9856900000", "name": "USPS COLLECTION BOX - BLUE BOX", "address": {"city": "OCEAN SHORES", "state": "WA", "street": "2616 STATE ROUTE 109", "postcode": "98569"}}},
{"geometry": {"type": "Point", "coordinates": [-124.1558954081, 47.0069770732]}, "type": "Feature", "properties": {"collection_times": [{"days": "Mon-Sat", "time": "12:30pm"}, {"days": "Sun", "time": "Closed"}], "id": "9856900003", "name": "USPS COLLECTION BOX - BLUE BOX", "address": {"city": "OCEAN SHORES", "state": "WA", "street": "689 DOLPHIN AVE NE", "postcode": "98569"}}},
{"geometry": {"type": "Point", "coordinates": [-124.1558954081, 47.0069770732]}, "type": "Feature", "properties": {"collection_times": [{"days": "Mon-Sat", "time": "12:30pm"}, {"days": "Sun", "time": "Closed"}], "id": "9856900005", "name": "USPS COLLECTION BOX - PO LOBBY", "address": {"city": "OCEAN SHORES", "state": "WA", "street": "689 DOLPHIN AVE NE", "postcode": "98569"}}},
{"geometry": {"type": "Point", "coordinates": [-124.1558954081, 47.0069770732]}, "type": "Feature", "properties": {"collection_times": [{"days": "Mon-Sat", "time": "12:30pm"}, {"days": "Sun", "time": "Closed"}], "id": "9856900006", "name": "USPS COLLECTION BOX - PO LOBBY", "address": {"city": "OCEAN SHORES", "state": "WA", "street": "689 DOLPHIN AVE NE", "postcode": "98569"}}},
{"geometry": {"type": "Point", "coordinates": [-124.1599042981, 47.0172573693]}, "type": "Feature", "properties": {"collection_times": [{"days": "Mon-Sat", "time": "12:30pm"}, {"days": "Sun", "time": "Closed"}], "id": "9856900007", "name": "USPS COLLECTION BOX - BLUE BOX", "address": {"city": "OCEAN SHORES", "state": "WA", "street": "361 DAMON RD", "postcode": "98569"}}},
{"geometry": {"type": "Point", "coordinates": [-124.1318659815, 46.9546707726]}, "type": "Feature", "properties": {"collection_times": [{"days": "Mon-Sat", "time": "11:00am"}, {"days": "Sun", "time": "Closed"}], "id": "9856900008", "name": "USPS COLLECTION BOX - BLUE BOX", "address": {"city": "OCEAN SHORES", "state": "WA", "street": "1016 CATALA AVE SE", "postcode": "98569"}}},
{"geometry": {"type": "Point", "coordinates": [-122.7219118704, 46.5755755667]}, "type": "Feature", "properties": {"collection_times": [{"days": "Mon-Fri", "time": "1:15pm"}, {"days": "Sat", "time": "11:00am"}, {"days": "Sun", "time": "Closed"}], "id": "9857000000", "name": "USPS COLLECTION BOX - BLUE BOX", "address": {"city": "ONALASKA", "state": "WA", "street": "1753 STATE HIGHWAY 508", "postcode": "98570"}}},
{"geometry": {"type": "Point", "coordinates": [-122.7219118704, 46.5755755667]}, "type": "Feature", "properties": {"collection_times": [{"days": "Mon-Fri", "time": "1:15pm"}, {"days": "Sat", "time": "11:00am"}, {"days": "Sun", "time": "Closed"}], "id": "9857000001", "name": "USPS COLLECTION BOX - PO LOBBY", "address": {"city": "ONALASKA", "state": "WA", "street": "1753 STATE HIGHWAY 508", "postcode": "98570"}}},
{"geometry": {"type": "Point", "coordinates": [-124.167320258, 47.1879791823]}, "type": "Feature", "properties": {"collection_times": [{"days": "Mon-Fri", "time": "12:15pm"}, {"days": "Sat", "time": "10:00am"}, {"days": "Sun", "time": "Closed"}], "id": "9857100000", "name": "USPS COLLECTION BOX - BLUE BOX", "address": {"city": "PACIFIC BEACH", "state": "WA", "street": "12 MAIN ST", "postcode": "98571"}}},
{"geometry": {"type": "Point", "coordinates": [-124.167320258, 47.1879791823]}, "type": "Feature", "properties": {"collection_times": [{"days": "Mon-Fri", "time": "12:15pm"}, {"days": "Sat", "time": "10:00am"}, {"days": "Sun", "time": "Closed"}], "id": "9857100001", "name": "USPS COLLECTION BOX - PO LOBBY", "address": {"city": "PACIFIC BEACH", "state": "WA", "street": "12 MAIN ST", "postcode": "98571"}}},
{"geometry": {"type": "Point", "coordinates": [-124.167320258, 47.1879791823]}, "type": "Feature", "properties": {"collection_times": [{"days": "Mon-Fri", "time": "12:15pm"}, {"days": "Sat", "time": "10:00am"}, {"days": "Sun", "time": "Closed"}], "id": "9857100002", "name": "USPS COLLECTION BOX - PO LOBBY", "address": {"city": "PACIFIC BEACH", "state": "WA", "street": "12 MAIN ST", "postcode": "98571"}}},
{"geometry": {"type": "Point", "coordinates": [-124.1956788213, 47.1962790166]}, "type": "Feature", "properties": {"collection_times": [{"days": "Mon-Sat", "time": "12:00pm"}, {"days": "Sun", "time": "Closed"}], "id": "9857100003", "name": "USPS COLLECTION BOX - BLUE BOX", "address": {"city": "PACIFIC BEACH", "state": "WA", "street": "40 MAIN ST", "postcode": "98571"}}},
{"geometry": {"type": "Point", "coordinates": [-123.2977288323, 46.5709389119]}, "type": "Feature", "properties": {"collection_times": [{"days": "Mon-Fri", "time": "1:30pm"}, {"days": "Sat", "time": "10:00am"}, {"days": "Sun", "time": "Closed"}], "id": "9857200000", "name": "USPS COLLECTION BOX - BLUE BOX", "address": {"city": "PE ELL", "state": "WA", "street": "203 N MAIN ST", "postcode": "98572"}}},
{"geometry": {"type": "Point", "coordinates": [-123.2977288323, 46.5709389119]}, "type": "Feature", "properties": {"collection_times": [{"days": "Mon-Fri", "time": "1:30pm"}, {"days": "Sat", "time": "10:00am"}, {"days": "Sun", "time": "Closed"}], "id": "9857200002", "name": "USPS COLLECTION BOX - PO LOBBY", "address": {"city": "PE ELL", "state": "WA", "street": "203 N MAIN ST", "postcode": "98572"}}},
{"geometry": {"type": "Point", "coordinates": [-123.2977288323, 46.5709389119]}, "type": "Feature", "properties": {"collection_times": [{"days": "Mon-Fri", "time": "1:30pm"}, {"days": "Sat", "time": "10:00am"}, {"days": "Sun", "time": "Closed"}], "id": "9857200004", "name": "USPS COLLECTION BOX - PO LOBBY", "address": {"city": "PE ELL", "state": "WA", "street": "203 N MAIN ST", "postcode": "98572"}}},
{"geometry": {"type": "Point", "coordinates": [-123.8465062124, 47.4675655998]}, "type": "Feature", "properties": {"collection_times": [{"days": "Mon-Fri", "time": "12:15pm"}, {"days": "Sat", "time": "9:30am"}, {"days": "Sun", "time": "Closed"}], "id": "9857500000", "name": "USPS COLLECTION BOX - BLUE BOX", "address": {"city": "QUINAULT", "state": "WA", "street": "352 S SHORE RD", "postcode": "98575"}}},
{"geometry": {"type": "Point", "coordinates": [-123.8316058937, 47.4750936622]}, "type": "Feature", "properties": {"collection_times": [{"days": "Mon-Fri", "time": "12:15pm"}, {"days": "Sat", "time": "10:30am"}, {"days": "Sun", "time": "Closed"}], "id": "9857500002", "name": "USPS COLLECTION BOX - PO LOBBY", "address": {"city": "QUINAULT", "state": "WA", "street": "518 S SHORE RD", "postcode": "98575"}}},
{"geometry": {"type": "Point", "coordinates": [-122.6895933229, 46.8890827274]}, "type": "Feature", "properties": {"collection_times": [{"days": "Mon-Fri", "time": "1:30pm"}, {"days": "Sat", "time": "10:00am"}, {"days": "Sun", "time": "Closed"}], "id": "9857600000", "name": "USPS COLLECTION BOX - BLUE BOX", "address": {"city": "RAINIER", "state": "WA", "street": "101 ROCHESTER ST W", "postcode": "98576"}}},
{"geometry": {"type": "Point", "coordinates": [-122.6895933229, 46.8890827274]}, "type": "Feature", "properties": {"collection_times": [{"days": "Mon-Fri", "time": "1:30pm"}, {"days": "Sat", "time": "10:00am"}, {"days": "Sun", "time": "Closed"}], "id": "9857600001", "name": "USPS COLLECTION BOX - PO LOBBY", "address": {"city": "RAINIER", "state": "WA", "street": "101 ROCHESTER ST W", "postcode": "98576"}}},
{"geometry": {"type": "Point", "coordinates": [-122.6895933229, 46.8890827274]}, "type": "Feature", "properties": {"collection_times": [{"days": "Mon-Fri", "time": "1:30pm"}, {"days": "Sat", "time": "10:00am"}, {"days": "Sun", "time": "Closed"}], "id": "9857600002", "name": "USPS COLLECTION BOX - PO LOBBY", "address": {"city": "RAINIER", "state": "WA", "street": "101 ROCHESTER ST W", "postcode": "98576"}}},
{"geometry": {"type": "Point", "coordinates": [-123.7345934804, 46.6865121082]}, "type": "Feature", "properties": {"collection_times": [{"days": "Mon-Sat", "time": "1:00pm"}, {"days": "Sun", "time": "Closed"}], "id": "9857700004", "name": "USPS COLLECTION BOX - BLUE BOX", "address": {"city": "RAYMOND", "state": "WA", "street": "203 DURYEA ST", "postcode": "98577"}}},
{"geometry": {"type": "Point", "coordinates": [-123.7321144792, 46.6866398631]}, "type": "Feature", "properties": {"collection_times": [{"days": "Mon-Sat", "time": "1:00pm"}, {"days": "Sun", "time": "Closed"}], "id": "9857700005", "name": "USPS COLLECTION BOX - BLUE BOX", "address": {"city": "RAYMOND", "state": "WA", "street": "406 DURYEA ST", "postcode": "98577"}}},
{"geometry": {"type": "Point", "coordinates": [-123.7321144792, 46.6866398631]}, "type": "Feature", "properties": {"collection_times": [{"days": "Mon-Sat", "time": "1:00pm"}, {"days": "Sun", "time": "Closed"}], "id": "9857700007", "name": "USPS COLLECTION BOX - PO LOBBY", "address": {"city": "RAYMOND", "state": "WA", "street": "406 DURYEA ST", "postcode": "98577"}}},
{"geometry": {"type": "Point", "coordinates": [-123.0997292505, 46.8220022974]}, "type": "Feature", "properties": {"collection_times": [{"days": "Mon-Fri", "time": "12:00pm"}, {"days": "Sat-Sun", "time": "Closed"}], "id": "9857900000", "name": "USPS COLLECTION BOX - BLUE BOX", "address": {"city": "ROCHESTER", "state": "WA", "street": "10333 HIGHWAY 12 SW", "postcode": "98579"}}},
{"geometry": {"type": "Point", "coordinates": [-123.0869627574, 46.8217384976]}, "type": "Feature", "properties": {"collection_times": [{"days": "Mon-Fri", "time": "2:15pm"}, {"days": "Sat", "time": "9:00am"}, {"days": "Sun", "time": "Closed"}], "id": "9857900002", "name": "USPS COLLECTION BOX - BLUE BOX", "address": {"city": "ROCHESTER", "state": "WA", "street": "9727 HIGHWAY 12 SW", "postcode": "98579"}}},
{"geometry": {"type": "Point", "coordinates": [-123.0869627574, 46.8217384976]}, "type": "Feature", "properties": {"collection_times": [{"days": "Mon-Fri", "time": "2:15pm"}, {"days": "Sat", "time": "9:00am"}, {"days": "Sun", "time": "Closed"}], "id": "9857900003", "name": "USPS COLLECTION BOX - BLUE BOX", "address": {"city": "ROCHESTER", "state": "WA", "street": "9727 HIGHWAY 12 SW", "postcode": "98579"}}},
{"geometry": {"type": "Point", "coordinates": [-123.0869627574, 46.8217384976]}, "type": "Feature", "properties": {"collection_times": [{"days": "Mon-Fri", "time": "2:15pm"}, {"days": "Sat", "time": "9:00am"}, {"days": "Sun", "time": "Closed"}], "id": "9857900005", "name": "USPS COLLECTION BOX - PO LOBBY", "address": {"city": "ROCHESTER", "state": "WA", "street": "9727 HIGHWAY 12 SW", "postcode": "98579"}}},
{"geometry": {"type": "Point", "coordinates": [-122.5400939803, 47.0046568845]}, "type": "Feature", "properties": {"collection_times": [{"days": "Mon-Fri", "time": "1:15pm"}, {"days": "Sat", "time": "11:30am"}, {"days": "Sun", "time": "Closed"}], "id": "9858000001", "name": "USPS COLLECTION BOX - BLUE BOX", "address": {"city": "ROY", "state": "WA", "street": "202 N LYLE ST", "postcode": "98580"}}},
{"geometry": {"type": "Point", "coordinates": [-122.5400939803, 47.0046568845]}, "type": "Feature", "properties": {"collection_times": [{"days": "Mon-Fri", "time": "1:15pm"}, {"days": "Sat", "time": "11:30am"}, {"days": "Sun", "time": "Closed"}], "id": "9858000002", "name": "USPS COLLECTION BOX - PO LOBBY", "address": {"city": "ROY", "state": "WA", "street": "202 N LYLE ST", "postcode": "98580"}}},
{"geometry": {"type": "Point", "coordinates": [-123.0436673047, 46.3728354767]}, "type": "Feature", "properties": {"collection_times": [{"days": "Mon-Fri", "time": "1:00pm"}, {"days": "Sat", "time": "10:15am"}, {"days": "Sun", "time": "Closed"}], "id": "9858100000", "name": "USPS COLLECTION BOX - PO LOBBY", "address": {"city": "RYDERWOOD", "state": "WA", "street": "210 MORSE ST", "postcode": "98581"}}},
{"geometry": {"type": "Point", "coordinates": [-123.0437396536, 46.3757985467]}, "type": "Feature", "properties": {"collection_times": [{"days": "Mon-Fri", "time": "1:00pm"}, {"days": "Sat", "time": "10:15am"}, {"days": "Sun", "time": "Closed"}], "id": "9858100001", "name": "USPS COLLECTION BOX - BLUE BOX", "address": {"city": "RYDERWOOD", "state": "WA", "street": "210 MORSE ST", "postcode": "98581"}}},
{"geometry": {"type": "Point", "coordinates": [-122.6269159034, 46.5328864401]}, "type": "Feature", "properties": {"collection_times": [{"days": "Mon-Fri", "time": "1:15pm"}, {"days": "Sat", "time": "10:45am"}, {"days": "Sun", "time": "Closed"}], "id": "9858200000", "name": "USPS COLLECTION BOX - BLUE BOX", "address": {"city": "SALKUM", "state": "WA", "street": "142 SALKUM RD", "postcode": "98582"}}},
{"geometry": {"type": "Point", "coordinates": [-122.6269159034, 46.5328864401]}, "type": "Feature", "properties": {"collection_times": [{"days": "Mon-Fri", "time": "1:15pm"}, {"days": "Sat", "time": "10:45am"}, {"days": "Sun", "time": "Closed"}], "id": "9858200001", "name": "USPS COLLECTION BOX - PO LOBBY", "address": {"city": "SALKUM", "state": "WA", "street": "142 SALKUM RD", "postcode": "98582"}}},
{"geometry": {"type": "Point", "coordinates": [-123.48303, 47.00233]}, "type": "Feature", "properties": {"collection_times": [{"days": "Mon-Fri", "time": "2:00pm"}, {"days": "Sat", "time": "9:00am"}, {"days": "Sun", "time": "Closed"}], "id": "9858300000", "name": "USPS COLLECTION BOX - BLUE BOX", "address": {"city": "SATSOP", "state": "WA", "street": "102 S 5TH ST", "postcode": "98583"}}},
{"geometry": {"type": "Point", "coordinates": [-123.4830694582, 47.0024794773]}, "type": "Feature", "properties": {"collection_times": [{"days": "Mon-Fri", "time": "2:00pm"}, {"days": "Sat", "time": "9:00am"}, {"days": "Sun", "time": "Closed"}], "id": "9858300001", "name": "USPS COLLECTION BOX - PO LOBBY", "address": {"city": "SATSOP", "state": "WA", "street": "102 S 5TH ST", "postcode": "98583"}}},
{"geometry": {"type": "Point", "coordinates": [-123.1131461993, 47.222922257]}, "type": "Feature", "properties": {"collection_times": [{"days": "Mon-Sat", "time": "2:00pm"}, {"days": "Sun", "time": "Closed"}], "id": "9858400000", "name": "USPS COLLECTION BOX - BLUE BOX", "address": {"city": "SHELTON", "state": "WA", "street": "1600 N 13TH ST", "postcode": "98584"}}},
{"geometry": {"type": "Point", "coordinates": [-123.1595156544, 47.3680533704]}, "type": "Feature", "properties": {"collection_times": [{"days": "Mon-Sat", "time": "12:15pm"}, {"days": "Sun", "time": "Closed"}], "id": "9858400001", "name": "USPS COLLECTION BOX - BLUE BOX", "address": {"city": "SHELTON", "state": "WA", "street": "21971 N US HIGHWAY 101", "postcode": "98584"}}},
{"geometry": {"type": "Point", "coordinates": [-123.0924163063, 47.201406135]}, "type": "Feature", "properties": {"collection_times": [{"days": "Mon-Sat", "time": "2:00pm"}, {"days": "Sun", "time": "Closed"}], "id": "9858400004", "name": "USPS COLLECTION BOX - BLUE BOX", "address": {"city": "SHELTON", "state": "WA", "street": "1600 SUMMIT DR", "postcode": "98584"}}},
{"geometry": {"type": "Point", "coordinates": [-123.1240276083, 47.2263841258]}, "type": "Feature", "properties": {"collection_times": [{"days": "Mon-Sat", "time": "2:00pm"}, {"days": "Sun", "time": "Closed"}], "id": "9858400006", "name": "USPS COLLECTION BOX - BLUE BOX", "address": {"city": "SHELTON", "state": "WA", "street": "2505 OLYMPIC HWY N", "postcode": "98584"}}},
{"geometry": {"type": "Point", "coordinates": [-123.103750834, 47.2140025866]}, "type": "Feature", "properties": {"collection_times": [{"days": "Mon-Sat", "time": "2:00pm"}, {"days": "Sun", "time": "Closed"}], "id": "9858400009", "name": "USPS COLLECTION BOX - BLUE BOX", "address": {"city": "SHELTON", "state": "WA", "street": "414 W FRANKLIN ST", "postcode": "98584"}}},
{"geometry": {"type": "Point", "coordinates": [-123.1024589301, 47.21311366]}, "type": "Feature", "properties": {"collection_times": [{"days": "Mon-Sat", "time": "2:00pm"}, {"days": "Sun", "time": "Closed"}], "id": "9858400010", "name": "USPS COLLECTION BOX - BLUE BOX", "address": {"city": "SHELTON", "state": "WA", "street": "114 N 3RD ST", "postcode": "98584"}}},
{"geometry": {"type": "Point", "coordinates": [-123.1024589301, 47.21311366]}, "type": "Feature", "properties": {"collection_times": [{"days": "Mon-Sat", "time": "2:00pm"}, {"days": "Sun", "time": "Closed"}], "id": "9858400011", "name": "USPS COLLECTION BOX - BLUE BOX", "address": {"city": "SHELTON", "state": "WA", "street": "114 N 3RD ST", "postcode": "98584"}}},
{"geometry": {"type": "Point", "coordinates": [-123.1015750254, 47.2132250325]}, "type": "Feature", "properties": {"collection_times": [{"days": "Mon-Sat", "time": "2:00pm"}, {"days": "Sun", "time": "Closed"}], "id": "9858400013", "name": "USPS COLLECTION BOX - PO LOBBY", "address": {"city": "SHELTON", "state": "WA", "street": "218 MARK E REED WAY", "postcode": "98584"}}},
{"geometry": {"type": "Point", "coordinates": [-123.1015750254, 47.2132250325]}, "type": "Feature", "properties": {"collection_times": [{"days": "Mon-Sat", "time": "2:00pm"}, {"days": "Sun", "time": "Closed"}], "id": "9858400014", "name": "USPS COLLECTION BOX - PO LOBBY", "address": {"city": "SHELTON", "state": "WA", "street": "218 MARK E REED WAY", "postcode": "98584"}}},
{"geometry": {"type": "Point", "coordinates": [-123.1152702063, 47.2267022018]}, "type": "Feature", "properties": {"collection_times": [{"days": "Mon-Sat", "time": "2:00pm"}, {"days": "Sun", "time": "Closed"}], "id": "9858400015", "name": "USPS COLLECTION BOX - BLUE BOX", "address": {"city": "SHELTON", "state": "WA", "street": "901 MOUNT VIEW DR", "postcode": "98584"}}},
{"geometry": {"type": "Point", "coordinates": [-123.1266106223, 47.2311149199]}, "type": "Feature", "properties": {"collection_times": [{"days": "Mon-Sat", "time": "2:00pm"}, {"days": "Sun", "time": "Closed"}], "id": "9858400016", "name": "USPS COLLECTION BOX - BLUE BOX", "address": {"city": "SHELTON", "state": "WA", "street": "301 E WALLACE KNEELAND BLVD", "postcode": "98584"}}},
{"geometry": {"type": "Point", "coordinates": [-123.103300449, 47.2155949425]}, "type": "Feature", "properties": {"collection_times": [{"days": "Mon-Sat", "time": "2:00pm"}, {"days": "Sun", "time": "Closed"}], "id": "9858400018", "name": "USPS COLLECTION BOX - BLUE BOX", "address": {"city": "SHELTON", "state": "WA", "street": "415 N 4TH ST", "postcode": "98584"}}},
{"geometry": {"type": "Point", "coordinates": [-123.1277875611, 47.2313086024]}, "type": "Feature", "properties": {"collection_times": [{"days": "Mon-Sat", "time": "2:00pm"}, {"days": "Sun", "time": "Closed"}], "id": "9858400019", "name": "USPS COLLECTION BOX - BLUE BOX", "address": {"city": "SHELTON", "state": "WA", "street": "100 E WALLACE KNEELAND BLVD", "postcode": "98584"}}},
{"geometry": {"type": "Point", "coordinates": [-122.5900936225, 46.5240581259]}, "type": "Feature", "properties": {"collection_times": [{"days": "Mon-Fri", "time": "1:15pm"}, {"days": "Sat", "time": "9:30am"}, {"days": "Sun", "time": "Closed"}], "id": "9858500000", "name": "USPS COLLECTION BOX - BLUE BOX", "address": {"city": "SILVERCREEK", "state": "WA", "street": "140 GERSHICK RD", "postcode": "98585"}}},
{"geometry": {"type": "Point", "coordinates": [-122.5900936225, 46.5240581259]}, "type": "Feature", "properties": {"collection_times": [{"days": "Mon-Fri", "time": "1:15pm"}, {"days": "Sat", "time": "9:30am"}, {"days": "Sun", "time": "Closed"}], "id": "9858500001", "name": "USPS COLLECTION BOX - PO LOBBY", "address": {"city": "SILVERCREEK", "state": "WA", "street": "140 GERSHICK RD", "postcode": "98585"}}},
{"geometry": {"type": "Point", "coordinates": [-123.8124331382, 46.6664109542]}, "type": "Feature", "properties": {"collection_times": [{"days": "Mon-Fri", "time": "1:00pm"}, {"days": "Sat", "time": "10:30am"}, {"days": "Sun", "time": "Closed"}], "id": "9858600002", "name": "USPS COLLECTION BOX - BLUE BOX", "address": {"city": "SOUTH BEND", "state": "WA", "street": "120 CENTRAL AVE", "postcode": "98586"}}},
{"geometry": {"type": "Point", "coordinates": [-123.8124331382, 46.6664109542]}, "type": "Feature", "properties": {"collection_times": [{"days": "Mon-Fri", "time": "1:00pm"}, {"days": "Sat", "time": "10:30am"}, {"days": "Sun", "time": "Closed"}], "id": "9858600005", "name": "USPS COLLECTION BOX - PO LOBBY", "address": {"city": "SOUTH BEND", "state": "WA", "street": "120 CENTRAL AVE", "postcode": "98586"}}},
{"geometry": {"type": "Point", "coordinates": [-124.2960739425, 47.3470697717]}, "type": "Feature", "properties": {"collection_times": [{"days": "Mon-Fri", "time": "12:00pm"}, {"days": "Sat", "time": "10:00am"}, {"days": "Sun", "time": "Closed"}], "id": "9858700000", "name": "USPS COLLECTION BOX - BLUE BOX", "address": {"city": "TAHOLAH", "state": "WA", "street": "142 W QUINAULT ST", "postcode": "98587"}}},
{"geometry": {"type": "Point", "coordinates": [-124.2960739425, 47.3470697717]}, "type": "Feature", "properties": {"collection_times": [{"days": "Mon-Fri", "time": "12:00pm"}, {"days": "Sat", "time": "10:00am"}, {"days": "Sun", "time": "Closed"}], "id": "9858700001", "name": "USPS COLLECTION BOX - PO LOBBY", "address": {"city": "TAHOLAH", "state": "WA", "street": "142 W QUINAULT ST", "postcode": "98587"}}},
{"geometry": {"type": "Point", "coordinates": [-124.2960739425, 47.3470697717]}, "type": "Feature", "properties": {"collection_times": [{"days": "Mon-Fri", "time": "12:00pm"}, {"days": "Sat", "time": "10:00am"}, {"days": "Sun", "time": "Closed"}], "id": "9858700002", "name": "USPS COLLECTION BOX - PO LOBBY", "address": {"city": "TAHOLAH", "state": "WA", "street": "142 W QUINAULT ST", "postcode": "98587"}}},
{"geometry": {"type": "Point", "coordinates": [-124.2960739425, 47.3470697717]}, "type": "Feature", "properties": {"collection_times": [{"days": "Mon-Fri", "time": "12:00pm"}, {"days": "Sat", "time": "10:00am"}, {"days": "Sun", "time": "Closed"}], "id": "9858700003", "name": "USPS COLLECTION BOX - PO LOBBY", "address": {"city": "TAHOLAH", "state": "WA", "street": "142 W QUINAULT ST", "postcode": "98587"}}},
{"geometry": {"type": "Point", "coordinates": [-123.0444995595, 47.375074041]}, "type": "Feature", "properties": {"collection_times": [{"days": "Mon-Fri", "time": "12:45pm"}, {"days": "Sat", "time": "11:00am"}, {"days": "Sun", "time": "Closed"}], "id": "9858800000", "name": "USPS COLLECTION BOX - BLUE BOX", "address": {"city": "TAHUYA", "state": "WA", "street": "14850 NE NORTH SHORE RD", "postcode": "98588"}}},
{"geometry": {"type": "Point", "coordinates": [-123.0444995595, 47.375074041]}, "type": "Feature", "properties": {"collection_times": [{"days": "Mon-Fri", "time": "12:45pm"}, {"days": "Sat", "time": "11:00am"}, {"days": "Sun", "time": "Closed"}], "id": "9858800001", "name": "USPS COLLECTION BOX - PO LOBBY", "address": {"city": "TAHUYA", "state": "WA", "street": "14850 NE NORTH SHORE RD", "postcode": "98588"}}},
{"geometry": {"type": "Point", "coordinates": [-122.851540715, 46.8577148922]}, "type": "Feature", "properties": {"collection_times": [{"days": "Mon-Fri", "time": "1:45pm"}, {"days": "Sat", "time": "1:00pm"}, {"days": "Sun", "time": "Closed"}], "id": "9858900000", "name": "USPS COLLECTION BOX - BLUE BOX", "address": {"city": "TENINO", "state": "WA", "street": "124 SUSSEX AVE W", "postcode": "98589"}}},
{"geometry": {"type": "Point", "coordinates": [-122.851540715, 46.8577148922]}, "type": "Feature", "properties": {"collection_times": [{"days": "Mon-Fri", "time": "1:45pm"}, {"days": "Sat", "time": "1:00pm"}, {"days": "Sun", "time": "Closed"}], "id": "9858900001", "name": "USPS COLLECTION BOX - BLUE BOX", "address": {"city": "TENINO", "state": "WA", "street": "124 SUSSEX AVE W", "postcode": "98589"}}},
{"geometry": {"type": "Point", "coordinates": [-124.0141766408, 46.7211373013]}, "type": "Feature", "properties": {"collection_times": [{"days": "Mon-Fri", "time": "12:45pm"}, {"days": "Sat", "time": "10:00am"}, {"days": "Sun", "time": "Closed"}], "id": "9859000000", "name": "USPS COLLECTION BOX - BLUE BOX", "address": {"city": "TOKELAND", "state": "WA", "street": "2405 TOKELAND RD", "postcode": "98590"}}},
{"geometry": {"type": "Point", "coordinates": [-124.0141766408, 46.7211373013]}, "type": "Feature", "properties": {"collection_times": [{"days": "Mon-Fri", "time": "12:45pm"}, {"days": "Sat", "time": "10:00am"}, {"days": "Sun", "time": "Closed"}], "id": "9859000001", "name": "USPS COLLECTION BOX - PO LOBBY", "address": {"city": "TOKELAND", "state": "WA", "street": "2405 TOKELAND RD", "postcode": "98590"}}},
{"geometry": {"type": "Point", "coordinates": [-122.8464943914, 46.4393602322]}, "type": "Feature", "properties": {"collection_times": [{"days": "Mon-Fri", "time": "1:15pm"}, {"days": "Sat", "time": "9:00am"}, {"days": "Sun", "time": "Closed"}], "id": "9859100000", "name": "USPS COLLECTION BOX - BLUE BOX", "address": {"city": "TOLEDO", "state": "WA", "street": "202 COWLITZ ST", "postcode": "98591"}}},
{"geometry": {"type": "Point", "coordinates": [-122.8464943914, 46.4393602322]}, "type": "Feature", "properties": {"collection_times": [{"days": "Mon-Fri", "time": "1:15pm"}, {"days": "Sat", "time": "9:00am"}, {"days": "Sun", "time": "Closed"}], "id": "9859100001", "name": "USPS COLLECTION BOX - PO LOBBY", "address": {"city": "TOLEDO", "state": "WA", "street": "202 COWLITZ ST", "postcode": "98591"}}},
{"geometry": {"type": "Point", "coordinates": [-123.085974081, 47.3457620008]}, "type": "Feature", "properties": {"collection_times": [{"days": "Mon-Fri", "time": "2:30pm"}, {"days": "Sat", "time": "9:30am"}, {"days": "Sun", "time": "Closed"}], "id": "9859200001", "name": "USPS COLLECTION BOX - BLUE BOX", "address": {"city": "UNION", "state": "WA", "street": "310 E DALBY RD", "postcode": "98592"}}},
{"geometry": {"type": "Point", "coordinates": [-123.085974081, 47.3457620008]}, "type": "Feature", "properties": {"collection_times": [{"days": "Mon-Fri", "time": "2:30pm"}, {"days": "Sat", "time": "9:30am"}, {"days": "Sun", "time": "Closed"}], "id": "9859200002", "name": "USPS COLLECTION BOX - PO LOBBY", "address": {"city": "UNION", "state": "WA", "street": "310 E DALBY RD", "postcode": "98592"}}},
{"geometry": {"type": "Point", "coordinates": [-123.085974081, 47.3457620008]}, "type": "Feature", "properties": {"collection_times": [{"days": "Mon-Fri", "time": "2:30pm"}, {"days": "Sat", "time": "9:30am"}, {"days": "Sun", "time": "Closed"}], "id": "9859200003", "name": "USPS COLLECTION BOX - PO LOBBY", "address": {"city": "UNION", "state": "WA", "street": "310 E DALBY RD", "postcode": "98592"}}},
{"geometry": {"type": "Point", "coordinates": [-122.9604009933, 46.4029038199]}, "type": "Feature", "properties": {"collection_times": [{"days": "Mon-Fri", "time": "1:15pm"}, {"days": "Sat", "time": "10:00am"}, {"days": "Sun", "time": "Closed"}], "id": "9859300000", "name": "USPS COLLECTION BOX - BLUE BOX", "address": {"city": "VADER", "state": "WA", "street": "621 A ST", "postcode": "98593"}}},
{"geometry": {"type": "Point", "coordinates": [-122.9604009933, 46.4029038199]}, "type": "Feature", "properties": {"collection_times": [{"days": "Mon-Fri", "time": "1:15pm"}, {"days": "Sat", "time": "10:00am"}, {"days": "Sun", "time": "Closed"}], "id": "9859300001", "name": "USPS COLLECTION BOX - PO LOBBY", "address": {"city": "VADER", "state": "WA", "street": "621 A ST", "postcode": "98593"}}},
{"geometry": {"type": "Point", "coordinates": [-124.1122996992, 46.8799704768]}, "type": "Feature", "properties": {"collection_times": [{"days": "Mon-Fri", "time": "11:30am"}, {"days": "Sat", "time": "10:30am"}, {"days": "Sun", "time": "Closed"}], "id": "9859500002", "name": "USPS COLLECTION BOX - BLUE BOX", "address": {"city": "WESTPORT", "state": "WA", "street": "805 STATE ROUTE 105", "postcode": "98595"}}},
{"geometry": {"type": "Point", "coordinates": [-124.1080082598, 46.8869005005]}, "type": "Feature", "properties": {"collection_times": [{"days": "Mon-Fri", "time": "12:30pm"}, {"days": "Sat", "time": "10:00am"}, {"days": "Sun", "time": "Closed"}], "id": "9859500003", "name": "USPS COLLECTION BOX - BLUE BOX", "address": {"city": "WESTPORT", "state": "WA", "street": "400 W OCEAN AVE", "postcode": "98595"}}},
{"geometry": {"type": "Point", "coordinates": [-124.1080082598, 46.8869005005]}, "type": "Feature", "properties": {"collection_times": [{"days": "Mon-Fri", "time": "12:30pm"}, {"days": "Sat", "time": "10:00am"}, {"days": "Sun", "time": "Closed"}], "id": "9859500004", "name": "USPS COLLECTION BOX - PO LOBBY", "address": {"city": "WESTPORT", "state": "WA", "street": "400 W OCEAN AVE", "postcode": "98595"}}},
{"geometry": {"type": "Point", "coordinates": [-124.1080082598, 46.8869005005]}, "type": "Feature", "properties": {"collection_times": [{"days": "Mon-Fri", "time": "12:30pm"}, {"days": "Sat", "time": "10:00am"}, {"days": "Sun", "time": "Closed"}], "id": "9859500005", "name": "USPS COLLECTION BOX - PO LOBBY", "address": {"city": "WESTPORT", "state": "WA", "street": "400 W OCEAN AVE", "postcode": "98595"}}},
{"geometry": {"type": "Point", "coordinates": [-124.1129070926, 46.908314958]}, "type": "Feature", "properties": {"collection_times": [{"days": "Mon-Fri", "time": "11:00am"}, {"days": "Sat", "time": "10:00am"}, {"days": "Sun", "time": "Closed"}], "id": "9859500006", "name": "USPS COLLECTION BOX - BLUE BOX", "address": {"city": "WESTPORT", "state": "WA", "street": "361 E DOCK ST", "postcode": "98595"}}},
{"geometry": {"type": "Point", "coordinates": [-122.9369058252, 46.4910249489]}, "type": "Feature", "properties": {"collection_times": [{"days": "Mon-Fri", "time": "1:30pm"}, {"days": "Sat", "time": "10:30am"}, {"days": "Sun", "time": "Closed"}], "id": "9859600000", "name": "USPS COLLECTION BOX - BLUE BOX", "address": {"city": "WINLOCK", "state": "WA", "street": "220 NE 1ST ST", "postcode": "98596"}}},
{"geometry": {"type": "Point", "coordinates": [-122.9369058252, 46.4910249489]}, "type": "Feature", "properties": {"collection_times": [{"days": "Mon-Fri", "time": "1:30pm"}, {"days": "Sat", "time": "10:30am"}, {"days": "Sun", "time": "Closed"}], "id": "9859600001", "name": "USPS COLLECTION BOX - PO LOBBY", "address": {"city": "WINLOCK", "state": "WA", "street": "220 NE 1ST ST", "postcode": "98596"}}},
{"geometry": {"type": "Point", "coordinates": [-122.4853684851, 46.8336860663]}, "type": "Feature", "properties": {"collection_times": [{"days": "Mon-Sat", "time": "11:30am"}, {"days": "Sun", "time": "Closed"}], "id": "9859700000", "name": "USPS COLLECTION BOX - BLUE BOX", "address": {"city": "YELM", "state": "WA", "street": "21600 N CLEAR LAKE BLVD SE", "postcode": "98597"}}},
{"geometry": {"type": "Point", "coordinates": [-122.6068659592, 46.9417828074]}, "type": "Feature", "properties": {"collection_times": [{"days": "Mon-Sat", "time": "10:30am"}, {"days": "Sun", "time": "Closed"}], "id": "9859700003", "name": "USPS COLLECTION BOX - BLUE BOX", "address": {"city": "YELM", "state": "WA", "street": "106 1ST ST S", "postcode": "98597"}}},
{"geometry": {"type": "Point", "coordinates": [-122.5900909179, 46.9363064259]}, "type": "Feature", "properties": {"collection_times": [{"days": "Mon-Sat", "time": "1:00pm"}, {"days": "Sun", "time": "Closed"}], "id": "9859700004", "name": "USPS COLLECTION BOX - BLUE BOX", "address": {"city": "YELM", "state": "WA", "street": "10503 CREEK ST SE", "postcode": "98597"}}},
{"geometry": {"type": "Point", "coordinates": [-122.5900909179, 46.9363064259]}, "type": "Feature", "properties": {"collection_times": [{"days": "Mon-Sat", "time": "1:00pm"}, {"days": "Sun", "time": "Closed"}], "id": "9859700005", "name": "USPS COLLECTION BOX - BLUE BOX", "address": {"city": "YELM", "state": "WA", "street": "10503 CREEK ST SE", "postcode": "98597"}}},
{"geometry": {"type": "Point", "coordinates": [-122.5900909179, 46.9363064259]}, "type": "Feature", "properties": {"collection_times": [{"days": "Mon-Sat", "time": "1:00pm"}, {"days": "Sun", "time": "Closed"}], "id": "9859700006", "name": "USPS COLLECTION BOX - PO LOBBY", "address": {"city": "YELM", "state": "WA", "street": "10503 CREEK ST SE", "postcode": "98597"}}},
{"geometry": {"type": "Point", "coordinates": [-122.5946732012, 46.9355722729]}, "type": "Feature", "properties": {"collection_times": [{"days": "Mon-Sat", "time": "11:00am"}, {"days": "Sun", "time": "Closed"}], "id": "9859700010", "name": "USPS COLLECTION BOX - BLUE BOX", "address": {"city": "YELM", "state": "WA", "street": "1109 E YELM AVE", "postcode": "98597"}}}
]}
