{"type": "FeatureCollection", "features": [
{"geometry": {"type": "Point", "coordinates": [-122.4534223602, 45.9100500584]}, "type": "Feature", "properties": {"collection_times": [{"days": "Mon-Fri", "time": "4:30pm"}, {"days": "Sat", "time": "9:30am"}, {"days": "Sun", "time": "Closed"}], "id": "9860100001", "name": "USPS COLLECTION BOX - BLUE BOX", "address": {"city": "AMBOY", "state": "WA", "street": "21501 NE 399TH ST", "postcode": "98601"}}},
{"geometry": {"type": "Point", "coordinates": [-122.4566598905, 45.9197467694]}, "type": "Feature", "properties": {"collection_times": [{"days": "Mon-Fri", "time": "4:45pm"}, {"days": "Sat", "time": "9:30am"}, {"days": "Sun", "time": "Closed"}], "id": "9860100002", "name": "USPS COLLECTION BOX - PO LOBBY", "address": {"city": "AMBOY", "state": "WA", "street": "21501 NE 399TH ST", "postcode": "98601"}}},
{"geometry": {"type": "Point", "coordinates": [-121.2883574316, 45.8360880335]}, "type": "Feature", "properties": {"collection_times": [{"days": "Mon-Fri", "time": "12:30pm"}, {"days": "Sat", "time": "11:15am"}, {"days": "Sun", "time": "Closed"}], "id": "9860200001", "name": "USPS COLLECTION BOX - PO LOBBY", "address": {"city": "APPLETON", "state": "WA", "street": "448 APPLETON RD", "postcode": "98602"}}},
{"geometry": {"type": "Point", "coordinates": [-122.5764697075, 45.9578677001]}, "type": "Feature", "properties": {"collection_times": [{"days": "Mon-Fri", "time": "1:00pm"}, {"days": "Sat", "time": "11:00am"}, {"days": "Sun", "time": "Closed"}], "id": "9860300001", "name": "USPS COLLECTION BOX - BLUE BOX", "address": {"city": "ARIEL", "state": "WA", "street": "5712 LEWIS RIVER RD", "postcode": "98603"}}},
{"geometry": {"type": "Point", "coordinates": [-122.5324498214, 45.7907174861]}, "type": "Feature", "properties": {"collection_times": [{"days": "Mon-Fri", "time": "5:15pm"}, {"days": "Sat", "time": "3:00pm"}, {"days": "Sun", "time": "Closed"}], "id": "9860400002", "name": "USPS COLLECTION BOX - BLUE BOX", "address": {"city": "BATTLEGROUND", "state": "WA", "street": "418 W MAIN ST", "postcode": "98604"}}},
{"geometry": {"type": "Point", "coordinates": [-122.5324498214, 45.7907174861]}, "type": "Feature", "properties": {"collection_times": [{"days": "Mon-Fri", "time": "5:15pm"}, {"days": "Sat", "time": "3:00pm"}, {"days": "Sun", "time": "Closed"}], "id": "9860400004", "name": "USPS COLLECTION BOX - BLUE BOX", "address": {"city": "BATTLEGROUND", "state": "WA", "street": "418 W MAIN ST", "postcode": "98604"}}},
{"geometry": {"type": "Point", "coordinates": [-122.5324498214, 45.7907174861]}, "type": "Feature", "properties": {"collection_times": [{"days": "Mon-Fri", "time": "5:15pm"}, {"days": "Sat", "time": "3:00pm"}, {"days": "Sun", "time": "Closed"}], "id": "9860400006", "name": "USPS COLLECTION BOX - BLUE BOX", "address": {"city": "BATTLEGROUND", "state": "WA", "street": "418 W MAIN ST", "postcode": "98604"}}},
{"geometry": {"type": "Point", "coordinates": [-122.5324498214, 45.7907174861]}, "type": "Feature", "properties": {"collection_times": [{"days": "Mon-Fri", "time": "5:15pm"}, {"days": "Sat", "time": "3:00pm"}, {"days": "Sun", "time": "Closed"}], "id": "9860400007", "name": "USPS COLLECTION BOX - PO LOBBY", "address": {"city": "BATTLEGROUND", "state": "WA", "street": "418 W MAIN ST", "postcode": "98604"}}},
{"geometry": {"type": "Point", "coordinates": [-122.5324498214, 45.7907174861]}, "type": "Feature", "properties": {"collection_times": [{"days": "Mon-Fri", "time": "5:15pm"}, {"days": "Sat", "time": "3:00pm"}, {"days": "Sun", "time": "Closed"}], "id": "9860400008", "name": "USPS COLLECTION BOX - PO LOBBY", "address": {"city": "BATTLEGROUND", "state": "WA", "street": "418 W MAIN ST", "postcode": "98604"}}},
{"geometry": {"type": "Point", "coordinates": [-122.5500105753, 45.7817112335]}, "type": "Feature", "properties": {"collection_times": [{"days": "Mon-Sat", "time": "9:30am"}, {"days": "Sun", "time": "Closed"}], "id": "9860400009", "name": "USPS COLLECTION BOX - BLUE BOX", "address": {"city": "BATTLEGROUND", "state": "WA", "street": "401 NW 12TH AVE", "postcode": "98604"}}},
{"geometry": {"type": "Point", "coordinates": [-122.5324498214, 45.7907174861]}, "type": "Feature", "properties": {"collection_times": [{"days": "Mon-Fri", "time": "5:15pm"}, {"days": "Sat", "time": "3:00pm"}, {"days": "Sun", "time": "Closed"}], "id": "9860400010", "name": "USPS COLLECTION BOX - APC", "address": {"city": "BATTLEGROUND", "state": "WA", "street": "418 W MAIN ST", "postcode": "98604"}}},
{"geometry": {"type": "Point", "coordinates": [-122.5324498214, 45.7907174861]}, "type": "Feature", "properties": {"collection_times": [{"days": "Mon-Sat", "time": "11:00am"}, {"days": "Sun", "time": "Closed"}], "id": "9860400011", "name": "USPS COLLECTION BOX - BLUE BOX", "address": {"city": "BATTLEGROUND", "state": "WA", "street": "17510 NE 279TH ST", "postcode": "98604"}}},
{"geometry": {"type": "Point", "coordinates": [-121.4686130961, 45.7157194349]}, "type": "Feature", "properties": {"collection_times": [{"days": "Mon-Fri", "time": "5:00pm"}, {"days": "Sat", "time": "9:30am"}, {"days": "Sun", "time": "Closed"}], "id": "9860500001", "name": "USPS COLLECTION BOX - BLUE BOX", "address": {"city": "BINGEN", "state": "WA", "street": "302 W STEUBEN ST", "postcode": "98605"}}},
{"geometry": {"type": "Point", "coordinates": [-121.4686130961, 45.7157194349]}, "type": "Feature", "properties": {"collection_times": [{"days": "Mon-Fri", "time": "5:00pm"}, {"days": "Sat", "time": "9:30am"}, {"days": "Sun", "time": "Closed"}], "id": "9860500002", "name": "USPS COLLECTION BOX - PO LOBBY", "address": {"city": "BINGEN", "state": "WA", "street": "302 W STEUBEN ST", "postcode": "98605"}}},
{"geometry": {"type": "Point", "coordinates": [-122.4868201537, 45.7379013955]}, "type": "Feature", "properties": {"collection_times": [{"days": "Mon-Sat", "time": "11:00am"}, {"days": "Sun", "time": "Closed"}], "id": "9860600001", "name": "USPS COLLECTION BOX - BLUE BOX", "address": {"city": "BRUSH PRAIRIE", "state": "WA", "street": "15916 NE 182ND AVE", "postcode": "98606"}}},
{"geometry": {"type": "Point", "coordinates": [-122.5436013138, 45.735830669]}, "type": "Feature", "properties": {"collection_times": [{"days": "Mon-Sat", "time": "11:00am"}, {"days": "Sun", "time": "Closed"}], "id": "9860600002", "name": "USPS COLLECTION BOX - BLUE BOX", "address": {"city": "BRUSH PRAIRIE", "state": "WA", "street": "15619 NE CAPLES RD", "postcode": "98606"}}},
{"geometry": {"type": "Point", "coordinates": [-122.5496162474, 45.7307139883]}, "type": "Feature", "properties": {"collection_times": [{"days": "Mon-Fri", "time": "4:45pm"}, {"days": "Sat", "time": "1:00pm"}, {"days": "Sun", "time": "Closed"}], "id": "9860600003", "name": "USPS COLLECTION BOX - BLUE BOX", "address": {"city": "BRUSH PRAIRIE", "state": "WA", "street": "12012 NE 150TH CIR", "postcode": "98606"}}},
{"geometry": {"type": "Point", "coordinates": [-122.5496162474, 45.7307139883]}, "type": "Feature", "properties": {"collection_times": [{"days": "Mon-Fri", "time": "4:45pm"}, {"days": "Sat", "time": "1:00pm"}, {"days": "Sun", "time": "Closed"}], "id": "9860600004", "name": "USPS COLLECTION BOX - BLUE BOX", "address": {"city": "BRUSH PRAIRIE", "state": "WA", "street": "12012 NE 150TH CIR", "postcode": "98606"}}},
{"geometry": {"type": "Point", "coordinates": [-122.5496162474, 45.7307139883]}, "type": "Feature", "properties": {"collection_times": [{"days": "Mon-Fri", "time": "5:00pm"}, {"days": "Sat", "time": "1:00pm"}, {"days": "Sun", "time": "Closed"}], "id": "9860600006", "name": "USPS COLLECTION BOX - PO LOBBY", "address": {"city": "BRUSH PRAIRIE", "state": "WA", "street": "12012 NE 150TH CIR", "postcode": "98606"}}},
{"geometry": {"type": "Point", "coordinates": [-122.3985755674, 45.635885825]}, "type": "Feature", "properties": {"collection_times": [{"days": "Mon-Sat", "time": "11:00am"}, {"days": "Sun", "time": "Closed"}], "id": "9860700001", "name": "USPS COLLECTION BOX - BLUE BOX", "address": {"city": "CAMAS", "state": "WA", "street": "1817 NE 267TH AVE", "postcode": "98607"}}},
{"geometry": {"type": "Point", "coordinates": [-122.4054514522, 45.5850865531]}, "type": "Feature", "properties": {"collection_times": [{"days": "Mon-Fri", "time": "2:00pm"}, {"days": "Sat", "time": "10:00am"}, {"days": "Sun", "time": "Closed"}], "id": "9860700006", "name": "USPS COLLECTION BOX - BLUE BOX", "address": {"city": "CAMAS", "state": "WA", "street": "236 NE 4TH AVE", "postcode": "98607"}}},
{"geometry": {"type": "Point", "coordinates": [-122.4172897957, 45.6078666196]}, "type": "Feature", "properties": {"collection_times": [{"days": "Mon-Fri", "time": "2:00pm"}, {"days": "Sat", "time": "1:00pm"}, {"days": "Sun", "time": "Closed"}], "id": "9860700007", "name": "USPS COLLECTION BOX - BLUE BOX", "address": {"city": "CAMAS", "state": "WA", "street": "2455 SE 8TH AVE", "postcode": "98607"}}},
{"geometry": {"type": "Point", "coordinates": [-122.4019821983, 45.5869387219]}, "type": "Feature", "properties": {"collection_times": [{"days": "Mon-Fri", "time": "2:00pm"}, {"days": "Sat", "time": "10:00am"}, {"days": "Sun", "time": "Closed"}], "id": "9860700009", "name": "USPS COLLECTION BOX - BLUE BOX", "address": {"city": "CAMAS", "state": "WA", "street": "616 NE 4TH AVE", "postcode": "98607"}}},
{"geometry": {"type": "Point", "coordinates": [-122.4172897957, 45.6078666196]}, "type": "Feature", "properties": {"collection_times": [{"days": "Mon-Fri", "time": "5:00pm"}, {"days": "Sat", "time": "10:00am"}, {"days": "Sun", "time": "Closed"}], "id": "9860700017", "name": "USPS COLLECTION BOX - PO LOBBY", "address": {"city": "CAMAS", "state": "WA", "street": "440 NE 5TH AVE", "postcode": "98607"}}},
{"geometry": {"type": "Point", "coordinates": [-122.4143849117, 45.5830540887]}, "type": "Feature", "properties": {"collection_times": [{"days": "Mon-Fri", "time": "5:00pm"}, {"days": "Sat", "time": "2:00pm"}, {"days": "Sun", "time": "Closed"}], "id": "9860700018", "name": "USPS COLLECTION BOX - BLUE BOX", "address": {"city": "CAMAS", "state": "WA", "street": "440 NE 5TH AVE", "postcode": "98607"}}},
{"geometry": {"type": "Point", "coordinates": [-122.4143849117, 45.5830540887]}, "type": "Feature", "properties": {"collection_times": [{"days": "Mon-Fri", "time": "5:00pm"}, {"days": "Sat", "time": "2:00pm"}, {"days": "Sun", "time": "Closed"}], "id": "9860700019", "name": "USPS COLLECTION BOX - BLUE BOX", "address": {"city": "CAMAS", "state": "WA", "street": "440 NE 5TH AVE", "postcode": "98607"}}},
{"geometry": {"type": "Point", "coordinates": [-122.4143849117, 45.5830540887]}, "type": "Feature", "properties": {"collection_times": [{"days": "Mon-Fri", "time": "5:00pm"}, {"days": "Sat", "time": "2:00pm"}, {"days": "Sun", "time": "Closed"}], "id": "9860700020", "name": "USPS COLLECTION BOX - BLUE BOX", "address": {"city": "CAMAS", "state": "WA", "street": "440 NE 5TH AVE", "postcode": "98607"}}},
{"geometry": {"type": "Point", "coordinates": [-122.864913632, 46.0715391066]}, "type": "Feature", "properties": {"collection_times": [{"days": "Mon-Fri", "time": "12:45pm"}, {"days": "Sat", "time": "12:15pm"}, {"days": "Sun", "time": "Closed"}], "id": "9860900001", "name": "USPS COLLECTION BOX - BLUE BOX", "address": {"city": "CARROLLS", "state": "WA", "street": "3803 OLD PACIFIC HWY S", "postcode": "98609"}}},
{"geometry": {"type": "Point", "coordinates": [-122.864913632, 46.0715391066]}, "type": "Feature", "properties": {"collection_times": [{"days": "Mon-Fri", "time": "12:45pm"}, {"days": "Sat-Sun", "time": "Closed"}], "id": "9860900002", "name": "USPS COLLECTION BOX - PO LOBBY", "address": {"city": "CARROLLS", "state": "WA", "street": "3803 OLD PACIFIC HWY S", "postcode": "98609"}}},
{"geometry": {"type": "Point", "coordinates": [-121.8221204538, 45.7188474374]}, "type": "Feature", "properties": {"collection_times": [{"days": "Mon-Fri", "time": "5:00pm"}, {"days": "Sat", "time": "10:30am"}, {"days": "Sun", "time": "Closed"}], "id": "9861000001", "name": "USPS COLLECTION BOX - BLUE BOX", "address": {"city": "CARSON", "state": "WA", "street": "1182 WIND RIVER RD", "postcode": "98610"}}},
{"geometry": {"type": "Point", "coordinates": [-121.8490890814, 45.7675977118]}, "type": "Feature", "properties": {"collection_times": [{"days": "Mon-Fri", "time": "5:00pm"}, {"days": "Sat", "time": "10:30am"}, {"days": "Sun", "time": "Closed"}], "id": "9861000004", "name": "USPS COLLECTION BOX - PO LOBBY", "address": {"city": "CARSON", "state": "WA", "street": "1182 WIND RIVER RD", "postcode": "98610"}}},
{"geometry": {"type": "Point", "coordinates": [-122.885763652, 46.3040619402]}, "type": "Feature", "properties": {"collection_times": [{"days": "Mon-Fri", "time": "4:30pm"}, {"days": "Sat", "time": "1:00pm"}, {"days": "Sun", "time": "Closed"}], "id": "9861100001", "name": "USPS COLLECTION BOX - BLUE BOX", "address": {"city": "CASTLE ROCK", "state": "WA", "street": "1271 MOUNT ST HELENS WAY NE", "postcode": "98611"}}},
{"geometry": {"type": "Point", "coordinates": [-122.9084155469, 46.2754007891]}, "type": "Feature", "properties": {"collection_times": [{"days": "Mon-Fri", "time": "4:45pm"}, {"days": "Sat", "time": "3:45pm"}, {"days": "Sun", "time": "Closed"}], "id": "9861100004", "name": "USPS COLLECTION BOX - BLUE BOX", "address": {"city": "CASTLE ROCK", "state": "WA", "street": "126 COWLITZ ST W", "postcode": "98611"}}},
{"geometry": {"type": "Point", "coordinates": [-122.899468091, 46.2868562841]}, "type": "Feature", "properties": {"collection_times": [{"days": "Mon-Fri", "time": "4:45pm"}, {"days": "Sat", "time": "3:45pm"}, {"days": "Sun", "time": "Closed"}], "id": "9861100005", "name": "USPS COLLECTION BOX - PO LOBBY", "address": {"city": "CASTLE ROCK", "state": "WA", "street": "126 COWLITZ ST W", "postcode": "98611"}}},
{"geometry": {"type": "Point", "coordinates": [-122.9084155469, 46.2754007891]}, "type": "Feature", "properties": {"collection_times": [{"days": "Mon-Fri", "time": "4:45pm"}, {"days": "Sat", "time": "3:45pm"}, {"days": "Sun", "time": "Closed"}], "id": "9861100006", "name": "USPS COLLECTION BOX - BLUE BOX", "address": {"city": "CASTLE ROCK", "state": "WA", "street": "126 COWLITZ ST W", "postcode": "98611"}}},
{"geometry": {"type": "Point", "coordinates": [-123.384327793, 46.2026720482]}, "type": "Feature", "properties": {"collection_times": [{"days": "Mon-Fri", "time": "5:00pm"}, {"days": "Sat", "time": "3:30pm"}, {"days": "Sun", "time": "Closed"}], "id": "9861200001", "name": "USPS COLLECTION BOX - BLUE BOX", "address": {"city": "CATHLAMET", "state": "WA", "street": "74 MAIN ST", "postcode": "98612"}}},
{"geometry": {"type": "Point", "coordinates": [-123.3660174016, 46.1996998188]}, "type": "Feature", "properties": {"collection_times": [{"days": "Mon-Fri", "time": "5:00pm"}, {"days": "Sat", "time": "3:30pm"}, {"days": "Sun", "time": "Closed"}], "id": "9861200002", "name": "USPS COLLECTION BOX - PO LOBBY", "address": {"city": "CATHLAMET", "state": "WA", "street": "30 RIVER ST", "postcode": "98612"}}},
{"geometry": {"type": "Point", "coordinates": [-123.944090777, 46.2715690985]}, "type": "Feature", "properties": {"collection_times": [{"days": "Mon-Fri", "time": "4:45pm"}, {"days": "Sat", "time": "10:00am"}, {"days": "Sun", "time": "Closed"}], "id": "9861400001", "name": "USPS COLLECTION BOX - BLUE BOX", "address": {"city": "CHINOOK", "state": "WA", "street": "766 HWY 101", "postcode": "98614"}}},
{"geometry": {"type": "Point", "coordinates": [-123.944090777, 46.2715690985]}, "type": "Feature", "properties": {"collection_times": [{"days": "Mon-Fri", "time": "2:00pm"}, {"days": "Sat", "time": "10:00am"}, {"days": "Sun", "time": "Closed"}], "id": "9861400002", "name": "USPS COLLECTION BOX - PO LOBBY", "address": {"city": "CHINOOK", "state": "WA", "street": "766 HWY 101", "postcode": "98614"}}},
{"geometry": {"type": "Point", "coordinates": [-122.3056999887, 46.0490039359]}, "type": "Feature", "properties": {"collection_times": [{"days": "Mon-Fri", "time": "12:30pm"}, {"days": "Sat", "time": "12:15pm"}, {"days": "Sun", "time": "Closed"}], "id": "9861600001", "name": "USPS COLLECTION BOX - BLUE BOX", "address": {"city": "COUGAR", "state": "WA", "street": "16745 LEWIS RIVER RD", "postcode": "98616"}}},
{"geometry": {"type": "Point", "coordinates": [-121.1805361202, 45.6199196649]}, "type": "Feature", "properties": {"collection_times": [{"days": "Mon-Fri", "time": "2:45pm"}, {"days": "Sat", "time": "11:00am"}, {"days": "Sun", "time": "Closed"}], "id": "9861700001", "name": "USPS COLLECTION BOX - PO LOBBY", "address": {"city": "DALLESPORT", "state": "WA", "street": "316 6TH AVE", "postcode": "98617"}}},
{"geometry": {"type": "Point", "coordinates": [-121.1777713739, 45.6174483846]}, "type": "Feature", "properties": {"collection_times": [{"days": "Mon-Fri", "time": "4:45pm"}, {"days": "Sat", "time": "10:45am"}, {"days": "Sun", "time": "Closed"}], "id": "9861700002", "name": "USPS COLLECTION BOX - BLUE BOX", "address": {"city": "DALLESPORT", "state": "WA", "street": "316 6TH AVE", "postcode": "98617"}}},
{"geometry": {"type": "Point", "coordinates": [-121.2922241291, 46.0184149057]}, "type": "Feature", "properties": {"collection_times": [{"days": "Mon-Fri", "time": "3:00pm"}, {"days": "Sat", "time": "10:30am"}, {"days": "Sun", "time": "Closed"}], "id": "9861900000", "name": "USPS COLLECTION BOX - BLUE BOX", "address": {"city": "GLENWOOD", "state": "WA", "street": "100 W MAIN ST", "postcode": "98619"}}},
{"geometry": {"type": "Point", "coordinates": [-121.2921766915, 46.0180785889]}, "type": "Feature", "properties": {"collection_times": [{"days": "Mon-Fri", "time": "12:00pm"}, {"days": "Sat", "time": "10:30am"}, {"days": "Sun", "time": "Closed"}], "id": "9861900001", "name": "USPS COLLECTION BOX - PO LOBBY", "address": {"city": "GLENWOOD", "state": "WA", "street": "100 W MAIN ST", "postcode": "98619"}}},
{"geometry": {"type": "Point", "coordinates": [-121.2921766915, 46.0180785889]}, "type": "Feature", "properties": {"collection_times": [{"days": "Mon-Fri", "time": "12:00pm"}, {"days": "Sat", "time": "10:30am"}, {"days": "Sun", "time": "Closed"}], "id": "9861900002", "name": "USPS COLLECTION BOX - PO LOBBY", "address": {"city": "GLENWOOD", "state": "WA", "street": "100 W MAIN ST", "postcode": "98619"}}},
{"geometry": {"type": "Point", "coordinates": [-120.8225193978, 45.8220601498]}, "type": "Feature", "properties": {"collection_times": [{"days": "Mon-Fri", "time": "1:00pm"}, {"days": "Sat", "time": "12:30pm"}, {"days": "Sun", "time": "Closed"}], "id": "9862000001", "name": "USPS COLLECTION BOX - BLUE BOX", "address": {"city": "GOLDENDALE", "state": "WA", "street": "115 S COLUMBUS AVE", "postcode": "98620"}}},
{"geometry": {"type": "Point", "coordinates": [-120.8227304899, 45.8152056599]}, "type": "Feature", "properties": {"collection_times": [{"days": "Mon-Fri", "time": "4:00pm"}, {"days": "Sat", "time": "3:00pm"}, {"days": "Sun", "time": "Closed"}], "id": "9862000002", "name": "USPS COLLECTION BOX - BLUE BOX", "address": {"city": "GOLDENDALE", "state": "WA", "street": "1020 S COLUMBUS AVE", "postcode": "98620"}}},
{"geometry": {"type": "Point", "coordinates": [-120.8227304899, 45.8152056599]}, "type": "Feature", "properties": {"collection_times": [{"days": "Mon-Fri", "time": "4:00pm"}, {"days": "Sat", "time": "3:00pm"}, {"days": "Sun", "time": "Closed"}], "id": "9862000003", "name": "USPS COLLECTION BOX - BLUE BOX", "address": {"city": "GOLDENDALE", "state": "WA", "street": "1020 S COLUMBUS AVE", "postcode": "98620"}}},
{"geometry": {"type": "Point", "coordinates": [-120.8104893817, 45.8359272683]}, "type": "Feature", "properties": {"collection_times": [{"days": "Mon-Fri", "time": "4:15pm"}, {"days": "Sat", "time": "3:00pm"}, {"days": "Sun", "time": "Closed"}], "id": "9862000004", "name": "USPS COLLECTION BOX - PO LOBBY", "address": {"city": "GOLDENDALE", "state": "WA", "street": "1020 S COLUMBUS AVE", "postcode": "98620"}}},
{"geometry": {"type": "Point", "coordinates": [-121.4858059272, 45.7982908918]}, "type": "Feature", "properties": {"collection_times": [{"days": "Mon-Fri", "time": "12:00pm"}, {"days": "Sat", "time": "9:30am"}, {"days": "Sun", "time": "Closed"}], "id": "9862300002", "name": "USPS COLLECTION BOX - PO LOBBY", "address": {"city": "HUSUM", "state": "WA", "street": "210 MAIN ST", "postcode": "98623"}}},
{"geometry": {"type": "Point", "coordinates": [-124.0428153545, 46.308186395]}, "type": "Feature", "properties": {"collection_times": [{"days": "Mon-Fri", "time": "4:30pm"}, {"days": "Sat", "time": "11:00am"}, {"days": "Sun", "time": "Closed"}], "id": "9862400001", "name": "USPS COLLECTION BOX - BLUE BOX", "address": {"city": "ILWACO", "state": "WA", "street": "128 LAKE ST SE", "postcode": "98624"}}},
{"geometry": {"type": "Point", "coordinates": [-124.0245464352, 46.3138083532]}, "type": "Feature", "properties": {"collection_times": [{"days": "Mon-Fri", "time": "4:45pm"}, {"days": "Sat", "time": "11:30am"}, {"days": "Sun", "time": "Closed"}], "id": "9862400002", "name": "USPS COLLECTION BOX - PO LOBBY", "address": {"city": "ILWACO", "state": "WA", "street": "128 LAKE ST SE", "postcode": "98624"}}},
{"geometry": {"type": "Point", "coordinates": [-122.9086448485, 46.1374490697]}, "type": "Feature", "properties": {"collection_times": [{"days": "Mon-Fri", "time": "4:00pm"}, {"days": "Sat", "time": "2:30pm"}, {"days": "Sun", "time": "Closed"}], "id": "9862600001", "name": "USPS COLLECTION BOX - BLUE BOX", "address": {"city": "KELSO", "state": "WA", "street": "1000 S 7TH AVE", "postcode": "98626"}}},
{"geometry": {"type": "Point", "coordinates": [-122.9102051737, 46.1478241946]}, "type": "Feature", "properties": {"collection_times": [{"days": "Mon-Fri", "time": "4:00pm"}, {"days": "Sat", "time": "2:45pm"}, {"days": "Sun", "time": "Closed"}], "id": "9862600003", "name": "USPS COLLECTION BOX - BLUE BOX", "address": {"city": "KELSO", "state": "WA", "street": "201 CRAWFORD ST", "postcode": "98626"}}},
{"geometry": {"type": "Point", "coordinates": [-122.8886577173, 46.1454480801]}, "type": "Feature", "properties": {"collection_times": [{"days": "Mon-Fri", "time": "4:00pm"}, {"days": "Sat", "time": "3:00pm"}, {"days": "Sun", "time": "Closed"}], "id": "9862600004", "name": "USPS COLLECTION BOX - BLUE BOX", "address": {"city": "KELSO", "state": "WA", "street": "901 N 7TH AVE", "postcode": "98626"}}},
{"geometry": {"type": "Point", "coordinates": [-122.9198169313, 46.1476677498]}, "type": "Feature", "properties": {"collection_times": [{"days": "Mon-Sat", "time": "11:00am"}, {"days": "Sun", "time": "Closed"}], "id": "9862600007", "name": "USPS COLLECTION BOX - BLUE BOX", "address": {"city": "KELSO", "state": "WA", "street": "506 ROYAL ST", "postcode": "98626"}}},
{"geometry": {"type": "Point", "coordinates": [-122.901984361, 46.1398613603]}, "type": "Feature", "properties": {"collection_times": [{"days": "Mon-Fri", "time": "4:00pm"}, {"days": "Sat", "time": "2:45pm"}, {"days": "Sun", "time": "Closed"}], "id": "9862600011", "name": "USPS COLLECTION BOX - BLUE BOX", "address": {"city": "KELSO", "state": "WA", "street": "351 THREE RIVERS DR", "postcode": "98626"}}},
{"geometry": {"type": "Point", "coordinates": [-122.9060942551, 46.1394119829]}, "type": "Feature", "properties": {"collection_times": [{"days": "Mon-Sat", "time": "9:00am"}, {"days": "Sun", "time": "Closed"}], "id": "9862600013", "name": "USPS COLLECTION BOX - BLUE BOX", "address": {"city": "KELSO", "state": "WA", "street": "701 S 9TH AVE", "postcode": "98626"}}},
{"geometry": {"type": "Point", "coordinates": [-122.9109633515, 46.1402385021]}, "type": "Feature", "properties": {"collection_times": [{"days": "Mon-Fri", "time": "4:00pm"}, {"days": "Sat", "time": "2:30pm"}, {"days": "Sun", "time": "Closed"}], "id": "9862600014", "name": "USPS COLLECTION BOX - BLUE BOX", "address": {"city": "KELSO", "state": "WA", "street": "715 S 4TH AVE", "postcode": "98626"}}},
{"geometry": {"type": "Point", "coordinates": [-122.9116189508, 46.1442598332]}, "type": "Feature", "properties": {"collection_times": [{"days": "Mon-Fri", "time": "4:00pm"}, {"days": "Sat", "time": "2:30pm"}, {"days": "Sun", "time": "Closed"}], "id": "9862600015", "name": "USPS COLLECTION BOX - BLUE BOX", "address": {"city": "KELSO", "state": "WA", "street": "201 S PACIFIC AVE", "postcode": "98626"}}},
{"geometry": {"type": "Point", "coordinates": [-122.909497663, 46.1438539427]}, "type": "Feature", "properties": {"collection_times": [{"days": "Mon-Fri", "time": "4:00pm"}, {"days": "Sat", "time": "2:30pm"}, {"days": "Sun", "time": "Closed"}], "id": "9862600016", "name": "USPS COLLECTION BOX - BLUE BOX", "address": {"city": "KELSO", "state": "WA", "street": "404 OAK ST", "postcode": "98626"}}},
{"geometry": {"type": "Point", "coordinates": [-122.9181415594, 46.146082015]}, "type": "Feature", "properties": {"collection_times": [{"days": "Mon-Fri", "time": "5:00pm"}, {"days": "Sat", "time": "3:00pm"}, {"days": "Sun", "time": "Closed"}], "id": "9862600017", "name": "USPS COLLECTION BOX - BLUE BOX", "address": {"city": "KELSO", "state": "WA", "street": "115 NW 3RD AVE", "postcode": "98626"}}},
{"geometry": {"type": "Point", "coordinates": [-122.8998108412, 46.1509854294]}, "type": "Feature", "properties": {"collection_times": [{"days": "Mon-Fri", "time": "4:00pm"}, {"days": "Sat", "time": "2:45pm"}, {"days": "Sun", "time": "Closed"}], "id": "9862600021", "name": "USPS COLLECTION BOX - BLUE BOX", "address": {"city": "KELSO", "state": "WA", "street": "200 KELSO DR", "postcode": "98626"}}},
{"geometry": {"type": "Point", "coordinates": [-122.7894756309, 46.1497419552]}, "type": "Feature", "properties": {"collection_times": [{"days": "Mon-Sat", "time": "11:30am"}, {"days": "Sun", "time": "Closed"}], "id": "9862600022", "name": "USPS COLLECTION BOX - BLUE BOX", "address": {"city": "KELSO", "state": "WA", "street": "1415 S 10TH AVE", "postcode": "98626"}}},
{"geometry": {"type": "Point", "coordinates": [-122.9058719144, 46.1423523984]}, "type": "Feature", "properties": {"collection_times": [{"days": "Mon-Fri", "time": "4:00pm"}, {"days": "Sat", "time": "2:45pm"}, {"days": "Sun", "time": "Closed"}], "id": "9862600023", "name": "USPS COLLECTION BOX - BLUE BOX", "address": {"city": "KELSO", "state": "WA", "street": "711 VINE ST", "postcode": "98626"}}},
{"geometry": {"type": "Point", "coordinates": [-122.9181415594, 46.146082015]}, "type": "Feature", "properties": {"collection_times": [{"days": "Mon-Fri", "time": "5:00pm"}, {"days": "Sat", "time": "3:00pm"}, {"days": "Sun", "time": "Closed"}], "id": "9862600024", "name": "USPS COLLECTION BOX - BLUE BOX", "address": {"city": "KELSO", "state": "WA", "street": "115 NW 3RD AVE", "postcode": "98626"}}},
{"geometry": {"type": "Point", "coordinates": [-122.8886577173, 46.1454480801]}, "type": "Feature", "properties": {"collection_times": [{"days": "Mon-Fri", "time": "4:30pm"}, {"days": "Sat", "time": "3:15pm"}, {"days": "Sun", "time": "Closed"}], "id": "9862600025", "name": "USPS COLLECTION BOX - PO LOBBY", "address": {"city": "KELSO", "state": "WA", "street": "304 ACADEMY ST", "postcode": "98626"}}},
{"geometry": {"type": "Point", "coordinates": [-122.9055907931, 46.1846853457]}, "type": "Feature", "properties": {"collection_times": [{"days": "Mon-Sat", "time": "12:00pm"}, {"days": "Sun", "time": "Closed"}], "id": "9862600026", "name": "USPS COLLECTION BOX - BLUE BOX", "address": {"city": "KELSO", "state": "WA", "street": "110 SPARKS DR", "postcode": "98626"}}},
{"geometry": {"type": "Point", "coordinates": [-122.9111663702, 46.142610511]}, "type": "Feature", "properties": {"collection_times": [{"days": "Mon-Fri", "time": "4:00pm"}, {"days": "Sat", "time": "2:30pm"}, {"days": "Sun", "time": "Closed"}], "id": "9862600027", "name": "USPS COLLECTION BOX - BLUE BOX", "address": {"city": "KELSO", "state": "WA", "street": "415 S 3RD AVE", "postcode": "98626"}}},
{"geometry": {"type": "Point", "coordinates": [-122.9028919659, 46.1393234943]}, "type": "Feature", "properties": {"collection_times": [{"days": "Mon-Fri", "time": "4:00pm"}, {"days": "Sat", "time": "2:45pm"}, {"days": "Sun", "time": "Closed"}], "id": "9862600028", "name": "USPS COLLECTION BOX - BLUE BOX", "address": {"city": "KELSO", "state": "WA", "street": "411 THREE RIVERS DR", "postcode": "98626"}}},
{"geometry": {"type": "Point", "coordinates": [-122.9028919659, 46.1393234943]}, "type": "Feature", "properties": {"collection_times": [{"days": "Mon-Fri", "time": "4:00pm"}, {"days": "Sat", "time": "2:45pm"}, {"days": "Sun", "time": "Closed"}], "id": "9862600029", "name": "USPS COLLECTION BOX - BLUE BOX", "address": {"city": "KELSO", "state": "WA", "street": "411 THREE RIVERS DR", "postcode": "98626"}}},
{"geometry": {"type": "Point", "coordinates": [-122.8317314765, 46.0991373315]}, "type": "Feature", "properties": {"collection_times": [{"days": "Mon-Sat", "time": "9:00am"}, {"days": "Sun", "time": "Closed"}], "id": "9862600030", "name": "USPS COLLECTION BOX - BLUE BOX", "address": {"city": "KELSO", "state": "WA", "street": "1221 ROSE VALLEY RD", "postcode": "98626"}}},
{"geometry": {"type": "Point", "coordinates": [-122.9058719144, 46.1423523984]}, "type": "Feature", "properties": {"collection_times": [{"days": "Mon-Fri", "time": "4:00pm"}, {"days": "Sat", "time": "2:45pm"}, {"days": "Sun", "time": "Closed"}], "id": "9862600031", "name": "USPS COLLECTION BOX - BLUE BOX", "address": {"city": "KELSO", "state": "WA", "street": "711 VINE ST", "postcode": "98626"}}},
{"geometry": {"type": "Point", "coordinates": [-121.1607219603, 45.8136945726]}, "type": "Feature", "properties": {"collection_times": [{"days": "Mon-Fri", "time": "4:00pm"}, {"days": "Sat", "time": "11:00am"}, {"days": "Sun", "time": "Closed"}], "id": "9862800001", "name": "USPS COLLECTION BOX - BLUE BOX", "address": {"city": "KLICKITAT", "state": "WA", "street": "103 N MAIN ST", "postcode": "98628"}}},
{"geometry": {"type": "Point", "coordinates": [-121.1607219603, 45.8136945726]}, "type": "Feature", "properties": {"collection_times": [{"days": "Mon-Fri", "time": "3:00pm"}, {"days": "Sat", "time": "11:00am"}, {"days": "Sun", "time": "Closed"}], "id": "9862800002", "name": "USPS COLLECTION BOX - PO LOBBY", "address": {"city": "KLICKITAT", "state": "WA", "street": "103 N MAIN ST", "postcode": "98628"}}},
{"geometry": {"type": "Point", "coordinates": [-122.6563539962, 45.8617454264]}, "type": "Feature", "properties": {"collection_times": [{"days": "Mon-Fri", "time": "5:00pm"}, {"days": "Sat", "time": "12:00pm"}, {"days": "Sun", "time": "Closed"}], "id": "9862900001", "name": "USPS COLLECTION BOX - BLUE BOX", "address": {"city": "LA CENTER", "state": "WA", "street": "421 NE JOHN STORM AVE", "postcode": "98629"}}},
{"geometry": {"type": "Point", "coordinates": [-122.6563539962, 45.8617454264]}, "type": "Feature", "properties": {"collection_times": [{"days": "Mon-Fri", "time": "5:00pm"}, {"days": "Sat", "time": "12:00pm"}, {"days": "Sun", "time": "Closed"}], "id": "9862900002", "name": "USPS COLLECTION BOX - PO LOBBY", "address": {"city": "LA CENTER", "state": "WA", "street": "421 NE JOHN STORM AVE", "postcode": "98629"}}},
{"geometry": {"type": "Point", "coordinates": [-122.6698787345, 45.8625605775]}, "type": "Feature", "properties": {"collection_times": [{"days": "Mon-Sat", "time": "10:00am"}, {"days": "Sun", "time": "Closed"}], "id": "9862900003", "name": "USPS COLLECTION BOX - BLUE BOX", "address": {"city": "LA CENTER", "state": "WA", "street": "219 E 4TH ST", "postcode": "98629"}}},
{"geometry": {"type": "Point", "coordinates": [-124.0535717933, 46.3513240765]}, "type": "Feature", "properties": {"collection_times": [{"days": "Mon-Fri", "time": "4:15pm"}, {"days": "Sat", "time": "12:00pm"}, {"days": "Sun", "time": "Closed"}], "id": "9863100001", "name": "USPS COLLECTION BOX - BLUE BOX", "address": {"city": "LONG BEACH", "state": "WA", "street": "101 OREGON AVE N", "postcode": "98631"}}},
{"geometry": {"type": "Point", "coordinates": [-124.0527976609, 46.3822465349]}, "type": "Feature", "properties": {"collection_times": [{"days": "Mon-Fri", "time": "4:30pm"}, {"days": "Sat", "time": "12:00pm"}, {"days": "Sun", "time": "Closed"}], "id": "9863100003", "name": "USPS COLLECTION BOX - PO LOBBY", "address": {"city": "LONG BEACH", "state": "WA", "street": "101 OREGON AVE N", "postcode": "98631"}}},
{"geometry": {"type": "Point", "coordinates": [-124.0527976609, 46.3822465349]}, "type": "Feature", "properties": {"collection_times": [{"days": "Mon-Sat", "time": "11:00am"}, {"days": "Sun", "time": "Closed"}], "id": "9863100005", "name": "USPS COLLECTION BOX - PO LOBBY", "address": {"city": "LONG BEACH", "state": "WA", "street": "101 OREGON AVE N", "postcode": "98631"}}},
{"geometry": {"type": "Point", "coordinates": [-122.9610945925, 46.1288159377]}, "type": "Feature", "properties": {"collection_times": [{"days": "Mon-Sat", "time": "2:00pm"}, {"days": "Sun", "time": "Closed"}], "id": "9863200005", "name": "USPS COLLECTION BOX - BLUE BOX", "address": {"city": "LONGVIEW", "state": "WA", "street": "236 30TH AVE", "postcode": "98632"}}},
{"geometry": {"type": "Point", "coordinates": [-122.9991254556, 46.1632539374]}, "type": "Feature", "properties": {"collection_times": [{"days": "Mon-Sat", "time": "10:00am"}, {"days": "Sun", "time": "Closed"}], "id": "9863200011", "name": "USPS COLLECTION BOX - BLUE BOX", "address": {"city": "LONGVIEW", "state": "WA", "street": "4547 OCEAN BEACH HWY", "postcode": "98632"}}},
{"geometry": {"type": "Point", "coordinates": [-122.9660671951, 46.1480209348]}, "type": "Feature", "properties": {"collection_times": [{"days": "Mon-Sat", "time": "2:00pm"}, {"days": "Sun", "time": "Closed"}], "id": "9863200014", "name": "USPS COLLECTION BOX - BLUE BOX", "address": {"city": "LONGVIEW", "state": "WA", "street": "3184 OCEAN BEACH HWY", "postcode": "98632"}}},
{"geometry": {"type": "Point", "coordinates": [-122.9483268111, 46.1410044696]}, "type": "Feature", "properties": {"collection_times": [{"days": "Mon-Sat", "time": "9:45am"}, {"days": "Sun", "time": "Closed"}], "id": "9863200019", "name": "USPS COLLECTION BOX - BLUE BOX", "address": {"city": "LONGVIEW", "state": "WA", "street": "1438 24TH AVE", "postcode": "98632"}}},
{"geometry": {"type": "Point", "coordinates": [-122.9665071809, 46.1514094277]}, "type": "Feature", "properties": {"collection_times": [{"days": "Mon-Sat", "time": "10:00am"}, {"days": "Sun", "time": "Closed"}], "id": "9863200028", "name": "USPS COLLECTION BOX - BLUE BOX", "address": {"city": "LONGVIEW", "state": "WA", "street": "1102 DOUGLAS ST", "postcode": "98632"}}},
{"geometry": {"type": "Point", "coordinates": [-122.9327864028, 46.1373829776]}, "type": "Feature", "properties": {"collection_times": [{"days": "Mon-Fri", "time": "4:30pm"}, {"days": "Sat", "time": "4:00pm"}, {"days": "Sun", "time": "Closed"}], "id": "9863200034", "name": "USPS COLLECTION BOX - BLUE BOX", "address": {"city": "LONGVIEW", "state": "WA", "street": "1346 12TH AVE", "postcode": "98632"}}},
{"geometry": {"type": "Point", "coordinates": [-122.941310288, 46.130957738]}, "type": "Feature", "properties": {"collection_times": [{"days": "Mon-Fri", "time": "4:30pm"}, {"days": "Sat", "time": "4:00pm"}, {"days": "Sun", "time": "Closed"}], "id": "9863200046", "name": "USPS COLLECTION BOX - BLUE BOX", "address": {"city": "LONGVIEW", "state": "WA", "street": "1615 DELAWARE ST", "postcode": "98632"}}},
{"geometry": {"type": "Point", "coordinates": [-122.9375755364, 46.1400507651]}, "type": "Feature", "properties": {"collection_times": [{"days": "Mon-Fri", "time": "5:00pm"}, {"days": "Sat", "time": "4:00pm"}, {"days": "Sun", "time": "Closed"}], "id": "9863200055", "name": "USPS COLLECTION BOX - BLUE BOX", "address": {"city": "LONGVIEW", "state": "WA", "street": "1404 16TH AVE", "postcode": "98632"}}},
{"geometry": {"type": "Point", "coordinates": [-122.9375755364, 46.1400507651]}, "type": "Feature", "properties": {"collection_times": [{"days": "Mon-Fri", "time": "5:00pm"}, {"days": "Sat", "time": "4:00pm"}, {"days": "Sun", "time": "Closed"}], "id": "9863200056", "name": "USPS COLLECTION BOX - BLUE BOX", "address": {"city": "LONGVIEW", "state": "WA", "street": "1404 16TH AVE", "postcode": "98632"}}},
{"geometry": {"type": "Point", "coordinates": [-122.9375755364, 46.1400507651]}, "type": "Feature", "properties": {"collection_times": [{"days": "Mon-Fri", "time": "5:00pm"}, {"days": "Sat", "time": "4:00pm"}, {"days": "Sun", "time": "Closed"}], "id": "9863200057", "name": "USPS COLLECTION BOX - BLUE BOX", "address": {"city": "LONGVIEW", "state": "WA", "street": "1404 16TH AVE", "postcode": "98632"}}},
{"geometry": {"type": "Point", "coordinates": [-122.9375755364, 46.1400507651]}, "type": "Feature", "properties": {"collection_times": [{"days": "Mon-Fri", "time": "5:00pm"}, {"days": "Sat", "time": "4:00pm"}, {"days": "Sun", "time": "Closed"}], "id": "9863200058", "name": "USPS COLLECTION BOX - BLUE BOX", "address": {"city": "LONGVIEW", "state": "WA", "street": "1404 16TH AVE", "postcode": "98632"}}},
{"geometry": {"type": "Point", "coordinates": [-122.9426245468, 46.1158179761]}, "type": "Feature", "properties": {"collection_times": [{"days": "Mon-Sat", "time": "10:00am"}, {"days": "Sun", "time": "Closed"}], "id": "9863200060", "name": "USPS COLLECTION BOX - BLUE BOX", "address": {"city": "LONGVIEW", "state": "WA", "street": "1161 INDUSTRIAL WAY", "postcode": "98632"}}},
{"geometry": {"type": "Point", "coordinates": [-122.9374241808, 46.1400187682]}, "type": "Feature", "properties": {"collection_times": [{"days": "Mon-Fri", "time": "4:30pm"}, {"days": "Sat", "time": "4:00pm"}, {"days": "Sun", "time": "Closed"}], "id": "9863200062", "name": "USPS COLLECTION BOX - BLUE BOX", "address": {"city": "LONGVIEW", "state": "WA", "street": "1525 BROADWAY ST", "postcode": "98632"}}},
{"geometry": {"type": "Point", "coordinates": [-122.9374241808, 46.1400187682]}, "type": "Feature", "properties": {"collection_times": [{"days": "Mon-Fri", "time": "4:30pm"}, {"days": "Sat", "time": "4:00pm"}, {"days": "Sun", "time": "Closed"}], "id": "9863200063", "name": "USPS COLLECTION BOX - BLUE BOX", "address": {"city": "LONGVIEW", "state": "WA", "street": "1525 BROADWAY ST", "postcode": "98632"}}},
{"geometry": {"type": "Point", "coordinates": [-122.9374241808, 46.1400187682]}, "type": "Feature", "properties": {"collection_times": [{"days": "Mon-Fri", "time": "4:30pm"}, {"days": "Sat", "time": "4:00pm"}, {"days": "Sun", "time": "Closed"}], "id": "9863200064", "name": "USPS COLLECTION BOX - BLUE BOX", "address": {"city": "LONGVIEW", "state": "WA", "street": "1525 BROADWAY ST", "postcode": "98632"}}},
{"geometry": {"type": "Point", "coordinates": [-122.9537038284, 46.1355480968]}, "type": "Feature", "properties": {"collection_times": [{"days": "Mon-Sat", "time": "10:00am"}, {"days": "Sun", "time": "Closed"}], "id": "9863200067", "name": "USPS COLLECTION BOX - BLUE BOX", "address": {"city": "LONGVIEW", "state": "WA", "street": "2610 FIELD ST", "postcode": "98632"}}},
{"geometry": {"type": "Point", "coordinates": [-122.9665071809, 46.1514094277]}, "type": "Feature", "properties": {"collection_times": [{"days": "Mon-Fri", "time": "6:00pm"}, {"days": "Sat", "time": "5:00pm"}, {"days": "Sun", "time": "Closed"}], "id": "9863200085", "name": "USPS COLLECTION BOX - PO LOBBY", "address": {"city": "LONGVIEW", "state": "WA", "street": "1603 LARCH ST", "postcode": "98632"}}},
{"geometry": {"type": "Point", "coordinates": [-123.0216637331, 46.1745915487]}, "type": "Feature", "properties": {"collection_times": [{"days": "Mon-Sat", "time": "10:00am"}, {"days": "Sun", "time": "Closed"}], "id": "9863200091", "name": "USPS COLLECTION BOX - BLUE BOX", "address": {"city": "LONGVIEW", "state": "WA", "street": "5815 OCEAN BEACH HWY", "postcode": "98632"}}},
{"geometry": {"type": "Point", "coordinates": [-122.9374241808, 46.1400187682]}, "type": "Feature", "properties": {"collection_times": [{"days": "Mon-Fri", "time": "4:30pm"}, {"days": "Sat", "time": "4:00pm"}, {"days": "Sun", "time": "Closed"}], "id": "9863200094", "name": "USPS COLLECTION BOX - BLUE BOX", "address": {"city": "LONGVIEW", "state": "WA", "street": "1525 BROADWAY ST", "postcode": "98632"}}},
{"geometry": {"type": "Point", "coordinates": [-122.941310288, 46.130957738]}, "type": "Feature", "properties": {"collection_times": [{"days": "Mon-Fri", "time": "4:30pm"}, {"days": "Sat", "time": "4:00pm"}, {"days": "Sun", "time": "Closed"}], "id": "9863200101", "name": "USPS COLLECTION BOX - BLUE BOX", "address": {"city": "LONGVIEW", "state": "WA", "street": "1615 DELAWARE ST", "postcode": "98632"}}},
{"geometry": {"type": "Point", "coordinates": [-123.015206684, 46.1713199658]}, "type": "Feature", "properties": {"collection_times": [{"days": "Mon-Sat", "time": "10:30am"}, {"days": "Sun", "time": "Closed"}], "id": "9863200102", "name": "USPS COLLECTION BOX - BLUE BOX", "address": {"city": "LONGVIEW", "state": "WA", "street": "5601 OCEAN BEACH HWY", "postcode": "98632"}}},
{"geometry": {"type": "Point", "coordinates": [-122.94000189, 46.1388027077]}, "type": "Feature", "properties": {"collection_times": [{"days": "Mon-Fri", "time": "6:00pm"}, {"days": "Sat", "time": "5:00pm"}, {"days": "Sun", "time": "Closed"}], "id": "9863200103", "name": "USPS COLLECTION BOX - APC", "address": {"city": "LONGVIEW", "state": "WA", "street": "1603 LARCH ST", "postcode": "98632"}}},
{"geometry": {"type": "Point", "coordinates": [-121.2877137894, 45.6939681526]}, "type": "Feature", "properties": {"collection_times": [{"days": "Mon-Fri", "time": "4:30pm"}, {"days": "Sat", "time": "10:00am"}, {"days": "Sun", "time": "Closed"}], "id": "9863500001", "name": "USPS COLLECTION BOX - BLUE BOX", "address": {"city": "LYLE", "state": "WA", "street": "308 WASHINGTON ST", "postcode": "98635"}}},
{"geometry": {"type": "Point", "coordinates": [-121.2485571813, 45.7209975278]}, "type": "Feature", "properties": {"collection_times": [{"days": "Mon-Fri", "time": "4:30pm"}, {"days": "Sat", "time": "10:00am"}, {"days": "Sun", "time": "Closed"}], "id": "9863500002", "name": "USPS COLLECTION BOX - PO LOBBY", "address": {"city": "LYLE", "state": "WA", "street": "308 WASHINGTON ST", "postcode": "98635"}}},
{"geometry": {"type": "Point", "coordinates": [-121.2485571813, 45.7209975278]}, "type": "Feature", "properties": {"collection_times": [{"days": "Mon-Fri", "time": "4:30pm"}, {"days": "Sat", "time": "10:00am"}, {"days": "Sun", "time": "Closed"}], "id": "9863500003", "name": "USPS COLLECTION BOX - PO LOBBY", "address": {"city": "LYLE", "state": "WA", "street": "308 WASHINGTON ST", "postcode": "98635"}}},
{"geometry": {"type": "Point", "coordinates": [-123.8118610838, 46.3637464706]}, "type": "Feature", "properties": {"collection_times": [{"days": "Mon-Fri", "time": "4:15pm"}, {"days": "Sat", "time": "11:00am"}, {"days": "Sun", "time": "Closed"}], "id": "9863800001", "name": "USPS COLLECTION BOX - BLUE BOX", "address": {"city": "NASELLE", "state": "WA", "street": "294 KNAPPTON RD", "postcode": "98638"}}},
{"geometry": {"type": "Point", "coordinates": [-123.7597270399, 46.3600174867]}, "type": "Feature", "properties": {"collection_times": [{"days": "Mon-Fri", "time": "4:15pm"}, {"days": "Sat", "time": "8:30am"}, {"days": "Sun", "time": "Closed"}], "id": "9863800002", "name": "USPS COLLECTION BOX - PO LOBBY", "address": {"city": "NASELLE", "state": "WA", "street": "294 KNAPPTON RD", "postcode": "98638"}}},
{"geometry": {"type": "Point", "coordinates": [-121.9720346407, 45.6402161758]}, "type": "Feature", "properties": {"collection_times": [{"days": "Mon-Fri", "time": "4:30pm"}, {"days": "Sat", "time": "9:00am"}, {"days": "Sun", "time": "Closed"}], "id": "9863900001", "name": "USPS COLLECTION BOX - BLUE BOX", "address": {"city": "N BONNEVILLE", "state": "WA", "street": "23 CASCADE MALL DR", "postcode": "98639"}}},
{"geometry": {"type": "Point", "coordinates": [-121.9709186906, 45.6431393743]}, "type": "Feature", "properties": {"collection_times": [{"days": "Mon-Fri", "time": "4:45pm"}, {"days": "Sat", "time": "8:30am"}, {"days": "Sun", "time": "Closed"}], "id": "9863900002", "name": "USPS COLLECTION BOX - PO LOBBY", "address": {"city": "N BONNEVILLE", "state": "WA", "street": "23 CASCADE MALL DR", "postcode": "98639"}}},
{"geometry": {"type": "Point", "coordinates": [-124.0501456911, 46.4873597677]}, "type": "Feature", "properties": {"collection_times": [{"days": "Mon-Fri", "time": "4:00pm"}, {"days": "Sat", "time": "10:00am"}, {"days": "Sun", "time": "Closed"}], "id": "9864000001", "name": "USPS COLLECTION BOX - BLUE BOX", "address": {"city": "OCEAN PARK", "state": "WA", "street": "25502 VERNON AVE", "postcode": "98640"}}},
{"geometry": {"type": "Point", "coordinates": [-124.047296884, 46.500026599]}, "type": "Feature", "properties": {"collection_times": [{"days": "Mon-Fri", "time": "4:15pm"}, {"days": "Sat", "time": "4:00pm"}, {"days": "Sun", "time": "Closed"}], "id": "9864000003", "name": "USPS COLLECTION BOX - PO LOBBY", "address": {"city": "OCEAN PARK", "state": "WA", "street": "25502 VERNON AVE", "postcode": "98640"}}},
{"geometry": {"type": "Point", "coordinates": [-124.0299472769, 46.5464095787]}, "type": "Feature", "properties": {"collection_times": [{"days": "Mon-Fri", "time": "3:30pm"}, {"days": "Sat", "time": "10:15am"}, {"days": "Sun", "time": "Closed"}], "id": "9864100001", "name": "USPS COLLECTION BOX - BLUE BOX", "address": {"city": "OYSTERVILLE", "state": "WA", "street": "3012 OYSTERVILLE RD", "postcode": "98641"}}},
{"geometry": {"type": "Point", "coordinates": [-124.029947277, 46.5464095327]}, "type": "Feature", "properties": {"collection_times": [{"days": "Mon-Fri", "time": "1:00pm"}, {"days": "Sat", "time": "10:15am"}, {"days": "Sun", "time": "Closed"}], "id": "9864100002", "name": "USPS COLLECTION BOX - PO LOBBY", "address": {"city": "OYSTERVILLE", "state": "WA", "street": "3012 OYSTERVILLE RD", "postcode": "98641"}}},
{"geometry": {"type": "Point", "coordinates": [-122.6614666372, 45.7796914034]}, "type": "Feature", "properties": {"collection_times": [{"days": "Mon-Sat", "time": "10:00am"}, {"days": "Sun", "time": "Closed"}], "id": "9864200001", "name": "USPS COLLECTION BOX - BLUE BOX", "address": {"city": "RIDGEFIELD", "state": "WA", "street": "1010 NE 219TH ST", "postcode": "98642"}}},
{"geometry": {"type": "Point", "coordinates": [-122.6888873995, 45.7918776026]}, "type": "Feature", "properties": {"collection_times": [{"days": "Mon-Fri", "time": "5:00pm"}, {"days": "Sat", "time": "2:00pm"}, {"days": "Sun", "time": "Closed"}], "id": "9864200002", "name": "USPS COLLECTION BOX - BLUE BOX", "address": {"city": "RIDGEFIELD", "state": "WA", "street": "205 N MAIN AVE", "postcode": "98642"}}},
{"geometry": {"type": "Point", "coordinates": [-122.6888873995, 45.7918776026]}, "type": "Feature", "properties": {"collection_times": [{"days": "Mon-Fri", "time": "5:00pm"}, {"days": "Sat", "time": "2:00pm"}, {"days": "Sun", "time": "Closed"}], "id": "9864200003", "name": "USPS COLLECTION BOX - PO LOBBY", "address": {"city": "RIDGEFIELD", "state": "WA", "street": "205 N MAIN AVE", "postcode": "98642"}}},
{"geometry": {"type": "Point", "coordinates": [-122.6758103698, 45.7507186816]}, "type": "Feature", "properties": {"collection_times": [{"days": "Mon-Sat", "time": "10:00am"}, {"days": "Sun", "time": "Closed"}], "id": "9864200004", "name": "USPS COLLECTION BOX - BLUE BOX", "address": {"city": "RIDGEFIELD", "state": "WA", "street": "604 NE 179TH ST", "postcode": "98642"}}},
{"geometry": {"type": "Point", "coordinates": [-122.6896216106, 45.8157027605]}, "type": "Feature", "properties": {"collection_times": [{"days": "Mon-Sat", "time": "11:30am"}, {"days": "Sun", "time": "Closed"}], "id": "9864200005", "name": "USPS COLLECTION BOX - BLUE BOX", "address": {"city": "RIDGEFIELD", "state": "WA", "street": "5801 PIONEER ST", "postcode": "98642"}}},
{"geometry": {"type": "Point", "coordinates": [-122.7017421564, 45.8023372871]}, "type": "Feature", "properties": {"collection_times": [{"days": "Mon-Sat", "time": "10:00am"}, {"days": "Sun", "time": "Closed"}], "id": "9864200006", "name": "USPS COLLECTION BOX - BLUE BOX", "address": {"city": "RIDGEFIELD", "state": "WA", "street": "2814 NW 319TH ST", "postcode": "98642"}}},
{"geometry": {"type": "Point", "coordinates": [-123.6653969705, 46.3138170432]}, "type": "Feature", "properties": {"collection_times": [{"days": "Mon-Fri", "time": "11:45am"}, {"days": "Sat", "time": "9:00am"}, {"days": "Sun", "time": "Closed"}], "id": "9864300002", "name": "USPS COLLECTION BOX - PO LOBBY", "address": {"city": "ROSBURG", "state": "WA", "street": "4182 STATE ROUTE 4 W", "postcode": "98643"}}},
{"geometry": {"type": "Point", "coordinates": [-123.6325619311, 46.3367640087]}, "type": "Feature", "properties": {"collection_times": [{"days": "Mon-Fri", "time": "4:30pm"}, {"days": "Sat", "time": "8:00am"}, {"days": "Sun", "time": "Closed"}], "id": "9864300003", "name": "USPS COLLECTION BOX - BLUE BOX", "address": {"city": "ROSBURG", "state": "WA", "street": "4182 STATE ROUTE 4 W", "postcode": "98643"}}},
{"geometry": {"type": "Point", "coordinates": [-124.0553785942, 46.3308885699]}, "type": "Feature", "properties": {"collection_times": [{"days": "Mon-Fri", "time": "4:30pm"}, {"days": "Sat", "time": "10:00am"}, {"days": "Sun", "time": "Closed"}], "id": "9864400001", "name": "USPS COLLECTION BOX - BLUE BOX", "address": {"city": "SEAVIEW", "state": "WA", "street": "4006 PACIFIC HWY", "postcode": "98644"}}},
{"geometry": {"type": "Point", "coordinates": [-124.0553785942, 46.3308885699]}, "type": "Feature", "properties": {"collection_times": [{"days": "Mon-Fri", "time": "3:00pm"}, {"days": "Sat", "time": "10:00am"}, {"days": "Sun", "time": "Closed"}], "id": "9864400002", "name": "USPS COLLECTION BOX - PO LOBBY", "address": {"city": "SEAVIEW", "state": "WA", "street": "4006 PACIFIC HWY", "postcode": "98644"}}},
{"geometry": {"type": "Point", "coordinates": [-123.4588672459, 46.2723153376]}, "type": "Feature", "properties": {"collection_times": [{"days": "Mon-Fri", "time": "4:45pm"}, {"days": "Sat", "time": "4:00pm"}, {"days": "Sun", "time": "Closed"}], "id": "9864700001", "name": "USPS COLLECTION BOX - BLUE BOX", "address": {"city": "SKAMOKAWA", "state": "WA", "street": "1391 W STATE ROUTE 4", "postcode": "98647"}}},
{"geometry": {"type": "Point", "coordinates": [-123.4380966978, 46.2889158167]}, "type": "Feature", "properties": {"collection_times": [{"days": "Mon-Fri", "time": "11:45am"}, {"days": "Sat", "time": "8:00am"}, {"days": "Sun", "time": "Closed"}], "id": "9864700002", "name": "USPS COLLECTION BOX - PO LOBBY", "address": {"city": "SKAMOKAWA", "state": "WA", "street": "1391 W STATE ROUTE 4", "postcode": "98647"}}},
{"geometry": {"type": "Point", "coordinates": [-121.8830845277, 45.6927841586]}, "type": "Feature", "properties": {"collection_times": [{"days": "Mon-Fri", "time": "4:00pm"}, {"days": "Sat", "time": "10:00am"}, {"days": "Sun", "time": "Closed"}], "id": "9864800002", "name": "USPS COLLECTION BOX - BLUE BOX", "address": {"city": "STEVENSON", "state": "WA", "street": "90 SW RUSSELL AVE", "postcode": "98648"}}},
{"geometry": {"type": "Point", "coordinates": [-121.9025891341, 45.6854075878]}, "type": "Feature", "properties": {"collection_times": [{"days": "Mon-Fri", "time": "4:30pm"}, {"days": "Sat", "time": "10:00am"}, {"days": "Sun", "time": "Closed"}], "id": "9864800003", "name": "USPS COLLECTION BOX - PO LOBBY", "address": {"city": "STEVENSON", "state": "WA", "street": "90 SW RUSSELL AVE", "postcode": "98648"}}},
{"geometry": {"type": "Point", "coordinates": [-122.0245076309, 45.6254547319]}, "type": "Feature", "properties": {"collection_times": [{"days": "Mon-Sat", "time": "10:30am"}, {"days": "Sun", "time": "Closed"}], "id": "9864800004", "name": "USPS COLLECTION BOX - BLUE BOX", "address": {"city": "STEVENSON", "state": "WA", "street": "33001 STATE ROUTE 14", "postcode": "98648"}}},
{"geometry": {"type": "Point", "coordinates": [-122.7296081227, 46.3266198203]}, "type": "Feature", "properties": {"collection_times": [{"days": "Mon-Fri", "time": "4:00pm"}, {"days": "Sat", "time": "9:30am"}, {"days": "Sun", "time": "Closed"}], "id": "9864900001", "name": "USPS COLLECTION BOX - BLUE BOX", "address": {"city": "TOUTLE", "state": "WA", "street": "5208 SPIRIT LAKE HWY", "postcode": "98649"}}},
{"geometry": {"type": "Point", "coordinates": [-122.7296081227, 46.3266198203]}, "type": "Feature", "properties": {"collection_times": [{"days": "Mon-Fri", "time": "4:00pm"}, {"days": "Sat", "time": "9:30am"}, {"days": "Sun", "time": "Closed"}], "id": "9864900002", "name": "USPS COLLECTION BOX - PO LOBBY", "address": {"city": "TOUTLE", "state": "WA", "street": "5208 SPIRIT LAKE HWY", "postcode": "98649"}}},
{"geometry": {"type": "Point", "coordinates": [-121.6028438429, 45.9675049285]}, "type": "Feature", "properties": {"collection_times": [{"days": "Mon-Fri", "time": "3:45pm"}, {"days": "Sat", "time": "11:00am"}, {"days": "Sun", "time": "Closed"}], "id": "9865000001", "name": "USPS COLLECTION BOX - BLUE BOX", "address": {"city": "TROUT LAKE", "state": "WA", "street": "2393 HIGHWAY 141", "postcode": "98650"}}},
{"geometry": {"type": "Point", "coordinates": [-121.5060161372, 45.9760189357]}, "type": "Feature", "properties": {"collection_times": [{"days": "Mon-Fri", "time": "3:45pm"}, {"days": "Sat", "time": "11:00am"}, {"days": "Sun", "time": "Closed"}], "id": "9865000002", "name": "USPS COLLECTION BOX - PO LOBBY", "address": {"city": "TROUT LAKE", "state": "WA", "street": "2393 HIGHWAY 141", "postcode": "98650"}}},
{"geometry": {"type": "Point", "coordinates": [-121.5060161372, 45.9760189357]}, "type": "Feature", "properties": {"collection_times": [{"days": "Mon-Fri", "time": "3:45pm"}, {"days": "Sat", "time": "11:00am"}, {"days": "Sun", "time": "Closed"}], "id": "9865000003", "name": "USPS COLLECTION BOX - PO LOBBY", "address": {"city": "TROUT LAKE", "state": "WA", "street": "2393 HIGHWAY 141", "postcode": "98650"}}},
{"geometry": {"type": "Point", "coordinates": [-121.5522400682, 45.7370079177]}, "type": "Feature", "properties": {"collection_times": [{"days": "Mon-Fri", "time": "2:00pm"}, {"days": "Sat", "time": "12:00pm"}, {"days": "Sun", "time": "Closed"}], "id": "9865100001", "name": "USPS COLLECTION BOX - BLUE BOX", "address": {"city": "UNDERWOOD", "state": "WA", "street": "981 SCHOOLHOUSE RD", "postcode": "98651"}}},
{"geometry": {"type": "Point", "coordinates": [-121.5522400682, 45.7370079177]}, "type": "Feature", "properties": {"collection_times": [{"days": "Mon-Fri", "time": "2:00pm"}, {"days": "Sat", "time": "12:00pm"}, {"days": "Sun", "time": "Closed"}], "id": "9865100002", "name": "USPS COLLECTION BOX - PO LOBBY", "address": {"city": "UNDERWOOD", "state": "WA", "street": "981 SCHOOLHOUSE RD", "postcode": "98651"}}},
{"geometry": {"type": "Point", "coordinates": [-122.6715702657, 45.6300445636]}, "type": "Feature", "properties": {"collection_times": [{"days": "Mon-Fri", "time": "5:00pm"}, {"days": "Sat", "time": "2:45pm"}, {"days": "Sun", "time": "Closed"}], "id": "9866000000", "name": "USPS COLLECTION BOX - BLUE BOX", "address": {"city": "VANCOUVER", "state": "WA", "street": "1111 MAIN ST", "postcode": "98660"}}},
{"geometry": {"type": "Point", "coordinates": [-122.6715702657, 45.6300445636]}, "type": "Feature", "properties": {"collection_times": [{"days": "Mon-Fri", "time": "5:00pm"}, {"days": "Sat", "time": "2:45pm"}, {"days": "Sun", "time": "Closed"}], "id": "9866000001", "name": "USPS COLLECTION BOX - BLUE BOX", "address": {"city": "VANCOUVER", "state": "WA", "street": "1111 MAIN ST", "postcode": "98660"}}},
{"geometry": {"type": "Point", "coordinates": [-122.6715702657, 45.6300445636]}, "type": "Feature", "properties": {"collection_times": [{"days": "Mon-Fri", "time": "5:00pm"}, {"days": "Sat", "time": "2:45pm"}, {"days": "Sun", "time": "Closed"}], "id": "9866000002", "name": "USPS COLLECTION BOX - BLUE BOX", "address": {"city": "VANCOUVER", "state": "WA", "street": "1111 MAIN ST", "postcode": "98660"}}},
{"geometry": {"type": "Point", "coordinates": [-122.6706198387, 45.6295463028]}, "type": "Feature", "properties": {"collection_times": [{"days": "Mon-Fri", "time": "4:45pm"}, {"days": "Sat", "time": "3:00pm"}, {"days": "Sun", "time": "Closed"}], "id": "9866000003", "name": "USPS COLLECTION BOX - BLUE BOX", "address": {"city": "VANCOUVER", "state": "WA", "street": "1100 BROADWAY ST", "postcode": "98660"}}},
{"geometry": {"type": "Point", "coordinates": [-122.66950488, 45.6271188253]}, "type": "Feature", "properties": {"collection_times": [{"days": "Mon-Fri", "time": "4:45pm"}, {"days": "Sat", "time": "3:00pm"}, {"days": "Sun", "time": "Closed"}], "id": "9866000004", "name": "USPS COLLECTION BOX - BLUE BOX", "address": {"city": "VANCOUVER", "state": "WA", "street": "900 C ST", "postcode": "98660"}}},
{"geometry": {"type": "Point", "coordinates": [-122.6748398022, 45.6307084959]}, "type": "Feature", "properties": {"collection_times": [{"days": "Mon-Fri", "time": "5:30pm"}, {"days": "Sat", "time": "3:00pm"}, {"days": "Sun", "time": "Closed"}], "id": "9866000007", "name": "USPS COLLECTION BOX - BLUE BOX", "address": {"city": "VANCOUVER", "state": "WA", "street": "1211 DANIELS ST", "postcode": "98660"}}},
{"geometry": {"type": "Point", "coordinates": [-122.6748908315, 45.630723582]}, "type": "Feature", "properties": {"collection_times": [{"days": "Mon-Fri", "time": "5:30pm"}, {"days": "Sat", "time": "3:00pm"}, {"days": "Sun", "time": "Closed"}], "id": "9866000008", "name": "USPS COLLECTION BOX - BLUE BOX", "address": {"city": "VANCOUVER", "state": "WA", "street": "1211 DANIELS ST", "postcode": "98660"}}},
{"geometry": {"type": "Point", "coordinates": [-122.6716258648, 45.628532742]}, "type": "Feature", "properties": {"collection_times": [{"days": "Mon-Fri", "time": "4:45pm"}, {"days": "Sat", "time": "2:45pm"}, {"days": "Sun", "time": "Closed"}], "id": "9866000009", "name": "USPS COLLECTION BOX - BLUE BOX", "address": {"city": "VANCOUVER", "state": "WA", "street": "916 MAIN ST", "postcode": "98660"}}},
{"geometry": {"type": "Point", "coordinates": [-122.6714011026, 45.640035835]}, "type": "Feature", "properties": {"collection_times": [{"days": "Mon-Fri", "time": "4:00pm"}, {"days": "Sat", "time": "2:00pm"}, {"days": "Sun", "time": "Closed"}], "id": "9866000010", "name": "USPS COLLECTION BOX - BLUE BOX", "address": {"city": "VANCOUVER", "state": "WA", "street": "2500 MAIN ST", "postcode": "98660"}}},
{"geometry": {"type": "Point", "coordinates": [-122.6788941488, 45.6529123594]}, "type": "Feature", "properties": {"collection_times": [{"days": "Mon-Sat", "time": "1:30pm"}, {"days": "Sun", "time": "Closed"}], "id": "9866000013", "name": "USPS COLLECTION BOX - BLUE BOX", "address": {"city": "VANCOUVER", "state": "WA", "street": "703 NW 43RD ST", "postcode": "98660"}}},
{"geometry": {"type": "Point", "coordinates": [-122.6782675517, 45.6311562886]}, "type": "Feature", "properties": {"collection_times": [{"days": "Mon-Fri", "time": "4:45pm"}, {"days": "Sat", "time": "3:15pm"}, {"days": "Sun", "time": "Closed"}], "id": "9866000014", "name": "USPS COLLECTION BOX - BLUE BOX", "address": {"city": "VANCOUVER", "state": "WA", "street": "700 W 13TH ST", "postcode": "98660"}}},
{"geometry": {"type": "Point", "coordinates": [-122.6748908315, 45.630723582]}, "type": "Feature", "properties": {"collection_times": [{"days": "Mon-Fri", "time": "5:30pm"}, {"days": "Sat", "time": "3:00pm"}, {"days": "Sun", "time": "Closed"}], "id": "9866000016", "name": "USPS COLLECTION BOX - BLUE BOX", "address": {"city": "VANCOUVER", "state": "WA", "street": "1211 DANIELS ST", "postcode": "98660"}}},
{"geometry": {"type": "Point", "coordinates": [-122.6748908315, 45.630723582]}, "type": "Feature", "properties": {"collection_times": [{"days": "Mon-Fri", "time": "5:30pm"}, {"days": "Sat", "time": "3:00pm"}, {"days": "Sun", "time": "Closed"}], "id": "9866000017", "name": "USPS COLLECTION BOX - BLUE BOX", "address": {"city": "VANCOUVER", "state": "WA", "street": "1211 DANIELS ST", "postcode": "98660"}}},
{"geometry": {"type": "Point", "coordinates": [-122.6706198387, 45.6295463028]}, "type": "Feature", "properties": {"collection_times": [{"days": "Mon-Fri", "time": "4:45pm"}, {"days": "Sat", "time": "3:00pm"}, {"days": "Sun", "time": "Closed"}], "id": "9866000019", "name": "USPS COLLECTION BOX - BLUE BOX", "address": {"city": "VANCOUVER", "state": "WA", "street": "1100 BROADWAY ST", "postcode": "98660"}}},
{"geometry": {"type": "Point", "coordinates": [-122.66950488, 45.6271188253]}, "type": "Feature", "properties": {"collection_times": [{"days": "Mon-Fri", "time": "4:45pm"}, {"days": "Sat", "time": "3:00pm"}, {"days": "Sun", "time": "Closed"}], "id": "9866000021", "name": "USPS COLLECTION BOX - BLUE BOX", "address": {"city": "VANCOUVER", "state": "WA", "street": "900 C ST", "postcode": "98660"}}},
{"geometry": {"type": "Point", "coordinates": [-122.66950488, 45.6271188253]}, "type": "Feature", "properties": {"collection_times": [{"days": "Mon-Fri", "time": "4:45pm"}, {"days": "Sat", "time": "3:00pm"}, {"days": "Sun", "time": "Closed"}], "id": "9866000022", "name": "USPS COLLECTION BOX - BLUE BOX", "address": {"city": "VANCOUVER", "state": "WA", "street": "900 C ST", "postcode": "98660"}}},
{"geometry": {"type": "Point", "coordinates": [-122.677149624, 45.6287576263]}, "type": "Feature", "properties": {"collection_times": [{"days": "Mon-Fri", "time": "5:00pm"}, {"days": "Sat", "time": "3:15pm"}, {"days": "Sun", "time": "Closed"}], "id": "9866000023", "name": "USPS COLLECTION BOX - BLUE BOX", "address": {"city": "VANCOUVER", "state": "WA", "street": "601 W EVERGREEN BLVD", "postcode": "98660"}}},
{"geometry": {"type": "Point", "coordinates": [-122.677149624, 45.6287576263]}, "type": "Feature", "properties": {"collection_times": [{"days": "Mon-Fri", "time": "5:00pm"}, {"days": "Sat", "time": "3:15pm"}, {"days": "Sun", "time": "Closed"}], "id": "9866000024", "name": "USPS COLLECTION BOX - BLUE BOX", "address": {"city": "VANCOUVER", "state": "WA", "street": "601 W EVERGREEN BLVD", "postcode": "98660"}}},
{"geometry": {"type": "Point", "coordinates": [-122.677149624, 45.6287576263]}, "type": "Feature", "properties": {"collection_times": [{"days": "Mon-Fri", "time": "5:00pm"}, {"days": "Sat", "time": "3:15pm"}, {"days": "Sun", "time": "Closed"}], "id": "9866000025", "name": "USPS COLLECTION BOX - BLUE BOX", "address": {"city": "VANCOUVER", "state": "WA", "street": "601 W EVERGREEN BLVD", "postcode": "98660"}}},
{"geometry": {"type": "Point", "coordinates": [-122.7074056416, 45.6460961338]}, "type": "Feature", "properties": {"collection_times": [{"days": "Mon-Sat", "time": "11:00am"}, {"days": "Sun", "time": "Closed"}], "id": "9866000026", "name": "USPS COLLECTION BOX - BLUE BOX", "address": {"city": "VANCOUVER", "state": "WA", "street": "3103 NW LOWER RIVER RD", "postcode": "98660"}}},
{"geometry": {"type": "Point", "coordinates": [-122.6716258648, 45.628532742]}, "type": "Feature", "properties": {"collection_times": [{"days": "Mon-Fri", "time": "4:45pm"}, {"days": "Sat", "time": "2:45pm"}, {"days": "Sun", "time": "Closed"}], "id": "9866000027", "name": "USPS COLLECTION BOX - BLUE BOX", "address": {"city": "VANCOUVER", "state": "WA", "street": "916 MAIN ST", "postcode": "98660"}}},
{"geometry": {"type": "Point", "coordinates": [-122.6726881619, 45.631272475]}, "type": "Feature", "properties": {"collection_times": [{"days": "Mon-Fri", "time": "5:00pm"}, {"days": "Sat", "time": "2:30pm"}, {"days": "Sun", "time": "Closed"}], "id": "9866000028", "name": "USPS COLLECTION BOX - BLUE BOX", "address": {"city": "VANCOUVER", "state": "WA", "street": "1300 WASHINGTON ST", "postcode": "98660"}}},
{"geometry": {"type": "Point", "coordinates": [-122.6726881619, 45.631272475]}, "type": "Feature", "properties": {"collection_times": [{"days": "Mon-Fri", "time": "5:00pm"}, {"days": "Sat", "time": "2:30pm"}, {"days": "Sun", "time": "Closed"}], "id": "9866000029", "name": "USPS COLLECTION BOX - BLUE BOX", "address": {"city": "VANCOUVER", "state": "WA", "street": "1300 WASHINGTON ST", "postcode": "98660"}}},
{"geometry": {"type": "Point", "coordinates": [-122.6726053548, 45.6343446194]}, "type": "Feature", "properties": {"collection_times": [{"days": "Mon-Fri", "time": "5:00pm"}, {"days": "Sat-Sun", "time": "Closed"}], "id": "9866000030", "name": "USPS COLLECTION BOX - BLUE BOX", "address": {"city": "VANCOUVER", "state": "WA", "street": "1700 WASHINGTON ST", "postcode": "98660"}}},
{"geometry": {"type": "Point", "coordinates": [-122.6716649024, 45.6258628037]}, "type": "Feature", "properties": {"collection_times": [{"days": "Mon-Fri", "time": "4:45pm"}, {"days": "Sat", "time": "2:30pm"}, {"days": "Sun", "time": "Closed"}], "id": "9866000031", "name": "USPS COLLECTION BOX - BLUE BOX", "address": {"city": "VANCOUVER", "state": "WA", "street": "601 MAIN ST", "postcode": "98660"}}},
{"geometry": {"type": "Point", "coordinates": [-122.6728528282, 45.6268412005]}, "type": "Feature", "properties": {"collection_times": [{"days": "Mon-Fri", "time": "3:00pm"}, {"days": "Sat-Sun", "time": "Closed"}], "id": "9866000032", "name": "USPS COLLECTION BOX - BLUE BOX", "address": {"city": "VANCOUVER", "state": "WA", "street": "700 WASHINGTON ST", "postcode": "98660"}}},
{"geometry": {"type": "Point", "coordinates": [-122.6706733467, 45.6272408638]}, "type": "Feature", "properties": {"collection_times": [{"days": "Mon-Fri", "time": "4:30pm"}, {"days": "Sat", "time": "3:00pm"}, {"days": "Sun", "time": "Closed"}], "id": "9866000033", "name": "USPS COLLECTION BOX - BLUE BOX", "address": {"city": "VANCOUVER", "state": "WA", "street": "800 BROADWAY ST", "postcode": "98660"}}},
{"geometry": {"type": "Point", "coordinates": [-122.6748908315, 45.630723582]}, "type": "Feature", "properties": {"collection_times": [{"days": "Mon-Fri", "time": "5:30pm"}, {"days": "Sat", "time": "9:45am"}, {"days": "Sun", "time": "Closed"}], "id": "9866000035", "name": "USPS COLLECTION BOX - PO LOBBY", "address": {"city": "VANCOUVER", "state": "WA", "street": "1211 DANIELS ST", "postcode": "98660"}}},
{"geometry": {"type": "Point", "coordinates": [-122.6921868746, 45.6495278978]}, "type": "Feature", "properties": {"collection_times": [{"days": "Mon-Fri", "time": "1:00pm"}, {"days": "Sat", "time": "12:00pm"}, {"days": "Sun", "time": "Closed"}], "id": "9866000036", "name": "USPS COLLECTION BOX - BLUE BOX", "address": {"city": "VANCOUVER", "state": "WA", "street": "3800 FRUIT VALLEY RD", "postcode": "98660"}}},
{"geometry": {"type": "Point", "coordinates": [-122.6748908315, 45.630723582]}, "type": "Feature", "properties": {"collection_times": [{"days": "Mon-Fri", "time": "5:30pm"}, {"days": "Sat", "time": "12:00pm"}, {"days": "Sun", "time": "Closed"}], "id": "9866000037", "name": "USPS COLLECTION BOX - APC", "address": {"city": "VANCOUVER", "state": "WA", "street": "1211 DANIELS ST", "postcode": "98660"}}},
{"geometry": {"type": "Point", "coordinates": [-122.6054724335, 45.6274799086]}, "type": "Feature", "properties": {"collection_times": [{"days": "Mon-Fri", "time": "4:30pm"}, {"days": "Sat", "time": "2:00pm"}, {"days": "Sun", "time": "Closed"}], "id": "9866100004", "name": "USPS COLLECTION BOX - BLUE BOX", "address": {"city": "VANCOUVER", "state": "WA", "street": "6405 E MILL PLAIN BLVD", "postcode": "98661"}}},
{"geometry": {"type": "Point", "coordinates": [-122.6135499319, 45.6247592656]}, "type": "Feature", "properties": {"collection_times": [{"days": "Mon-Sat", "time": "12:00pm"}, {"days": "Sun", "time": "Closed"}], "id": "9866100027", "name": "USPS COLLECTION BOX - BLUE BOX", "address": {"city": "VANCOUVER", "state": "WA", "street": "605 N DEVINE RD", "postcode": "98661"}}},
{"geometry": {"type": "Point", "coordinates": [-122.6611235551, 45.630436123]}, "type": "Feature", "properties": {"collection_times": [{"days": "Mon-Fri", "time": "4:30pm"}, {"days": "Sat", "time": "2:00pm"}, {"days": "Sun", "time": "Closed"}], "id": "9866100044", "name": "USPS COLLECTION BOX - BLUE BOX", "address": {"city": "VANCOUVER", "state": "WA", "street": "1007 E MILL PLAIN BLVD", "postcode": "98661"}}},
{"geometry": {"type": "Point", "coordinates": [-122.6361067332, 45.6596641184]}, "type": "Feature", "properties": {"collection_times": [{"days": "Mon-Sat", "time": "12:00pm"}, {"days": "Sun", "time": "Closed"}], "id": "9866100045", "name": "USPS COLLECTION BOX - BLUE BOX", "address": {"city": "VANCOUVER", "state": "WA", "street": "5200 NE ST JOHNS RD", "postcode": "98661"}}},
{"geometry": {"type": "Point", "coordinates": [-122.6403567105, 45.6282772229]}, "type": "Feature", "properties": {"collection_times": [{"days": "Mon-Fri", "time": "4:30pm"}, {"days": "Sat", "time": "2:00pm"}, {"days": "Sun", "time": "Closed"}], "id": "9866100051", "name": "USPS COLLECTION BOX - BLUE BOX", "address": {"city": "VANCOUVER", "state": "WA", "street": "2900 E MILL PLAIN BLVD", "postcode": "98661"}}},
{"geometry": {"type": "Point", "coordinates": [-122.5991049276, 45.6446061673]}, "type": "Feature", "properties": {"collection_times": [{"days": "Mon-Fri", "time": "4:30pm"}, {"days": "Sat", "time": "2:00pm"}, {"days": "Sun", "time": "Closed"}], "id": "9866100058", "name": "USPS COLLECTION BOX - BLUE BOX", "address": {"city": "VANCOUVER", "state": "WA", "street": "3021 NE 72ND DR", "postcode": "98661"}}},
{"geometry": {"type": "Point", "coordinates": [-122.6657965514, 45.6285370196]}, "type": "Feature", "properties": {"collection_times": [{"days": "Mon-Fri", "time": "4:30pm"}, {"days": "Sat", "time": "2:00pm"}, {"days": "Sun", "time": "Closed"}], "id": "9866100067", "name": "USPS COLLECTION BOX - BLUE BOX", "address": {"city": "VANCOUVER", "state": "WA", "street": "605 E EVERGREEN BLVD", "postcode": "98661"}}},
{"geometry": {"type": "Point", "coordinates": [-122.6238383221, 45.6430090241]}, "type": "Feature", "properties": {"collection_times": [{"days": "Mon-Fri", "time": "5:00pm"}, {"days": "Sat", "time": "2:00pm"}, {"days": "Sun", "time": "Closed"}], "id": "9866100074", "name": "USPS COLLECTION BOX - BLUE BOX", "address": {"city": "VANCOUVER", "state": "WA", "street": "2000 COLUMBIA ST", "postcode": "98661"}}},
{"geometry": {"type": "Point", "coordinates": [-122.6485285275, 45.6272703402]}, "type": "Feature", "properties": {"collection_times": [{"days": "Mon-Fri", "time": "4:30pm"}, {"days": "Sat", "time": "2:00pm"}, {"days": "Sun", "time": "Closed"}], "id": "9866100076", "name": "USPS COLLECTION BOX - BLUE BOX", "address": {"city": "VANCOUVER", "state": "WA", "street": "900 V ST", "postcode": "98661"}}},
{"geometry": {"type": "Point", "coordinates": [-122.6235279362, 45.6408745529]}, "type": "Feature", "properties": {"collection_times": [{"days": "Mon-Fri", "time": "5:45pm"}, {"days": "Sat", "time": "4:15pm"}, {"days": "Sun", "time": "Closed"}], "id": "9866100093", "name": "USPS COLLECTION BOX - BLUE BOX", "address": {"city": "VANCOUVER", "state": "WA", "street": "2700 CAPLES AVE", "postcode": "98661"}}},
{"geometry": {"type": "Point", "coordinates": [-122.6235279362, 45.6408745529]}, "type": "Feature", "properties": {"collection_times": [{"days": "Mon-Fri", "time": "5:45pm"}, {"days": "Sat", "time": "4:15pm"}, {"days": "Sun", "time": "Closed"}], "id": "9866100094", "name": "USPS COLLECTION BOX - BLUE BOX", "address": {"city": "VANCOUVER", "state": "WA", "street": "2700 CAPLES AVE", "postcode": "98661"}}},
{"geometry": {"type": "Point", "coordinates": [-122.6445159942, 45.6382472011]}, "type": "Feature", "properties": {"collection_times": [{"days": "Mon-Fri", "time": "12:45pm"}, {"days": "Sat", "time": "2:00pm"}, {"days": "Sun", "time": "Closed"}], "id": "9866100106", "name": "USPS COLLECTION BOX - BLUE BOX", "address": {"city": "VANCOUVER", "state": "WA", "street": "2505 E FOURTH PLAIN BLVD", "postcode": "98661"}}},
{"geometry": {"type": "Point", "coordinates": [-122.6235279362, 45.6408745529]}, "type": "Feature", "properties": {"collection_times": [{"days": "Mon-Fri", "time": "5:45pm"}, {"days": "Sat", "time": "4:15pm"}, {"days": "Sun", "time": "Closed"}], "id": "9866100153", "name": "USPS COLLECTION BOX - BLUE BOX", "address": {"city": "VANCOUVER", "state": "WA", "street": "2700 CAPLES AVE", "postcode": "98661"}}},
{"geometry": {"type": "Point", "coordinates": [-122.6238383221, 45.6430090241]}, "type": "Feature", "properties": {"collection_times": [{"days": "Mon-Fri", "time": "5:00pm"}, {"days": "Sat", "time": "2:00pm"}, {"days": "Sun", "time": "Closed"}], "id": "9866100180", "name": "USPS COLLECTION BOX - BLUE BOX", "address": {"city": "VANCOUVER", "state": "WA", "street": "2000 COLUMBIA ST", "postcode": "98661"}}},
{"geometry": {"type": "Point", "coordinates": [-122.6238383221, 45.6430090241]}, "type": "Feature", "properties": {"collection_times": [{"days": "Mon-Fri", "time": "5:00pm"}, {"days": "Sat", "time": "2:00pm"}, {"days": "Sun", "time": "Closed"}], "id": "9866100194", "name": "USPS COLLECTION BOX - BLUE BOX", "address": {"city": "VANCOUVER", "state": "WA", "street": "2000 COLUMBIA ST", "postcode": "98661"}}},
{"geometry": {"type": "Point", "coordinates": [-122.5993100333, 45.6774093257]}, "type": "Feature", "properties": {"collection_times": [{"days": "Mon-Sat", "time": "2:00pm"}, {"days": "Sun", "time": "Closed"}], "id": "9866100222", "name": "USPS COLLECTION BOX - BLUE BOX", "address": {"city": "VANCOUVER", "state": "WA", "street": "7703 NE 72ND AVE", "postcode": "98661"}}},
{"geometry": {"type": "Point", "coordinates": [-122.6238383221, 45.6430090241]}, "type": "Feature", "properties": {"collection_times": [{"days": "Mon-Fri", "time": "5:45pm"}, {"days": "Sat", "time": "4:15pm"}, {"days": "Sun", "time": "Closed"}], "id": "9866100225", "name": "USPS COLLECTION BOX - PO LOBBY", "address": {"city": "VANCOUVER", "state": "WA", "street": "2700 CAPLES AVE", "postcode": "98661"}}},
{"geometry": {"type": "Point", "coordinates": [-122.6524548318, 45.6323158448]}, "type": "Feature", "properties": {"collection_times": [{"days": "Mon-Fri", "time": "12:45pm"}, {"days": "Sat", "time": "2:00pm"}, {"days": "Sun", "time": "Closed"}], "id": "9866100227", "name": "USPS COLLECTION BOX - BLUE BOX", "address": {"city": "VANCOUVER", "state": "WA", "street": "1800 E MCLOUGHLIN BLVD", "postcode": "98661"}}},
{"geometry": {"type": "Point", "coordinates": [-122.6043516954, 45.6678740768]}, "type": "Feature", "properties": {"collection_times": [{"days": "Mon-Fri", "time": "4:00pm"}, {"days": "Sat", "time": "2:00pm"}, {"days": "Sun", "time": "Closed"}], "id": "9866100229", "name": "USPS COLLECTION BOX - BLUE BOX", "address": {"city": "VANCOUVER", "state": "WA", "street": "6711 NE 63RD ST", "postcode": "98661"}}},
{"geometry": {"type": "Point", "coordinates": [-122.6152685167, 45.6286510379]}, "type": "Feature", "properties": {"collection_times": [{"days": "Mon-Fri", "time": "4:30pm"}, {"days": "Sat", "time": "2:00pm"}, {"days": "Sun", "time": "Closed"}], "id": "9866100231", "name": "USPS COLLECTION BOX - BLUE BOX", "address": {"city": "VANCOUVER", "state": "WA", "street": "5411 E MILL PLAIN BLVD", "postcode": "98661"}}},
{"geometry": {"type": "Point", "coordinates": [-122.6235279362, 45.6408745529]}, "type": "Feature", "properties": {"collection_times": [{"days": "Mon-Fri", "time": "5:45pm"}, {"days": "Sat", "time": "4:15pm"}, {"days": "Sun", "time": "Closed"}], "id": "9866100232", "name": "USPS COLLECTION BOX - APC", "address": {"city": "VANCOUVER", "state": "WA", "street": "2700 CAPLES AVE", "postcode": "98661"}}},
{"geometry": {"type": "Point", "coordinates": [-122.5896089538, 45.6520984676]}, "type": "Feature", "properties": {"collection_times": [{"days": "Mon-Sat", "time": "11:00am"}, {"days": "Sun", "time": "Closed"}], "id": "9866200004", "name": "USPS COLLECTION BOX - BLUE BOX", "address": {"city": "VANCOUVER", "state": "WA", "street": "7809 NE VANCOUVER PLAZA DR", "postcode": "98662"}}},
{"geometry": {"type": "Point", "coordinates": [-122.5846204159, 45.6560318061]}, "type": "Feature", "properties": {"collection_times": [{"days": "Mon-Fri", "time": "1:00pm"}, {"days": "Sat", "time": "11:30am"}, {"days": "Sun", "time": "Closed"}], "id": "9866200005", "name": "USPS COLLECTION BOX - BLUE BOX", "address": {"city": "VANCOUVER", "state": "WA", "street": "8700 NE VANCOUVER MALL DR", "postcode": "98662"}}},
{"geometry": {"type": "Point", "coordinates": [-122.577507093, 45.6777870769]}, "type": "Feature", "properties": {"collection_times": [{"days": "Mon-Fri", "time": "2:00pm"}, {"days": "Sat-Sun", "time": "Closed"}], "id": "9866200010", "name": "USPS COLLECTION BOX - BLUE BOX", "address": {"city": "VANCOUVER", "state": "WA", "street": "9300 NE 76TH ST", "postcode": "98662"}}},
{"geometry": {"type": "Point", "coordinates": [-122.5767471525, 45.6735066177]}, "type": "Feature", "properties": {"collection_times": [{"days": "Mon-Fri", "time": "4:30pm"}, {"days": "Sat", "time": "2:45pm"}, {"days": "Sun", "time": "Closed"}], "id": "9866200019", "name": "USPS COLLECTION BOX - BLUE BOX", "address": {"city": "VANCOUVER", "state": "WA", "street": "5512 NE 109TH CT", "postcode": "98662"}}},
{"geometry": {"type": "Point", "coordinates": [-122.5767471525, 45.6735066177]}, "type": "Feature", "properties": {"collection_times": [{"days": "Mon-Sat", "time": "11:00am"}, {"days": "Sun", "time": "Closed"}], "id": "9866200020", "name": "USPS COLLECTION BOX - BLUE BOX", "address": {"city": "VANCOUVER", "state": "WA", "street": "7411 NE 117TH AVE", "postcode": "98662"}}},
{"geometry": {"type": "Point", "coordinates": [-122.5932808221, 45.6544026661]}, "type": "Feature", "properties": {"collection_times": [{"days": "Mon-Fri", "time": "4:30pm"}, {"days": "Sat", "time": "3:00pm"}, {"days": "Sun", "time": "Closed"}], "id": "9866200021", "name": "USPS COLLECTION BOX - BLUE BOX", "address": {"city": "VANCOUVER", "state": "WA", "street": "7701 NE PARKWAY DR", "postcode": "98662"}}},
{"geometry": {"type": "Point", "coordinates": [-122.5932808221, 45.6544026661]}, "type": "Feature", "properties": {"collection_times": [{"days": "Mon-Fri", "time": "4:30pm"}, {"days": "Sat", "time": "3:00pm"}, {"days": "Sun", "time": "Closed"}], "id": "9866200022", "name": "USPS COLLECTION BOX - BLUE BOX", "address": {"city": "VANCOUVER", "state": "WA", "street": "7701 NE PARKWAY DR", "postcode": "98662"}}},
{"geometry": {"type": "Point", "coordinates": [-122.5932808221, 45.6544026661]}, "type": "Feature", "properties": {"collection_times": [{"days": "Mon-Fri", "time": "4:30pm"}, {"days": "Sat", "time": "3:00pm"}, {"days": "Sun", "time": "Closed"}], "id": "9866200023", "name": "USPS COLLECTION BOX - BLUE BOX", "address": {"city": "VANCOUVER", "state": "WA", "street": "7701 NE PARKWAY DR", "postcode": "98662"}}},
{"geometry": {"type": "Point", "coordinates": [-122.5767471525, 45.6735066177]}, "type": "Feature", "properties": {"collection_times": [{"days": "Mon-Fri", "time": "4:30pm"}, {"days": "Sat", "time": "2:45pm"}, {"days": "Sun", "time": "Closed"}], "id": "9866200024", "name": "USPS COLLECTION BOX - BLUE BOX", "address": {"city": "VANCOUVER", "state": "WA", "street": "5512 NE 109TH CT", "postcode": "98662"}}},
{"geometry": {"type": "Point", "coordinates": [-122.5767471525, 45.6735066177]}, "type": "Feature", "properties": {"collection_times": [{"days": "Mon-Fri", "time": "4:30pm"}, {"days": "Sat", "time": "2:45pm"}, {"days": "Sun", "time": "Closed"}], "id": "9866200028", "name": "USPS COLLECTION BOX - BLUE BOX", "address": {"city": "VANCOUVER", "state": "WA", "street": "5512 NE 109TH CT", "postcode": "98662"}}},
{"geometry": {"type": "Point", "coordinates": [-122.6694119247, 45.6344317458]}, "type": "Feature", "properties": {"collection_times": [{"days": "Mon-Fri", "time": "5:00pm"}, {"days": "Sat", "time": "2:15pm"}, {"days": "Sun", "time": "Closed"}], "id": "9866300004", "name": "USPS COLLECTION BOX - BLUE BOX", "address": {"city": "VANCOUVER", "state": "WA", "street": "1700 C ST", "postcode": "98663"}}},
{"geometry": {"type": "Point", "coordinates": [-122.6372975786, 45.6673598212]}, "type": "Feature", "properties": {"collection_times": [{"days": "Mon-Sat", "time": "12:00pm"}, {"days": "Sun", "time": "Closed"}], "id": "9866300005", "name": "USPS COLLECTION BOX - BLUE BOX", "address": {"city": "VANCOUVER", "state": "WA", "street": "6300 NE ST JAMES RD", "postcode": "98663"}}},
{"geometry": {"type": "Point", "coordinates": [-122.6483873901, 45.6415283719]}, "type": "Feature", "properties": {"collection_times": [{"days": "Mon-Sat", "time": "2:00pm"}, {"days": "Sun", "time": "Closed"}], "id": "9866300008", "name": "USPS COLLECTION BOX - BLUE BOX", "address": {"city": "VANCOUVER", "state": "WA", "street": "2200 ST JOHNS BLVD", "postcode": "98663"}}},
{"geometry": {"type": "Point", "coordinates": [-122.6682195196, 45.6326288487]}, "type": "Feature", "properties": {"collection_times": [{"days": "Mon-Fri", "time": "5:00pm"}, {"days": "Sat", "time": "2:15pm"}, {"days": "Sun", "time": "Closed"}], "id": "9866300012", "name": "USPS COLLECTION BOX - BLUE BOX", "address": {"city": "VANCOUVER", "state": "WA", "street": "404 E 15TH ST", "postcode": "98663"}}},
{"geometry": {"type": "Point", "coordinates": [-122.6682195196, 45.6326288487]}, "type": "Feature", "properties": {"collection_times": [{"days": "Mon-Fri", "time": "5:00pm"}, {"days": "Sat", "time": "2:15pm"}, {"days": "Sun", "time": "Closed"}], "id": "9866300013", "name": "USPS COLLECTION BOX - BLUE BOX", "address": {"city": "VANCOUVER", "state": "WA", "street": "404 E 15TH ST", "postcode": "98663"}}},
{"geometry": {"type": "Point", "coordinates": [-122.6372986087, 45.654545934]}, "type": "Feature", "properties": {"collection_times": [{"days": "Mon-Fri", "time": "5:00pm"}, {"days": "Sat", "time": "2:00pm"}, {"days": "Sun", "time": "Closed"}], "id": "9866300014", "name": "USPS COLLECTION BOX - BLUE BOX", "address": {"city": "VANCOUVER", "state": "WA", "street": "4500 NE ST JAMES RD", "postcode": "98663"}}},
{"geometry": {"type": "Point", "coordinates": [-122.6676901794, 45.6499496026]}, "type": "Feature", "properties": {"collection_times": [{"days": "Mon-Fri", "time": "2:30pm"}, {"days": "Sat", "time": "2:00pm"}, {"days": "Sun", "time": "Closed"}], "id": "9866300016", "name": "USPS COLLECTION BOX - BLUE BOX", "address": {"city": "VANCOUVER", "state": "WA", "street": "3900 MAIN ST", "postcode": "98663"}}},
{"geometry": {"type": "Point", "coordinates": [-122.6688980553, 45.6454680811]}, "type": "Feature", "properties": {"collection_times": [{"days": "Mon-Fri", "time": "3:00pm"}, {"days": "Sat", "time": "2:00pm"}, {"days": "Sun", "time": "Closed"}], "id": "9866300017", "name": "USPS COLLECTION BOX - BLUE BOX", "address": {"city": "VANCOUVER", "state": "WA", "street": "3300 MAIN ST", "postcode": "98663"}}},
{"geometry": {"type": "Point", "coordinates": [-122.6688980553, 45.6454680811]}, "type": "Feature", "properties": {"collection_times": [{"days": "Mon-Fri", "time": "3:00pm"}, {"days": "Sat", "time": "2:00pm"}, {"days": "Sun", "time": "Closed"}], "id": "9866300018", "name": "USPS COLLECTION BOX - BLUE BOX", "address": {"city": "VANCOUVER", "state": "WA", "street": "207 E 29TH ST", "postcode": "98663"}}},
{"geometry": {"type": "Point", "coordinates": [-122.6694119247, 45.6344317458]}, "type": "Feature", "properties": {"collection_times": [{"days": "Mon-Fri", "time": "5:00pm"}, {"days": "Sat", "time": "2:15pm"}, {"days": "Sun", "time": "Closed"}], "id": "9866300020", "name": "USPS COLLECTION BOX - BLUE BOX", "address": {"city": "VANCOUVER", "state": "WA", "street": "1700 C ST", "postcode": "98663"}}},
{"geometry": {"type": "Point", "coordinates": [-122.6372986087, 45.654545934]}, "type": "Feature", "properties": {"collection_times": [{"days": "Mon-Fri", "time": "5:00pm"}, {"days": "Sat", "time": "2:00pm"}, {"days": "Sun", "time": "Closed"}], "id": "9866300021", "name": "USPS COLLECTION BOX - BLUE BOX", "address": {"city": "VANCOUVER", "state": "WA", "street": "4500 NE ST JAMES RD", "postcode": "98663"}}},
{"geometry": {"type": "Point", "coordinates": [-122.6825386268, 45.6690700068]}, "type": "Feature", "properties": {"collection_times": [{"days": "Mon-Sat", "time": "11:30am"}, {"days": "Sun", "time": "Closed"}], "id": "9866300022", "name": "USPS COLLECTION BOX - BLUE BOX", "address": {"city": "VANCOUVER", "state": "WA", "street": "6400 NW LINCOLN AVE", "postcode": "98663"}}},
{"geometry": {"type": "Point", "coordinates": [-122.5765994223, 45.6216576671]}, "type": "Feature", "properties": {"collection_times": [{"days": "Mon-Fri", "time": "10:00am"}, {"days": "Sat", "time": "9:30am"}, {"days": "Sun", "time": "Closed"}], "id": "9866400001", "name": "USPS COLLECTION BOX - BLUE BOX", "address": {"city": "VANCOUVER", "state": "WA", "street": "7609 MACARTHUR BLVD", "postcode": "98664"}}},
{"geometry": {"type": "Point", "coordinates": [-122.5836456577, 45.6257243975]}, "type": "Feature", "properties": {"collection_times": [{"days": "Mon-Fri", "time": "3:30pm"}, {"days": "Sat", "time": "2:00pm"}, {"days": "Sun", "time": "Closed"}], "id": "9866400004", "name": "USPS COLLECTION BOX - BLUE BOX", "address": {"city": "VANCOUVER", "state": "WA", "street": "505 NE 87TH AVE", "postcode": "98664"}}},
{"geometry": {"type": "Point", "coordinates": [-122.5836205643, 45.625219026]}, "type": "Feature", "properties": {"collection_times": [{"days": "Mon-Fri", "time": "3:30pm"}, {"days": "Sat", "time": "2:00pm"}, {"days": "Sun", "time": "Closed"}], "id": "9866400005", "name": "USPS COLLECTION BOX - BLUE BOX", "address": {"city": "VANCOUVER", "state": "WA", "street": "505 NE 87TH AVE", "postcode": "98664"}}},
{"geometry": {"type": "Point", "coordinates": [-122.5836205643, 45.625219026]}, "type": "Feature", "properties": {"collection_times": [{"days": "Mon-Fri", "time": "3:30pm"}, {"days": "Sat", "time": "2:00pm"}, {"days": "Sun", "time": "Closed"}], "id": "9866400008", "name": "USPS COLLECTION BOX - BLUE BOX", "address": {"city": "VANCOUVER", "state": "WA", "street": "505 NE 87TH AVE", "postcode": "98664"}}},
{"geometry": {"type": "Point", "coordinates": [-122.5655012994, 45.6194310536]}, "type": "Feature", "properties": {"collection_times": [{"days": "Mon-Fri", "time": "10:00am"}, {"days": "Sat", "time": "9:30am"}, {"days": "Sun", "time": "Closed"}], "id": "9866400011", "name": "USPS COLLECTION BOX - BLUE BOX", "address": {"city": "VANCOUVER", "state": "WA", "street": "221E NE 104TH AVE", "postcode": "98664"}}},
{"geometry": {"type": "Point", "coordinates": [-122.662941763, 45.673938256]}, "type": "Feature", "properties": {"collection_times": [{"days": "Mon-Fri", "time": "4:00pm"}, {"days": "Sat", "time": "1:30pm"}, {"days": "Sun", "time": "Closed"}], "id": "9866500000", "name": "USPS COLLECTION BOX - BLUE BOX", "address": {"city": "VANCOUVER", "state": "WA", "street": "7017 NE HIGHWAY 99", "postcode": "98665"}}},
{"geometry": {"type": "Point", "coordinates": [-122.6686868042, 45.6770836809]}, "type": "Feature", "properties": {"collection_times": [{"days": "Mon-Fri", "time": "5:00pm"}, {"days": "Sat", "time": "2:00pm"}, {"days": "Sun", "time": "Closed"}], "id": "9866500001", "name": "USPS COLLECTION BOX - BLUE BOX", "address": {"city": "VANCOUVER", "state": "WA", "street": "300 NE 76TH ST", "postcode": "98665"}}},
{"geometry": {"type": "Point", "coordinates": [-122.6686868042, 45.6770836809]}, "type": "Feature", "properties": {"collection_times": [{"days": "Mon-Fri", "time": "5:00pm"}, {"days": "Sat", "time": "2:00pm"}, {"days": "Sun", "time": "Closed"}], "id": "9866500002", "name": "USPS COLLECTION BOX - BLUE BOX", "address": {"city": "VANCOUVER", "state": "WA", "street": "300 NE 76TH ST", "postcode": "98665"}}},
{"geometry": {"type": "Point", "coordinates": [-122.6613791696, 45.6819272384]}, "type": "Feature", "properties": {"collection_times": [{"days": "Mon-Fri", "time": "5:00pm"}, {"days": "Sat", "time": "2:00pm"}, {"days": "Sun", "time": "Closed"}], "id": "9866500003", "name": "USPS COLLECTION BOX - BLUE BOX", "address": {"city": "VANCOUVER", "state": "WA", "street": "288 NE 76TH ST", "postcode": "98665"}}},
{"geometry": {"type": "Point", "coordinates": [-122.6617761725, 45.6797573526]}, "type": "Feature", "properties": {"collection_times": [{"days": "Mon-Fri", "time": "4:00pm"}, {"days": "Sat", "time": "1:30pm"}, {"days": "Sun", "time": "Closed"}], "id": "9866500004", "name": "USPS COLLECTION BOX - BLUE BOX", "address": {"city": "VANCOUVER", "state": "WA", "street": "7919 NE HIGHWAY 99", "postcode": "98665"}}},
{"geometry": {"type": "Point", "coordinates": [-122.6679078933, 45.6808641391]}, "type": "Feature", "properties": {"collection_times": [{"days": "Mon-Fri", "time": "1:15pm"}, {"days": "Sat", "time": "1:30pm"}, {"days": "Sun", "time": "Closed"}], "id": "9866500006", "name": "USPS COLLECTION BOX - BLUE BOX", "address": {"city": "VANCOUVER", "state": "WA", "street": "512 NE 81ST ST", "postcode": "98665"}}},
{"geometry": {"type": "Point", "coordinates": [-122.6642323713, 45.6671208635]}, "type": "Feature", "properties": {"collection_times": [{"days": "Mon-Fri", "time": "1:00pm"}, {"days": "Sat", "time": "1:30pm"}, {"days": "Sun", "time": "Closed"}], "id": "9866500008", "name": "USPS COLLECTION BOX - BLUE BOX", "address": {"city": "VANCOUVER", "state": "WA", "street": "6200 NE HIGHWAY 99", "postcode": "98665"}}},
{"geometry": {"type": "Point", "coordinates": [-122.6170287597, 45.6860529388]}, "type": "Feature", "properties": {"collection_times": [{"days": "Mon-Sat", "time": "2:00pm"}, {"days": "Sun", "time": "Closed"}], "id": "9866500009", "name": "USPS COLLECTION BOX - BLUE BOX", "address": {"city": "VANCOUVER", "state": "WA", "street": "5408 NE 88TH ST", "postcode": "98665"}}},
{"geometry": {"type": "Point", "coordinates": [-122.6692555219, 45.6861341739]}, "type": "Feature", "properties": {"collection_times": [{"days": "Mon-Fri", "time": "4:45pm"}, {"days": "Sat", "time": "1:30pm"}, {"days": "Sun", "time": "Closed"}], "id": "9866500011", "name": "USPS COLLECTION BOX - BLUE BOX", "address": {"city": "VANCOUVER", "state": "WA", "street": "8801 NE HAZEL DELL AVE", "postcode": "98665"}}},
{"geometry": {"type": "Point", "coordinates": [-122.550624844, 45.6698878475]}, "type": "Feature", "properties": {"collection_times": [{"days": "Mon-Fri", "time": "5:30pm"}, {"days": "Sat", "time": "3:00pm"}, {"days": "Sun", "time": "Closed"}], "id": "9866800001", "name": "USPS COLLECTION BOX - PO LOBBY", "address": {"city": "VANCOUVER", "state": "WA", "street": "11909 NE 65TH ST", "postcode": "98668"}}},
{"geometry": {"type": "Point", "coordinates": [-122.550624844, 45.6698878475]}, "type": "Feature", "properties": {"collection_times": [{"days": "Mon-Fri", "time": "5:30pm"}, {"days": "Sat", "time": "3:00pm"}, {"days": "Sun", "time": "Closed"}], "id": "9866800002", "name": "USPS COLLECTION BOX - APC", "address": {"city": "VANCOUVER", "state": "WA", "street": "11909 NE 65TH ST", "postcode": "98668"}}},
{"geometry": {"type": "Point", "coordinates": [-122.2001581611, 45.6692537758]}, "type": "Feature", "properties": {"collection_times": [{"days": "Mon-Sat", "time": "9:30am"}, {"days": "Sun", "time": "Closed"}], "id": "9867100003", "name": "USPS COLLECTION BOX - BLUE BOX", "address": {"city": "WASHOUGAL", "state": "WA", "street": "580 6TH ST", "postcode": "98671"}}},
{"geometry": {"type": "Point", "coordinates": [-122.3538996469, 45.5780103421]}, "type": "Feature", "properties": {"collection_times": [{"days": "Mon-Fri", "time": "5:00pm"}, {"days": "Sat", "time": "4:00pm"}, {"days": "Sun", "time": "Closed"}], "id": "9867100005", "name": "USPS COLLECTION BOX - BLUE BOX", "address": {"city": "WASHOUGAL", "state": "WA", "street": "129 PENDLETON WAY", "postcode": "98671"}}},
{"geometry": {"type": "Point", "coordinates": [-122.3084169928, 45.5926895154]}, "type": "Feature", "properties": {"collection_times": [{"days": "Mon-Fri", "time": "5:00pm"}, {"days": "Sat", "time": "4:00pm"}, {"days": "Sun", "time": "Closed"}], "id": "9867100012", "name": "USPS COLLECTION BOX - PO LOBBY", "address": {"city": "WASHOUGAL", "state": "WA", "street": "129 PENDLETON WAY", "postcode": "98671"}}},
{"geometry": {"type": "Point", "coordinates": [-122.2316245722, 45.6073306994]}, "type": "Feature", "properties": {"collection_times": [{"days": "Mon-Sat", "time": "12:00pm"}, {"days": "Sun", "time": "Closed"}], "id": "9867100013", "name": "USPS COLLECTION BOX - BLUE BOX", "address": {"city": "WASHOUGAL", "state": "WA", "street": "4232 CANYON CREEK RD", "postcode": "98671"}}},
{"geometry": {"type": "Point", "coordinates": [-122.3547884135, 45.577882776]}, "type": "Feature", "properties": {"collection_times": [{"days": "Mon-Fri", "time": "5:00pm"}, {"days": "Sat", "time": "4:00pm"}, {"days": "Sun", "time": "Closed"}], "id": "9867100014", "name": "USPS COLLECTION BOX - BLUE BOX", "address": {"city": "WASHOUGAL", "state": "WA", "street": "1601 A ST", "postcode": "98671"}}},
{"geometry": {"type": "Point", "coordinates": [-122.3360062109, 45.5781469708]}, "type": "Feature", "properties": {"collection_times": [{"days": "Mon-Sat", "time": "11:30am"}, {"days": "Sun", "time": "Closed"}], "id": "9867100015", "name": "USPS COLLECTION BOX - BLUE BOX", "address": {"city": "WASHOUGAL", "state": "WA", "street": "3307 EVERGREEN WAY", "postcode": "98671"}}},
{"geometry": {"type": "Point", "coordinates": [-122.3538996469, 45.5780103421]}, "type": "Feature", "properties": {"collection_times": [{"days": "Mon-Fri", "time": "5:00pm"}, {"days": "Sat", "time": "4:00pm"}, {"days": "Sun", "time": "Closed"}], "id": "9867100016", "name": "USPS COLLECTION BOX - BLUE BOX", "address": {"city": "WASHOUGAL", "state": "WA", "street": "129 PENDLETON WAY", "postcode": "98671"}}},
{"geometry": {"type": "Point", "coordinates": [-121.5010818586, 45.8392681348]}, "type": "Feature", "properties": {"collection_times": [{"days": "Mon-Fri", "time": "4:15pm"}, {"days": "Sat", "time": "1:45pm"}, {"days": "Sun", "time": "Closed"}], "id": "9867200001", "name": "USPS COLLECTION BOX - BLUE BOX", "address": {"city": "WHITE SALMON", "state": "WA", "street": "1255 HIGHWAY 141", "postcode": "98672"}}},
{"geometry": {"type": "Point", "coordinates": [-121.4861300972, 45.7276209951]}, "type": "Feature", "properties": {"collection_times": [{"days": "Mon-Fri", "time": "4:45pm"}, {"days": "Sat", "time": "2:00pm"}, {"days": "Sun", "time": "Closed"}], "id": "9867200002", "name": "USPS COLLECTION BOX - BLUE BOX", "address": {"city": "WHITE SALMON", "state": "WA", "street": "135 E JEWETT BLVD", "postcode": "98672"}}},
{"geometry": {"type": "Point", "coordinates": [-121.4817004132, 45.7289977846]}, "type": "Feature", "properties": {"collection_times": [{"days": "Mon-Fri", "time": "5:00pm"}, {"days": "Sat", "time": "2:00pm"}, {"days": "Sun", "time": "Closed"}], "id": "9867200004", "name": "USPS COLLECTION BOX - BLUE BOX", "address": {"city": "WHITE SALMON", "state": "WA", "street": "185 NE SNOHOMISH AVE", "postcode": "98672"}}},
{"geometry": {"type": "Point", "coordinates": [-121.4817004132, 45.7289977846]}, "type": "Feature", "properties": {"collection_times": [{"days": "Mon-Fri", "time": "5:00pm"}, {"days": "Sat", "time": "2:00pm"}, {"days": "Sun", "time": "Closed"}], "id": "9867200005", "name": "USPS COLLECTION BOX - BLUE BOX", "address": {"city": "WHITE SALMON", "state": "WA", "street": "185 NE SNOHOMISH AVE", "postcode": "98672"}}},
{"geometry": {"type": "Point", "coordinates": [-121.4820490868, 45.7566091929]}, "type": "Feature", "properties": {"collection_times": [{"days": "Mon-Fri", "time": "5:00pm"}, {"days": "Sat", "time": "10:00am"}, {"days": "Sun", "time": "Closed"}], "id": "9867200006", "name": "USPS COLLECTION BOX - PO LOBBY", "address": {"city": "WHITE SALMON", "state": "WA", "street": "185 NE SNOHOMISH AVE", "postcode": "98672"}}},
{"geometry": {"type": "Point", "coordinates": [-121.4861300972, 45.7276209951]}, "type": "Feature", "properties": {"collection_times": [{"days": "Mon-Fri", "time": "4:45pm"}, {"days": "Sat", "time": "2:00pm"}, {"days": "Sun", "time": "Closed"}], "id": "9867200007", "name": "USPS COLLECTION BOX - BLUE BOX", "address": {"city": "WHITE SALMON", "state": "WA", "street": "135 E JEWETT BLVD", "postcode": "98672"}}},
{"geometry": {"type": "Point", "coordinates": [-120.9682261164, 45.6601066208]}, "type": "Feature", "properties": {"collection_times": [{"days": "Mon-Fri", "time": "4:45pm"}, {"days": "Sat", "time": "9:45am"}, {"days": "Sun", "time": "Closed"}], "id": "9867300001", "name": "USPS COLLECTION BOX - BLUE BOX", "address": {"city": "WISHRAM", "state": "WA", "street": "521 BRIDGEWAY RD", "postcode": "98673"}}},
{"geometry": {"type": "Point", "coordinates": [-120.9682261164, 45.6601066208]}, "type": "Feature", "properties": {"collection_times": [{"days": "Mon-Fri", "time": "12:00pm"}, {"days": "Sat", "time": "9:45am"}, {"days": "Sun", "time": "Closed"}], "id": "9867300002", "name": "USPS COLLECTION BOX - PO LOBBY", "address": {"city": "WISHRAM", "state": "WA", "street": "521 BRIDGEWAY RD", "postcode": "98673"}}},
{"geometry": {"type": "Point", "coordinates": [-122.7465411185, 45.9018743932]}, "type": "Feature", "properties": {"collection_times": [{"days": "Mon-Fri", "time": "4:45pm"}, {"days": "Sat", "time": "2:30pm"}, {"days": "Sun", "time": "Closed"}], "id": "9867400001", "name": "USPS COLLECTION BOX - PO LOBBY", "address": {"city": "WOODLAND", "state": "WA", "street": "190 BOZARTH AVE", "postcode": "98674"}}},
{"geometry": {"type": "Point", "coordinates": [-122.7479436098, 45.902052532]}, "type": "Feature", "properties": {"collection_times": [{"days": "Mon-Fri", "time": "4:30pm"}, {"days": "Sat", "time": "2:30pm"}, {"days": "Sun", "time": "Closed"}], "id": "9867400003", "name": "USPS COLLECTION BOX - BLUE BOX", "address": {"city": "WOODLAND", "state": "WA", "street": "630 PARK ST", "postcode": "98674"}}},
{"geometry": {"type": "Point", "coordinates": [-122.7410799836, 45.9117977884]}, "type": "Feature", "properties": {"collection_times": [{"days": "Mon-Sat", "time": "11:30am"}, {"days": "Sun", "time": "Closed"}], "id": "9867400004", "name": "USPS COLLECTION BOX - BLUE BOX", "address": {"city": "WOODLAND", "state": "WA", "street": "1300 N GOERIG ST", "postcode": "98674"}}},
{"geometry": {"type": "Point", "coordinates": [-122.4103111905, 45.8693334944]}, "type": "Feature", "properties": {"collection_times": [{"days": "Mon-Fri", "time": "4:30pm"}, {"days": "Sat", "time": "9:00am"}, {"days": "Sun", "time": "Closed"}], "id": "9867500001", "name": "USPS COLLECTION BOX - BLUE BOX", "address": {"city": "YACOLT", "state": "WA", "street": "555 N AMBOY AVE", "postcode": "98675"}}},
{"geometry": {"type": "Point", "coordinates": [-122.4273788984, 45.863287768]}, "type": "Feature", "properties": {"collection_times": [{"days": "Mon-Fri", "time": "4:30pm"}, {"days": "Sat", "time": "9:00am"}, {"days": "Sun", "time": "Closed"}], "id": "9867500002", "name": "USPS COLLECTION BOX - PO LOBBY", "address": {"city": "YACOLT", "state": "WA", "street": "555 N AMBOY AVE", "postcode": "98675"}}},
{"geometry": {"type": "Point", "coordinates": [-122.5118991965, 45.8888487771]}, "type": "Feature", "properties": {"collection_times": [{"days": "Mon-Sat", "time": "9:30am"}, {"days": "Sun", "time": "Closed"}], "id": "9867500003", "name": "USPS COLLECTION BOX - BLUE BOX", "address": {"city": "YACOLT", "state": "WA", "street": "15518 NE FARGHER LAKE HWY", "postcode": "98675"}}},
{"geometry": {"type": "Point", "coordinates": [-122.5579719977, 45.6504695552]}, "type": "Feature", "properties": {"collection_times": [{"days": "Mon-Fri", "time": "11:00am"}, {"days": "Sat", "time": "12:00pm"}, {"days": "Sun", "time": "Closed"}], "id": "9868200001", "name": "USPS COLLECTION BOX - BLUE BOX", "address": {"city": "VANCOUVER", "state": "WA", "street": "11013 NE 39TH ST", "postcode": "98682"}}},
{"geometry": {"type": "Point", "coordinates": [-122.5576568972, 45.6426440649]}, "type": "Feature", "properties": {"collection_times": [{"days": "Mon-Fri", "time": "2:30pm"}, {"days": "Sat", "time": "12:00pm"}, {"days": "Sun", "time": "Closed"}], "id": "9868200003", "name": "USPS COLLECTION BOX - BLUE BOX", "address": {"city": "VANCOUVER", "state": "WA", "street": "11215 NE 28TH ST", "postcode": "98682"}}},
{"geometry": {"type": "Point", "coordinates": [-122.5229042637, 45.6725873169]}, "type": "Feature", "properties": {"collection_times": [{"days": "Mon-Fri", "time": "12:00pm"}, {"days": "Sat", "time": "10:30am"}, {"days": "Sun", "time": "Closed"}], "id": "9868200004", "name": "USPS COLLECTION BOX - BLUE BOX", "address": {"city": "VANCOUVER", "state": "WA", "street": "14602 NE FOURTH PLAIN RD", "postcode": "98682"}}},
{"geometry": {"type": "Point", "coordinates": [-122.5285262815, 45.668188331]}, "type": "Feature", "properties": {"collection_times": [{"days": "Mon-Fri", "time": "4:45pm"}, {"days": "Sat", "time": "3:00pm"}, {"days": "Sun", "time": "Closed"}], "id": "9868200005", "name": "USPS COLLECTION BOX - BLUE BOX", "address": {"city": "VANCOUVER", "state": "WA", "street": "12009 NE 99TH ST", "postcode": "98682"}}},
{"geometry": {"type": "Point", "coordinates": [-122.5285262815, 45.668188331]}, "type": "Feature", "properties": {"collection_times": [{"days": "Mon-Fri", "time": "4:45pm"}, {"days": "Sat", "time": "3:00pm"}, {"days": "Sun", "time": "Closed"}], "id": "9868200006", "name": "USPS COLLECTION BOX - BLUE BOX", "address": {"city": "VANCOUVER", "state": "WA", "street": "12009 NE 99TH ST", "postcode": "98682"}}},
{"geometry": {"type": "Point", "coordinates": [-122.5525523388, 45.6905532575]}, "type": "Feature", "properties": {"collection_times": [{"days": "Mon-Fri", "time": "4:45pm"}, {"days": "Sat", "time": "3:00pm"}, {"days": "Sun", "time": "Closed"}], "id": "9868200008", "name": "USPS COLLECTION BOX - BLUE BOX", "address": {"city": "VANCOUVER", "state": "WA", "street": "11700 NE 95TH ST", "postcode": "98682"}}},
{"geometry": {"type": "Point", "coordinates": [-122.5525523388, 45.6905532575]}, "type": "Feature", "properties": {"collection_times": [{"days": "Mon-Fri", "time": "4:45pm"}, {"days": "Sat", "time": "3:00pm"}, {"days": "Sun", "time": "Closed"}], "id": "9868200009", "name": "USPS COLLECTION BOX - BLUE BOX", "address": {"city": "VANCOUVER", "state": "WA", "street": "11700 NE 95TH ST", "postcode": "98682"}}},
{"geometry": {"type": "Point", "coordinates": [-122.5525523388, 45.6905532575]}, "type": "Feature", "properties": {"collection_times": [{"days": "Mon-Fri", "time": "4:45pm"}, {"days": "Sat", "time": "3:00pm"}, {"days": "Sun", "time": "Closed"}], "id": "9868200010", "name": "USPS COLLECTION BOX - BLUE BOX", "address": {"city": "VANCOUVER", "state": "WA", "street": "11700 NE 95TH ST", "postcode": "98682"}}},
{"geometry": {"type": "Point", "coordinates": [-122.5525523388, 45.6905532575]}, "type": "Feature", "properties": {"collection_times": [{"days": "Mon-Fri", "time": "4:45pm"}, {"days": "Sat", "time": "3:00pm"}, {"days": "Sun", "time": "Closed"}], "id": "9868200012", "name": "USPS COLLECTION BOX - BLUE BOX", "address": {"city": "VANCOUVER", "state": "WA", "street": "11700 NE 95TH ST", "postcode": "98682"}}},
{"geometry": {"type": "Point", "coordinates": [-122.550624844, 45.6698878475]}, "type": "Feature", "properties": {"collection_times": [{"days": "Mon-Fri", "time": "5:15pm"}, {"days": "Sat", "time": "3:00pm"}, {"days": "Sun", "time": "Closed"}], "id": "9868200013", "name": "USPS COLLECTION BOX - BLUE BOX", "address": {"city": "VANCOUVER", "state": "WA", "street": "11909 NE 65TH ST", "postcode": "98682"}}},
{"geometry": {"type": "Point", "coordinates": [-122.550624844, 45.6698878475]}, "type": "Feature", "properties": {"collection_times": [{"days": "Mon-Fri", "time": "5:15pm"}, {"days": "Sat", "time": "3:00pm"}, {"days": "Sun", "time": "Closed"}], "id": "9868200014", "name": "USPS COLLECTION BOX - BLUE BOX", "address": {"city": "VANCOUVER", "state": "WA", "street": "11909 NE 65TH ST", "postcode": "98682"}}},
{"geometry": {"type": "Point", "coordinates": [-122.5285262815, 45.668188331]}, "type": "Feature", "properties": {"collection_times": [{"days": "Mon-Fri", "time": "5:15pm"}, {"days": "Sat", "time": "10:30am"}, {"days": "Sun", "time": "Closed"}], "id": "9868200015", "name": "USPS COLLECTION BOX - EXPRESS", "address": {"city": "VANCOUVER", "state": "WA", "street": "11909 NE 65TH ST", "postcode": "98682"}}},
{"geometry": {"type": "Point", "coordinates": [-122.550624844, 45.6698878475]}, "type": "Feature", "properties": {"collection_times": [{"days": "Mon-Fri", "time": "5:15pm"}, {"days": "Sat", "time": "3:00pm"}, {"days": "Sun", "time": "Closed"}], "id": "9868200016", "name": "USPS COLLECTION BOX - BLUE BOX", "address": {"city": "VANCOUVER", "state": "WA", "street": "11909 NE 65TH ST", "postcode": "98682"}}},
{"geometry": {"type": "Point", "coordinates": [-122.5285262815, 45.668188331]}, "type": "Feature", "properties": {"collection_times": [{"days": "Mon-Fri", "time": "4:45pm"}, {"days": "Sat", "time": "3:00pm"}, {"days": "Sun", "time": "Closed"}], "id": "9868200018", "name": "USPS COLLECTION BOX - BLUE BOX", "address": {"city": "VANCOUVER", "state": "WA", "street": "12009 NE 99TH ST", "postcode": "98682"}}},
{"geometry": {"type": "Point", "coordinates": [-122.5029308755, 45.6044654868]}, "type": "Feature", "properties": {"collection_times": [{"days": "Mon-Fri", "time": "5:00pm"}, {"days": "Sat", "time": "4:00pm"}, {"days": "Sun", "time": "Closed"}], "id": "9868300004", "name": "USPS COLLECTION BOX - BLUE BOX", "address": {"city": "VANCOUVER", "state": "WA", "street": "16400 SE MCGILLIVRAY BLVD", "postcode": "98683"}}},
{"geometry": {"type": "Point", "coordinates": [-122.5029308755, 45.6044654868]}, "type": "Feature", "properties": {"collection_times": [{"days": "Mon-Fri", "time": "5:00pm"}, {"days": "Sat", "time": "4:00pm"}, {"days": "Sun", "time": "Closed"}], "id": "9868300005", "name": "USPS COLLECTION BOX - BLUE BOX", "address": {"city": "VANCOUVER", "state": "WA", "street": "16400 SE MCGILLIVRAY BLVD", "postcode": "98683"}}},
{"geometry": {"type": "Point", "coordinates": [-122.5029308755, 45.6044654868]}, "type": "Feature", "properties": {"collection_times": [{"days": "Mon-Fri", "time": "5:00pm"}, {"days": "Sat", "time": "4:00pm"}, {"days": "Sun", "time": "Closed"}], "id": "9868300006", "name": "USPS COLLECTION BOX - BLUE BOX", "address": {"city": "VANCOUVER", "state": "WA", "street": "16400 SE MCGILLIVRAY BLVD", "postcode": "98683"}}},
{"geometry": {"type": "Point", "coordinates": [-122.5549403122, 45.6178865439]}, "type": "Feature", "properties": {"collection_times": [{"days": "Mon-Fri", "time": "10:00am"}, {"days": "Sat-Sun", "time": "Closed"}], "id": "9868300009", "name": "USPS COLLECTION BOX - BLUE BOX", "address": {"city": "VANCOUVER", "state": "WA", "street": "516 SE CHKALOV DR", "postcode": "98683"}}},
{"geometry": {"type": "Point", "coordinates": [-122.5123277743, 45.6019835428]}, "type": "Feature", "properties": {"collection_times": [{"days": "Mon-Fri", "time": "1:30pm"}, {"days": "Sat-Sun", "time": "Closed"}], "id": "9868300010", "name": "USPS COLLECTION BOX - BLUE BOX", "address": {"city": "VANCOUVER", "state": "WA", "street": "15503 SE FERNWOOD DR", "postcode": "98683"}}},
{"geometry": {"type": "Point", "coordinates": [-122.4771965127, 45.5967799491]}, "type": "Feature", "properties": {"collection_times": [{"days": "Mon-Sat", "time": "1:30pm"}, {"days": "Sun", "time": "Closed"}], "id": "9868300012", "name": "USPS COLLECTION BOX - BLUE BOX", "address": {"city": "VANCOUVER", "state": "WA", "street": "19108 SE 34TH ST", "postcode": "98683"}}},
{"geometry": {"type": "Point", "coordinates": [-122.5506127115, 45.6206424057]}, "type": "Feature", "properties": {"collection_times": [{"days": "Mon-Fri", "time": "4:00pm"}, {"days": "Sat", "time": "2:30pm"}, {"days": "Sun", "time": "Closed"}], "id": "9868400007", "name": "USPS COLLECTION BOX - BLUE BOX", "address": {"city": "VANCOUVER", "state": "WA", "street": "11818 SE MILL PLAIN BLVD", "postcode": "98684"}}},
{"geometry": {"type": "Point", "coordinates": [-122.5506127115, 45.6206424057]}, "type": "Feature", "properties": {"collection_times": [{"days": "Mon-Fri", "time": "4:00pm"}, {"days": "Sat", "time": "2:30pm"}, {"days": "Sun", "time": "Closed"}], "id": "9868400008", "name": "USPS COLLECTION BOX - BLUE BOX", "address": {"city": "VANCOUVER", "state": "WA", "street": "11818 SE MILL PLAIN BLVD", "postcode": "98684"}}},
{"geometry": {"type": "Point", "coordinates": [-122.5351881076, 45.6200324044]}, "type": "Feature", "properties": {"collection_times": [{"days": "Mon-Fri", "time": "3:30pm"}, {"days": "Sat", "time": "2:30pm"}, {"days": "Sun", "time": "Closed"}], "id": "9868400010", "name": "USPS COLLECTION BOX - BLUE BOX", "address": {"city": "VANCOUVER", "state": "WA", "street": "315 SE STONE MILL DR", "postcode": "98684"}}},
{"geometry": {"type": "Point", "coordinates": [-122.5351881076, 45.6200324044]}, "type": "Feature", "properties": {"collection_times": [{"days": "Mon-Fri", "time": "3:30pm"}, {"days": "Sat", "time": "2:30pm"}, {"days": "Sun", "time": "Closed"}], "id": "9868400011", "name": "USPS COLLECTION BOX - BLUE BOX", "address": {"city": "VANCOUVER", "state": "WA", "street": "315 SE STONE MILL DR", "postcode": "98684"}}},
{"geometry": {"type": "Point", "coordinates": [-122.5351881076, 45.6200324044]}, "type": "Feature", "properties": {"collection_times": [{"days": "Mon-Fri", "time": "3:30pm"}, {"days": "Sat", "time": "2:30pm"}, {"days": "Sun", "time": "Closed"}], "id": "9868400012", "name": "USPS COLLECTION BOX - BLUE BOX", "address": {"city": "VANCOUVER", "state": "WA", "street": "315 SE STONE MILL DR", "postcode": "98684"}}},
{"geometry": {"type": "Point", "coordinates": [-122.5225388639, 45.6298566925]}, "type": "Feature", "properties": {"collection_times": [{"days": "Mon-Sat", "time": "5:00pm"}, {"days": "Sun", "time": "Closed"}], "id": "9868400020", "name": "USPS COLLECTION BOX - BLUE BOX", "address": {"city": "VANCOUVER", "state": "WA", "street": "401 NE 136TH AVE", "postcode": "98684"}}},
{"geometry": {"type": "Point", "coordinates": [-122.5225388639, 45.6298566925]}, "type": "Feature", "properties": {"collection_times": [{"days": "Mon-Sat", "time": "5:00pm"}, {"days": "Sun", "time": "Closed"}], "id": "9868400021", "name": "USPS COLLECTION BOX - BLUE BOX", "address": {"city": "VANCOUVER", "state": "WA", "street": "401 NE 136TH AVE", "postcode": "98684"}}},
{"geometry": {"type": "Point", "coordinates": [-122.5225388639, 45.6298566925]}, "type": "Feature", "properties": {"collection_times": [{"days": "Mon-Sat", "time": "5:00pm"}, {"days": "Sun", "time": "Closed"}], "id": "9868400022", "name": "USPS COLLECTION BOX - BLUE BOX", "address": {"city": "VANCOUVER", "state": "WA", "street": "401 NE 136TH AVE", "postcode": "98684"}}},
{"geometry": {"type": "Point", "coordinates": [-122.5225388639, 45.6298566925]}, "type": "Feature", "properties": {"collection_times": [{"days": "Mon-Fri", "time": "5:00pm"}, {"days": "Sat", "time": "12:00pm"}, {"days": "Sun", "time": "Closed"}], "id": "9868400025", "name": "USPS COLLECTION BOX - PO LOBBY", "address": {"city": "VANCOUVER", "state": "WA", "street": "401 NE 136TH AVE", "postcode": "98684"}}},
{"geometry": {"type": "Point", "coordinates": [-122.506266044, 45.6367726274]}, "type": "Feature", "properties": {"collection_times": [{"days": "Mon-Fri", "time": "2:00pm"}, {"days": "Sat-Sun", "time": "Closed"}], "id": "9868400026", "name": "USPS COLLECTION BOX - BLUE BOX", "address": {"city": "VANCOUVER", "state": "WA", "street": "1900 NE 162ND AVE", "postcode": "98684"}}},
{"geometry": {"type": "Point", "coordinates": [-122.5411703093, 45.6228244621]}, "type": "Feature", "properties": {"collection_times": [{"days": "Mon-Fri", "time": "3:30pm"}, {"days": "Sat", "time": "2:30pm"}, {"days": "Sun", "time": "Closed"}], "id": "9868400027", "name": "USPS COLLECTION BOX - BLUE BOX", "address": {"city": "VANCOUVER", "state": "WA", "street": "201 NE PARK PLAZA DR", "postcode": "98684"}}},
{"geometry": {"type": "Point", "coordinates": [-122.6896443402, 45.7073497509]}, "type": "Feature", "properties": {"collection_times": [{"days": "Mon-Sat", "time": "12:00pm"}, {"days": "Sun", "time": "Closed"}], "id": "9868500001", "name": "USPS COLLECTION BOX - BLUE BOX", "address": {"city": "VANCOUVER", "state": "WA", "street": "1804 NW 119TH ST", "postcode": "98685"}}},
{"geometry": {"type": "Point", "coordinates": [-122.6690149651, 45.6939158969]}, "type": "Feature", "properties": {"collection_times": [{"days": "Mon-Fri", "time": "1:15pm"}, {"days": "Sat", "time": "1:30pm"}, {"days": "Sun", "time": "Closed"}], "id": "9868500002", "name": "USPS COLLECTION BOX - BLUE BOX", "address": {"city": "VANCOUVER", "state": "WA", "street": "10009 NE HAZELDELL AVE", "postcode": "98685"}}},
{"geometry": {"type": "Point", "coordinates": [-122.6650341277, 45.6953180356]}, "type": "Feature", "properties": {"collection_times": [{"days": "Mon-Fri", "time": "1:15pm"}, {"days": "Sat", "time": "1:30pm"}, {"days": "Sun", "time": "Closed"}], "id": "9868500003", "name": "USPS COLLECTION BOX - BLUE BOX", "address": {"city": "VANCOUVER", "state": "WA", "street": "10223 NE NOTCHLOG DR", "postcode": "98685"}}},
{"geometry": {"type": "Point", "coordinates": [-122.6577462073, 45.718247167]}, "type": "Feature", "properties": {"collection_times": [{"days": "Mon-Fri", "time": "4:00pm"}, {"days": "Sat", "time": "2:00pm"}, {"days": "Sun", "time": "Closed"}], "id": "9868500004", "name": "USPS COLLECTION BOX - BLUE BOX", "address": {"city": "VANCOUVER", "state": "WA", "street": "1309 NE 134TH ST", "postcode": "98685"}}},
{"geometry": {"type": "Point", "coordinates": [-122.7081809128, 45.712323324]}, "type": "Feature", "properties": {"collection_times": [{"days": "Mon-Sat", "time": "12:00pm"}, {"days": "Sun", "time": "Closed"}], "id": "9868500005", "name": "USPS COLLECTION BOX - BLUE BOX", "address": {"city": "VANCOUVER", "state": "WA", "street": "12604 NW 36TH AVE", "postcode": "98685"}}},
{"geometry": {"type": "Point", "coordinates": [-122.6643822013, 45.6937201633]}, "type": "Feature", "properties": {"collection_times": [{"days": "Mon-Fri", "time": "1:15pm"}, {"days": "Sat", "time": "1:30pm"}, {"days": "Sun", "time": "Closed"}], "id": "9868500006", "name": "USPS COLLECTION BOX - BLUE BOX", "address": {"city": "VANCOUVER", "state": "WA", "street": "10000 NE 7TH AVE", "postcode": "98685"}}},
{"geometry": {"type": "Point", "coordinates": [-122.65135468, 45.7245736315]}, "type": "Feature", "properties": {"collection_times": [{"days": "Mon-Fri", "time": "4:15pm"}, {"days": "Sat", "time": "2:00pm"}, {"days": "Sun", "time": "Closed"}], "id": "9868600000", "name": "USPS COLLECTION BOX - BLUE BOX", "address": {"city": "VANCOUVER", "state": "WA", "street": "14300 NE 20TH AVE", "postcode": "98686"}}},
{"geometry": {"type": "Point", "coordinates": [-122.5992978775, 45.7066291937]}, "type": "Feature", "properties": {"collection_times": [{"days": "Mon-Sat", "time": "2:00pm"}, {"days": "Sun", "time": "Closed"}], "id": "9868600006", "name": "USPS COLLECTION BOX - BLUE BOX", "address": {"city": "VANCOUVER", "state": "WA", "street": "11811 NE 72ND AVE", "postcode": "98686"}}},
{"geometry": {"type": "Point", "coordinates": [-122.654178403, 45.6975371044]}, "type": "Feature", "properties": {"collection_times": [{"days": "Mon-Fri", "time": "4:00pm"}, {"days": "Sat", "time": "1:30pm"}, {"days": "Sun", "time": "Closed"}], "id": "9868600007", "name": "USPS COLLECTION BOX - BLUE BOX", "address": {"city": "VANCOUVER", "state": "WA", "street": "10501 NE HIGHWAY 99", "postcode": "98686"}}},
{"geometry": {"type": "Point", "coordinates": [-122.651412645, 45.715047263]}, "type": "Feature", "properties": {"collection_times": [{"days": "Mon-Fri", "time": "4:15pm"}, {"days": "Sat", "time": "2:00pm"}, {"days": "Sun", "time": "Closed"}], "id": "9868600008", "name": "USPS COLLECTION BOX - BLUE BOX", "address": {"city": "VANCOUVER", "state": "WA", "street": "13023 NE HIGHWAY 99", "postcode": "98686"}}},
{"geometry": {"type": "Point", "coordinates": [-122.65135468, 45.7245736315]}, "type": "Feature", "properties": {"collection_times": [{"days": "Mon-Fri", "time": "4:15pm"}, {"days": "Sat", "time": "2:00pm"}, {"days": "Sun", "time": "Closed"}], "id": "9868600009", "name": "USPS COLLECTION BOX - BLUE BOX", "address": {"city": "VANCOUVER", "state": "WA", "street": "14300 NE 20TH AVE", "postcode": "98686"}}},
{"geometry": {"type": "Point", "coordinates": [-122.5226692141, 45.6194069542]}, "type": "Feature", "properties": {"collection_times": [{"days": "Mon-Fri", "time": "5:30pm"}, {"days": "Sat", "time": "3:00pm"}, {"days": "Sun", "time": "Closed"}], "id": "9868700000", "name": "USPS COLLECTION BOX - PO LOBBY", "address": {"city": "VANCOUVER", "state": "WA", "street": "304 SE HEARTHWOOD BLVD", "postcode": "98687"}}},
{"geometry": {"type": "Point", "coordinates": [-122.5226692141, 45.6194069542]}, "type": "Feature", "properties": {"collection_times": [{"days": "Mon-Fri", "time": "5:30pm"}, {"days": "Sat", "time": "3:00pm"}, {"days": "Sun", "time": "Closed"}], "id": "9868700001", "name": "USPS COLLECTION BOX - EXPRESS", "address": {"city": "VANCOUVER", "state": "WA", "street": "304 SE HEARTHWOOD BLVD", "postcode": "98687"}}},
{"geometry": {"type": "Point", "coordinates": [-122.5226692141, 45.6194069542]}, "type": "Feature", "properties": {"collection_times": [{"days": "Mon-Fri", "time": "5:30pm"}, {"days": "Sat", "time": "3:00pm"}, {"days": "Sun", "time": "Closed"}], "id": "9868700002", "name": "USPS COLLECTION BOX - BLUE BOX", "address": {"city": "VANCOUVER", "state": "WA", "street": "304 SE HEARTHWOOD BLVD", "postcode": "98687"}}},
{"geometry": {"type": "Point", "coordinates": [-122.5226692141, 45.6194069542]}, "type": "Feature", "properties": {"collection_times": [{"days": "Mon-Fri", "time": "5:30pm"}, {"days": "Sat", "time": "3:00pm"}, {"days": "Sun", "time": "Closed"}], "id": "9868700003", "name": "USPS COLLECTION BOX - BLUE BOX", "address": {"city": "VANCOUVER", "state": "WA", "street": "304 SE HEARTHWOOD BLVD", "postcode": "98687"}}},
{"geometry": {"type": "Point", "coordinates": [-122.5226692141, 45.6194069542]}, "type": "Feature", "properties": {"collection_times": [{"days": "Mon-Fri", "time": "5:30pm"}, {"days": "Sat", "time": "3:00pm"}, {"days": "Sun", "time": "Closed"}], "id": "9868700004", "name": "USPS COLLECTION BOX - BLUE BOX", "address": {"city": "VANCOUVER", "state": "WA", "street": "304 SE HEARTHWOOD BLVD", "postcode": "98687"}}},
{"geometry": {"type": "Point", "coordinates": [-122.5226692141, 45.6194069542]}, "type": "Feature", "properties": {"collection_times": [{"days": "Mon-Fri", "time": "5:30pm"}, {"days": "Sat", "time": "3:00pm"}, {"days": "Sun", "time": "Closed"}], "id": "9868700005", "name": "USPS COLLECTION BOX - APC", "address": {"city": "VANCOUVER", "state": "WA", "street": "304 SE HEARTHWOOD BLVD", "postcode": "98687"}}}
]}
