{"type": "FeatureCollection", "features": [
{"geometry": {"type": "Point", "coordinates": [-120.324680493, 47.4441054907]}, "type": "Feature", "properties": {"collection_times": [{"days": "Mon-Fri", "time": "2:30pm"}, {"days": "Sat", "time": "2:00pm"}, {"days": "Sun", "time": "Closed"}], "id": "9880100001", "name": "USPS COLLECTION BOX - BLUE BOX", "address": {"city": "WENATCHEE", "state": "WA", "street": "1505 N MILLER ST", "postcode": "98801"}}},
{"geometry": {"type": "Point", "coordinates": [-120.3193738909, 47.4060179179]}, "type": "Feature", "properties": {"collection_times": [{"days": "Mon-Fri", "time": "2:30pm"}, {"days": "Sat", "time": "2:00pm"}, {"days": "Sun", "time": "Closed"}], "id": "9880100010", "name": "USPS COLLECTION BOX - BLUE BOX", "address": {"city": "WENATCHEE", "state": "WA", "street": "1300 FULLER ST", "postcode": "98801"}}},
{"geometry": {"type": "Point", "coordinates": [-120.3156905668, 47.4220671806]}, "type": "Feature", "properties": {"collection_times": [{"days": "Mon-Fri", "time": "2:30pm"}, {"days": "Sat", "time": "2:00pm"}, {"days": "Sun", "time": "Closed"}], "id": "9880100017", "name": "USPS COLLECTION BOX - BLUE BOX", "address": {"city": "WENATCHEE", "state": "WA", "street": "401 WASHINGTON ST", "postcode": "98801"}}},
{"geometry": {"type": "Point", "coordinates": [-120.3147077661, 47.4267853089]}, "type": "Feature", "properties": {"collection_times": [{"days": "Mon-Fri", "time": "2:30pm"}, {"days": "Sat", "time": "2:00pm"}, {"days": "Sun", "time": "Closed"}], "id": "9880100020", "name": "USPS COLLECTION BOX - BLUE BOX", "address": {"city": "WENATCHEE", "state": "WA", "street": "201 N MISSION ST", "postcode": "98801"}}},
{"geometry": {"type": "Point", "coordinates": [-120.3187150173, 47.4314484257]}, "type": "Feature", "properties": {"collection_times": [{"days": "Mon-Fri", "time": "2:30pm"}, {"days": "Sat", "time": "2:00pm"}, {"days": "Sun", "time": "Closed"}], "id": "9880100021", "name": "USPS COLLECTION BOX - BLUE BOX", "address": {"city": "WENATCHEE", "state": "WA", "street": "600 N MISSION ST", "postcode": "98801"}}},
{"geometry": {"type": "Point", "coordinates": [-120.3295234213, 47.4468509768]}, "type": "Feature", "properties": {"collection_times": [{"days": "Mon-Fri", "time": "2:30pm"}, {"days": "Sat", "time": "2:00pm"}, {"days": "Sun", "time": "Closed"}], "id": "9880100024", "name": "USPS COLLECTION BOX - BLUE BOX", "address": {"city": "WENATCHEE", "state": "WA", "street": "1621 N WENATCHEE AVE", "postcode": "98801"}}},
{"geometry": {"type": "Point", "coordinates": [-120.3356384195, 47.4667698259]}, "type": "Feature", "properties": {"collection_times": [{"days": "Mon-Fri", "time": "2:30pm"}, {"days": "Sat", "time": "2:00pm"}, {"days": "Sun", "time": "Closed"}], "id": "9880100025", "name": "USPS COLLECTION BOX - BLUE BOX", "address": {"city": "WENATCHEE", "state": "WA", "street": "147 EASY WAY", "postcode": "98801"}}},
{"geometry": {"type": "Point", "coordinates": [-120.3249305749, 47.4403867818]}, "type": "Feature", "properties": {"collection_times": [{"days": "Mon-Fri", "time": "2:30pm"}, {"days": "Sat", "time": "2:00pm"}, {"days": "Sun", "time": "Closed"}], "id": "9880100028", "name": "USPS COLLECTION BOX - BLUE BOX", "address": {"city": "WENATCHEE", "state": "WA", "street": "1300 N MILLER ST", "postcode": "98801"}}},
{"geometry": {"type": "Point", "coordinates": [-120.324987849, 47.4373343225]}, "type": "Feature", "properties": {"collection_times": [{"days": "Mon-Fri", "time": "2:30pm"}, {"days": "Sat", "time": "2:00pm"}, {"days": "Sun", "time": "Closed"}], "id": "9880100029", "name": "USPS COLLECTION BOX - BLUE BOX", "address": {"city": "WENATCHEE", "state": "WA", "street": "1128 N MILLER ST", "postcode": "98801"}}},
{"geometry": {"type": "Point", "coordinates": [-120.3219832128, 47.4309783953]}, "type": "Feature", "properties": {"collection_times": [{"days": "Mon-Fri", "time": "2:30pm"}, {"days": "Sat", "time": "2:00pm"}, {"days": "Sun", "time": "Closed"}], "id": "9880100030", "name": "USPS COLLECTION BOX - BLUE BOX", "address": {"city": "WENATCHEE", "state": "WA", "street": "615 N EMERSON AVE", "postcode": "98801"}}},
{"geometry": {"type": "Point", "coordinates": [-120.3246193069, 47.4298794628]}, "type": "Feature", "properties": {"collection_times": [{"days": "Mon-Fri", "time": "2:30pm"}, {"days": "Sat", "time": "2:00pm"}, {"days": "Sun", "time": "Closed"}], "id": "9880100031", "name": "USPS COLLECTION BOX - BLUE BOX", "address": {"city": "WENATCHEE", "state": "WA", "street": "501 N MILLER ST", "postcode": "98801"}}},
{"geometry": {"type": "Point", "coordinates": [-120.3461465984, 47.4298672687]}, "type": "Feature", "properties": {"collection_times": [{"days": "Mon-Fri", "time": "2:30pm"}, {"days": "Sat", "time": "2:00pm"}, {"days": "Sun", "time": "Closed"}], "id": "9880100033", "name": "USPS COLLECTION BOX - BLUE BOX", "address": {"city": "WENATCHEE", "state": "WA", "street": "509 N WESTERN AVE", "postcode": "98801"}}},
{"geometry": {"type": "Point", "coordinates": [-120.3172443697, 47.4191220736]}, "type": "Feature", "properties": {"collection_times": [{"days": "Mon-Fri", "time": "2:30pm"}, {"days": "Sat", "time": "2:00pm"}, {"days": "Sun", "time": "Closed"}], "id": "9880100040", "name": "USPS COLLECTION BOX - BLUE BOX", "address": {"city": "WENATCHEE", "state": "WA", "street": "600 ORONDO AVE", "postcode": "98801"}}},
{"geometry": {"type": "Point", "coordinates": [-120.32314734, 47.4079049288]}, "type": "Feature", "properties": {"collection_times": [{"days": "Mon-Fri", "time": "2:30pm"}, {"days": "Sat", "time": "2:00pm"}, {"days": "Sun", "time": "Closed"}], "id": "9880100041", "name": "USPS COLLECTION BOX - BLUE BOX", "address": {"city": "WENATCHEE", "state": "WA", "street": "933 RED APPLE RD", "postcode": "98801"}}},
{"geometry": {"type": "Point", "coordinates": [-120.3112003124, 47.4244630648]}, "type": "Feature", "properties": {"collection_times": [{"days": "Mon-Fri", "time": "2:30pm"}, {"days": "Sat", "time": "2:00pm"}, {"days": "Sun", "time": "Closed"}], "id": "9880100043", "name": "USPS COLLECTION BOX - BLUE BOX", "address": {"city": "WENATCHEE", "state": "WA", "street": "21 S WENATCHEE AVE", "postcode": "98801"}}},
{"geometry": {"type": "Point", "coordinates": [-120.3116299736, 47.4249918478]}, "type": "Feature", "properties": {"collection_times": [{"days": "Mon-Fri", "time": "2:30pm"}, {"days": "Sat", "time": "2:00pm"}, {"days": "Sun", "time": "Closed"}], "id": "9880100044", "name": "USPS COLLECTION BOX - BLUE BOX", "address": {"city": "WENATCHEE", "state": "WA", "street": "19 N WENATCHEE AVE", "postcode": "98801"}}},
{"geometry": {"type": "Point", "coordinates": [-120.3206337318, 47.4320561993]}, "type": "Feature", "properties": {"collection_times": [{"days": "Mon-Fri", "time": "2:30pm"}, {"days": "Sat", "time": "2:00pm"}, {"days": "Sun", "time": "Closed"}], "id": "9880100046", "name": "USPS COLLECTION BOX - BLUE BOX", "address": {"city": "WENATCHEE", "state": "WA", "street": "701 N CHELAN AVE", "postcode": "98801"}}},
{"geometry": {"type": "Point", "coordinates": [-120.3141158335, 47.4242050681]}, "type": "Feature", "properties": {"collection_times": [{"days": "Mon-Fri", "time": "2:30pm"}, {"days": "Sat", "time": "2:00pm"}, {"days": "Sun", "time": "Closed"}], "id": "9880100048", "name": "USPS COLLECTION BOX - BLUE BOX", "address": {"city": "WENATCHEE", "state": "WA", "street": "27 N CHELAN AVE", "postcode": "98801"}}},
{"geometry": {"type": "Point", "coordinates": [-120.3124904601, 47.422197677]}, "type": "Feature", "properties": {"collection_times": [{"days": "Mon-Fri", "time": "2:30pm"}, {"days": "Sat", "time": "2:00pm"}, {"days": "Sun", "time": "Closed"}], "id": "9880100049", "name": "USPS COLLECTION BOX - BLUE BOX", "address": {"city": "WENATCHEE", "state": "WA", "street": "129 S CHELAN AVE", "postcode": "98801"}}},
{"geometry": {"type": "Point", "coordinates": [-120.311844967, 47.4212499903]}, "type": "Feature", "properties": {"collection_times": [{"days": "Mon-Sat", "time": "3:00pm"}, {"days": "Sun", "time": "Closed"}], "id": "9880100050", "name": "USPS COLLECTION BOX - BLUE BOX", "address": {"city": "WENATCHEE", "state": "WA", "street": "1050 MAPLE ST", "postcode": "98801"}}},
{"geometry": {"type": "Point", "coordinates": [-120.327778866, 47.4423662961]}, "type": "Feature", "properties": {"collection_times": [{"days": "Mon-Fri", "time": "4:30pm"}, {"days": "Sat", "time": "1:00pm"}, {"days": "Sun", "time": "Closed"}], "id": "9880100054", "name": "USPS COLLECTION BOX - PO LOBBY", "address": {"city": "WENATCHEE", "state": "WA", "street": "1050 MAPLE ST", "postcode": "98801"}}},
{"geometry": {"type": "Point", "coordinates": [-120.304127623, 47.4125682162]}, "type": "Feature", "properties": {"collection_times": [{"days": "Mon-Fri", "time": "4:30pm"}, {"days": "Sat", "time": "3:00pm"}, {"days": "Sun", "time": "Closed"}], "id": "9880100057", "name": "USPS COLLECTION BOX - BLUE BOX", "address": {"city": "WENATCHEE", "state": "WA", "street": "805 S MISSION ST", "postcode": "98801"}}},
{"geometry": {"type": "Point", "coordinates": [-120.3294896145, 47.4466033785]}, "type": "Feature", "properties": {"collection_times": [{"days": "Mon-Fri", "time": "2:30pm"}, {"days": "Sat", "time": "2:00pm"}, {"days": "Sun", "time": "Closed"}], "id": "9880100058", "name": "USPS COLLECTION BOX - BLUE BOX", "address": {"city": "WENATCHEE", "state": "WA", "street": "1616 N WENATCHEE AVE", "postcode": "98801"}}},
{"geometry": {"type": "Point", "coordinates": [-120.3356844846, 47.4706144953]}, "type": "Feature", "properties": {"collection_times": [{"days": "Mon-Fri", "time": "2:30pm"}, {"days": "Sat", "time": "2:00pm"}, {"days": "Sun", "time": "Closed"}], "id": "9880100059", "name": "USPS COLLECTION BOX - BLUE BOX", "address": {"city": "WENATCHEE", "state": "WA", "street": "201 EASY ST", "postcode": "98801"}}},
{"geometry": {"type": "Point", "coordinates": [-120.3301283691, 47.4723394507]}, "type": "Feature", "properties": {"collection_times": [{"days": "Mon-Sat", "time": "4:30pm"}, {"days": "Sun", "time": "Closed"}], "id": "9880100061", "name": "USPS COLLECTION BOX - BLUE BOX", "address": {"city": "WENATCHEE", "state": "WA", "street": "3075 OHME RD", "postcode": "98801"}}},
{"geometry": {"type": "Point", "coordinates": [-120.3339704449, 47.4641536451]}, "type": "Feature", "properties": {"collection_times": [{"days": "Mon-Fri", "time": "2:30pm"}, {"days": "Sat", "time": "2:00pm"}, {"days": "Sun", "time": "Closed"}], "id": "9880100065", "name": "USPS COLLECTION BOX - BLUE BOX", "address": {"city": "WENATCHEE", "state": "WA", "street": "2605 CHESTER KIMM RD", "postcode": "98801"}}},
{"geometry": {"type": "Point", "coordinates": [-120.2973940992, 47.4621688221]}, "type": "Feature", "properties": {"collection_times": [{"days": "Mon-Fri", "time": "2:30pm"}, {"days": "Sat", "time": "2:00pm"}, {"days": "Sun", "time": "Closed"}], "id": "9880200000", "name": "USPS COLLECTION BOX - BLUE BOX", "address": {"city": "EAST WENATCHEE", "state": "WA", "street": "3330 SUNSET HWY", "postcode": "98802"}}},
{"geometry": {"type": "Point", "coordinates": [-120.2840305807, 47.4182988038]}, "type": "Feature", "properties": {"collection_times": [{"days": "Mon-Fri", "time": "2:30pm"}, {"days": "Sat", "time": "2:00pm"}, {"days": "Sun", "time": "Closed"}], "id": "9880200002", "name": "USPS COLLECTION BOX - BLUE BOX", "address": {"city": "EAST WENATCHEE", "state": "WA", "street": "450 9TH ST NE", "postcode": "98802"}}},
{"geometry": {"type": "Point", "coordinates": [-120.2607389327, 47.4058138399]}, "type": "Feature", "properties": {"collection_times": [{"days": "Mon-Fri", "time": "2:30pm"}, {"days": "Sat", "time": "2:00pm"}, {"days": "Sun", "time": "Closed"}], "id": "9880200004", "name": "USPS COLLECTION BOX - BLUE BOX", "address": {"city": "EAST WENATCHEE", "state": "WA", "street": "1688 GRANT RD", "postcode": "98802"}}},
{"geometry": {"type": "Point", "coordinates": [-120.19719, 47.400387]}, "type": "Feature", "properties": {"collection_times": [{"days": "Mon-Fri", "time": "2:30pm"}, {"days": "Sat", "time": "2:00pm"}, {"days": "Sun", "time": "Closed"}], "id": "9880200005", "name": "USPS COLLECTION BOX - BLUE BOX", "address": {"city": "EAST WENATCHEE", "state": "WA", "street": "200 AIRPORT WAY", "postcode": "98802"}}},
{"geometry": {"type": "Point", "coordinates": [-120.2884532953, 47.4076012909]}, "type": "Feature", "properties": {"collection_times": [{"days": "Mon-Fri", "time": "2:30pm"}, {"days": "Sat", "time": "2:00pm"}, {"days": "Sun", "time": "Closed"}], "id": "9880200007", "name": "USPS COLLECTION BOX - BLUE BOX", "address": {"city": "EAST WENATCHEE", "state": "WA", "street": "199 VALLEY MALL PKWY", "postcode": "98802"}}},
{"geometry": {"type": "Point", "coordinates": [-120.289643352, 47.4096915794]}, "type": "Feature", "properties": {"collection_times": [{"days": "Mon-Fri", "time": "2:30pm"}, {"days": "Sat", "time": "2:00pm"}, {"days": "Sun", "time": "Closed"}], "id": "9880200009", "name": "USPS COLLECTION BOX - BLUE BOX", "address": {"city": "EAST WENATCHEE", "state": "WA", "street": "511 VALLEY MALL PKWY", "postcode": "98802"}}},
{"geometry": {"type": "Point", "coordinates": [-120.2920033552, 47.4133906921]}, "type": "Feature", "properties": {"collection_times": [{"days": "Mon-Fri", "time": "2:30pm"}, {"days": "Sat", "time": "2:00pm"}, {"days": "Sun", "time": "Closed"}], "id": "9880200010", "name": "USPS COLLECTION BOX - BLUE BOX", "address": {"city": "EAST WENATCHEE", "state": "WA", "street": "630 VALLEY MALL PKWY", "postcode": "98802"}}},
{"geometry": {"type": "Point", "coordinates": [-120.2934795521, 47.4156991156]}, "type": "Feature", "properties": {"collection_times": [{"days": "Mon-Fri", "time": "2:30pm"}, {"days": "Sat", "time": "2:00pm"}, {"days": "Sun", "time": "Closed"}], "id": "9880200012", "name": "USPS COLLECTION BOX - BLUE BOX", "address": {"city": "EAST WENATCHEE", "state": "WA", "street": "900 VALLEY MALL PKWY", "postcode": "98802"}}},
{"geometry": {"type": "Point", "coordinates": [-120.2817044411, 47.405897595]}, "type": "Feature", "properties": {"collection_times": [{"days": "Mon-Fri", "time": "2:30pm"}, {"days": "Sat", "time": "2:00pm"}, {"days": "Sun", "time": "Closed"}], "id": "9880200013", "name": "USPS COLLECTION BOX - BLUE BOX", "address": {"city": "EAST WENATCHEE", "state": "WA", "street": "500 GRANT RD", "postcode": "98802"}}},
{"geometry": {"type": "Point", "coordinates": [-120.281485667, 47.4059534291]}, "type": "Feature", "properties": {"collection_times": [{"days": "Mon-Fri", "time": "2:30pm"}, {"days": "Sat", "time": "2:00pm"}, {"days": "Sun", "time": "Closed"}], "id": "9880200015", "name": "USPS COLLECTION BOX - BLUE BOX", "address": {"city": "EAST WENATCHEE", "state": "WA", "street": "501 GRANT RD", "postcode": "98802"}}},
{"geometry": {"type": "Point", "coordinates": [-120.2884355509, 47.4069920671]}, "type": "Feature", "properties": {"collection_times": [{"days": "Mon-Fri", "time": "2:30pm"}, {"days": "Sat", "time": "2:00pm"}, {"days": "Sun", "time": "Closed"}], "id": "9880200016", "name": "USPS COLLECTION BOX - BLUE BOX", "address": {"city": "EAST WENATCHEE", "state": "WA", "street": "200 VALLEY MALL PKWY", "postcode": "98802"}}},
{"geometry": {"type": "Point", "coordinates": [-120.2855585947, 47.4060042963]}, "type": "Feature", "properties": {"collection_times": [{"days": "Mon-Fri", "time": "2:30pm"}, {"days": "Sat", "time": "2:00pm"}, {"days": "Sun", "time": "Closed"}], "id": "9880200017", "name": "USPS COLLECTION BOX - BLUE BOX", "address": {"city": "EAST WENATCHEE", "state": "WA", "street": "230 GRANT RD", "postcode": "98802"}}},
{"geometry": {"type": "Point", "coordinates": [-120.3582723619, 47.7314209249]}, "type": "Feature", "properties": {"collection_times": [{"days": "Mon-Fri", "time": "1:00pm"}, {"days": "Sat", "time": "9:00am"}, {"days": "Sun", "time": "Closed"}], "id": "9881100000", "name": "USPS COLLECTION BOX - PO LOBBY", "address": {"city": "ARDENVOIR", "state": "WA", "street": "8855 ENTIAT RIVER RD", "postcode": "98811"}}},
{"geometry": {"type": "Point", "coordinates": [-119.7869057001, 48.0991104112]}, "type": "Feature", "properties": {"collection_times": [{"days": "Mon-Fri", "time": "3:05pm"}, {"days": "Sat", "time": "10:45am"}, {"days": "Sun", "time": "Closed"}], "id": "9881200001", "name": "USPS COLLECTION BOX - PO LOBBY", "address": {"city": "BREWSTER", "state": "WA", "street": "109 N 7TH ST", "postcode": "98812"}}},
{"geometry": {"type": "Point", "coordinates": [-119.7869057001, 48.0991104112]}, "type": "Feature", "properties": {"collection_times": [{"days": "Mon-Fri", "time": "3:05pm"}, {"days": "Sat", "time": "10:45am"}, {"days": "Sun", "time": "Closed"}], "id": "9881200002", "name": "USPS COLLECTION BOX - PO LOBBY", "address": {"city": "BREWSTER", "state": "WA", "street": "109 N 7TH ST", "postcode": "98812"}}},
{"geometry": {"type": "Point", "coordinates": [-119.7869057001, 48.0991104112]}, "type": "Feature", "properties": {"collection_times": [{"days": "Mon-Fri", "time": "3:05pm"}, {"days": "Sat", "time": "10:45am"}, {"days": "Sun", "time": "Closed"}], "id": "9881200003", "name": "USPS COLLECTION BOX - BLUE BOX", "address": {"city": "BREWSTER", "state": "WA", "street": "109 N 7TH ST", "postcode": "98812"}}},
{"geometry": {"type": "Point", "coordinates": [-119.6760318903, 48.0107435659]}, "type": "Feature", "properties": {"collection_times": [{"days": "Mon-Fri", "time": "2:20pm"}, {"days": "Sat", "time": "10:30am"}, {"days": "Sun", "time": "Closed"}], "id": "9881300000", "name": "USPS COLLECTION BOX - PO LOBBY", "address": {"city": "BRIDGEPORT", "state": "WA", "street": "1011 COLUMBIA AVE", "postcode": "98813"}}},
{"geometry": {"type": "Point", "coordinates": [-119.6760318903, 48.0107435659]}, "type": "Feature", "properties": {"collection_times": [{"days": "Mon-Fri", "time": "2:20pm"}, {"days": "Sat", "time": "10:30am"}, {"days": "Sun", "time": "Closed"}], "id": "9881300002", "name": "USPS COLLECTION BOX - BLUE BOX", "address": {"city": "BRIDGEPORT", "state": "WA", "street": "1011 COLUMBIA AVE", "postcode": "98813"}}},
{"geometry": {"type": "Point", "coordinates": [-120.1168570487, 48.2073574051]}, "type": "Feature", "properties": {"collection_times": [{"days": "Mon-Fri", "time": "11:30am"}, {"days": "Sat", "time": "10:30am"}, {"days": "Sun", "time": "Closed"}], "id": "9881400000", "name": "USPS COLLECTION BOX - PO LOBBY", "address": {"city": "CARLTON", "state": "WA", "street": "2274 US HIGHWAY 153", "postcode": "98814"}}},
{"geometry": {"type": "Point", "coordinates": [-120.1168570487, 48.2073574051]}, "type": "Feature", "properties": {"collection_times": [{"days": "Mon-Fri", "time": "11:30am"}, {"days": "Sat", "time": "10:30am"}, {"days": "Sun", "time": "Closed"}], "id": "9881400001", "name": "USPS COLLECTION BOX - PO LOBBY", "address": {"city": "CARLTON", "state": "WA", "street": "2274 US HIGHWAY 153", "postcode": "98814"}}},
{"geometry": {"type": "Point", "coordinates": [-120.4695506924, 47.522694489]}, "type": "Feature", "properties": {"collection_times": [{"days": "Mon-Fri", "time": "2:50pm"}, {"days": "Sat", "time": "9:00am"}, {"days": "Sun", "time": "Closed"}], "id": "9881500000", "name": "USPS COLLECTION BOX - BLUE BOX", "address": {"city": "CASHMERE", "state": "WA", "street": "121 ELBERTA AVE", "postcode": "98815"}}},
{"geometry": {"type": "Point", "coordinates": [-120.480355864, 47.5219458686]}, "type": "Feature", "properties": {"collection_times": [{"days": "Mon-Fri", "time": "2:50pm"}, {"days": "Sat", "time": "9:00am"}, {"days": "Sun", "time": "Closed"}], "id": "9881500001", "name": "USPS COLLECTION BOX - BLUE BOX", "address": {"city": "CASHMERE", "state": "WA", "street": "121 ELBERTA AVE", "postcode": "98815"}}},
{"geometry": {"type": "Point", "coordinates": [-120.480355864, 47.5219458686]}, "type": "Feature", "properties": {"collection_times": [{"days": "Mon-Fri", "time": "2:50pm"}, {"days": "Sat", "time": "9:00am"}, {"days": "Sun", "time": "Closed"}], "id": "9881500005", "name": "USPS COLLECTION BOX - PO LOBBY", "address": {"city": "CASHMERE", "state": "WA", "street": "121 ELBERTA AVE", "postcode": "98815"}}},
{"geometry": {"type": "Point", "coordinates": [-120.0181908561, 47.8408877145]}, "type": "Feature", "properties": {"collection_times": [{"days": "Mon-Fri", "time": "3:45pm"}, {"days": "Sat", "time": "2:00pm"}, {"days": "Sun", "time": "Closed"}], "id": "9881600000", "name": "USPS COLLECTION BOX - BLUE BOX", "address": {"city": "CHELAN", "state": "WA", "street": "144 E JOHNSON AVE", "postcode": "98816"}}},
{"geometry": {"type": "Point", "coordinates": [-120.0181908561, 47.8408877145]}, "type": "Feature", "properties": {"collection_times": [{"days": "Mon-Fri", "time": "3:45pm"}, {"days": "Sat", "time": "2:00pm"}, {"days": "Sun", "time": "Closed"}], "id": "9881600001", "name": "USPS COLLECTION BOX - PO LOBBY", "address": {"city": "CHELAN", "state": "WA", "street": "144 E JOHNSON AVE", "postcode": "98816"}}},
{"geometry": {"type": "Point", "coordinates": [-120.0194038921, 47.8410269731]}, "type": "Feature", "properties": {"collection_times": [{"days": "Mon-Fri", "time": "3:00pm"}, {"days": "Sat", "time": "10:15am"}, {"days": "Sun", "time": "Closed"}], "id": "9881600002", "name": "USPS COLLECTION BOX - BLUE BOX", "address": {"city": "CHELAN", "state": "WA", "street": "106 W MANSON HWY", "postcode": "98816"}}},
{"geometry": {"type": "Point", "coordinates": [-119.9772107176, 47.7987078823]}, "type": "Feature", "properties": {"collection_times": [{"days": "Mon-Fri", "time": "2:40pm"}, {"days": "Sat", "time": "11:00am"}, {"days": "Sun", "time": "Closed"}], "id": "9881700000", "name": "USPS COLLECTION BOX - BLUE BOX", "address": {"city": "CHELAN FALLS", "state": "WA", "street": "67 CHESTNUT ST", "postcode": "98817"}}},
{"geometry": {"type": "Point", "coordinates": [-119.9772107176, 47.7987078823]}, "type": "Feature", "properties": {"collection_times": [{"days": "Mon-Fri", "time": "2:40pm"}, {"days": "Sat", "time": "11:00am"}, {"days": "Sun", "time": "Closed"}], "id": "9881700001", "name": "USPS COLLECTION BOX - PO LOBBY", "address": {"city": "CHELAN FALLS", "state": "WA", "street": "67 CHESTNUT ST", "postcode": "98817"}}},
{"geometry": {"type": "Point", "coordinates": [-119.7514674524, 48.5585824841]}, "type": "Feature", "properties": {"collection_times": [{"days": "Mon-Sat", "time": "11:45am"}, {"days": "Sun", "time": "Closed"}], "id": "9881900001", "name": "USPS COLLECTION BOX - PO LOBBY", "address": {"city": "CONCONULLY", "state": "WA", "street": "221 N LOTTIE AVE", "postcode": "98819"}}},
{"geometry": {"type": "Point", "coordinates": [-120.5610510612, 47.5415017507]}, "type": "Feature", "properties": {"collection_times": [{"days": "Mon-Fri", "time": "2:40pm"}, {"days": "Sat", "time": "9:30am"}, {"days": "Sun", "time": "Closed"}], "id": "9882100000", "name": "USPS COLLECTION BOX - BLUE BOX", "address": {"city": "DRYDEN", "state": "WA", "street": "6828 DRYDEN AVE", "postcode": "98821"}}},
{"geometry": {"type": "Point", "coordinates": [-120.5610510612, 47.5415017507]}, "type": "Feature", "properties": {"collection_times": [{"days": "Mon-Fri", "time": "2:40pm"}, {"days": "Sat", "time": "9:30am"}, {"days": "Sun", "time": "Closed"}], "id": "9882100001", "name": "USPS COLLECTION BOX - PO LOBBY", "address": {"city": "DRYDEN", "state": "WA", "street": "6828 DRYDEN AVE", "postcode": "98821"}}},
{"geometry": {"type": "Point", "coordinates": [-120.2092755458, 47.6757507752]}, "type": "Feature", "properties": {"collection_times": [{"days": "Mon-Fri", "time": "2:50pm"}, {"days": "Sat", "time": "9:00am"}, {"days": "Sun", "time": "Closed"}], "id": "9882200000", "name": "USPS COLLECTION BOX - BLUE BOX", "address": {"city": "ENTIAT", "state": "WA", "street": "14108 KINZEL ST", "postcode": "98822"}}},
{"geometry": {"type": "Point", "coordinates": [-120.2092755458, 47.6757507752]}, "type": "Feature", "properties": {"collection_times": [{"days": "Mon-Fri", "time": "2:50pm"}, {"days": "Sat", "time": "9:00am"}, {"days": "Sun", "time": "Closed"}], "id": "9882200001", "name": "USPS COLLECTION BOX - PO LOBBY", "address": {"city": "ENTIAT", "state": "WA", "street": "14108 KINZEL ST", "postcode": "98822"}}},
{"geometry": {"type": "Point", "coordinates": [-119.5497774253, 47.3206481202]}, "type": "Feature", "properties": {"collection_times": [{"days": "Mon-Fri", "time": "3:00pm"}, {"days": "Sat", "time": "2:00pm"}, {"days": "Sun", "time": "Closed"}], "id": "9882300004", "name": "USPS COLLECTION BOX - BLUE BOX", "address": {"city": "EPHRATA", "state": "WA", "street": "50 ALDER ST NW", "postcode": "98823"}}},
{"geometry": {"type": "Point", "coordinates": [-119.5593381167, 47.3098940872]}, "type": "Feature", "properties": {"collection_times": [{"days": "Mon-Fri", "time": "3:00pm"}, {"days": "Sat", "time": "2:00pm"}, {"days": "Sun", "time": "Closed"}], "id": "9882300006", "name": "USPS COLLECTION BOX - BLUE BOX", "address": {"city": "EPHRATA", "state": "WA", "street": "1150 BASIN ST SW", "postcode": "98823"}}},
{"geometry": {"type": "Point", "coordinates": [-119.5497499391, 47.3213192902]}, "type": "Feature", "properties": {"collection_times": [{"days": "Mon-Fri", "time": "3:05pm"}, {"days": "Sat", "time": "2:45pm"}, {"days": "Sun", "time": "Closed"}], "id": "9882300007", "name": "USPS COLLECTION BOX - PO LOBBY", "address": {"city": "EPHRATA", "state": "WA", "street": "119 1ST AVE NW", "postcode": "98823"}}},
{"geometry": {"type": "Point", "coordinates": [-120.6616534931, 47.5961568587]}, "type": "Feature", "properties": {"collection_times": [{"days": "Mon-Fri", "time": "2:15pm"}, {"days": "Sat", "time": "10:30am"}, {"days": "Sun", "time": "Closed"}], "id": "9882600003", "name": "USPS COLLECTION BOX - BLUE BOX", "address": {"city": "LEAVENWORTH", "state": "WA", "street": "960 US HIGHWAY 2", "postcode": "98826"}}},
{"geometry": {"type": "Point", "coordinates": [-120.6616534931, 47.5961568587]}, "type": "Feature", "properties": {"collection_times": [{"days": "Mon-Fri", "time": "2:15pm"}, {"days": "Sat", "time": "11:00am"}, {"days": "Sun", "time": "Closed"}], "id": "9882600004", "name": "USPS COLLECTION BOX - PO LOBBY", "address": {"city": "LEAVENWORTH", "state": "WA", "street": "960 US HIGHWAY 2", "postcode": "98826"}}},
{"geometry": {"type": "Point", "coordinates": [-120.6616534931, 47.5961568587]}, "type": "Feature", "properties": {"collection_times": [{"days": "Mon-Fri", "time": "2:15pm"}, {"days": "Sat", "time": "11:00am"}, {"days": "Sun", "time": "Closed"}], "id": "9882600005", "name": "USPS COLLECTION BOX - PO LOBBY", "address": {"city": "LEAVENWORTH", "state": "WA", "street": "960 US HIGHWAY 2", "postcode": "98826"}}},
{"geometry": {"type": "Point", "coordinates": [-120.6624349212, 47.5950033068]}, "type": "Feature", "properties": {"collection_times": [{"days": "Mon-Fri", "time": "2:15pm"}, {"days": "Sat-Sun", "time": "Closed"}], "id": "9882600007", "name": "USPS COLLECTION BOX - BLUE BOX", "address": {"city": "LEAVENWORTH", "state": "WA", "street": "735 FRONT ST", "postcode": "98826"}}},
{"geometry": {"type": "Point", "coordinates": [-119.6379914826, 48.8218322339]}, "type": "Feature", "properties": {"collection_times": [{"days": "Mon-Fri", "time": "1:20pm"}, {"days": "Sat", "time": "12:30pm"}, {"days": "Sun", "time": "Closed"}], "id": "9882700000", "name": "USPS COLLECTION BOX - BLUE BOX", "address": {"city": "LOOMIS", "state": "WA", "street": "12 PALMER AVE", "postcode": "98827"}}},
{"geometry": {"type": "Point", "coordinates": [-119.6379914826, 48.8218322339]}, "type": "Feature", "properties": {"collection_times": [{"days": "Mon-Fri", "time": "1:20pm"}, {"days": "Sat", "time": "12:30pm"}, {"days": "Sun", "time": "Closed"}], "id": "9882700001", "name": "USPS COLLECTION BOX - PO LOBBY", "address": {"city": "LOOMIS", "state": "WA", "street": "12 PALMER AVE", "postcode": "98827"}}},
{"geometry": {"type": "Point", "coordinates": [-120.2231686613, 47.3740491957]}, "type": "Feature", "properties": {"collection_times": [{"days": "Mon-Fri", "time": "3:10pm"}, {"days": "Sat", "time": "11:00am"}, {"days": "Sun", "time": "Closed"}], "id": "9882800000", "name": "USPS COLLECTION BOX - BLUE BOX", "address": {"city": "MALAGA", "state": "WA", "street": "3851 MALAGA ALCOA HWY", "postcode": "98828"}}},
{"geometry": {"type": "Point", "coordinates": [-119.7048288672, 48.2838381919]}, "type": "Feature", "properties": {"collection_times": [{"days": "Mon-Fri", "time": "2:35pm"}, {"days": "Sat", "time": "9:30am"}, {"days": "Sun", "time": "Closed"}], "id": "9882900000", "name": "USPS COLLECTION BOX - BLUE BOX", "address": {"city": "MALOTT", "state": "WA", "street": "32 B AND O RD", "postcode": "98829"}}},
{"geometry": {"type": "Point", "coordinates": [-119.7048288672, 48.2838381919]}, "type": "Feature", "properties": {"collection_times": [{"days": "Mon-Fri", "time": "2:30pm"}, {"days": "Sat", "time": "9:30am"}, {"days": "Sun", "time": "Closed"}], "id": "9882900001", "name": "USPS COLLECTION BOX - PO LOBBY", "address": {"city": "MALOTT", "state": "WA", "street": "32 B AND O RD", "postcode": "98829"}}},
{"geometry": {"type": "Point", "coordinates": [-119.6375089545, 47.8117042387]}, "type": "Feature", "properties": {"collection_times": [{"days": "Mon-Fri", "time": "1:30pm"}, {"days": "Sat", "time": "10:00am"}, {"days": "Sun", "time": "Closed"}], "id": "9883000001", "name": "USPS COLLECTION BOX - PO LOBBY", "address": {"city": "MANSFIELD", "state": "WA", "street": "38 MAIN ST", "postcode": "98830"}}},
{"geometry": {"type": "Point", "coordinates": [-120.1620688643, 47.8860355499]}, "type": "Feature", "properties": {"collection_times": [{"days": "Mon-Fri", "time": "3:10pm"}, {"days": "Sat", "time": "10:00am"}, {"days": "Sun", "time": "Closed"}], "id": "9883100000", "name": "USPS COLLECTION BOX - BLUE BOX", "address": {"city": "MANSON", "state": "WA", "street": "85 WAPATO WAY", "postcode": "98831"}}},
{"geometry": {"type": "Point", "coordinates": [-120.5562630964, 47.4112505258]}, "type": "Feature", "properties": {"collection_times": [{"days": "Mon-Fri", "time": "3:10pm"}, {"days": "Sat", "time": "10:00am"}, {"days": "Sun", "time": "Closed"}], "id": "9883100001", "name": "USPS COLLECTION BOX - PO LOBBY", "address": {"city": "MANSON", "state": "WA", "street": "85 WAPATO WAY", "postcode": "98831"}}},
{"geometry": {"type": "Point", "coordinates": [-118.9850366314, 47.4072572039]}, "type": "Feature", "properties": {"collection_times": [{"days": "Mon-Fri", "time": "1:00pm"}, {"days": "Sat", "time": "10:00am"}, {"days": "Sun", "time": "Closed"}], "id": "9883200000", "name": "USPS COLLECTION BOX - BLUE BOX", "address": {"city": "MARLIN", "state": "WA", "street": "174 N URQUHART AVE", "postcode": "98832"}}},
{"geometry": {"type": "Point", "coordinates": [-118.9850366314, 47.4072572039]}, "type": "Feature", "properties": {"collection_times": [{"days": "Mon-Fri", "time": "1:00pm"}, {"days": "Sat", "time": "10:00am"}, {"days": "Sun", "time": "Closed"}], "id": "9883200001", "name": "USPS COLLECTION BOX - PO LOBBY", "address": {"city": "MARLIN", "state": "WA", "street": "174 N URQUHART AVE", "postcode": "98832"}}},
{"geometry": {"type": "Point", "coordinates": [-120.0031149404, 48.1270818046]}, "type": "Feature", "properties": {"collection_times": [{"days": "Mon-Fri", "time": "1:25pm"}, {"days": "Sat", "time": "10:00am"}, {"days": "Sun", "time": "Closed"}], "id": "9883400001", "name": "USPS COLLECTION BOX - PO LOBBY", "address": {"city": "METHOW", "state": "WA", "street": "34 MAIN ST", "postcode": "98834"}}},
{"geometry": {"type": "Point", "coordinates": [-120.0031149404, 48.1270818046]}, "type": "Feature", "properties": {"collection_times": [{"days": "Mon-Fri", "time": "1:25pm"}, {"days": "Sat", "time": "10:00am"}, {"days": "Sun", "time": "Closed"}], "id": "9883400002", "name": "USPS COLLECTION BOX - PO LOBBY", "address": {"city": "METHOW", "state": "WA", "street": "34 MAIN ST", "postcode": "98834"}}},
{"geometry": {"type": "Point", "coordinates": [-120.4162133955, 47.4871013134]}, "type": "Feature", "properties": {"collection_times": [{"days": "Mon-Fri", "time": "3:00pm"}, {"days": "Sat", "time": "8:30am"}, {"days": "Sun", "time": "Closed"}], "id": "9883600000", "name": "USPS COLLECTION BOX - BLUE BOX", "address": {"city": "MONITOR", "state": "WA", "street": "3160 MAIN ST", "postcode": "98836"}}},
{"geometry": {"type": "Point", "coordinates": [-120.4162133955, 47.4871013134]}, "type": "Feature", "properties": {"collection_times": [{"days": "Mon-Fri", "time": "3:00pm"}, {"days": "Sat", "time": "8:30am"}, {"days": "Sun", "time": "Closed"}], "id": "9883600001", "name": "USPS COLLECTION BOX - PO LOBBY", "address": {"city": "MONITOR", "state": "WA", "street": "3160 MAIN ST", "postcode": "98836"}}},
{"geometry": {"type": "Point", "coordinates": [-119.2795521553, 47.1293787937]}, "type": "Feature", "properties": {"collection_times": [{"days": "Mon-Fri", "time": "5:00pm"}, {"days": "Sat", "time": "4:00pm"}, {"days": "Sun", "time": "Closed"}], "id": "9883700000", "name": "USPS COLLECTION BOX - BLUE BOX", "address": {"city": "MOSES LAKE", "state": "WA", "street": "223 W 3RD AVE", "postcode": "98837"}}},
{"geometry": {"type": "Point", "coordinates": [-119.286501624, 47.1258986669]}, "type": "Feature", "properties": {"collection_times": [{"days": "Mon-Fri", "time": "3:29pm"}, {"days": "Sat", "time": "3:00pm"}, {"days": "Sun", "time": "Closed"}], "id": "9883700006", "name": "USPS COLLECTION BOX - BLUE BOX", "address": {"city": "MOSES LAKE", "state": "WA", "street": "801 W 3RD AVE", "postcode": "98837"}}},
{"geometry": {"type": "Point", "coordinates": [-119.2617602966, 47.1146297572]}, "type": "Feature", "properties": {"collection_times": [{"days": "Mon-Fri", "time": "3:30pm"}, {"days": "Sat", "time": "3:00pm"}, {"days": "Sun", "time": "Closed"}], "id": "9883700008", "name": "USPS COLLECTION BOX - BLUE BOX", "address": {"city": "MOSES LAKE", "state": "WA", "street": "1400 S PIONEER WAY", "postcode": "98837"}}},
{"geometry": {"type": "Point", "coordinates": [-119.2928484807, 47.1332068704]}, "type": "Feature", "properties": {"collection_times": [{"days": "Mon-Fri", "time": "3:30pm"}, {"days": "Sat", "time": "3:00pm"}, {"days": "Sun", "time": "Closed"}], "id": "9883700010", "name": "USPS COLLECTION BOX - BLUE BOX", "address": {"city": "MOSES LAKE", "state": "WA", "street": "321 S BALSAM ST", "postcode": "98837"}}},
{"geometry": {"type": "Point", "coordinates": [-119.2928484807, 47.1332068704]}, "type": "Feature", "properties": {"collection_times": [{"days": "Mon-Fri", "time": "3:30pm"}, {"days": "Sat", "time": "3:00pm"}, {"days": "Sun", "time": "Closed"}], "id": "9883700012", "name": "USPS COLLECTION BOX - BLUE BOX", "address": {"city": "MOSES LAKE", "state": "WA", "street": "900 S JUNIPER DR", "postcode": "98837"}}},
{"geometry": {"type": "Point", "coordinates": [-119.3128995855, 47.1035283399]}, "type": "Feature", "properties": {"collection_times": [{"days": "Mon-Fri", "time": "3:30pm"}, {"days": "Sat", "time": "3:00pm"}, {"days": "Sun", "time": "Closed"}], "id": "9883700013", "name": "USPS COLLECTION BOX - BLUE BOX", "address": {"city": "MOSES LAKE", "state": "WA", "street": "2908 W BROADWAY AVE", "postcode": "98837"}}},
{"geometry": {"type": "Point", "coordinates": [-119.3238007425, 47.1609677827]}, "type": "Feature", "properties": {"collection_times": [{"days": "Mon-Fri", "time": "3:30pm"}, {"days": "Sat", "time": "3:00pm"}, {"days": "Sun", "time": "Closed"}], "id": "9883700017", "name": "USPS COLLECTION BOX - BLUE BOX", "address": {"city": "MOSES LAKE", "state": "WA", "street": "5053 AIRWAY DR NE", "postcode": "98837"}}},
{"geometry": {"type": "Point", "coordinates": [-119.2784481378, 47.1386723783]}, "type": "Feature", "properties": {"collection_times": [{"days": "Mon-Fri", "time": "3:30pm"}, {"days": "Sat", "time": "3:00pm"}, {"days": "Sun", "time": "Closed"}], "id": "9883700018", "name": "USPS COLLECTION BOX - BLUE BOX", "address": {"city": "MOSES LAKE", "state": "WA", "street": "711 N STRATFORD RD", "postcode": "98837"}}},
{"geometry": {"type": "Point", "coordinates": [-119.2795521553, 47.1293787937]}, "type": "Feature", "properties": {"collection_times": [{"days": "Mon-Fri", "time": "5:00pm"}, {"days": "Sat", "time": "4:00pm"}, {"days": "Sun", "time": "Closed"}], "id": "9883700019", "name": "USPS COLLECTION BOX - PO LOBBY", "address": {"city": "MOSES LAKE", "state": "WA", "street": "223 W 3RD AVE", "postcode": "98837"}}},
{"geometry": {"type": "Point", "coordinates": [-119.2795521553, 47.1293787937]}, "type": "Feature", "properties": {"collection_times": [{"days": "Mon-Fri", "time": "5:00pm"}, {"days": "Sat", "time": "4:00pm"}, {"days": "Sun", "time": "Closed"}], "id": "9883700020", "name": "USPS COLLECTION BOX - PO LOBBY", "address": {"city": "MOSES LAKE", "state": "WA", "street": "223 W 3RD AVE", "postcode": "98837"}}},
{"geometry": {"type": "Point", "coordinates": [-119.5802302054, 48.364348509]}, "type": "Feature", "properties": {"collection_times": [{"days": "Mon-Fri", "time": "2:20pm"}, {"days": "Sat", "time": "1:00pm"}, {"days": "Sun", "time": "Closed"}], "id": "9884000000", "name": "USPS COLLECTION BOX - BLUE BOX", "address": {"city": "OKANOGAN", "state": "WA", "street": "212 2ND AVE N", "postcode": "98840"}}},
{"geometry": {"type": "Point", "coordinates": [-119.5802302054, 48.364348509]}, "type": "Feature", "properties": {"collection_times": [{"days": "Mon-Fri", "time": "2:20pm"}, {"days": "Sat", "time": "1:00pm"}, {"days": "Sun", "time": "Closed"}], "id": "9884000002", "name": "USPS COLLECTION BOX - PO LOBBY", "address": {"city": "OKANOGAN", "state": "WA", "street": "212 2ND AVE N", "postcode": "98840"}}},
{"geometry": {"type": "Point", "coordinates": [-119.5802302054, 48.364348509]}, "type": "Feature", "properties": {"collection_times": [{"days": "Mon-Fri", "time": "2:20pm"}, {"days": "Sat", "time": "1:00pm"}, {"days": "Sun", "time": "Closed"}], "id": "9884000003", "name": "USPS COLLECTION BOX - PO LOBBY", "address": {"city": "OKANOGAN", "state": "WA", "street": "212 2ND AVE N", "postcode": "98840"}}},
{"geometry": {"type": "Point", "coordinates": [-119.5285584063, 48.409491665]}, "type": "Feature", "properties": {"collection_times": [{"days": "Mon-Sat", "time": "2:50pm"}, {"days": "Sun", "time": "Closed"}], "id": "9884100001", "name": "USPS COLLECTION BOX - BLUE BOX", "address": {"city": "OMAK", "state": "WA", "street": "104 S MAIN ST", "postcode": "98841"}}},
{"geometry": {"type": "Point", "coordinates": [-119.5285584063, 48.409491665]}, "type": "Feature", "properties": {"collection_times": [{"days": "Mon-Sat", "time": "2:50pm"}, {"days": "Sun", "time": "Closed"}], "id": "9884100002", "name": "USPS COLLECTION BOX - BLUE BOX", "address": {"city": "OMAK", "state": "WA", "street": "104 S MAIN ST", "postcode": "98841"}}},
{"geometry": {"type": "Point", "coordinates": [-119.5285584063, 48.409491665]}, "type": "Feature", "properties": {"collection_times": [{"days": "Mon-Sat", "time": "2:50pm"}, {"days": "Sun", "time": "Closed"}], "id": "9884100005", "name": "USPS COLLECTION BOX - PO LOBBY", "address": {"city": "OMAK", "state": "WA", "street": "104 S MAIN ST", "postcode": "98841"}}},
{"geometry": {"type": "Point", "coordinates": [-119.5285584063, 48.409491665]}, "type": "Feature", "properties": {"collection_times": [{"days": "Mon-Sat", "time": "2:50pm"}, {"days": "Sun", "time": "Closed"}], "id": "9884100006", "name": "USPS COLLECTION BOX - PO LOBBY", "address": {"city": "OMAK", "state": "WA", "street": "104 S MAIN ST", "postcode": "98841"}}},
{"geometry": {"type": "Point", "coordinates": [-120.2318242532, 47.5900028477]}, "type": "Feature", "properties": {"collection_times": [{"days": "Mon-Fri", "time": "2:40pm"}, {"days": "Sat", "time": "10:30am"}, {"days": "Sun", "time": "Closed"}], "id": "9884300001", "name": "USPS COLLECTION BOX - BLUE BOX", "address": {"city": "ORONDO", "state": "WA", "street": "14003 STATE ROUTE 2", "postcode": "98843"}}},
{"geometry": {"type": "Point", "coordinates": [-120.2318242532, 47.5900028477]}, "type": "Feature", "properties": {"collection_times": [{"days": "Mon-Fri", "time": "2:40pm"}, {"days": "Sat", "time": "10:30am"}, {"days": "Sun", "time": "Closed"}], "id": "9884300002", "name": "USPS COLLECTION BOX - PO LOBBY", "address": {"city": "ORONDO", "state": "WA", "street": "14003 STATE ROUTE 2", "postcode": "98843"}}},
{"geometry": {"type": "Point", "coordinates": [-119.438496289, 48.936361947]}, "type": "Feature", "properties": {"collection_times": [{"days": "Mon-Fri", "time": "1:30pm"}, {"days": "Sat", "time": "11:30am"}, {"days": "Sun", "time": "Closed"}], "id": "9884400000", "name": "USPS COLLECTION BOX - BLUE BOX", "address": {"city": "OROVILLE", "state": "WA", "street": "1234 IRONWOOD ST", "postcode": "98844"}}},
{"geometry": {"type": "Point", "coordinates": [-119.438496289, 48.936361947]}, "type": "Feature", "properties": {"collection_times": [{"days": "Mon-Fri", "time": "1:30pm"}, {"days": "Sat", "time": "11:30am"}, {"days": "Sun", "time": "Closed"}], "id": "9884400002", "name": "USPS COLLECTION BOX - PO LOBBY", "address": {"city": "OROVILLE", "state": "WA", "street": "1234 IRONWOOD ST", "postcode": "98844"}}},
{"geometry": {"type": "Point", "coordinates": [-119.438496289, 48.936361947]}, "type": "Feature", "properties": {"collection_times": [{"days": "Mon-Fri", "time": "1:30pm"}, {"days": "Sat", "time": "11:30am"}, {"days": "Sun", "time": "Closed"}], "id": "9884400004", "name": "USPS COLLECTION BOX - PO LOBBY", "address": {"city": "OROVILLE", "state": "WA", "street": "1234 IRONWOOD ST", "postcode": "98844"}}},
{"geometry": {"type": "Point", "coordinates": [-119.9012256334, 48.0532704362]}, "type": "Feature", "properties": {"collection_times": [{"days": "Mon-Fri", "time": "1:40pm"}, {"days": "Sat", "time": "9:30am"}, {"days": "Sun", "time": "Closed"}], "id": "9884600001", "name": "USPS COLLECTION BOX - BLUE BOX", "address": {"city": "PATEROS", "state": "WA", "street": "170 PATEROS MALL", "postcode": "98846"}}},
{"geometry": {"type": "Point", "coordinates": [-119.9554144547, 48.0968596172]}, "type": "Feature", "properties": {"collection_times": [{"days": "Mon-Fri", "time": "1:40pm"}, {"days": "Sat", "time": "9:30am"}, {"days": "Sun", "time": "Closed"}], "id": "9884600002", "name": "USPS COLLECTION BOX - PO LOBBY", "address": {"city": "PATEROS", "state": "WA", "street": "170 PATEROS MALL", "postcode": "98846"}}},
{"geometry": {"type": "Point", "coordinates": [-120.607352832, 47.574418476]}, "type": "Feature", "properties": {"collection_times": [{"days": "Mon-Fri", "time": "2:15pm"}, {"days": "Sat", "time": "10:00am"}, {"days": "Sun", "time": "Closed"}], "id": "9884700000", "name": "USPS COLLECTION BOX - BLUE BOX", "address": {"city": "PESHASTIN", "state": "WA", "street": "10168 MAIN ST", "postcode": "98847"}}},
{"geometry": {"type": "Point", "coordinates": [-120.607352832, 47.574418476]}, "type": "Feature", "properties": {"collection_times": [{"days": "Mon-Fri", "time": "2:25pm"}, {"days": "Sat", "time": "10:00am"}, {"days": "Sun", "time": "Closed"}], "id": "9884700002", "name": "USPS COLLECTION BOX - PO LOBBY", "address": {"city": "PESHASTIN", "state": "WA", "street": "10168 MAIN ST", "postcode": "98847"}}},
{"geometry": {"type": "Point", "coordinates": [-119.8536626106, 47.2352150019]}, "type": "Feature", "properties": {"collection_times": [{"days": "Mon-Fri", "time": "3:35pm"}, {"days": "Sat", "time": "3:30pm"}, {"days": "Sun", "time": "Closed"}], "id": "9884800000", "name": "USPS COLLECTION BOX - PO LOBBY", "address": {"city": "QUINCY", "state": "WA", "street": "20 C ST SW", "postcode": "98848"}}},
{"geometry": {"type": "Point", "coordinates": [-119.5053424136, 48.4988612445]}, "type": "Feature", "properties": {"collection_times": [{"days": "Mon-Fri", "time": "2:35pm"}, {"days": "Sat", "time": "10:00am"}, {"days": "Sun", "time": "Closed"}], "id": "9884900000", "name": "USPS COLLECTION BOX - BLUE BOX", "address": {"city": "RIVERSIDE", "state": "WA", "street": "407 KENDALL ST", "postcode": "98849"}}},
{"geometry": {"type": "Point", "coordinates": [-119.5053424136, 48.4988612445]}, "type": "Feature", "properties": {"collection_times": [{"days": "Mon-Fri", "time": "2:35pm"}, {"days": "Sat", "time": "10:00am"}, {"days": "Sun", "time": "Closed"}], "id": "9884900001", "name": "USPS COLLECTION BOX - PO LOBBY", "address": {"city": "RIVERSIDE", "state": "WA", "street": "407 KENDALL ST", "postcode": "98849"}}},
{"geometry": {"type": "Point", "coordinates": [-119.5053424136, 48.4988612445]}, "type": "Feature", "properties": {"collection_times": [{"days": "Mon-Fri", "time": "2:35pm"}, {"days": "Sat", "time": "10:00am"}, {"days": "Sun", "time": "Closed"}], "id": "9884900002", "name": "USPS COLLECTION BOX - PO LOBBY", "address": {"city": "RIVERSIDE", "state": "WA", "street": "407 KENDALL ST", "postcode": "98849"}}},
{"geometry": {"type": "Point", "coordinates": [-120.1437190337, 47.3752979583]}, "type": "Feature", "properties": {"collection_times": [{"days": "Mon-Fri", "time": "4:05pm"}, {"days": "Sat", "time": "9:00am"}, {"days": "Sun", "time": "Closed"}], "id": "9885000000", "name": "USPS COLLECTION BOX - BLUE BOX", "address": {"city": "ROCK ISLAND", "state": "WA", "street": "224 ROCK ISLAND DR", "postcode": "98850"}}},
{"geometry": {"type": "Point", "coordinates": [-120.1437190337, 47.3752979583]}, "type": "Feature", "properties": {"collection_times": [{"days": "Mon-Fri", "time": "4:05pm"}, {"days": "Sat", "time": "9:00am"}, {"days": "Sun", "time": "Closed"}], "id": "9885000002", "name": "USPS COLLECTION BOX - PO LOBBY", "address": {"city": "ROCK ISLAND", "state": "WA", "street": "224 ROCK ISLAND DR", "postcode": "98850"}}},
{"geometry": {"type": "Point", "coordinates": [-119.4905492732, 47.3844701101]}, "type": "Feature", "properties": {"collection_times": [{"days": "Mon-Fri", "time": "2:40pm"}, {"days": "Sat", "time": "10:00am"}, {"days": "Sun", "time": "Closed"}], "id": "9885100000", "name": "USPS COLLECTION BOX - BLUE BOX", "address": {"city": "SOAP LAKE", "state": "WA", "street": "511 S DIVISION ST", "postcode": "98851"}}},
{"geometry": {"type": "Point", "coordinates": [-119.4905492732, 47.3844701101]}, "type": "Feature", "properties": {"collection_times": [{"days": "Mon-Fri", "time": "2:40pm"}, {"days": "Sat", "time": "10:00am"}, {"days": "Sun", "time": "Closed"}], "id": "9885100001", "name": "USPS COLLECTION BOX - PO LOBBY", "address": {"city": "SOAP LAKE", "state": "WA", "street": "511 S DIVISION ST", "postcode": "98851"}}},
{"geometry": {"type": "Point", "coordinates": [-119.2798141319, 47.426197943]}, "type": "Feature", "properties": {"collection_times": [{"days": "Mon-Sat", "time": "11:00am"}, {"days": "Sun", "time": "Closed"}], "id": "9885300000", "name": "USPS COLLECTION BOX - PO LOBBY", "address": {"city": "STRATFORD", "state": "WA", "street": "9800 ROAD 23 NE", "postcode": "98853"}}},
{"geometry": {"type": "Point", "coordinates": [-119.2798141319, 47.426197943]}, "type": "Feature", "properties": {"collection_times": [{"days": "Mon-Sat", "time": "11:00am"}, {"days": "Sun", "time": "Closed"}], "id": "9885300001", "name": "USPS COLLECTION BOX - BLUE BOX", "address": {"city": "STRATFORD", "state": "WA", "street": "9800 ROAD 23 NE", "postcode": "98853"}}},
{"geometry": {"type": "Point", "coordinates": [-119.2966286355, 48.7028183823]}, "type": "Feature", "properties": {"collection_times": [{"days": "Mon-Fri", "time": "2:00pm"}, {"days": "Sat", "time": "11:00am"}, {"days": "Sun", "time": "Closed"}], "id": "9885500001", "name": "USPS COLLECTION BOX - BLUE BOX", "address": {"city": "TONASKET", "state": "WA", "street": "15 W 5TH ST", "postcode": "98855"}}},
{"geometry": {"type": "Point", "coordinates": [-119.2966286355, 48.7028183823]}, "type": "Feature", "properties": {"collection_times": [{"days": "Mon-Fri", "time": "2:00pm"}, {"days": "Sat", "time": "11:00am"}, {"days": "Sun", "time": "Closed"}], "id": "9885500002", "name": "USPS COLLECTION BOX - PO LOBBY", "address": {"city": "TONASKET", "state": "WA", "street": "15 W 5TH ST", "postcode": "98855"}}},
{"geometry": {"type": "Point", "coordinates": [-120.1212873961, 48.3666740453]}, "type": "Feature", "properties": {"collection_times": [{"days": "Mon-Fri", "time": "12:40pm"}, {"days": "Sat", "time": "11:00am"}, {"days": "Sun", "time": "Closed"}], "id": "9885600000", "name": "USPS COLLECTION BOX - BLUE BOX", "address": {"city": "TWISP", "state": "WA", "street": "205 GLOVER ST", "postcode": "98856"}}},
{"geometry": {"type": "Point", "coordinates": [-120.1212873961, 48.3666740453]}, "type": "Feature", "properties": {"collection_times": [{"days": "Mon-Fri", "time": "12:40pm"}, {"days": "Sat", "time": "11:00am"}, {"days": "Sun", "time": "Closed"}], "id": "9885600002", "name": "USPS COLLECTION BOX - PO LOBBY", "address": {"city": "TWISP", "state": "WA", "street": "205 GLOVER ST", "postcode": "98856"}}},
{"geometry": {"type": "Point", "coordinates": [-120.1212873961, 48.3666740453]}, "type": "Feature", "properties": {"collection_times": [{"days": "Mon-Fri", "time": "12:40pm"}, {"days": "Sat", "time": "11:00am"}, {"days": "Sun", "time": "Closed"}], "id": "9885600003", "name": "USPS COLLECTION BOX - PO LOBBY", "address": {"city": "TWISP", "state": "WA", "street": "205 GLOVER ST", "postcode": "98856"}}},
{"geometry": {"type": "Point", "coordinates": [-119.0389918279, 46.9696216675]}, "type": "Feature", "properties": {"collection_times": [{"days": "Mon-Fri", "time": "12:00pm"}, {"days": "Sat", "time": "10:00am"}, {"days": "Sun", "time": "Closed"}], "id": "9885700000", "name": "USPS COLLECTION BOX - BLUE BOX", "address": {"city": "WARDEN", "state": "WA", "street": "201 E 1ST ST", "postcode": "98857"}}},
{"geometry": {"type": "Point", "coordinates": [-119.0389918279, 46.9696216675]}, "type": "Feature", "properties": {"collection_times": [{"days": "Mon-Fri", "time": "12:00pm"}, {"days": "Sat", "time": "10:00am"}, {"days": "Sun", "time": "Closed"}], "id": "9885700002", "name": "USPS COLLECTION BOX - PO LOBBY", "address": {"city": "WARDEN", "state": "WA", "street": "201 E 1ST ST", "postcode": "98857"}}},
{"geometry": {"type": "Point", "coordinates": [-120.0703892676, 47.6473674067]}, "type": "Feature", "properties": {"collection_times": [{"days": "Mon-Fri", "time": "2:10pm"}, {"days": "Sat", "time": "9:00am"}, {"days": "Sun", "time": "Closed"}], "id": "9885800000", "name": "USPS COLLECTION BOX - BLUE BOX", "address": {"city": "WATERVILLE", "state": "WA", "street": "113 E LOCUST ST", "postcode": "98858"}}},
{"geometry": {"type": "Point", "coordinates": [-120.070389068, 47.6473664489]}, "type": "Feature", "properties": {"collection_times": [{"days": "Mon-Fri", "time": "4:00pm"}, {"days": "Sat", "time": "9:00am"}, {"days": "Sun", "time": "Closed"}], "id": "9885800001", "name": "USPS COLLECTION BOX - PO LOBBY", "address": {"city": "WATERVILLE", "state": "WA", "street": "113 E LOCUST ST", "postcode": "98858"}}},
{"geometry": {"type": "Point", "coordinates": [-120.070389068, 47.6473664489]}, "type": "Feature", "properties": {"collection_times": [{"days": "Mon-Fri", "time": "4:00pm"}, {"days": "Sat", "time": "9:00am"}, {"days": "Sun", "time": "Closed"}], "id": "9885800002", "name": "USPS COLLECTION BOX - PO LOBBY", "address": {"city": "WATERVILLE", "state": "WA", "street": "113 E LOCUST ST", "postcode": "98858"}}},
{"geometry": {"type": "Point", "coordinates": [-119.0596694296, 48.7188814645]}, "type": "Feature", "properties": {"collection_times": [{"days": "Mon-Fri", "time": "1:00pm"}, {"days": "Sat", "time": "12:30pm"}, {"days": "Sun", "time": "Closed"}], "id": "9885900000", "name": "USPS COLLECTION BOX - BLUE BOX", "address": {"city": "WAUCONDA", "state": "WA", "street": "2360 HIGHWAY 20", "postcode": "98859"}}},
{"geometry": {"type": "Point", "coordinates": [-119.0596694296, 48.7188814645]}, "type": "Feature", "properties": {"collection_times": [{"days": "Mon-Fri", "time": "1:00pm"}, {"days": "Sat", "time": "12:30pm"}, {"days": "Sun", "time": "Closed"}], "id": "9885900001", "name": "USPS COLLECTION BOX - PO LOBBY", "address": {"city": "WAUCONDA", "state": "WA", "street": "2360 HIGHWAY 20", "postcode": "98859"}}},
{"geometry": {"type": "Point", "coordinates": [-119.1246185958, 47.4221905716]}, "type": "Feature", "properties": {"collection_times": [{"days": "Mon-Fri", "time": "2:05pm"}, {"days": "Sat", "time": "8:30am"}, {"days": "Sun", "time": "Closed"}], "id": "9886000000", "name": "USPS COLLECTION BOX - BLUE BOX", "address": {"city": "WILSON CREEK", "state": "WA", "street": "223 RAILROAD ST", "postcode": "98860"}}},
{"geometry": {"type": "Point", "coordinates": [-119.1246185958, 47.4221905716]}, "type": "Feature", "properties": {"collection_times": [{"days": "Mon-Fri", "time": "2:05pm"}, {"days": "Sat", "time": "8:30am"}, {"days": "Sun", "time": "Closed"}], "id": "9886000001", "name": "USPS COLLECTION BOX - PO LOBBY", "address": {"city": "WILSON CREEK", "state": "WA", "street": "223 RAILROAD ST", "postcode": "98860"}}},
{"geometry": {"type": "Point", "coordinates": [-119.1246185958, 47.4221905716]}, "type": "Feature", "properties": {"collection_times": [{"days": "Mon-Fri", "time": "2:05pm"}, {"days": "Sat", "time": "8:30am"}, {"days": "Sun", "time": "Closed"}], "id": "9886000002", "name": "USPS COLLECTION BOX - PO LOBBY", "address": {"city": "WILSON CREEK", "state": "WA", "street": "223 RAILROAD ST", "postcode": "98860"}}},
{"geometry": {"type": "Point", "coordinates": [-120.1325977121, 48.5162313085]}, "type": "Feature", "properties": {"collection_times": [{"days": "Mon-Fri", "time": "12:30pm"}, {"days": "Sat", "time": "11:30am"}, {"days": "Sun", "time": "Closed"}], "id": "9886200000", "name": "USPS COLLECTION BOX - BLUE BOX", "address": {"city": "WINTHROP", "state": "WA", "street": "1110 STATE ROUTE 20", "postcode": "98862"}}},
{"geometry": {"type": "Point", "coordinates": [-120.1325977121, 48.5162313085]}, "type": "Feature", "properties": {"collection_times": [{"days": "Mon-Fri", "time": "12:30pm"}, {"days": "Sat", "time": "11:30am"}, {"days": "Sun", "time": "Closed"}], "id": "9886200001", "name": "USPS COLLECTION BOX - PO LOBBY", "address": {"city": "WINTHROP", "state": "WA", "street": "1110 STATE ROUTE 20", "postcode": "98862"}}},
{"geometry": {"type": "Point", "coordinates": [-120.1862493612, 48.4792290685]}, "type": "Feature", "properties": {"collection_times": [{"days": "Mon-Fri", "time": "12:30pm"}, {"days": "Sat-Sun", "time": "Closed"}], "id": "9886200003", "name": "USPS COLLECTION BOX - BLUE BOX", "address": {"city": "WINTHROP", "state": "WA", "street": "206 RIVERSIDE AVE", "postcode": "98862"}}},
{"geometry": {"type": "Point", "coordinates": [-120.1325977121, 48.5162313085]}, "type": "Feature", "properties": {"collection_times": [{"days": "Mon-Fri", "time": "12:30pm"}, {"days": "Sat", "time": "11:30am"}, {"days": "Sun", "time": "Closed"}], "id": "9886200005", "name": "USPS COLLECTION BOX - PO LOBBY", "address": {"city": "WINTHROP", "state": "WA", "street": "1110 STATE ROUTE 20", "postcode": "98862"}}}
]}
