{"type": "FeatureCollection", "features": [
{"geometry": {"type": "Point", "coordinates": [-120.50222058, 46.601737256]}, "type": "Feature", "properties": {"collection_times": [{"days": "Mon-Sat", "time": "5:00pm"}, {"days": "Sun", "time": "Closed"}], "id": "9890100001", "name": "USPS COLLECTION BOX - BLUE BOX", "address": {"city": "YAKIMA", "state": "WA", "street": "311 E CHESTNUT AVE", "postcode": "98901"}}},
{"geometry": {"type": "Point", "coordinates": [-120.5023276532, 46.6017366554]}, "type": "Feature", "properties": {"collection_times": [{"days": "Mon-Sat", "time": "5:00pm"}, {"days": "Sun", "time": "Closed"}], "id": "9890100003", "name": "USPS COLLECTION BOX - BLUE BOX", "address": {"city": "YAKIMA", "state": "WA", "street": "311 E CHESTNUT AVE", "postcode": "98901"}}},
{"geometry": {"type": "Point", "coordinates": [-120.5057630884, 46.6022489696]}, "type": "Feature", "properties": {"collection_times": [{"days": "Mon-Fri", "time": "2:00pm"}, {"days": "Sat", "time": "5:00pm"}, {"days": "Sun", "time": "Closed"}], "id": "9890100005", "name": "USPS COLLECTION BOX - BLUE BOX", "address": {"city": "YAKIMA", "state": "WA", "street": "118 E YAKIMA AVE", "postcode": "98901"}}},
{"geometry": {"type": "Point", "coordinates": [-120.50318721, 46.5998488532]}, "type": "Feature", "properties": {"collection_times": [{"days": "Mon-Fri", "time": "2:30pm"}, {"days": "Sat", "time": "1:45pm"}, {"days": "Sun", "time": "Closed"}], "id": "9890100009", "name": "USPS COLLECTION BOX - BLUE BOX", "address": {"city": "YAKIMA", "state": "WA", "street": "215 S 2ND ST", "postcode": "98901"}}},
{"geometry": {"type": "Point", "coordinates": [-120.4998904463, 46.5965095242]}, "type": "Feature", "properties": {"collection_times": [{"days": "Mon-Fri", "time": "2:30pm"}, {"days": "Sat", "time": "1:45pm"}, {"days": "Sun", "time": "Closed"}], "id": "9890100010", "name": "USPS COLLECTION BOX - BLUE BOX", "address": {"city": "YAKIMA", "state": "WA", "street": "511 S 3RD ST", "postcode": "98901"}}},
{"geometry": {"type": "Point", "coordinates": [-120.5014727797, 46.6032228707]}, "type": "Feature", "properties": {"collection_times": [{"days": "Mon-Fri", "time": "2:30pm"}, {"days": "Sat", "time": "5:00pm"}, {"days": "Sun", "time": "Closed"}], "id": "9890100011", "name": "USPS COLLECTION BOX - BLUE BOX", "address": {"city": "YAKIMA", "state": "WA", "street": "3 S 4TH ST", "postcode": "98901"}}},
{"geometry": {"type": "Point", "coordinates": [-120.5039621542, 46.6054514236]}, "type": "Feature", "properties": {"collection_times": [{"days": "Mon-Fri", "time": "2:00pm"}, {"days": "Sat", "time": "2:15pm"}, {"days": "Sun", "time": "Closed"}], "id": "9890100013", "name": "USPS COLLECTION BOX - BLUE BOX", "address": {"city": "YAKIMA", "state": "WA", "street": "318 E B ST", "postcode": "98901"}}},
{"geometry": {"type": "Point", "coordinates": [-120.5063027183, 46.6064064872]}, "type": "Feature", "properties": {"collection_times": [{"days": "Mon-Sat", "time": "4:30pm"}, {"days": "Sun", "time": "Closed"}], "id": "9890100016", "name": "USPS COLLECTION BOX - BLUE BOX", "address": {"city": "YAKIMA", "state": "WA", "street": "207 E LINCOLN AVE", "postcode": "98901"}}},
{"geometry": {"type": "Point", "coordinates": [-120.5032292808, 46.6070135383]}, "type": "Feature", "properties": {"collection_times": [{"days": "Mon-Sat", "time": "4:30pm"}, {"days": "Sun", "time": "Closed"}], "id": "9890100019", "name": "USPS COLLECTION BOX - BLUE BOX", "address": {"city": "YAKIMA", "state": "WA", "street": "406 E LINCOLN AVE", "postcode": "98901"}}},
{"geometry": {"type": "Point", "coordinates": [-120.5068563149, 46.6036285077]}, "type": "Feature", "properties": {"collection_times": [{"days": "Mon-Sat", "time": "4:30pm"}, {"days": "Sun", "time": "Closed"}], "id": "9890100024", "name": "USPS COLLECTION BOX - BLUE BOX", "address": {"city": "YAKIMA", "state": "WA", "street": "110 N 1ST ST", "postcode": "98901"}}},
{"geometry": {"type": "Point", "coordinates": [-120.5085257656, 46.6073979983]}, "type": "Feature", "properties": {"collection_times": [{"days": "Mon-Fri", "time": "4:15pm"}, {"days": "Sat", "time": "4:30pm"}, {"days": "Sun", "time": "Closed"}], "id": "9890100026", "name": "USPS COLLECTION BOX - BLUE BOX", "address": {"city": "YAKIMA", "state": "WA", "street": "411 N 1ST ST", "postcode": "98901"}}},
{"geometry": {"type": "Point", "coordinates": [-120.50546355, 46.6041882077]}, "type": "Feature", "properties": {"collection_times": [{"days": "Mon-Fri", "time": "4:30pm"}, {"days": "Sat", "time": "2:15pm"}, {"days": "Sun", "time": "Closed"}], "id": "9890100028", "name": "USPS COLLECTION BOX - BLUE BOX", "address": {"city": "YAKIMA", "state": "WA", "street": "128 N 2ND ST", "postcode": "98901"}}},
{"geometry": {"type": "Point", "coordinates": [-120.5053118366, 46.6042222354]}, "type": "Feature", "properties": {"collection_times": [{"days": "Mon-Fri", "time": "3:45pm"}, {"days": "Sat", "time": "2:15pm"}, {"days": "Sun", "time": "Closed"}], "id": "9890100030", "name": "USPS COLLECTION BOX - BLUE BOX", "address": {"city": "YAKIMA", "state": "WA", "street": "129 N 2ND ST", "postcode": "98901"}}},
{"geometry": {"type": "Point", "coordinates": [-120.5069495385, 46.6076355043]}, "type": "Feature", "properties": {"collection_times": [{"days": "Mon-Fri", "time": "4:00pm"}, {"days": "Sat", "time": "4:30pm"}, {"days": "Sun", "time": "Closed"}], "id": "9890100031", "name": "USPS COLLECTION BOX - BLUE BOX", "address": {"city": "YAKIMA", "state": "WA", "street": "401 N 2ND ST", "postcode": "98901"}}},
{"geometry": {"type": "Point", "coordinates": [-120.5033293307, 46.6033117111]}, "type": "Feature", "properties": {"collection_times": [{"days": "Mon-Fri", "time": "3:45pm"}, {"days": "Sat", "time": "2:15pm"}, {"days": "Sun", "time": "Closed"}], "id": "9890100035", "name": "USPS COLLECTION BOX - BLUE BOX", "address": {"city": "YAKIMA", "state": "WA", "street": "32 N 3RD ST", "postcode": "98901"}}},
{"geometry": {"type": "Point", "coordinates": [-120.4940332931, 46.6051424542]}, "type": "Feature", "properties": {"collection_times": [{"days": "Mon-Fri", "time": "2:00pm"}, {"days": "Sat", "time": "4:30pm"}, {"days": "Sun", "time": "Closed"}], "id": "9890100037", "name": "USPS COLLECTION BOX - BLUE BOX", "address": {"city": "YAKIMA", "state": "WA", "street": "9 N 9TH ST", "postcode": "98901"}}},
{"geometry": {"type": "Point", "coordinates": [-120.5024784084, 46.601440616]}, "type": "Feature", "properties": {"collection_times": [{"days": "Mon-Fri", "time": "5:15pm"}, {"days": "Sat", "time": "5:30pm"}, {"days": "Sun", "time": "Closed"}], "id": "9890100038", "name": "USPS COLLECTION BOX - PO LOBBY", "address": {"city": "YAKIMA", "state": "WA", "street": "112 S 3RD ST", "postcode": "98901"}}},
{"geometry": {"type": "Point", "coordinates": [-120.4457026725, 46.6063405222]}, "type": "Feature", "properties": {"collection_times": [{"days": "Mon-Sat", "time": "1:30pm"}, {"days": "Sun", "time": "Closed"}], "id": "9890100045", "name": "USPS COLLECTION BOX - BLUE BOX", "address": {"city": "YAKIMA", "state": "WA", "street": "4104 TERRACE HEIGHTS DR", "postcode": "98901"}}},
{"geometry": {"type": "Point", "coordinates": [-120.5024784084, 46.601440616]}, "type": "Feature", "properties": {"collection_times": [{"days": "Mon-Fri", "time": "5:15pm"}, {"days": "Sat", "time": "5:30pm"}, {"days": "Sun", "time": "Closed"}], "id": "9890100047", "name": "USPS COLLECTION BOX - PO LOBBY", "address": {"city": "YAKIMA", "state": "WA", "street": "112 S 3RD ST", "postcode": "98901"}}},
{"geometry": {"type": "Point", "coordinates": [-120.4924334052, 46.5788550403]}, "type": "Feature", "properties": {"collection_times": [{"days": "Mon-Fri", "time": "2:30pm"}, {"days": "Sat", "time": "1:45pm"}, {"days": "Sun", "time": "Closed"}], "id": "9890100050", "name": "USPS COLLECTION BOX - BLUE BOX", "address": {"city": "YAKIMA", "state": "WA", "street": "1735 S 1ST ST", "postcode": "98901"}}},
{"geometry": {"type": "Point", "coordinates": [-120.5108102409, 46.5852982443]}, "type": "Feature", "properties": {"collection_times": [{"days": "Mon-Sat", "time": "5:15pm"}, {"days": "Sun", "time": "Closed"}], "id": "9890200000", "name": "USPS COLLECTION BOX - BLUE BOX", "address": {"city": "YAKIMA", "state": "WA", "street": "401 W NOB HILL BLVD", "postcode": "98902"}}},
{"geometry": {"type": "Point", "coordinates": [-120.5607056882, 46.5854680416]}, "type": "Feature", "properties": {"collection_times": [{"days": "Mon-Fri", "time": "4:00pm"}, {"days": "Sat", "time": "5:00pm"}, {"days": "Sun", "time": "Closed"}], "id": "9890200005", "name": "USPS COLLECTION BOX - BLUE BOX", "address": {"city": "YAKIMA", "state": "WA", "street": "3907 W NOB HILL BLVD", "postcode": "98902"}}},
{"geometry": {"type": "Point", "coordinates": [-120.5236371354, 46.5940293774]}, "type": "Feature", "properties": {"collection_times": [{"days": "Mon-Fri", "time": "3:45pm"}, {"days": "Sat", "time": "3:00pm"}, {"days": "Sun", "time": "Closed"}], "id": "9890200007", "name": "USPS COLLECTION BOX - BLUE BOX", "address": {"city": "YAKIMA", "state": "WA", "street": "1111 W SPRUCE ST", "postcode": "98902"}}},
{"geometry": {"type": "Point", "coordinates": [-120.5229043246, 46.5953177806]}, "type": "Feature", "properties": {"collection_times": [{"days": "Mon-Fri", "time": "3:45pm"}, {"days": "Sat", "time": "3:00pm"}, {"days": "Sun", "time": "Closed"}], "id": "9890200010", "name": "USPS COLLECTION BOX - BLUE BOX", "address": {"city": "YAKIMA", "state": "WA", "street": "215 S 11TH AVE", "postcode": "98902"}}},
{"geometry": {"type": "Point", "coordinates": [-120.5473994628, 46.592746291]}, "type": "Feature", "properties": {"collection_times": [{"days": "Mon-Fri", "time": "5:00pm"}, {"days": "Sat", "time": "4:00pm"}, {"days": "Sun", "time": "Closed"}], "id": "9890200011", "name": "USPS COLLECTION BOX - BLUE BOX", "address": {"city": "YAKIMA", "state": "WA", "street": "2811 TIETON DR", "postcode": "98902"}}},
{"geometry": {"type": "Point", "coordinates": [-120.5591433779, 46.5920229013]}, "type": "Feature", "properties": {"collection_times": [{"days": "Mon-Fri", "time": "5:00pm"}, {"days": "Sat", "time": "4:00pm"}, {"days": "Sun", "time": "Closed"}], "id": "9890200012", "name": "USPS COLLECTION BOX - BLUE BOX", "address": {"city": "YAKIMA", "state": "WA", "street": "613 S 38TH AVE", "postcode": "98902"}}},
{"geometry": {"type": "Point", "coordinates": [-120.5396160873, 46.5708581322]}, "type": "Feature", "properties": {"collection_times": [{"days": "Mon-Sat", "time": "9:00am"}, {"days": "Sun", "time": "Closed"}], "id": "9890200014", "name": "USPS COLLECTION BOX - BLUE BOX", "address": {"city": "YAKIMA", "state": "WA", "street": "2300 W WASHINGTON AVE", "postcode": "98902"}}},
{"geometry": {"type": "Point", "coordinates": [-120.5178002122, 46.597931481]}, "type": "Feature", "properties": {"collection_times": [{"days": "Mon-Fri", "time": "4:00pm"}, {"days": "Sat", "time": "4:45pm"}, {"days": "Sun", "time": "Closed"}], "id": "9890200015", "name": "USPS COLLECTION BOX - BLUE BOX", "address": {"city": "YAKIMA", "state": "WA", "street": "111 S 7TH AVE", "postcode": "98902"}}},
{"geometry": {"type": "Point", "coordinates": [-120.5211695671, 46.5979693052]}, "type": "Feature", "properties": {"collection_times": [{"days": "Mon-Fri", "time": "4:00pm"}, {"days": "Sat", "time": "2:45pm"}, {"days": "Sun", "time": "Closed"}], "id": "9890200017", "name": "USPS COLLECTION BOX - BLUE BOX", "address": {"city": "YAKIMA", "state": "WA", "street": "110 S 9TH AVE", "postcode": "98902"}}},
{"geometry": {"type": "Point", "coordinates": [-120.5303726549, 46.5734521717]}, "type": "Feature", "properties": {"collection_times": [{"days": "Mon-Sat", "time": "3:15pm"}, {"days": "Sun", "time": "Closed"}], "id": "9890200020", "name": "USPS COLLECTION BOX - BLUE BOX", "address": {"city": "YAKIMA", "state": "WA", "street": "1714 S 16TH AVE", "postcode": "98902"}}},
{"geometry": {"type": "Point", "coordinates": [-120.5338298465, 46.5961294306]}, "type": "Feature", "properties": {"collection_times": [{"days": "Mon-Fri", "time": "4:00pm"}, {"days": "Sat", "time": "2:45pm"}, {"days": "Sun", "time": "Closed"}], "id": "9890200021", "name": "USPS COLLECTION BOX - BLUE BOX", "address": {"city": "YAKIMA", "state": "WA", "street": "801 FRUITVALE BLVD", "postcode": "98902"}}},
{"geometry": {"type": "Point", "coordinates": [-120.5306102695, 46.6033474145]}, "type": "Feature", "properties": {"collection_times": [{"days": "Mon-Fri", "time": "4:00pm"}, {"days": "Sat", "time": "2:45pm"}, {"days": "Sun", "time": "Closed"}], "id": "9890200023", "name": "USPS COLLECTION BOX - BLUE BOX", "address": {"city": "YAKIMA", "state": "WA", "street": "1610 W LINCOLN AVE", "postcode": "98902"}}},
{"geometry": {"type": "Point", "coordinates": [-120.5229996594, 46.5983787123]}, "type": "Feature", "properties": {"collection_times": [{"days": "Mon-Fri", "time": "4:15pm"}, {"days": "Sat", "time": "4:45pm"}, {"days": "Sun", "time": "Closed"}], "id": "9890200028", "name": "USPS COLLECTION BOX - BLUE BOX", "address": {"city": "YAKIMA", "state": "WA", "street": "1005 W YAKIMA AVE", "postcode": "98902"}}},
{"geometry": {"type": "Point", "coordinates": [-120.5215745479, 46.5987980289]}, "type": "Feature", "properties": {"collection_times": [{"days": "Mon-Fri", "time": "4:00pm"}, {"days": "Sat", "time": "4:45pm"}, {"days": "Sun", "time": "Closed"}], "id": "9890200030", "name": "USPS COLLECTION BOX - BLUE BOX", "address": {"city": "YAKIMA", "state": "WA", "street": "10 N 9TH AVE", "postcode": "98902"}}},
{"geometry": {"type": "Point", "coordinates": [-120.5304438069, 46.6198074325]}, "type": "Feature", "properties": {"collection_times": [{"days": "Mon-Fri", "time": "4:15pm"}, {"days": "Sat", "time": "2:30pm"}, {"days": "Sun", "time": "Closed"}], "id": "9890200032", "name": "USPS COLLECTION BOX - BLUE BOX", "address": {"city": "YAKIMA", "state": "WA", "street": "1340 N 16TH AVE", "postcode": "98902"}}},
{"geometry": {"type": "Point", "coordinates": [-120.5080284032, 46.6018402833]}, "type": "Feature", "properties": {"collection_times": [{"days": "Mon-Sat", "time": "4:45pm"}, {"days": "Sun", "time": "Closed"}], "id": "9890200038", "name": "USPS COLLECTION BOX - BLUE BOX", "address": {"city": "YAKIMA", "state": "WA", "street": "1 W YAKIMA AVE", "postcode": "98902"}}},
{"geometry": {"type": "Point", "coordinates": [-120.5235240598, 46.5966128189]}, "type": "Feature", "properties": {"collection_times": [{"days": "Mon-Fri", "time": "3:45pm"}, {"days": "Sat", "time": "2:45pm"}, {"days": "Sun", "time": "Closed"}], "id": "9890200040", "name": "USPS COLLECTION BOX - BLUE BOX", "address": {"city": "YAKIMA", "state": "WA", "street": "111 S 11TH AVE", "postcode": "98902"}}},
{"geometry": {"type": "Point", "coordinates": [-120.5304565753, 46.6181108309]}, "type": "Feature", "properties": {"collection_times": [{"days": "Mon-Fri", "time": "4:15pm"}, {"days": "Sat", "time": "2:30pm"}, {"days": "Sun", "time": "Closed"}], "id": "9890200042", "name": "USPS COLLECTION BOX - BLUE BOX", "address": {"city": "YAKIMA", "state": "WA", "street": "1214 N 16TH AVE", "postcode": "98902"}}},
{"geometry": {"type": "Point", "coordinates": [-120.5603782457, 46.6107813101]}, "type": "Feature", "properties": {"collection_times": [{"days": "Mon-Fri", "time": "3:30pm"}, {"days": "Sat", "time": "2:30pm"}, {"days": "Sun", "time": "Closed"}], "id": "9890200044", "name": "USPS COLLECTION BOX - BLUE BOX", "address": {"city": "YAKIMA", "state": "WA", "street": "3901 KERN WAY", "postcode": "98902"}}},
{"geometry": {"type": "Point", "coordinates": [-120.4754082152, 46.5527484996]}, "type": "Feature", "properties": {"collection_times": [{"days": "Mon-Sat", "time": "5:00pm"}, {"days": "Sun", "time": "Closed"}], "id": "9890300003", "name": "USPS COLLECTION BOX - BLUE BOX", "address": {"city": "UNION GAP", "state": "WA", "street": "3514 MAIN ST", "postcode": "98903"}}},
{"geometry": {"type": "Point", "coordinates": [-120.5082241122, 46.5707594574]}, "type": "Feature", "properties": {"collection_times": [{"days": "Mon-Sat", "time": "7:00pm"}, {"days": "Sun", "time": "Closed"}], "id": "9890300006", "name": "USPS COLLECTION BOX - BLUE BOX", "address": {"city": "UNION GAP", "state": "WA", "street": "205 W WASHINGTON AVE", "postcode": "98903"}}},
{"geometry": {"type": "Point", "coordinates": [-120.4754082152, 46.5527484996]}, "type": "Feature", "properties": {"collection_times": [{"days": "Mon-Sat", "time": "5:00pm"}, {"days": "Sun", "time": "Closed"}], "id": "9890300008", "name": "USPS COLLECTION BOX - PO LOBBY", "address": {"city": "UNION GAP", "state": "WA", "street": "3514 MAIN ST", "postcode": "98903"}}},
{"geometry": {"type": "Point", "coordinates": [-120.4754082152, 46.5527484996]}, "type": "Feature", "properties": {"collection_times": [{"days": "Mon-Sat", "time": "5:00pm"}, {"days": "Sun", "time": "Closed"}], "id": "9890300009", "name": "USPS COLLECTION BOX - PO LOBBY", "address": {"city": "UNION GAP", "state": "WA", "street": "3514 MAIN ST", "postcode": "98903"}}},
{"geometry": {"type": "Point", "coordinates": [-120.5082241122, 46.5707594574]}, "type": "Feature", "properties": {"collection_times": [{"days": "Mon-Sat", "time": "7:00pm"}, {"days": "Sun", "time": "Closed"}], "id": "9890300010", "name": "USPS COLLECTION BOX - APC", "address": {"city": "UNION GAP", "state": "WA", "street": "205 W WASHINGTON AVE", "postcode": "98903"}}},
{"geometry": {"type": "Point", "coordinates": [-120.4777457996, 46.5666694909]}, "type": "Feature", "properties": {"collection_times": [{"days": "Mon-Fri", "time": "2:45pm"}, {"days": "Sat", "time": "1:45pm"}, {"days": "Sun", "time": "Closed"}], "id": "9890300012", "name": "USPS COLLECTION BOX - BLUE BOX", "address": {"city": "UNION GAP", "state": "WA", "street": "1801 RAINIER PL", "postcode": "98903"}}},
{"geometry": {"type": "Point", "coordinates": [-120.5082241122, 46.5707594574]}, "type": "Feature", "properties": {"collection_times": [{"days": "Mon-Sat", "time": "7:00pm"}, {"days": "Sun", "time": "Closed"}], "id": "9890300014", "name": "USPS COLLECTION BOX - PO LOBBY", "address": {"city": "UNION GAP", "state": "WA", "street": "205 W WASHINGTON AVE", "postcode": "98903"}}},
{"geometry": {"type": "Point", "coordinates": [-120.5082241122, 46.5707594574]}, "type": "Feature", "properties": {"collection_times": [{"days": "Mon-Sat", "time": "7:00pm"}, {"days": "Sun", "time": "Closed"}], "id": "9890300015", "name": "USPS COLLECTION BOX - PO LOBBY", "address": {"city": "UNION GAP", "state": "WA", "street": "205 W WASHINGTON AVE", "postcode": "98903"}}},
{"geometry": {"type": "Point", "coordinates": [-120.5623683665, 46.6179584619]}, "type": "Feature", "properties": {"collection_times": [{"days": "Mon-Fri", "time": "4:15pm"}, {"days": "Sat", "time": "2:30pm"}, {"days": "Sun", "time": "Closed"}], "id": "9890800000", "name": "USPS COLLECTION BOX - BLUE BOX", "address": {"city": "YAKIMA", "state": "WA", "street": "4015 W POWERHOUSE RD", "postcode": "98908"}}},
{"geometry": {"type": "Point", "coordinates": [-120.5724306576, 46.5942363043]}, "type": "Feature", "properties": {"collection_times": [{"days": "Mon-Fri", "time": "4:30pm"}, {"days": "Sat", "time": "4:00pm"}, {"days": "Sun", "time": "Closed"}], "id": "9890800004", "name": "USPS COLLECTION BOX - BLUE BOX", "address": {"city": "YAKIMA", "state": "WA", "street": "416 S 48TH AVE", "postcode": "98908"}}},
{"geometry": {"type": "Point", "coordinates": [-120.5832133569, 46.6001746086]}, "type": "Feature", "properties": {"collection_times": [{"days": "Mon-Fri", "time": "5:00pm"}, {"days": "Sat", "time": "4:30pm"}, {"days": "Sun", "time": "Closed"}], "id": "9890800007", "name": "USPS COLLECTION BOX - BLUE BOX", "address": {"city": "YAKIMA", "state": "WA", "street": "206 N 56TH AVE", "postcode": "98908"}}},
{"geometry": {"type": "Point", "coordinates": [-120.6043983427, 46.5936710341]}, "type": "Feature", "properties": {"collection_times": [{"days": "Mon-Fri", "time": "4:15pm"}, {"days": "Sat", "time": "4:30pm"}, {"days": "Sun", "time": "Closed"}], "id": "9890800009", "name": "USPS COLLECTION BOX - BLUE BOX", "address": {"city": "YAKIMA", "state": "WA", "street": "410 S 72ND AVE", "postcode": "98908"}}},
{"geometry": {"type": "Point", "coordinates": [-120.6071740051, 46.4043707828]}, "type": "Feature", "properties": {"collection_times": [{"days": "Mon-Fri", "time": "3:30pm"}, {"days": "Sat", "time": "10:30am"}, {"days": "Sun", "time": "Closed"}], "id": "9892000000", "name": "USPS COLLECTION BOX - BLUE BOX", "address": {"city": "BROWNSTOWN", "state": "WA", "street": "10981 BRANCH RD", "postcode": "98920"}}},
{"geometry": {"type": "Point", "coordinates": [-120.6067260038, 46.4045190331]}, "type": "Feature", "properties": {"collection_times": [{"days": "Mon-Fri", "time": "3:30pm"}, {"days": "Sat", "time": "10:30am"}, {"days": "Sun", "time": "Closed"}], "id": "9892000001", "name": "USPS COLLECTION BOX - PO LOBBY", "address": {"city": "BROWNSTOWN", "state": "WA", "street": "10981 BRANCH RD", "postcode": "98920"}}},
{"geometry": {"type": "Point", "coordinates": [-120.3137378557, 46.4268689135]}, "type": "Feature", "properties": {"collection_times": [{"days": "Mon-Fri", "time": "4:45pm"}, {"days": "Sat", "time": "9:30am"}, {"days": "Sun", "time": "Closed"}], "id": "9892100000", "name": "USPS COLLECTION BOX - BLUE BOX", "address": {"city": "BUENA", "state": "WA", "street": "770 BUENA RD", "postcode": "98921"}}},
{"geometry": {"type": "Point", "coordinates": [-120.3137378557, 46.4268689135]}, "type": "Feature", "properties": {"collection_times": [{"days": "Mon-Fri", "time": "4:45pm"}, {"days": "Sat", "time": "9:30am"}, {"days": "Sun", "time": "Closed"}], "id": "9892100001", "name": "USPS COLLECTION BOX - PO LOBBY", "address": {"city": "BUENA", "state": "WA", "street": "770 BUENA RD", "postcode": "98921"}}},
{"geometry": {"type": "Point", "coordinates": [-120.9347923631, 47.194406059]}, "type": "Feature", "properties": {"collection_times": [{"days": "Mon-Fri", "time": "5:00pm"}, {"days": "Sat", "time": "11:30am"}, {"days": "Sun", "time": "Closed"}], "id": "9892200000", "name": "USPS COLLECTION BOX - BLUE BOX", "address": {"city": "CLE ELUM", "state": "WA", "street": "305 E 1ST ST", "postcode": "98922"}}},
{"geometry": {"type": "Point", "coordinates": [-120.9550682368, 47.1962210289]}, "type": "Feature", "properties": {"collection_times": [{"days": "Mon-Fri", "time": "2:00pm"}, {"days": "Sat", "time": "12:00pm"}, {"days": "Sun", "time": "Closed"}], "id": "9892200001", "name": "USPS COLLECTION BOX - BLUE BOX", "address": {"city": "CLE ELUM", "state": "WA", "street": "804 W 1ST ST", "postcode": "98922"}}},
{"geometry": {"type": "Point", "coordinates": [-120.9347923631, 47.194406059]}, "type": "Feature", "properties": {"collection_times": [{"days": "Mon-Fri", "time": "4:15pm"}, {"days": "Sat", "time": "11:30am"}, {"days": "Sun", "time": "Closed"}], "id": "9892200005", "name": "USPS COLLECTION BOX - PO LOBBY", "address": {"city": "CLE ELUM", "state": "WA", "street": "305 E 1ST ST", "postcode": "98922"}}},
{"geometry": {"type": "Point", "coordinates": [-120.7129396629, 46.6667966463]}, "type": "Feature", "properties": {"collection_times": [{"days": "Mon-Fri", "time": "4:00pm"}, {"days": "Sat", "time": "9:00am"}, {"days": "Sun", "time": "Closed"}], "id": "9892300000", "name": "USPS COLLECTION BOX - BLUE BOX", "address": {"city": "COWICHE", "state": "WA", "street": "161 COWICHE CITY RD", "postcode": "98923"}}},
{"geometry": {"type": "Point", "coordinates": [-120.714509564, 46.6711132201]}, "type": "Feature", "properties": {"collection_times": [{"days": "Mon-Fri", "time": "4:00pm"}, {"days": "Sat", "time": "9:00am"}, {"days": "Sun", "time": "Closed"}], "id": "9892300001", "name": "USPS COLLECTION BOX - PO LOBBY", "address": {"city": "COWICHE", "state": "WA", "street": "161 COWICHE CITY RD", "postcode": "98923"}}},
{"geometry": {"type": "Point", "coordinates": [-120.714509564, 46.6711132201]}, "type": "Feature", "properties": {"collection_times": [{"days": "Mon-Fri", "time": "4:00pm"}, {"days": "Sat", "time": "9:00am"}, {"days": "Sun", "time": "Closed"}], "id": "9892300002", "name": "USPS COLLECTION BOX - PO LOBBY", "address": {"city": "COWICHE", "state": "WA", "street": "161 COWICHE CITY RD", "postcode": "98923"}}},
{"geometry": {"type": "Point", "coordinates": [-121.175627247, 47.2351350369]}, "type": "Feature", "properties": {"collection_times": [{"days": "Mon-Fri", "time": "3:30pm"}, {"days": "Sat", "time": "11:15am"}, {"days": "Sun", "time": "Closed"}], "id": "9892500001", "name": "USPS COLLECTION BOX - PO LOBBY", "address": {"city": "EASTON", "state": "WA", "street": "2151 RAILROAD ST", "postcode": "98925"}}},
{"geometry": {"type": "Point", "coordinates": [-120.547186569, 46.994429088]}, "type": "Feature", "properties": {"collection_times": [{"days": "Mon-Fri", "time": "5:45pm"}, {"days": "Sat", "time": "4:00pm"}, {"days": "Sun", "time": "Closed"}], "id": "9892600000", "name": "USPS COLLECTION BOX - BLUE BOX", "address": {"city": "ELLENSBURG", "state": "WA", "street": "100 E 3RD AVE", "postcode": "98926"}}},
{"geometry": {"type": "Point", "coordinates": [-120.547186569, 46.994429088]}, "type": "Feature", "properties": {"collection_times": [{"days": "Mon-Fri", "time": "5:45pm"}, {"days": "Sat", "time": "4:00pm"}, {"days": "Sun", "time": "Closed"}], "id": "9892600001", "name": "USPS COLLECTION BOX - BLUE BOX", "address": {"city": "ELLENSBURG", "state": "WA", "street": "100 E 3RD AVE", "postcode": "98926"}}},
{"geometry": {"type": "Point", "coordinates": [-120.5444183701, 46.9946877857]}, "type": "Feature", "properties": {"collection_times": [{"days": "Mon-Fri", "time": "3:00pm"}, {"days": "Sat", "time": "12:00pm"}, {"days": "Sun", "time": "Closed"}], "id": "9892600005", "name": "USPS COLLECTION BOX - BLUE BOX", "address": {"city": "ELLENSBURG", "state": "WA", "street": "312 N RUBY ST", "postcode": "98926"}}},
{"geometry": {"type": "Point", "coordinates": [-120.5468704746, 46.9997181712]}, "type": "Feature", "properties": {"collection_times": [{"days": "Mon-Fri", "time": "3:00pm"}, {"days": "Sat", "time": "12:00pm"}, {"days": "Sun", "time": "Closed"}], "id": "9892600006", "name": "USPS COLLECTION BOX - BLUE BOX", "address": {"city": "ELLENSBURG", "state": "WA", "street": "111 E UNIVERSITY WAY", "postcode": "98926"}}},
{"geometry": {"type": "Point", "coordinates": [-120.5388692827, 46.9997938785]}, "type": "Feature", "properties": {"collection_times": [{"days": "Mon-Fri", "time": "3:00pm"}, {"days": "Sat", "time": "12:00pm"}, {"days": "Sun", "time": "Closed"}], "id": "9892600007", "name": "USPS COLLECTION BOX - BLUE BOX", "address": {"city": "ELLENSBURG", "state": "WA", "street": "724 E UNIVERSITY WAY", "postcode": "98926"}}},
{"geometry": {"type": "Point", "coordinates": [-120.5472206096, 46.9965537868]}, "type": "Feature", "properties": {"collection_times": [{"days": "Mon-Fri", "time": "3:00pm"}, {"days": "Sat", "time": "12:00pm"}, {"days": "Sun", "time": "Closed"}], "id": "9892600008", "name": "USPS COLLECTION BOX - BLUE BOX", "address": {"city": "ELLENSBURG", "state": "WA", "street": "500 N PEARL ST", "postcode": "98926"}}},
{"geometry": {"type": "Point", "coordinates": [-120.5528226481, 46.9965287187]}, "type": "Feature", "properties": {"collection_times": [{"days": "Mon-Fri", "time": "3:00pm"}, {"days": "Sat", "time": "12:00pm"}, {"days": "Sun", "time": "Closed"}], "id": "9892600010", "name": "USPS COLLECTION BOX - BLUE BOX", "address": {"city": "ELLENSBURG", "state": "WA", "street": "507 N NANUM ST", "postcode": "98926"}}},
{"geometry": {"type": "Point", "coordinates": [-120.5487182833, 46.9965583728]}, "type": "Feature", "properties": {"collection_times": [{"days": "Mon-Fri", "time": "3:00pm"}, {"days": "Sat", "time": "12:00pm"}, {"days": "Sun", "time": "Closed"}], "id": "9892600019", "name": "USPS COLLECTION BOX - BLUE BOX", "address": {"city": "ELLENSBURG", "state": "WA", "street": "205 W 5TH AVE", "postcode": "98926"}}},
{"geometry": {"type": "Point", "coordinates": [-120.549862511, 46.9912301278]}, "type": "Feature", "properties": {"collection_times": [{"days": "Mon-Fri", "time": "3:00pm"}, {"days": "Sat", "time": "12:00pm"}, {"days": "Sun", "time": "Closed"}], "id": "9892600021", "name": "USPS COLLECTION BOX - BLUE BOX", "address": {"city": "ELLENSBURG", "state": "WA", "street": "201 S WATER ST", "postcode": "98926"}}},
{"geometry": {"type": "Point", "coordinates": [-120.5453226528, 46.9845110189]}, "type": "Feature", "properties": {"collection_times": [{"days": "Mon-Fri", "time": "3:00pm"}, {"days": "Sat", "time": "12:00pm"}, {"days": "Sun", "time": "Closed"}], "id": "9892600022", "name": "USPS COLLECTION BOX - BLUE BOX", "address": {"city": "ELLENSBURG", "state": "WA", "street": "200 E MOUNTAIN VIEW AVE", "postcode": "98926"}}},
{"geometry": {"type": "Point", "coordinates": [-120.5846516204, 47.0037987961]}, "type": "Feature", "properties": {"collection_times": [{"days": "Mon-Fri", "time": "3:00pm"}, {"days": "Sat", "time": "12:00pm"}, {"days": "Sun", "time": "Closed"}], "id": "9892600023", "name": "USPS COLLECTION BOX - BLUE BOX", "address": {"city": "ELLENSBURG", "state": "WA", "street": "2301 W DOLARWAY RD", "postcode": "98926"}}},
{"geometry": {"type": "Point", "coordinates": [-119.9049184952, 46.2555392773]}, "type": "Feature", "properties": {"collection_times": [{"days": "Mon-Fri", "time": "5:00pm"}, {"days": "Sat", "time": "2:00pm"}, {"days": "Sun", "time": "Closed"}], "id": "9893000005", "name": "USPS COLLECTION BOX - BLUE BOX", "address": {"city": "GRANDVIEW", "state": "WA", "street": "116 GRANDRIDGE RD", "postcode": "98930"}}},
{"geometry": {"type": "Point", "coordinates": [-119.9049505463, 46.2555276388]}, "type": "Feature", "properties": {"collection_times": [{"days": "Mon-Fri", "time": "5:00pm"}, {"days": "Sat", "time": "2:00pm"}, {"days": "Sun", "time": "Closed"}], "id": "9893000007", "name": "USPS COLLECTION BOX - PO LOBBY", "address": {"city": "GRANDVIEW", "state": "WA", "street": "116 GRANDRIDGE RD", "postcode": "98930"}}},
{"geometry": {"type": "Point", "coordinates": [-120.1953496364, 46.3422805402]}, "type": "Feature", "properties": {"collection_times": [{"days": "Mon-Fri", "time": "4:00pm"}, {"days": "Sat", "time": "8:00am"}, {"days": "Sun", "time": "Closed"}], "id": "9893200000", "name": "USPS COLLECTION BOX - BLUE BOX", "address": {"city": "GRANGER", "state": "WA", "street": "104 MAIN ST", "postcode": "98932"}}},
{"geometry": {"type": "Point", "coordinates": [-120.1953496364, 46.3422805402]}, "type": "Feature", "properties": {"collection_times": [{"days": "Mon-Fri", "time": "4:00pm"}, {"days": "Sat", "time": "8:00am"}, {"days": "Sun", "time": "Closed"}], "id": "9893200001", "name": "USPS COLLECTION BOX - PO LOBBY", "address": {"city": "GRANGER", "state": "WA", "street": "104 MAIN ST", "postcode": "98932"}}},
{"geometry": {"type": "Point", "coordinates": [-120.5442344697, 46.4058916591]}, "type": "Feature", "properties": {"collection_times": [{"days": "Mon-Fri", "time": "4:15pm"}, {"days": "Sat", "time": "9:45am"}, {"days": "Sun", "time": "Closed"}], "id": "9893300000", "name": "USPS COLLECTION BOX - BLUE BOX", "address": {"city": "HARRAH", "state": "WA", "street": "3851 HARRAH RD", "postcode": "98933"}}},
{"geometry": {"type": "Point", "coordinates": [-120.5440715422, 46.4053983464]}, "type": "Feature", "properties": {"collection_times": [{"days": "Mon-Fri", "time": "4:15pm"}, {"days": "Sat", "time": "9:45am"}, {"days": "Sun", "time": "Closed"}], "id": "9893300001", "name": "USPS COLLECTION BOX - PO LOBBY", "address": {"city": "HARRAH", "state": "WA", "street": "3910 HARRAH RD", "postcode": "98933"}}},
{"geometry": {"type": "Point", "coordinates": [-120.4176480794, 46.9835706677]}, "type": "Feature", "properties": {"collection_times": [{"days": "Mon-Fri", "time": "3:30pm"}, {"days": "Sat", "time": "10:30am"}, {"days": "Sun", "time": "Closed"}], "id": "9893400000", "name": "USPS COLLECTION BOX - BLUE BOX", "address": {"city": "KITTITAS", "state": "WA", "street": "105 MAIN ST", "postcode": "98934"}}},
{"geometry": {"type": "Point", "coordinates": [-120.4176480794, 46.9835706677]}, "type": "Feature", "properties": {"collection_times": [{"days": "Mon-Fri", "time": "3:30pm"}, {"days": "Sat", "time": "10:30am"}, {"days": "Sun", "time": "Closed"}], "id": "9893400001", "name": "USPS COLLECTION BOX - PO LOBBY", "address": {"city": "KITTITAS", "state": "WA", "street": "105 MAIN ST", "postcode": "98934"}}},
{"geometry": {"type": "Point", "coordinates": [-119.9970912624, 46.2136420366]}, "type": "Feature", "properties": {"collection_times": [{"days": "Mon-Fri", "time": "4:00pm"}, {"days": "Sat", "time": "10:00am"}, {"days": "Sun", "time": "Closed"}], "id": "9893500000", "name": "USPS COLLECTION BOX - BLUE BOX", "address": {"city": "MABTON", "state": "WA", "street": "410 B ST", "postcode": "98935"}}},
{"geometry": {"type": "Point", "coordinates": [-119.9970912624, 46.2136420366]}, "type": "Feature", "properties": {"collection_times": [{"days": "Mon-Fri", "time": "4:00pm"}, {"days": "Sat", "time": "10:00am"}, {"days": "Sun", "time": "Closed"}], "id": "9893500001", "name": "USPS COLLECTION BOX - PO LOBBY", "address": {"city": "MABTON", "state": "WA", "street": "410 B ST", "postcode": "98935"}}},
{"geometry": {"type": "Point", "coordinates": [-120.3850741116, 46.5540598452]}, "type": "Feature", "properties": {"collection_times": [{"days": "Mon-Fri", "time": "4:30pm"}, {"days": "Sat", "time": "10:00am"}, {"days": "Sun", "time": "Closed"}], "id": "9893600000", "name": "USPS COLLECTION BOX - BLUE BOX", "address": {"city": "MOXEE", "state": "WA", "street": "202 E SEATTLE AVE", "postcode": "98936"}}},
{"geometry": {"type": "Point", "coordinates": [-120.3850741116, 46.5540598452]}, "type": "Feature", "properties": {"collection_times": [{"days": "Mon-Fri", "time": "5:00pm"}, {"days": "Sat", "time": "10:00am"}, {"days": "Sun", "time": "Closed"}], "id": "9893600001", "name": "USPS COLLECTION BOX - PO LOBBY", "address": {"city": "MOXEE", "state": "WA", "street": "202 E SEATTLE AVE", "postcode": "98936"}}},
{"geometry": {"type": "Point", "coordinates": [-120.7025873977, 46.7322466781]}, "type": "Feature", "properties": {"collection_times": [{"days": "Mon-Fri", "time": "4:15pm"}, {"days": "Sat", "time": "10:00am"}, {"days": "Sun", "time": "Closed"}], "id": "9893700003", "name": "USPS COLLECTION BOX - BLUE BOX", "address": {"city": "NACHES", "state": "WA", "street": "210 W 3RD ST", "postcode": "98937"}}},
{"geometry": {"type": "Point", "coordinates": [-120.7025873977, 46.7322466781]}, "type": "Feature", "properties": {"collection_times": [{"days": "Mon-Fri", "time": "4:15pm"}, {"days": "Sat", "time": "10:00am"}, {"days": "Sun", "time": "Closed"}], "id": "9893700006", "name": "USPS COLLECTION BOX - PO LOBBY", "address": {"city": "NACHES", "state": "WA", "street": "210 W 3RD ST", "postcode": "98937"}}},
{"geometry": {"type": "Point", "coordinates": [-120.0711197363, 46.3312472169]}, "type": "Feature", "properties": {"collection_times": [{"days": "Mon-Fri", "time": "4:30pm"}, {"days": "Sat", "time": "9:30am"}, {"days": "Sun", "time": "Closed"}], "id": "9893800000", "name": "USPS COLLECTION BOX - BLUE BOX", "address": {"city": "OUTLOOK", "state": "WA", "street": "691 OUTLOOK RD", "postcode": "98938"}}},
{"geometry": {"type": "Point", "coordinates": [-120.0711197363, 46.3312472169]}, "type": "Feature", "properties": {"collection_times": [{"days": "Mon-Fri", "time": "11:30am"}, {"days": "Sat", "time": "9:30am"}, {"days": "Sun", "time": "Closed"}], "id": "9893800001", "name": "USPS COLLECTION BOX - PO LOBBY", "address": {"city": "OUTLOOK", "state": "WA", "street": "691 OUTLOOK RD", "postcode": "98938"}}},
{"geometry": {"type": "Point", "coordinates": [-120.4675605658, 46.5037390658]}, "type": "Feature", "properties": {"collection_times": [{"days": "Mon-Fri", "time": "4:30pm"}, {"days": "Sat", "time": "10:00am"}, {"days": "Sun", "time": "Closed"}], "id": "9893900000", "name": "USPS COLLECTION BOX - BLUE BOX", "address": {"city": "PARKER", "state": "WA", "street": "301 2ND AVE", "postcode": "98939"}}},
{"geometry": {"type": "Point", "coordinates": [-120.4675605658, 46.5037390658]}, "type": "Feature", "properties": {"collection_times": [{"days": "Mon-Fri", "time": "12:00pm"}, {"days": "Sat", "time": "10:00am"}, {"days": "Sun", "time": "Closed"}], "id": "9893900001", "name": "USPS COLLECTION BOX - PO LOBBY", "address": {"city": "PARKER", "state": "WA", "street": "301 2ND AVE", "postcode": "98939"}}},
{"geometry": {"type": "Point", "coordinates": [-121.0250106431, 47.2365309947]}, "type": "Feature", "properties": {"collection_times": [{"days": "Mon-Fri", "time": "11:45am"}, {"days": "Sat", "time": "10:00am"}, {"days": "Sun", "time": "Closed"}], "id": "9894000001", "name": "USPS COLLECTION BOX - PO LOBBY", "address": {"city": "RONALD", "state": "WA", "street": "8291 STATE ROUTE 903", "postcode": "98940"}}},
{"geometry": {"type": "Point", "coordinates": [-120.9944772302, 47.2224358724]}, "type": "Feature", "properties": {"collection_times": [{"days": "Mon-Fri", "time": "4:15pm"}, {"days": "Sat", "time": "10:00am"}, {"days": "Sun", "time": "Closed"}], "id": "9894100000", "name": "USPS COLLECTION BOX - BLUE BOX", "address": {"city": "ROSLYN", "state": "WA", "street": "122 W PENNSYLVANIA AVE", "postcode": "98941"}}},
{"geometry": {"type": "Point", "coordinates": [-120.9944772302, 47.2224358724]}, "type": "Feature", "properties": {"collection_times": [{"days": "Mon-Fri", "time": "4:15pm"}, {"days": "Sat", "time": "10:00am"}, {"days": "Sun", "time": "Closed"}], "id": "9894100001", "name": "USPS COLLECTION BOX - PO LOBBY", "address": {"city": "ROSLYN", "state": "WA", "street": "122 W PENNSYLVANIA AVE", "postcode": "98941"}}},
{"geometry": {"type": "Point", "coordinates": [-120.5300888174, 46.6540080548]}, "type": "Feature", "properties": {"collection_times": [{"days": "Mon-Fri", "time": "5:00pm"}, {"days": "Sat", "time": "3:30pm"}, {"days": "Sun", "time": "Closed"}], "id": "9894200004", "name": "USPS COLLECTION BOX - BLUE BOX", "address": {"city": "SELAH", "state": "WA", "street": "114 E NACHES AVE", "postcode": "98942"}}},
{"geometry": {"type": "Point", "coordinates": [-120.5301241921, 46.6539520116]}, "type": "Feature", "properties": {"collection_times": [{"days": "Mon-Fri", "time": "5:00pm"}, {"days": "Sat", "time": "3:00pm"}, {"days": "Sun", "time": "Closed"}], "id": "9894200005", "name": "USPS COLLECTION BOX - PO LOBBY", "address": {"city": "SELAH", "state": "WA", "street": "114 E NACHES AVE", "postcode": "98942"}}},
{"geometry": {"type": "Point", "coordinates": [-120.5301241921, 46.6539520116]}, "type": "Feature", "properties": {"collection_times": [{"days": "Mon-Fri", "time": "5:00pm"}, {"days": "Sat", "time": "3:00pm"}, {"days": "Sun", "time": "Closed"}], "id": "9894200006", "name": "USPS COLLECTION BOX - PO LOBBY", "address": {"city": "SELAH", "state": "WA", "street": "114 E NACHES AVE", "postcode": "98942"}}},
{"geometry": {"type": "Point", "coordinates": [-120.9521556005, 47.1862465044]}, "type": "Feature", "properties": {"collection_times": [{"days": "Mon-Fri", "time": "4:00pm"}, {"days": "Sat", "time": "10:15am"}, {"days": "Sun", "time": "Closed"}], "id": "9894300000", "name": "USPS COLLECTION BOX - BLUE BOX", "address": {"city": "SOUTH CLE ELUM", "state": "WA", "street": "604 CLEVELAND AVE", "postcode": "98943"}}},
{"geometry": {"type": "Point", "coordinates": [-120.9521556005, 47.1862465044]}, "type": "Feature", "properties": {"collection_times": [{"days": "Mon-Fri", "time": "4:00pm"}, {"days": "Sat", "time": "10:15am"}, {"days": "Sun", "time": "Closed"}], "id": "9894300003", "name": "USPS COLLECTION BOX - PO LOBBY", "address": {"city": "SOUTH CLE ELUM", "state": "WA", "street": "604 CLEVELAND AVE", "postcode": "98943"}}},
{"geometry": {"type": "Point", "coordinates": [-120.0112975087, 46.323715385]}, "type": "Feature", "properties": {"collection_times": [{"days": "Mon-Fri", "time": "5:00pm"}, {"days": "Sat", "time": "9:30am"}, {"days": "Sun", "time": "Closed"}], "id": "9894400001", "name": "USPS COLLECTION BOX - PO LOBBY", "address": {"city": "SUNNYSIDE", "state": "WA", "street": "713 E EDISON AVE", "postcode": "98944"}}},
{"geometry": {"type": "Point", "coordinates": [-120.0112975087, 46.323715385]}, "type": "Feature", "properties": {"collection_times": [{"days": "Mon-Fri", "time": "5:00pm"}, {"days": "Sat", "time": "9:30am"}, {"days": "Sun", "time": "Closed"}], "id": "9894400004", "name": "USPS COLLECTION BOX - BLUE BOX", "address": {"city": "SUNNYSIDE", "state": "WA", "street": "713 E EDISON AVE", "postcode": "98944"}}},
{"geometry": {"type": "Point", "coordinates": [-120.0201162675, 46.33021037]}, "type": "Feature", "properties": {"collection_times": [{"days": "Mon-Sat", "time": "1:30pm"}, {"days": "Sun", "time": "Closed"}], "id": "9894400012", "name": "USPS COLLECTION BOX - BLUE BOX", "address": {"city": "SUNNYSIDE", "state": "WA", "street": "301 N 1ST ST", "postcode": "98944"}}},
{"geometry": {"type": "Point", "coordinates": [-120.6702151974, 47.0678760472]}, "type": "Feature", "properties": {"collection_times": [{"days": "Mon-Fri", "time": "4:00pm"}, {"days": "Sat", "time": "10:00am"}, {"days": "Sun", "time": "Closed"}], "id": "9894600000", "name": "USPS COLLECTION BOX - PO LOBBY", "address": {"city": "THORP", "state": "WA", "street": "50 1ST ST", "postcode": "98946"}}},
{"geometry": {"type": "Point", "coordinates": [-120.7555595734, 46.7045769323]}, "type": "Feature", "properties": {"collection_times": [{"days": "Mon-Fri", "time": "4:00pm"}, {"days": "Sat", "time": "9:45am"}, {"days": "Sun", "time": "Closed"}], "id": "9894700000", "name": "USPS COLLECTION BOX - BLUE BOX", "address": {"city": "TIETON", "state": "WA", "street": "814 WISCONSIN ST", "postcode": "98947"}}},
{"geometry": {"type": "Point", "coordinates": [-120.7555595734, 46.7045769323]}, "type": "Feature", "properties": {"collection_times": [{"days": "Mon-Fri", "time": "4:00pm"}, {"days": "Sat", "time": "9:45am"}, {"days": "Sun", "time": "Closed"}], "id": "9894700001", "name": "USPS COLLECTION BOX - PO LOBBY", "address": {"city": "TIETON", "state": "WA", "street": "814 WISCONSIN ST", "postcode": "98947"}}},
{"geometry": {"type": "Point", "coordinates": [-120.7555595734, 46.7045769323]}, "type": "Feature", "properties": {"collection_times": [{"days": "Mon-Fri", "time": "4:00pm"}, {"days": "Sat", "time": "9:45am"}, {"days": "Sun", "time": "Closed"}], "id": "9894700002", "name": "USPS COLLECTION BOX - PO LOBBY", "address": {"city": "TIETON", "state": "WA", "street": "814 WISCONSIN ST", "postcode": "98947"}}},
{"geometry": {"type": "Point", "coordinates": [-120.3120392914, 46.3751751179]}, "type": "Feature", "properties": {"collection_times": [{"days": "Mon-Fri", "time": "5:30pm"}, {"days": "Sat", "time": "4:30pm"}, {"days": "Sun", "time": "Closed"}], "id": "9894800002", "name": "USPS COLLECTION BOX - PO LOBBY", "address": {"city": "TOPPENISH", "state": "WA", "street": "14 JEFFERSON AVE", "postcode": "98948"}}},
{"geometry": {"type": "Point", "coordinates": [-120.3120392914, 46.3751751179]}, "type": "Feature", "properties": {"collection_times": [{"days": "Mon-Fri", "time": "5:30pm"}, {"days": "Sat", "time": "4:30pm"}, {"days": "Sun", "time": "Closed"}], "id": "9894800003", "name": "USPS COLLECTION BOX - PO LOBBY", "address": {"city": "TOPPENISH", "state": "WA", "street": "14 JEFFERSON AVE", "postcode": "98948"}}},
{"geometry": {"type": "Point", "coordinates": [-120.3120392914, 46.3751751179]}, "type": "Feature", "properties": {"collection_times": [{"days": "Mon-Fri", "time": "5:30pm"}, {"days": "Sat", "time": "4:30pm"}, {"days": "Sun", "time": "Closed"}], "id": "9894800006", "name": "USPS COLLECTION BOX - BLUE BOX", "address": {"city": "TOPPENISH", "state": "WA", "street": "14 JEFFERSON AVE", "postcode": "98948"}}},
{"geometry": {"type": "Point", "coordinates": [-120.4211288811, 46.4458992089]}, "type": "Feature", "properties": {"collection_times": [{"days": "Mon-Fri", "time": "5:00pm"}, {"days": "Sat", "time": "3:30pm"}, {"days": "Sun", "time": "Closed"}], "id": "9895100000", "name": "USPS COLLECTION BOX - BLUE BOX", "address": {"city": "WAPATO", "state": "WA", "street": "307 S SATUS AVE", "postcode": "98951"}}},
{"geometry": {"type": "Point", "coordinates": [-120.4211288811, 46.4458992089]}, "type": "Feature", "properties": {"collection_times": [{"days": "Mon-Fri", "time": "5:00pm"}, {"days": "Sat", "time": "3:30pm"}, {"days": "Sun", "time": "Closed"}], "id": "9895100004", "name": "USPS COLLECTION BOX - PO LOBBY", "address": {"city": "WAPATO", "state": "WA", "street": "307 S SATUS AVE", "postcode": "98951"}}},
{"geometry": {"type": "Point", "coordinates": [-120.7704534603, 46.4023021198]}, "type": "Feature", "properties": {"collection_times": [{"days": "Mon-Fri", "time": "4:00pm"}, {"days": "Sat", "time": "9:00am"}, {"days": "Sun", "time": "Closed"}], "id": "9895200000", "name": "USPS COLLECTION BOX - BLUE BOX", "address": {"city": "WHITE SWAN", "state": "WA", "street": "210 BIRCH AVE", "postcode": "98952"}}},
{"geometry": {"type": "Point", "coordinates": [-120.7704534603, 46.4023021198]}, "type": "Feature", "properties": {"collection_times": [{"days": "Mon-Fri", "time": "4:00pm"}, {"days": "Sat", "time": "9:00am"}, {"days": "Sun", "time": "Closed"}], "id": "9895200002", "name": "USPS COLLECTION BOX - PO LOBBY", "address": {"city": "WHITE SWAN", "state": "WA", "street": "210 BIRCH AVE", "postcode": "98952"}}},
{"geometry": {"type": "Point", "coordinates": [-120.2600104697, 46.4021660494]}, "type": "Feature", "properties": {"collection_times": [{"days": "Mon-Fri", "time": "5:00pm"}, {"days": "Sat", "time": "8:00am"}, {"days": "Sun", "time": "Closed"}], "id": "9895300000", "name": "USPS COLLECTION BOX - BLUE BOX", "address": {"city": "ZILLAH", "state": "WA", "street": "608 2ND AVE", "postcode": "98953"}}},
{"geometry": {"type": "Point", "coordinates": [-120.2600104697, 46.4021660494]}, "type": "Feature", "properties": {"collection_times": [{"days": "Mon-Fri", "time": "5:00pm"}, {"days": "Sat", "time": "8:00am"}, {"days": "Sun", "time": "Closed"}], "id": "9895300002", "name": "USPS COLLECTION BOX - PO LOBBY", "address": {"city": "ZILLAH", "state": "WA", "street": "608 2ND AVE", "postcode": "98953"}}}
]}
