{"type": "FeatureCollection", "features": [
{"geometry": {"type": "Point", "coordinates": [-117.5924614231, 47.6418153364]}, "type": "Feature", "properties": {"collection_times": [{"days": "Mon-Fri", "time": "4:45pm"}, {"days": "Sat", "time": "11:45am"}, {"days": "Sun", "time": "Closed"}], "id": "9900100002", "name": "USPS COLLECTION BOX - BLUE BOX", "address": {"city": "AIRWAY HEIGHTS", "state": "WA", "street": "1501 S MULLAN RD", "postcode": "99001"}}},
{"geometry": {"type": "Point", "coordinates": [-117.5924614231, 47.6418153364]}, "type": "Feature", "properties": {"collection_times": [{"days": "Mon-Fri", "time": "4:45pm"}, {"days": "Sat", "time": "11:45am"}, {"days": "Sun", "time": "Closed"}], "id": "9900100004", "name": "USPS COLLECTION BOX - PO LOBBY", "address": {"city": "AIRWAY HEIGHTS", "state": "WA", "street": "1501 S MULLAN RD", "postcode": "99001"}}},
{"geometry": {"type": "Point", "coordinates": [-117.5881392527, 47.6428213714]}, "type": "Feature", "properties": {"collection_times": [{"days": "Mon-Fri", "time": "10:30am"}, {"days": "Sat", "time": "12:30pm"}, {"days": "Sun", "time": "Closed"}], "id": "9900100005", "name": "USPS COLLECTION BOX - BLUE BOX", "address": {"city": "AIRWAY HEIGHTS", "state": "WA", "street": "12825 W SUNSET HWY", "postcode": "99001"}}},
{"geometry": {"type": "Point", "coordinates": [-117.5768617721, 47.6430431809]}, "type": "Feature", "properties": {"collection_times": [{"days": "Mon-Fri", "time": "9:30am"}, {"days": "Sat", "time": "9:00am"}, {"days": "Sun", "time": "Closed"}], "id": "9900100006", "name": "USPS COLLECTION BOX - BLUE BOX", "address": {"city": "AIRWAY HEIGHTS", "state": "WA", "street": "11980 W SUNSET HWY", "postcode": "99001"}}},
{"geometry": {"type": "Point", "coordinates": [-117.5926625261, 47.6446851949]}, "type": "Feature", "properties": {"collection_times": [{"days": "Mon-Fri", "time": "12:00pm"}, {"days": "Sat", "time": "11:00am"}, {"days": "Sun", "time": "Closed"}], "id": "9900100007", "name": "USPS COLLECTION BOX - BLUE BOX", "address": {"city": "AIRWAY HEIGHTS", "state": "WA", "street": "13120 W 13TH AVE", "postcode": "99001"}}},
{"geometry": {"type": "Point", "coordinates": [-117.3495231127, 47.9723925246]}, "type": "Feature", "properties": {"collection_times": [{"days": "Mon-Sat", "time": "11:30am"}, {"days": "Sun", "time": "Closed"}], "id": "9900300001", "name": "USPS COLLECTION BOX - BLUE BOX", "address": {"city": "CHATTAROY", "state": "WA", "street": "34710 N NEWPORT HWY", "postcode": "99003"}}},
{"geometry": {"type": "Point", "coordinates": [-117.3567233586, 47.8892823751]}, "type": "Feature", "properties": {"collection_times": [{"days": "Mon-Fri", "time": "4:30pm"}, {"days": "Sat", "time": "11:00am"}, {"days": "Sun", "time": "Closed"}], "id": "9900300002", "name": "USPS COLLECTION BOX - BLUE BOX", "address": {"city": "CHATTAROY", "state": "WA", "street": "3616 E CHATTAROY RD", "postcode": "99003"}}},
{"geometry": {"type": "Point", "coordinates": [-117.3567233586, 47.8892823751]}, "type": "Feature", "properties": {"collection_times": [{"days": "Mon-Fri", "time": "4:30pm"}, {"days": "Sat", "time": "11:00am"}, {"days": "Sun", "time": "Closed"}], "id": "9900300003", "name": "USPS COLLECTION BOX - PO LOBBY", "address": {"city": "CHATTAROY", "state": "WA", "street": "3616 E CHATTAROY RD", "postcode": "99003"}}},
{"geometry": {"type": "Point", "coordinates": [-117.5646769921, 47.4978287552]}, "type": "Feature", "properties": {"collection_times": [{"days": "Mon-Sat", "time": "11:00am"}, {"days": "Sun", "time": "Closed"}], "id": "9900400002", "name": "USPS COLLECTION BOX - BLUE BOX", "address": {"city": "CHENEY", "state": "WA", "street": "1851 1ST ST", "postcode": "99004"}}},
{"geometry": {"type": "Point", "coordinates": [-117.5715881121, 47.493103199]}, "type": "Feature", "properties": {"collection_times": [{"days": "Mon-Sat", "time": "9:00am"}, {"days": "Sun", "time": "Closed"}], "id": "9900400005", "name": "USPS COLLECTION BOX - BLUE BOX", "address": {"city": "CHENEY", "state": "WA", "street": "6 W 3RD ST", "postcode": "99004"}}},
{"geometry": {"type": "Point", "coordinates": [-117.5746921965, 47.4914860941]}, "type": "Feature", "properties": {"collection_times": [{"days": "Mon-Sat", "time": "10:30am"}, {"days": "Sun", "time": "Closed"}], "id": "9900400008", "name": "USPS COLLECTION BOX - BLUE BOX", "address": {"city": "CHENEY", "state": "WA", "street": "823 4TH ST", "postcode": "99004"}}},
{"geometry": {"type": "Point", "coordinates": [-117.5623918758, 47.4988760409]}, "type": "Feature", "properties": {"collection_times": [{"days": "Mon-Sat", "time": "11:00am"}, {"days": "Sun", "time": "Closed"}], "id": "9900400009", "name": "USPS COLLECTION BOX - BLUE BOX", "address": {"city": "CHENEY", "state": "WA", "street": "6 CHENEY SPOKANE RD", "postcode": "99004"}}},
{"geometry": {"type": "Point", "coordinates": [-117.5781085819, 47.4863331248]}, "type": "Feature", "properties": {"collection_times": [{"days": "Mon-Fri", "time": "5:00pm"}, {"days": "Sat", "time": "2:15pm"}, {"days": "Sun", "time": "Closed"}], "id": "9900400010", "name": "USPS COLLECTION BOX - BLUE BOX", "address": {"city": "CHENEY", "state": "WA", "street": "224 2ND ST", "postcode": "99004"}}},
{"geometry": {"type": "Point", "coordinates": [-117.5781085819, 47.4863331248]}, "type": "Feature", "properties": {"collection_times": [{"days": "Mon-Fri", "time": "5:15pm"}, {"days": "Sat", "time": "2:15pm"}, {"days": "Sun", "time": "Closed"}], "id": "9900400011", "name": "USPS COLLECTION BOX - PO LOBBY", "address": {"city": "CHENEY", "state": "WA", "street": "224 2ND ST", "postcode": "99004"}}},
{"geometry": {"type": "Point", "coordinates": [-117.5813002052, 47.4828765188]}, "type": "Feature", "properties": {"collection_times": [{"days": "Mon-Fri", "time": "2:00pm"}, {"days": "Sat", "time": "9:00am"}, {"days": "Sun", "time": "Closed"}], "id": "9900400012", "name": "USPS COLLECTION BOX - BLUE BOX", "address": {"city": "CHENEY", "state": "WA", "street": "116 W 1ST ST", "postcode": "99004"}}},
{"geometry": {"type": "Point", "coordinates": [-117.5646808147, 47.5057028949]}, "type": "Feature", "properties": {"collection_times": [{"days": "Mon-Fri", "time": "11:00am"}, {"days": "Sat", "time": "10:00am"}, {"days": "Sun", "time": "Closed"}], "id": "9900400013", "name": "USPS COLLECTION BOX - BLUE BOX", "address": {"city": "CHENEY", "state": "WA", "street": "2710 1ST ST", "postcode": "99004"}}},
{"geometry": {"type": "Point", "coordinates": [-117.3471524055, 47.8372117664]}, "type": "Feature", "properties": {"collection_times": [{"days": "Mon-Fri", "time": "4:45pm"}, {"days": "Sat", "time": "10:00am"}, {"days": "Sun", "time": "Closed"}], "id": "9900500001", "name": "USPS COLLECTION BOX - BLUE BOX", "address": {"city": "COLBERT", "state": "WA", "street": "19823 N YALE RD", "postcode": "99005"}}},
{"geometry": {"type": "Point", "coordinates": [-117.3471524055, 47.8372117664]}, "type": "Feature", "properties": {"collection_times": [{"days": "Mon-Fri", "time": "4:45pm"}, {"days": "Sat", "time": "10:00am"}, {"days": "Sun", "time": "Closed"}], "id": "9900500002", "name": "USPS COLLECTION BOX - PO LOBBY", "address": {"city": "COLBERT", "state": "WA", "street": "19823 N YALE RD", "postcode": "99005"}}},
{"geometry": {"type": "Point", "coordinates": [-117.4769525779, 47.9626338077]}, "type": "Feature", "properties": {"collection_times": [{"days": "Mon-Sat", "time": "12:30pm"}, {"days": "Sun", "time": "Closed"}], "id": "9900600002", "name": "USPS COLLECTION BOX - BLUE BOX", "address": {"city": "DEER PARK", "state": "WA", "street": "810 S MAIN ST", "postcode": "99006"}}},
{"geometry": {"type": "Point", "coordinates": [-117.475340478, 47.9541034186]}, "type": "Feature", "properties": {"collection_times": [{"days": "Mon-Fri", "time": "5:00pm"}, {"days": "Sat", "time": "1:00pm"}, {"days": "Sun", "time": "Closed"}], "id": "9900600003", "name": "USPS COLLECTION BOX - BLUE BOX", "address": {"city": "DEER PARK", "state": "WA", "street": "19 S VERNON AVE", "postcode": "99006"}}},
{"geometry": {"type": "Point", "coordinates": [-117.475340478, 47.9541034186]}, "type": "Feature", "properties": {"collection_times": [{"days": "Mon-Fri", "time": "5:00pm"}, {"days": "Sat", "time": "1:00pm"}, {"days": "Sun", "time": "Closed"}], "id": "9900600005", "name": "USPS COLLECTION BOX - PO LOBBY", "address": {"city": "DEER PARK", "state": "WA", "street": "19 S VERNON AVE", "postcode": "99006"}}},
{"geometry": {"type": "Point", "coordinates": [-117.3495862448, 48.0159728446]}, "type": "Feature", "properties": {"collection_times": [{"days": "Mon-Sat", "time": "9:00am"}, {"days": "Sun", "time": "Closed"}], "id": "9900900001", "name": "USPS COLLECTION BOX - BLUE BOX", "address": {"city": "ELK", "state": "WA", "street": "39824 N NEWPORT HWY", "postcode": "99009"}}},
{"geometry": {"type": "Point", "coordinates": [-117.2798387548, 48.016943185]}, "type": "Feature", "properties": {"collection_times": [{"days": "Mon-Fri", "time": "4:45pm"}, {"days": "Sat", "time": "10:00am"}, {"days": "Sun", "time": "Closed"}], "id": "9900900002", "name": "USPS COLLECTION BOX - BLUE BOX", "address": {"city": "ELK", "state": "WA", "street": "9409 E BRIDGES RD", "postcode": "99009"}}},
{"geometry": {"type": "Point", "coordinates": [-117.2798387548, 48.016943185]}, "type": "Feature", "properties": {"collection_times": [{"days": "Mon-Fri", "time": "4:45pm"}, {"days": "Sat", "time": "10:00am"}, {"days": "Sun", "time": "Closed"}], "id": "9900900003", "name": "USPS COLLECTION BOX - PO LOBBY", "address": {"city": "ELK", "state": "WA", "street": "9409 E BRIDGES RD", "postcode": "99009"}}},
{"geometry": {"type": "Point", "coordinates": [-117.6408803678, 47.6188109256]}, "type": "Feature", "properties": {"collection_times": [{"days": "Mon-Sat", "time": "10:00am"}, {"days": "Sun", "time": "Closed"}], "id": "9901100004", "name": "USPS COLLECTION BOX - BLUE BOX", "address": {"city": "FAIRCHILD AFB", "state": "WA", "street": "701 HOSPITAL LOOP", "postcode": "99011"}}},
{"geometry": {"type": "Point", "coordinates": [-117.6543078016, 47.6275685612]}, "type": "Feature", "properties": {"collection_times": [{"days": "Mon-Sat", "time": "12:00pm"}, {"days": "Sun", "time": "Closed"}], "id": "9901100008", "name": "USPS COLLECTION BOX - BLUE BOX", "address": {"city": "FAIRCHILD AFB", "state": "WA", "street": "6005 KAMIAKIN TRL", "postcode": "99011"}}},
{"geometry": {"type": "Point", "coordinates": [-117.6576316278, 47.6296809589]}, "type": "Feature", "properties": {"collection_times": [{"days": "Mon-Sat", "time": "12:45pm"}, {"days": "Sun", "time": "Closed"}], "id": "9901100011", "name": "USPS COLLECTION BOX - BLUE BOX", "address": {"city": "FAIRCHILD AFB", "state": "WA", "street": "100 N CHENNAULT AVE", "postcode": "99011"}}},
{"geometry": {"type": "Point", "coordinates": [-117.6626438042, 47.6250323472]}, "type": "Feature", "properties": {"collection_times": [{"days": "Mon-Sat", "time": "12:00pm"}, {"days": "Sun", "time": "Closed"}], "id": "9901100012", "name": "USPS COLLECTION BOX - BLUE BOX", "address": {"city": "FAIRCHILD AFB", "state": "WA", "street": "7244A NEBRASKA AVE", "postcode": "99011"}}},
{"geometry": {"type": "Point", "coordinates": [-117.6634310415, 47.631998271]}, "type": "Feature", "properties": {"collection_times": [{"days": "Mon-Sat", "time": "10:00am"}, {"days": "Sun", "time": "Closed"}], "id": "9901100013", "name": "USPS COLLECTION BOX - BLUE BOX", "address": {"city": "FAIRCHILD AFB", "state": "WA", "street": "7134A DAKOTA AVE", "postcode": "99011"}}},
{"geometry": {"type": "Point", "coordinates": [-117.6576316278, 47.6296809589]}, "type": "Feature", "properties": {"collection_times": [{"days": "Mon-Fri", "time": "5:00pm"}, {"days": "Sat", "time": "12:00pm"}, {"days": "Sun", "time": "Closed"}], "id": "9901100014", "name": "USPS COLLECTION BOX - PO LOBBY", "address": {"city": "FAIRCHILD AFB", "state": "WA", "street": "100 N CHENNAULT AVE", "postcode": "99011"}}},
{"geometry": {"type": "Point", "coordinates": [-117.1724370879, 47.3851448325]}, "type": "Feature", "properties": {"collection_times": [{"days": "Mon-Fri", "time": "4:30pm"}, {"days": "Sat", "time": "1:00pm"}, {"days": "Sun", "time": "Closed"}], "id": "9901200001", "name": "USPS COLLECTION BOX - PO LOBBY", "address": {"city": "FAIRFIELD", "state": "WA", "street": "220 MAIN ST", "postcode": "99012"}}},
{"geometry": {"type": "Point", "coordinates": [-117.8354230311, 47.9158587719]}, "type": "Feature", "properties": {"collection_times": [{"days": "Mon-Fri", "time": "3:15pm"}, {"days": "Sat", "time": "10:30am"}, {"days": "Sun", "time": "Closed"}], "id": "9901300001", "name": "USPS COLLECTION BOX - BLUE BOX", "address": {"city": "FORD", "state": "WA", "street": "5273C FORD WELLPINIT RD", "postcode": "99013"}}},
{"geometry": {"type": "Point", "coordinates": [-117.8354230311, 47.9158587719]}, "type": "Feature", "properties": {"collection_times": [{"days": "Mon-Fri", "time": "3:45pm"}, {"days": "Sat", "time": "10:30am"}, {"days": "Sun", "time": "Closed"}], "id": "9901300002", "name": "USPS COLLECTION BOX - PO LOBBY", "address": {"city": "FORD", "state": "WA", "street": "5273C FORD WELLPINIT RD", "postcode": "99013"}}},
{"geometry": {"type": "Point", "coordinates": [-117.5963387576, 47.5597829915]}, "type": "Feature", "properties": {"collection_times": [{"days": "Mon-Fri", "time": "4:15pm"}, {"days": "Sat", "time": "9:45am"}, {"days": "Sun", "time": "Closed"}], "id": "9901400001", "name": "USPS COLLECTION BOX - BLUE BOX", "address": {"city": "FOUR LAKES", "state": "WA", "street": "10117 S ELECTRIC AVE", "postcode": "99014"}}},
{"geometry": {"type": "Point", "coordinates": [-117.5963387576, 47.5597829915]}, "type": "Feature", "properties": {"collection_times": [{"days": "Mon-Fri", "time": "4:15pm"}, {"days": "Sat", "time": "9:45am"}, {"days": "Sun", "time": "Closed"}], "id": "9901400002", "name": "USPS COLLECTION BOX - PO LOBBY", "address": {"city": "FOUR LAKES", "state": "WA", "street": "10117 S ELECTRIC AVE", "postcode": "99014"}}},
{"geometry": {"type": "Point", "coordinates": [-117.1536735519, 47.660132273]}, "type": "Feature", "properties": {"collection_times": [{"days": "Mon-Fri", "time": "5:00pm"}, {"days": "Sat", "time": "10:00am"}, {"days": "Sun", "time": "Closed"}], "id": "9901600003", "name": "USPS COLLECTION BOX - BLUE BOX", "address": {"city": "SPOKANE VALLEY", "state": "WA", "street": "306 N BARKER RD", "postcode": "99016"}}},
{"geometry": {"type": "Point", "coordinates": [-117.1536735519, 47.660132273]}, "type": "Feature", "properties": {"collection_times": [{"days": "Mon-Fri", "time": "5:00pm"}, {"days": "Sat", "time": "10:00am"}, {"days": "Sun", "time": "Closed"}], "id": "9901600005", "name": "USPS COLLECTION BOX - PO LOBBY", "address": {"city": "SPOKANE VALLEY", "state": "WA", "street": "306 N BARKER RD", "postcode": "99016"}}},
{"geometry": {"type": "Point", "coordinates": [-117.1564152779, 47.2795550346]}, "type": "Feature", "properties": {"collection_times": [{"days": "Mon-Fri", "time": "4:30pm"}, {"days": "Sat", "time": "11:30am"}, {"days": "Sun", "time": "Closed"}], "id": "9901800002", "name": "USPS COLLECTION BOX - PO LOBBY", "address": {"city": "LATAH", "state": "WA", "street": "123 W MARKET ST", "postcode": "99018"}}},
{"geometry": {"type": "Point", "coordinates": [-117.0895205043, 47.6703494896]}, "type": "Feature", "properties": {"collection_times": [{"days": "Mon-Fri", "time": "4:30pm"}, {"days": "Sat", "time": "11:45am"}, {"days": "Sun", "time": "Closed"}], "id": "9901900003", "name": "USPS COLLECTION BOX - BLUE BOX", "address": {"city": "LIBERTY LAKE", "state": "WA", "street": "1423 N MOLTER RD", "postcode": "99019"}}},
{"geometry": {"type": "Point", "coordinates": [-117.0895205043, 47.6703494896]}, "type": "Feature", "properties": {"collection_times": [{"days": "Mon-Fri", "time": "4:30pm"}, {"days": "Sat", "time": "11:45am"}, {"days": "Sun", "time": "Closed"}], "id": "9901900005", "name": "USPS COLLECTION BOX - PO LOBBY", "address": {"city": "LIBERTY LAKE", "state": "WA", "street": "1423 N MOLTER RD", "postcode": "99019"}}},
{"geometry": {"type": "Point", "coordinates": [-117.4944883632, 47.5664976214]}, "type": "Feature", "properties": {"collection_times": [{"days": "Mon-Fri", "time": "3:30pm"}, {"days": "Sat", "time": "9:45am"}, {"days": "Sun", "time": "Closed"}], "id": "9902000001", "name": "USPS COLLECTION BOX - BLUE BOX", "address": {"city": "MARSHALL", "state": "WA", "street": "9823 S MARSHALL AVE", "postcode": "99020"}}},
{"geometry": {"type": "Point", "coordinates": [-117.3555998099, 47.7639002732]}, "type": "Feature", "properties": {"collection_times": [{"days": "Mon-Fri", "time": "5:00pm"}, {"days": "Sat", "time": "11:00am"}, {"days": "Sun", "time": "Closed"}], "id": "9902100001", "name": "USPS COLLECTION BOX - PO LOBBY", "address": {"city": "MEAD", "state": "WA", "street": "11616 N MARKET ST", "postcode": "99021"}}},
{"geometry": {"type": "Point", "coordinates": [-117.3555998099, 47.7639002732]}, "type": "Feature", "properties": {"collection_times": [{"days": "Mon-Fri", "time": "5:00pm"}, {"days": "Sat", "time": "11:00am"}, {"days": "Sun", "time": "Closed"}], "id": "9902100002", "name": "USPS COLLECTION BOX - BLUE BOX", "address": {"city": "MEAD", "state": "WA", "street": "11616 N MARKET ST", "postcode": "99021"}}},
{"geometry": {"type": "Point", "coordinates": [-117.3522248375, 47.786061124]}, "type": "Feature", "properties": {"collection_times": [{"days": "Mon-Fri", "time": "12:30pm"}, {"days": "Sat-Sun", "time": "Closed"}], "id": "9902100005", "name": "USPS COLLECTION BOX - BLUE BOX", "address": {"city": "MEAD", "state": "WA", "street": "14202 N MARKET ST", "postcode": "99021"}}},
{"geometry": {"type": "Point", "coordinates": [-117.6795338981, 47.5718786426]}, "type": "Feature", "properties": {"collection_times": [{"days": "Mon-Fri", "time": "4:30pm"}, {"days": "Sat", "time": "12:00pm"}, {"days": "Sun", "time": "Closed"}], "id": "9902200001", "name": "USPS COLLECTION BOX - BLUE BOX", "address": {"city": "MEDICAL LAKE", "state": "WA", "street": "322 E GRACE ST", "postcode": "99022"}}},
{"geometry": {"type": "Point", "coordinates": [-117.6795338981, 47.5718786426]}, "type": "Feature", "properties": {"collection_times": [{"days": "Mon-Fri", "time": "4:30pm"}, {"days": "Sat", "time": "12:00pm"}, {"days": "Sun", "time": "Closed"}], "id": "9902200002", "name": "USPS COLLECTION BOX - PO LOBBY", "address": {"city": "MEDICAL LAKE", "state": "WA", "street": "322 E GRACE ST", "postcode": "99022"}}},
{"geometry": {"type": "Point", "coordinates": [-117.6791425506, 47.5797111385]}, "type": "Feature", "properties": {"collection_times": [{"days": "Mon-Sat", "time": "12:00pm"}, {"days": "Sun", "time": "Closed"}], "id": "9902200003", "name": "USPS COLLECTION BOX - BLUE BOX", "address": {"city": "MEDICAL LAKE", "state": "WA", "street": "215 E HIGHWAY 902", "postcode": "99022"}}},
{"geometry": {"type": "Point", "coordinates": [-117.0678818346, 47.7246938722]}, "type": "Feature", "properties": {"collection_times": [{"days": "Mon-Fri", "time": "4:45pm"}, {"days": "Sat", "time": "11:00am"}, {"days": "Sun", "time": "Closed"}], "id": "9902500001", "name": "USPS COLLECTION BOX - BLUE BOX", "address": {"city": "NEWMAN LAKE", "state": "WA", "street": "25125 E TRENT AVE", "postcode": "99025"}}},
{"geometry": {"type": "Point", "coordinates": [-117.0678818346, 47.7246938722]}, "type": "Feature", "properties": {"collection_times": [{"days": "Mon-Fri", "time": "4:45pm"}, {"days": "Sat", "time": "11:00am"}, {"days": "Sun", "time": "Closed"}], "id": "9902500002", "name": "USPS COLLECTION BOX - PO LOBBY", "address": {"city": "NEWMAN LAKE", "state": "WA", "street": "25125 E TRENT AVE", "postcode": "99025"}}},
{"geometry": {"type": "Point", "coordinates": [-117.5312311935, 47.7589289713]}, "type": "Feature", "properties": {"collection_times": [{"days": "Mon-Fri", "time": "5:00pm"}, {"days": "Sat", "time": "2:30pm"}, {"days": "Sun", "time": "Closed"}], "id": "9902600001", "name": "USPS COLLECTION BOX - BLUE BOX", "address": {"city": "NINE MILE FALLS", "state": "WA", "street": "12522 N NINE MILE RD", "postcode": "99026"}}},
{"geometry": {"type": "Point", "coordinates": [-117.5722128162, 47.813390323]}, "type": "Feature", "properties": {"collection_times": [{"days": "Mon-Fri", "time": "3:45pm"}, {"days": "Sat", "time": "12:30pm"}, {"days": "Sun", "time": "Closed"}], "id": "9902600002", "name": "USPS COLLECTION BOX - BLUE BOX", "address": {"city": "NINE MILE FALLS", "state": "WA", "street": "5978 HIGHWAY 291", "postcode": "99026"}}},
{"geometry": {"type": "Point", "coordinates": [-117.5312311935, 47.7589289713]}, "type": "Feature", "properties": {"collection_times": [{"days": "Mon-Fri", "time": "5:00pm"}, {"days": "Sat", "time": "2:30pm"}, {"days": "Sun", "time": "Closed"}], "id": "9902600003", "name": "USPS COLLECTION BOX - PO LOBBY", "address": {"city": "NINE MILE FALLS", "state": "WA", "street": "12522 N NINE MILE RD", "postcode": "99026"}}},
{"geometry": {"type": "Point", "coordinates": [-117.1156176818, 47.7003278103]}, "type": "Feature", "properties": {"collection_times": [{"days": "Mon-Fri", "time": "4:45pm"}, {"days": "Sat", "time": "11:45am"}, {"days": "Sun", "time": "Closed"}], "id": "9902700001", "name": "USPS COLLECTION BOX - BLUE BOX", "address": {"city": "OTIS ORCHARDS", "state": "WA", "street": "21616 E WELLESLEY AVE", "postcode": "99027"}}},
{"geometry": {"type": "Point", "coordinates": [-117.1156176818, 47.7003278103]}, "type": "Feature", "properties": {"collection_times": [{"days": "Mon-Fri", "time": "5:00pm"}, {"days": "Sat", "time": "12:00pm"}, {"days": "Sun", "time": "Closed"}], "id": "9902700003", "name": "USPS COLLECTION BOX - PO LOBBY", "address": {"city": "OTIS ORCHARDS", "state": "WA", "street": "21616 E WELLESLEY AVE", "postcode": "99027"}}},
{"geometry": {"type": "Point", "coordinates": [-117.8807252556, 47.6688686441]}, "type": "Feature", "properties": {"collection_times": [{"days": "Mon-Fri", "time": "4:00pm"}, {"days": "Sat", "time": "6:00pm"}, {"days": "Sun", "time": "Closed"}], "id": "9902900001", "name": "USPS COLLECTION BOX - BLUE BOX", "address": {"city": "REARDAN", "state": "WA", "street": "155 S LAKE ST", "postcode": "99029"}}},
{"geometry": {"type": "Point", "coordinates": [-117.8807252556, 47.6688686441]}, "type": "Feature", "properties": {"collection_times": [{"days": "Mon-Fri", "time": "4:00pm"}, {"days": "Sat", "time": "9:00am"}, {"days": "Sun", "time": "Closed"}], "id": "9902900002", "name": "USPS COLLECTION BOX - PO LOBBY", "address": {"city": "REARDAN", "state": "WA", "street": "155 S LAKE ST", "postcode": "99029"}}},
{"geometry": {"type": "Point", "coordinates": [-117.1325326285, 47.4522832631]}, "type": "Feature", "properties": {"collection_times": [{"days": "Mon-Fri", "time": "4:15pm"}, {"days": "Sat", "time": "10:00am"}, {"days": "Sun", "time": "Closed"}], "id": "9903000001", "name": "USPS COLLECTION BOX - BLUE BOX", "address": {"city": "ROCKFORD", "state": "WA", "street": "36 W EMMA ST", "postcode": "99030"}}},
{"geometry": {"type": "Point", "coordinates": [-117.1325326285, 47.4522832631]}, "type": "Feature", "properties": {"collection_times": [{"days": "Mon-Fri", "time": "4:15pm"}, {"days": "Sat", "time": "1:30pm"}, {"days": "Sun", "time": "Closed"}], "id": "9903000002", "name": "USPS COLLECTION BOX - PO LOBBY", "address": {"city": "ROCKFORD", "state": "WA", "street": "36 W EMMA ST", "postcode": "99030"}}},
{"geometry": {"type": "Point", "coordinates": [-117.379624629, 47.4293594552]}, "type": "Feature", "properties": {"collection_times": [{"days": "Mon-Fri", "time": "4:00pm"}, {"days": "Sat", "time": "10:30am"}, {"days": "Sun", "time": "Closed"}], "id": "9903100001", "name": "USPS COLLECTION BOX - BLUE BOX", "address": {"city": "SPANGLE", "state": "WA", "street": "230 N MAIN AVE", "postcode": "99031"}}},
{"geometry": {"type": "Point", "coordinates": [-117.9785742671, 47.2999654234]}, "type": "Feature", "properties": {"collection_times": [{"days": "Mon-Fri", "time": "5:00pm"}, {"days": "Sat", "time": "1:00pm"}, {"days": "Sun", "time": "Closed"}], "id": "9903200000", "name": "USPS COLLECTION BOX - PO LOBBY", "address": {"city": "SPRAGUE", "state": "WA", "street": "319 W 1ST ST", "postcode": "99032"}}},
{"geometry": {"type": "Point", "coordinates": [-117.0728626538, 47.2216308379]}, "type": "Feature", "properties": {"collection_times": [{"days": "Mon-Fri", "time": "4:15pm"}, {"days": "Sat", "time": "12:00pm"}, {"days": "Sun", "time": "Closed"}], "id": "9903300001", "name": "USPS COLLECTION BOX - BLUE BOX", "address": {"city": "TEKOA", "state": "WA", "street": "250 S CROSBY ST", "postcode": "99033"}}},
{"geometry": {"type": "Point", "coordinates": [-117.0728626538, 47.2216308379]}, "type": "Feature", "properties": {"collection_times": [{"days": "Mon-Fri", "time": "4:15pm"}, {"days": "Sat", "time": "12:00pm"}, {"days": "Sun", "time": "Closed"}], "id": "9903300002", "name": "USPS COLLECTION BOX - PO LOBBY", "address": {"city": "TEKOA", "state": "WA", "street": "250 S CROSBY ST", "postcode": "99033"}}},
{"geometry": {"type": "Point", "coordinates": [-117.7805866964, 47.8778669481]}, "type": "Feature", "properties": {"collection_times": [{"days": "Mon-Fri", "time": "1:00pm"}, {"days": "Sat", "time": "9:00am"}, {"days": "Sun", "time": "Closed"}], "id": "9903400000", "name": "USPS COLLECTION BOX - BLUE BOX", "address": {"city": "TUM TUM", "state": "WA", "street": "6755 HIGHWAY 291", "postcode": "99034"}}},
{"geometry": {"type": "Point", "coordinates": [-117.2388051208, 47.5353115424]}, "type": "Feature", "properties": {"collection_times": [{"days": "Mon-Fri", "time": "4:15pm"}, {"days": "Sat", "time": "10:00am"}, {"days": "Sun", "time": "Closed"}], "id": "9903600001", "name": "USPS COLLECTION BOX - BLUE BOX", "address": {"city": "VALLEYFORD", "state": "WA", "street": "12809 S MADISON RD", "postcode": "99036"}}},
{"geometry": {"type": "Point", "coordinates": [-117.1994310446, 47.525723547]}, "type": "Feature", "properties": {"collection_times": [{"days": "Mon-Sat", "time": "10:30am"}, {"days": "Sun", "time": "Closed"}], "id": "9903600002", "name": "USPS COLLECTION BOX - BLUE BOX", "address": {"city": "VALLEYFORD", "state": "WA", "street": "14510 E STATE ROAD 27", "postcode": "99036"}}},
{"geometry": {"type": "Point", "coordinates": [-117.2388051208, 47.5353115424]}, "type": "Feature", "properties": {"collection_times": [{"days": "Mon-Fri", "time": "4:15pm"}, {"days": "Sat", "time": "10:00am"}, {"days": "Sun", "time": "Closed"}], "id": "9903600003", "name": "USPS COLLECTION BOX - PO LOBBY", "address": {"city": "VALLEYFORD", "state": "WA", "street": "12809 S MADISON RD", "postcode": "99036"}}},
{"geometry": {"type": "Point", "coordinates": [-117.1940491244, 47.6571086299]}, "type": "Feature", "properties": {"collection_times": [{"days": "Mon-Sat", "time": "10:00am"}, {"days": "Sun", "time": "Closed"}], "id": "9903700004", "name": "USPS COLLECTION BOX - BLUE BOX", "address": {"city": "SPOKANE VALLEY", "state": "WA", "street": "15609 E SPRAGUE AVE", "postcode": "99037"}}},
{"geometry": {"type": "Point", "coordinates": [-117.2000774833, 47.6570329205]}, "type": "Feature", "properties": {"collection_times": [{"days": "Mon-Fri", "time": "5:00pm"}, {"days": "Sat", "time": "3:00pm"}, {"days": "Sun", "time": "Closed"}], "id": "9903700005", "name": "USPS COLLECTION BOX - BLUE BOX", "address": {"city": "SPOKANE VALLEY", "state": "WA", "street": "15202 E SPRAGUE AVE", "postcode": "99037"}}},
{"geometry": {"type": "Point", "coordinates": [-117.2000774833, 47.6570329205]}, "type": "Feature", "properties": {"collection_times": [{"days": "Mon-Fri", "time": "5:00pm"}, {"days": "Sat", "time": "3:00pm"}, {"days": "Sun", "time": "Closed"}], "id": "9903700006", "name": "USPS COLLECTION BOX - BLUE BOX", "address": {"city": "SPOKANE VALLEY", "state": "WA", "street": "15202 E SPRAGUE AVE", "postcode": "99037"}}},
{"geometry": {"type": "Point", "coordinates": [-117.2000774833, 47.6570329205]}, "type": "Feature", "properties": {"collection_times": [{"days": "Mon-Fri", "time": "5:00pm"}, {"days": "Sat", "time": "3:00pm"}, {"days": "Sun", "time": "Closed"}], "id": "9903700008", "name": "USPS COLLECTION BOX - PO LOBBY", "address": {"city": "SPOKANE VALLEY", "state": "WA", "street": "15202 E SPRAGUE AVE", "postcode": "99037"}}},
{"geometry": {"type": "Point", "coordinates": [-117.1965155938, 47.6590155598]}, "type": "Feature", "properties": {"collection_times": [{"days": "Mon-Sat", "time": "10:00am"}, {"days": "Sun", "time": "Closed"}], "id": "9903700009", "name": "USPS COLLECTION BOX - BLUE BOX", "address": {"city": "SPOKANE VALLEY", "state": "WA", "street": "212 N SULLIVAN RD", "postcode": "99037"}}},
{"geometry": {"type": "Point", "coordinates": [-117.2278981716, 47.3423254855]}, "type": "Feature", "properties": {"collection_times": [{"days": "Mon-Fri", "time": "11:15am"}, {"days": "Sat", "time": "9:15am"}, {"days": "Sun", "time": "Closed"}], "id": "9903900002", "name": "USPS COLLECTION BOX - PO LOBBY", "address": {"city": "WAVERLY", "state": "WA", "street": "170 N COMMERCIAL ST", "postcode": "99039"}}},
{"geometry": {"type": "Point", "coordinates": [-118.0078549286, 47.885098715]}, "type": "Feature", "properties": {"collection_times": [{"days": "Mon-Fri", "time": "3:00pm"}, {"days": "Sat", "time": "11:00am"}, {"days": "Sun", "time": "Closed"}], "id": "9904000001", "name": "USPS COLLECTION BOX - BLUE BOX", "address": {"city": "WELLPINIT", "state": "WA", "street": "6210 FORD WELLPINIT RD", "postcode": "99040"}}},
{"geometry": {"type": "Point", "coordinates": [-118.0078549286, 47.885098715]}, "type": "Feature", "properties": {"collection_times": [{"days": "Mon-Fri", "time": "3:00pm"}, {"days": "Sat", "time": "11:00am"}, {"days": "Sun", "time": "Closed"}], "id": "9904000002", "name": "USPS COLLECTION BOX - PO LOBBY", "address": {"city": "WELLPINIT", "state": "WA", "street": "6210 FORD WELLPINIT RD", "postcode": "99040"}}}
]}
