{"type": "FeatureCollection", "features": [
{"geometry": {"type": "Point", "coordinates": [-117.8359593158, 48.3594651463]}, "type": "Feature", "properties": {"collection_times": [{"days": "Mon-Fri", "time": "5:00pm"}, {"days": "Sat", "time": "2:00pm"}, {"days": "Sun", "time": "Closed"}], "id": "9910100001", "name": "USPS COLLECTION BOX - BLUE BOX", "address": {"city": "ADDY", "state": "WA", "street": "1386 MAIN ST", "postcode": "99101"}}},
{"geometry": {"type": "Point", "coordinates": [-117.8359593158, 48.3594651463]}, "type": "Feature", "properties": {"collection_times": [{"days": "Mon-Fri", "time": "5:00pm"}, {"days": "Sat", "time": "2:00pm"}, {"days": "Sun", "time": "Closed"}], "id": "9910100002", "name": "USPS COLLECTION BOX - PO LOBBY", "address": {"city": "ADDY", "state": "WA", "street": "1386 MAIN ST", "postcode": "99101"}}},
{"geometry": {"type": "Point", "coordinates": [-117.2517738284, 46.7902041887]}, "type": "Feature", "properties": {"collection_times": [{"days": "Mon-Fri", "time": "4:45pm"}, {"days": "Sat", "time": "10:00am"}, {"days": "Sun", "time": "Closed"}], "id": "9910200000", "name": "USPS COLLECTION BOX - PO LOBBY", "address": {"city": "ALBION", "state": "WA", "street": "201 W FRONT ST", "postcode": "99102"}}},
{"geometry": {"type": "Point", "coordinates": [-117.2517738284, 46.7902041887]}, "type": "Feature", "properties": {"collection_times": [{"days": "Mon-Fri", "time": "4:45pm"}, {"days": "Sat", "time": "3:30pm"}, {"days": "Sun", "time": "Closed"}], "id": "9910200001", "name": "USPS COLLECTION BOX - BLUE BOX", "address": {"city": "ALBION", "state": "WA", "street": "201 W FRONT ST", "postcode": "99102"}}},
{"geometry": {"type": "Point", "coordinates": [-118.9408102119, 47.7120768324]}, "type": "Feature", "properties": {"collection_times": [{"days": "Mon-Fri", "time": "4:30pm"}, {"days": "Sat", "time": "9:45am"}, {"days": "Sun", "time": "Closed"}], "id": "9910300001", "name": "USPS COLLECTION BOX - BLUE BOX", "address": {"city": "ALMIRA", "state": "WA", "street": "102 N 3RD ST", "postcode": "99103"}}},
{"geometry": {"type": "Point", "coordinates": [-118.9408102119, 47.7120768324]}, "type": "Feature", "properties": {"collection_times": [{"days": "Mon-Fri", "time": "12:15pm"}, {"days": "Sat", "time": "9:45am"}, {"days": "Sun", "time": "Closed"}], "id": "9910300002", "name": "USPS COLLECTION BOX - PO LOBBY", "address": {"city": "ALMIRA", "state": "WA", "street": "102 N 3RD ST", "postcode": "99103"}}},
{"geometry": {"type": "Point", "coordinates": [-117.7143497987, 48.2762486321]}, "type": "Feature", "properties": {"collection_times": [{"days": "Mon-Fri", "time": "4:00pm"}, {"days": "Sat", "time": "11:00am"}, {"days": "Sun", "time": "Closed"}], "id": "9910900001", "name": "USPS COLLECTION BOX - BLUE BOX", "address": {"city": "CHEWELAH", "state": "WA", "street": "202 E MAIN AVE", "postcode": "99109"}}},
{"geometry": {"type": "Point", "coordinates": [-117.7144995245, 48.276207525]}, "type": "Feature", "properties": {"collection_times": [{"days": "Mon-Fri", "time": "4:00pm"}, {"days": "Sat", "time": "11:00am"}, {"days": "Sun", "time": "Closed"}], "id": "9910900003", "name": "USPS COLLECTION BOX - PO LOBBY", "address": {"city": "CHEWELAH", "state": "WA", "street": "202 E MAIN AVE", "postcode": "99109"}}},
{"geometry": {"type": "Point", "coordinates": [-117.5674840165, 47.9977041463]}, "type": "Feature", "properties": {"collection_times": [{"days": "Mon-Fri", "time": "4:45pm"}, {"days": "Sat", "time": "10:45am"}, {"days": "Sun", "time": "Closed"}], "id": "9911000001", "name": "USPS COLLECTION BOX - BLUE BOX", "address": {"city": "CLAYTON", "state": "WA", "street": "4486 RAILROAD AVE", "postcode": "99110"}}},
{"geometry": {"type": "Point", "coordinates": [-117.5674840165, 47.9977041463]}, "type": "Feature", "properties": {"collection_times": [{"days": "Mon-Fri", "time": "4:45pm"}, {"days": "Sat", "time": "10:45am"}, {"days": "Sun", "time": "Closed"}], "id": "9911000002", "name": "USPS COLLECTION BOX - PO LOBBY", "address": {"city": "CLAYTON", "state": "WA", "street": "4486 RAILROAD AVE", "postcode": "99110"}}},
{"geometry": {"type": "Point", "coordinates": [-117.3747892528, 46.880848951]}, "type": "Feature", "properties": {"collection_times": [{"days": "Mon-Fri", "time": "3:00pm"}, {"days": "Sat", "time": "11:30am"}, {"days": "Sun", "time": "Closed"}], "id": "9911100002", "name": "USPS COLLECTION BOX - BLUE BOX", "address": {"city": "COLFAX", "state": "WA", "street": "203 N MILL ST", "postcode": "99111"}}},
{"geometry": {"type": "Point", "coordinates": [-117.3645738735, 46.8797629908]}, "type": "Feature", "properties": {"collection_times": [{"days": "Mon-Fri", "time": "5:00pm"}, {"days": "Sat", "time": "2:00pm"}, {"days": "Sun", "time": "Closed"}], "id": "9911100004", "name": "USPS COLLECTION BOX - BLUE BOX", "address": {"city": "COLFAX", "state": "WA", "street": "211 S MAIN ST", "postcode": "99111"}}},
{"geometry": {"type": "Point", "coordinates": [-117.3645738735, 46.8797629908]}, "type": "Feature", "properties": {"collection_times": [{"days": "Mon-Fri", "time": "5:00pm"}, {"days": "Sat", "time": "2:00pm"}, {"days": "Sun", "time": "Closed"}], "id": "9911100005", "name": "USPS COLLECTION BOX - BLUE BOX", "address": {"city": "COLFAX", "state": "WA", "street": "211 S MAIN ST", "postcode": "99111"}}},
{"geometry": {"type": "Point", "coordinates": [-117.3646342371, 46.8837814496]}, "type": "Feature", "properties": {"collection_times": [{"days": "Mon-Fri", "time": "3:00pm"}, {"days": "Sat", "time": "11:30am"}, {"days": "Sun", "time": "Closed"}], "id": "9911100012", "name": "USPS COLLECTION BOX - BLUE BOX", "address": {"city": "COLFAX", "state": "WA", "street": "400 N MAIN ST", "postcode": "99111"}}},
{"geometry": {"type": "Point", "coordinates": [-117.3645738735, 46.8797629908]}, "type": "Feature", "properties": {"collection_times": [{"days": "Mon-Fri", "time": "5:30pm"}, {"days": "Sat", "time": "2:00pm"}, {"days": "Sun", "time": "Closed"}], "id": "9911100014", "name": "USPS COLLECTION BOX - PO LOBBY", "address": {"city": "COLFAX", "state": "WA", "street": "211 S MAIN ST", "postcode": "99111"}}},
{"geometry": {"type": "Point", "coordinates": [-117.1285884092, 46.565258973]}, "type": "Feature", "properties": {"collection_times": [{"days": "Mon-Fri", "time": "4:00pm"}, {"days": "Sat", "time": "10:00am"}, {"days": "Sun", "time": "Closed"}], "id": "9911300002", "name": "USPS COLLECTION BOX - PO LOBBY", "address": {"city": "COLTON", "state": "WA", "street": "509 STEPTOE ST", "postcode": "99113"}}},
{"geometry": {"type": "Point", "coordinates": [-117.905677222, 48.5474659449]}, "type": "Feature", "properties": {"collection_times": [{"days": "Mon-Sat", "time": "3:00pm"}, {"days": "Sun", "time": "Closed"}], "id": "9911400003", "name": "USPS COLLECTION BOX - BLUE BOX", "address": {"city": "COLVILLE", "state": "WA", "street": "391 N MAIN ST", "postcode": "99114"}}},
{"geometry": {"type": "Point", "coordinates": [-117.9052673442, 48.5354777108]}, "type": "Feature", "properties": {"collection_times": [{"days": "Mon-Sat", "time": "3:00pm"}, {"days": "Sun", "time": "Closed"}], "id": "9911400004", "name": "USPS COLLECTION BOX - BLUE BOX", "address": {"city": "COLVILLE", "state": "WA", "street": "982 S MAIN ST", "postcode": "99114"}}},
{"geometry": {"type": "Point", "coordinates": [-117.7311698345, 48.6548288865]}, "type": "Feature", "properties": {"collection_times": [{"days": "Mon-Sat", "time": "11:00am"}, {"days": "Sun", "time": "Closed"}], "id": "9911400005", "name": "USPS COLLECTION BOX - BLUE BOX", "address": {"city": "COLVILLE", "state": "WA", "street": "810 NORTH HIGHWAY", "postcode": "99114"}}},
{"geometry": {"type": "Point", "coordinates": [-117.7311698345, 48.6548288865]}, "type": "Feature", "properties": {"collection_times": [{"days": "Mon-Sat", "time": "11:00am"}, {"days": "Sun", "time": "Closed"}], "id": "9911400006", "name": "USPS COLLECTION BOX - BLUE BOX", "address": {"city": "COLVILLE", "state": "WA", "street": "1250 NORTH HIGHWAY", "postcode": "99114"}}},
{"geometry": {"type": "Point", "coordinates": [-117.9055950689, 48.5423099267]}, "type": "Feature", "properties": {"collection_times": [{"days": "Mon-Sat", "time": "3:00pm"}, {"days": "Sun", "time": "Closed"}], "id": "9911400007", "name": "USPS COLLECTION BOX - BLUE BOX", "address": {"city": "COLVILLE", "state": "WA", "street": "298 S MAIN ST", "postcode": "99114"}}},
{"geometry": {"type": "Point", "coordinates": [-117.9042874265, 48.5432885567]}, "type": "Feature", "properties": {"collection_times": [{"days": "Mon-Fri", "time": "5:00pm"}, {"days": "Sat", "time": "4:00pm"}, {"days": "Sun", "time": "Closed"}], "id": "9911400008", "name": "USPS COLLECTION BOX - PO LOBBY", "address": {"city": "COLVILLE", "state": "WA", "street": "204 S OAK ST", "postcode": "99114"}}},
{"geometry": {"type": "Point", "coordinates": [-117.904327087, 48.5432493112]}, "type": "Feature", "properties": {"collection_times": [{"days": "Mon-Fri", "time": "5:00pm"}, {"days": "Sat", "time": "4:00pm"}, {"days": "Sun", "time": "Closed"}], "id": "9911400010", "name": "USPS COLLECTION BOX - BLUE BOX", "address": {"city": "COLVILLE", "state": "WA", "street": "204 S OAK ST", "postcode": "99114"}}},
{"geometry": {"type": "Point", "coordinates": [-117.9042874265, 48.5432885567]}, "type": "Feature", "properties": {"collection_times": [{"days": "Mon-Fri", "time": "5:00pm"}, {"days": "Sat", "time": "4:00pm"}, {"days": "Sun", "time": "Closed"}], "id": "9911400012", "name": "USPS COLLECTION BOX - BLUE BOX", "address": {"city": "COLVILLE", "state": "WA", "street": "204 S OAK ST", "postcode": "99114"}}},
{"geometry": {"type": "Point", "coordinates": [-119.2928594668, 47.6111198524]}, "type": "Feature", "properties": {"collection_times": [{"days": "Mon-Fri", "time": "4:15pm"}, {"days": "Sat", "time": "9:45am"}, {"days": "Sun", "time": "Closed"}], "id": "9911500001", "name": "USPS COLLECTION BOX - BLUE BOX", "address": {"city": "COULEE CITY", "state": "WA", "street": "101 N 4TH ST", "postcode": "99115"}}},
{"geometry": {"type": "Point", "coordinates": [-119.2928594668, 47.6111198524]}, "type": "Feature", "properties": {"collection_times": [{"days": "Mon-Fri", "time": "4:30pm"}, {"days": "Sat", "time": "9:45am"}, {"days": "Sun", "time": "Closed"}], "id": "9911500004", "name": "USPS COLLECTION BOX - PO LOBBY", "address": {"city": "COULEE CITY", "state": "WA", "street": "101 N 4TH ST", "postcode": "99115"}}},
{"geometry": {"type": "Point", "coordinates": [-118.9744916756, 47.9662787352]}, "type": "Feature", "properties": {"collection_times": [{"days": "Mon-Fri", "time": "4:15pm"}, {"days": "Sat", "time": "3:30pm"}, {"days": "Sun", "time": "Closed"}], "id": "9911600002", "name": "USPS COLLECTION BOX - BLUE BOX", "address": {"city": "COULEE DAM", "state": "WA", "street": "402 MEAD WAY", "postcode": "99116"}}},
{"geometry": {"type": "Point", "coordinates": [-118.9653976032, 47.9747922611]}, "type": "Feature", "properties": {"collection_times": [{"days": "Mon-Sat", "time": "1:30pm"}, {"days": "Sun", "time": "Closed"}], "id": "9911600003", "name": "USPS COLLECTION BOX - BLUE BOX", "address": {"city": "COULEE DAM", "state": "WA", "street": "1114 CENTRAL DR", "postcode": "99116"}}},
{"geometry": {"type": "Point", "coordinates": [-118.9532469554, 48.0013694756]}, "type": "Feature", "properties": {"collection_times": [{"days": "Mon-Sat", "time": "10:00am"}, {"days": "Sun", "time": "Closed"}], "id": "9911600004", "name": "USPS COLLECTION BOX - BLUE BOX", "address": {"city": "COULEE DAM", "state": "WA", "street": "300 COLUMBIA AVE", "postcode": "99116"}}},
{"geometry": {"type": "Point", "coordinates": [-118.9744916756, 47.9662787352]}, "type": "Feature", "properties": {"collection_times": [{"days": "Mon-Fri", "time": "4:15pm"}, {"days": "Sat", "time": "9:45am"}, {"days": "Sun", "time": "Closed"}], "id": "9911600007", "name": "USPS COLLECTION BOX - PO LOBBY", "address": {"city": "COULEE DAM", "state": "WA", "street": "402 MEAD WAY", "postcode": "99116"}}},
{"geometry": {"type": "Point", "coordinates": [-118.5199306701, 47.75853177]}, "type": "Feature", "properties": {"collection_times": [{"days": "Mon-Fri", "time": "4:30pm"}, {"days": "Sat", "time": "12:00pm"}, {"days": "Sun", "time": "Closed"}], "id": "9911700001", "name": "USPS COLLECTION BOX - BLUE BOX", "address": {"city": "CRESTON", "state": "WA", "street": "115 SW CRESTON AVE", "postcode": "99117"}}},
{"geometry": {"type": "Point", "coordinates": [-118.5988759556, 48.8827831908]}, "type": "Feature", "properties": {"collection_times": [{"days": "Mon-Fri", "time": "2:30pm"}, {"days": "Sat", "time": "12:00pm"}, {"days": "Sun", "time": "Closed"}], "id": "9911800001", "name": "USPS COLLECTION BOX - BLUE BOX", "address": {"city": "CURLEW", "state": "WA", "street": "1 RIVER ST", "postcode": "99118"}}},
{"geometry": {"type": "Point", "coordinates": [-118.5988759556, 48.8827831908]}, "type": "Feature", "properties": {"collection_times": [{"days": "Mon-Fri", "time": "2:45pm"}, {"days": "Sat", "time": "12:00pm"}, {"days": "Sun", "time": "Closed"}], "id": "9911800002", "name": "USPS COLLECTION BOX - PO LOBBY", "address": {"city": "CURLEW", "state": "WA", "street": "1 RIVER ST", "postcode": "99118"}}},
{"geometry": {"type": "Point", "coordinates": [-117.3296499812, 48.4436841211]}, "type": "Feature", "properties": {"collection_times": [{"days": "Mon-Fri", "time": "11:45am"}, {"days": "Sat", "time": "11:00am"}, {"days": "Sun", "time": "Closed"}], "id": "9911900001", "name": "USPS COLLECTION BOX - PO LOBBY", "address": {"city": "CUSICK", "state": "WA", "street": "205 S 1ST ST", "postcode": "99119"}}},
{"geometry": {"type": "Point", "coordinates": [-118.5094542386, 48.9926171274]}, "type": "Feature", "properties": {"collection_times": [{"days": "Mon-Fri", "time": "2:45pm"}, {"days": "Sat", "time": "1:30pm"}, {"days": "Sun", "time": "Closed"}], "id": "9912100001", "name": "USPS COLLECTION BOX - BLUE BOX", "address": {"city": "DANVILLE", "state": "WA", "street": "2 FOURTH OF JULY CREEK RD", "postcode": "99121"}}},
{"geometry": {"type": "Point", "coordinates": [-118.5097575113, 48.9929469484]}, "type": "Feature", "properties": {"collection_times": [{"days": "Mon-Fri", "time": "2:45pm"}, {"days": "Sat", "time": "1:30pm"}, {"days": "Sun", "time": "Closed"}], "id": "9912100002", "name": "USPS COLLECTION BOX - PO LOBBY", "address": {"city": "DANVILLE", "state": "WA", "street": "2 FOURTH OF JULY CREEK RD", "postcode": "99121"}}},
{"geometry": {"type": "Point", "coordinates": [-118.1511257445, 47.6548247334]}, "type": "Feature", "properties": {"collection_times": [{"days": "Mon-Fri", "time": "4:30pm"}, {"days": "Sat", "time": "12:00pm"}, {"days": "Sun", "time": "Closed"}], "id": "9912200001", "name": "USPS COLLECTION BOX - BLUE BOX", "address": {"city": "DAVENPORT", "state": "WA", "street": "402 7TH ST", "postcode": "99122"}}},
{"geometry": {"type": "Point", "coordinates": [-118.1511257445, 47.6548247334]}, "type": "Feature", "properties": {"collection_times": [{"days": "Mon-Fri", "time": "4:30pm"}, {"days": "Sat", "time": "12:00pm"}, {"days": "Sun", "time": "Closed"}], "id": "9912200004", "name": "USPS COLLECTION BOX - PO LOBBY", "address": {"city": "DAVENPORT", "state": "WA", "street": "402 7TH ST", "postcode": "99122"}}},
{"geometry": {"type": "Point", "coordinates": [-119.0386348294, 47.932275133]}, "type": "Feature", "properties": {"collection_times": [{"days": "Mon-Fri", "time": "4:30pm"}, {"days": "Sat", "time": "11:00am"}, {"days": "Sun", "time": "Closed"}], "id": "9912300001", "name": "USPS COLLECTION BOX - BLUE BOX", "address": {"city": "ELECTRIC CITY", "state": "WA", "street": "5 W COULEE BLVD", "postcode": "99123"}}},
{"geometry": {"type": "Point", "coordinates": [-119.0386348294, 47.932275133]}, "type": "Feature", "properties": {"collection_times": [{"days": "Mon-Fri", "time": "4:30pm"}, {"days": "Sat", "time": "11:00am"}, {"days": "Sun", "time": "Closed"}], "id": "9912300002", "name": "USPS COLLECTION BOX - PO LOBBY", "address": {"city": "ELECTRIC CITY", "state": "WA", "street": "5 W COULEE BLVD", "postcode": "99123"}}},
{"geometry": {"type": "Point", "coordinates": [-118.9539911881, 47.9977698081]}, "type": "Feature", "properties": {"collection_times": [{"days": "Mon-Fri", "time": "3:45pm"}, {"days": "Sat", "time": "9:45am"}, {"days": "Sun", "time": "Closed"}], "id": "9912400001", "name": "USPS COLLECTION BOX - PO LOBBY", "address": {"city": "ELMER CITY", "state": "WA", "street": "16 S FRONT ST", "postcode": "99124"}}},
{"geometry": {"type": "Point", "coordinates": [-118.9539911881, 47.9977698081]}, "type": "Feature", "properties": {"collection_times": [{"days": "Mon-Fri", "time": "3:45pm"}, {"days": "Sat", "time": "9:45am"}, {"days": "Sun", "time": "Closed"}], "id": "9912400002", "name": "USPS COLLECTION BOX - BLUE BOX", "address": {"city": "ELMER CITY", "state": "WA", "street": "16 S FRONT ST", "postcode": "99124"}}},
{"geometry": {"type": "Point", "coordinates": [-117.6849003432, 46.9283514024]}, "type": "Feature", "properties": {"collection_times": [{"days": "Mon-Fri", "time": "5:15pm"}, {"days": "Sat", "time": "1:30pm"}, {"days": "Sun", "time": "Closed"}], "id": "9912500001", "name": "USPS COLLECTION BOX - BLUE BOX", "address": {"city": "ENDICOTT", "state": "WA", "street": "308 D ST", "postcode": "99125"}}},
{"geometry": {"type": "Point", "coordinates": [-117.6849003432, 46.9283514024]}, "type": "Feature", "properties": {"collection_times": [{"days": "Mon-Fri", "time": "12:45pm"}, {"days": "Sat", "time": "9:15am"}, {"days": "Sun", "time": "Closed"}], "id": "9912500002", "name": "USPS COLLECTION BOX - PO LOBBY", "address": {"city": "ENDICOTT", "state": "WA", "street": "308 D ST", "postcode": "99125"}}},
{"geometry": {"type": "Point", "coordinates": [-117.04695719, 47.0900351205]}, "type": "Feature", "properties": {"collection_times": [{"days": "Mon-Fri", "time": "11:45am"}, {"days": "Sat", "time": "9:45am"}, {"days": "Sun", "time": "Closed"}], "id": "9912800001", "name": "USPS COLLECTION BOX - PO LOBBY", "address": {"city": "FARMINGTON", "state": "WA", "street": "105 E MAIN ST", "postcode": "99128"}}},
{"geometry": {"type": "Point", "coordinates": [-117.04695719, 47.0900351205]}, "type": "Feature", "properties": {"collection_times": [{"days": "Mon-Fri", "time": "4:15pm"}, {"days": "Sat", "time": "12:00pm"}, {"days": "Sun", "time": "Closed"}], "id": "9912800002", "name": "USPS COLLECTION BOX - BLUE BOX", "address": {"city": "FARMINGTON", "state": "WA", "street": "105 E MAIN ST", "postcode": "99128"}}},
{"geometry": {"type": "Point", "coordinates": [-118.2250902753, 48.0418681659]}, "type": "Feature", "properties": {"collection_times": [{"days": "Mon-Sat", "time": "1:30pm"}, {"days": "Sun", "time": "Closed"}], "id": "9912900000", "name": "USPS COLLECTION BOX - BLUE BOX", "address": {"city": "FRUITLAND", "state": "WA", "street": "5369 HIGHWAY 25 S", "postcode": "99129"}}},
{"geometry": {"type": "Point", "coordinates": [-117.1417870496, 47.0078576452]}, "type": "Feature", "properties": {"collection_times": [{"days": "Mon-Fri", "time": "4:45pm"}, {"days": "Sat", "time": "1:00pm"}, {"days": "Sun", "time": "Closed"}], "id": "9913000001", "name": "USPS COLLECTION BOX - PO LOBBY", "address": {"city": "GARFIELD", "state": "WA", "street": "302 W CALIFORNIA ST", "postcode": "99130"}}},
{"geometry": {"type": "Point", "coordinates": [-117.14123, 47.00787]}, "type": "Feature", "properties": {"collection_times": [{"days": "Mon-Fri", "time": "4:45pm"}, {"days": "Sat-Sun", "time": "Closed"}], "id": "9913000002", "name": "USPS COLLECTION BOX - BLUE BOX", "address": {"city": "GARFIELD", "state": "WA", "street": "302 W CALIFORNIA ST", "postcode": "99130"}}},
{"geometry": {"type": "Point", "coordinates": [-118.1634123633, 48.3533837751]}, "type": "Feature", "properties": {"collection_times": [{"days": "Mon-Sat", "time": "12:00pm"}, {"days": "Sun", "time": "Closed"}], "id": "9913100002", "name": "USPS COLLECTION BOX - PO LOBBY", "address": {"city": "GIFFORD", "state": "WA", "street": "3379 HIGHWAY 25 S", "postcode": "99131"}}},
{"geometry": {"type": "Point", "coordinates": [-119.0043510169, 47.9414010503]}, "type": "Feature", "properties": {"collection_times": [{"days": "Mon-Fri", "time": "4:15pm"}, {"days": "Sat", "time": "11:30am"}, {"days": "Sun", "time": "Closed"}], "id": "9913300001", "name": "USPS COLLECTION BOX - BLUE BOX", "address": {"city": "GRAND COULEE", "state": "WA", "street": "407 MIDWAY AVE", "postcode": "99133"}}},
{"geometry": {"type": "Point", "coordinates": [-119.0043510169, 47.9414010503]}, "type": "Feature", "properties": {"collection_times": [{"days": "Mon-Fri", "time": "4:30pm"}, {"days": "Sat", "time": "11:30am"}, {"days": "Sun", "time": "Closed"}], "id": "9913300002", "name": "USPS COLLECTION BOX - PO LOBBY", "address": {"city": "GRAND COULEE", "state": "WA", "street": "407 MIDWAY AVE", "postcode": "99133"}}},
{"geometry": {"type": "Point", "coordinates": [-118.2548223563, 47.480733613]}, "type": "Feature", "properties": {"collection_times": [{"days": "Mon-Fri", "time": "4:00pm"}, {"days": "Sat", "time": "9:30am"}, {"days": "Sun", "time": "Closed"}], "id": "9913400001", "name": "USPS COLLECTION BOX - PO LOBBY", "address": {"city": "HARRINGTON", "state": "WA", "street": "310 W MAIN ST", "postcode": "99134"}}},
{"geometry": {"type": "Point", "coordinates": [-118.2548223563, 47.480733613]}, "type": "Feature", "properties": {"collection_times": [{"days": "Mon-Fri", "time": "4:00pm"}, {"days": "Sat", "time": "9:15am"}, {"days": "Sun", "time": "Closed"}], "id": "9913400002", "name": "USPS COLLECTION BOX - BLUE BOX", "address": {"city": "HARRINGTON", "state": "WA", "street": "310 W MAIN ST", "postcode": "99134"}}},
{"geometry": {"type": "Point", "coordinates": [-119.1058412287, 47.6903390621]}, "type": "Feature", "properties": {"collection_times": [{"days": "Mon-Fri", "time": "4:30pm"}, {"days": "Sat", "time": "10:00am"}, {"days": "Sun", "time": "Closed"}], "id": "9913500001", "name": "USPS COLLECTION BOX - BLUE BOX", "address": {"city": "HARTLINE", "state": "WA", "street": "867 WILLARD ST", "postcode": "99135"}}},
{"geometry": {"type": "Point", "coordinates": [-119.1058412287, 47.6903390621]}, "type": "Feature", "properties": {"collection_times": [{"days": "Mon-Fri", "time": "12:45pm"}, {"days": "Sat", "time": "10:00am"}, {"days": "Sun", "time": "Closed"}], "id": "9913500002", "name": "USPS COLLECTION BOX - PO LOBBY", "address": {"city": "HARTLINE", "state": "WA", "street": "867 WILLARD ST", "postcode": "99135"}}},
{"geometry": {"type": "Point", "coordinates": [-118.2045832581, 48.0889322771]}, "type": "Feature", "properties": {"collection_times": [{"days": "Mon-Fri", "time": "2:45pm"}, {"days": "Sat", "time": "12:00pm"}, {"days": "Sun", "time": "Closed"}], "id": "9913700001", "name": "USPS COLLECTION BOX - BLUE BOX", "address": {"city": "HUNTERS", "state": "WA", "street": "4990 HIGHWAY 25 S", "postcode": "99137"}}},
{"geometry": {"type": "Point", "coordinates": [-118.2045832581, 48.0889322771]}, "type": "Feature", "properties": {"collection_times": [{"days": "Mon-Fri", "time": "2:45pm"}, {"days": "Sat", "time": "12:00pm"}, {"days": "Sun", "time": "Closed"}], "id": "9913700002", "name": "USPS COLLECTION BOX - PO LOBBY", "address": {"city": "HUNTERS", "state": "WA", "street": "4990 HIGHWAY 25 S", "postcode": "99137"}}},
{"geometry": {"type": "Point", "coordinates": [-118.2201128644, 48.4656763858]}, "type": "Feature", "properties": {"collection_times": [{"days": "Mon-Fri", "time": "2:00pm"}, {"days": "Sat", "time": "11:00am"}, {"days": "Sun", "time": "Closed"}], "id": "9913800001", "name": "USPS COLLECTION BOX - BLUE BOX", "address": {"city": "INCHELIUM", "state": "WA", "street": "2316 INCHELIUM HWY", "postcode": "99138"}}},
{"geometry": {"type": "Point", "coordinates": [-118.2201128644, 48.4656763858]}, "type": "Feature", "properties": {"collection_times": [{"days": "Mon-Fri", "time": "2:00pm"}, {"days": "Sat", "time": "11:00am"}, {"days": "Sun", "time": "Closed"}], "id": "9913800002", "name": "USPS COLLECTION BOX - PO LOBBY", "address": {"city": "INCHELIUM", "state": "WA", "street": "2316 INCHELIUM HWY", "postcode": "99138"}}},
{"geometry": {"type": "Point", "coordinates": [-117.4217866468, 48.7408389653]}, "type": "Feature", "properties": {"collection_times": [{"days": "Mon-Fri", "time": "4:00pm"}, {"days": "Sat", "time": "12:00pm"}, {"days": "Sun", "time": "Closed"}], "id": "9913900001", "name": "USPS COLLECTION BOX - BLUE BOX", "address": {"city": "IONE", "state": "WA", "street": "419 MAIN ST", "postcode": "99139"}}},
{"geometry": {"type": "Point", "coordinates": [-117.4217866468, 48.7408389653]}, "type": "Feature", "properties": {"collection_times": [{"days": "Mon-Fri", "time": "4:00pm"}, {"days": "Sat", "time": "12:00pm"}, {"days": "Sun", "time": "Closed"}], "id": "9913900002", "name": "USPS COLLECTION BOX - PO LOBBY", "address": {"city": "IONE", "state": "WA", "street": "419 MAIN ST", "postcode": "99139"}}},
{"geometry": {"type": "Point", "coordinates": [-118.6709141405, 48.0445186811]}, "type": "Feature", "properties": {"collection_times": [{"days": "Mon-Sat", "time": "2:45pm"}, {"days": "Sun", "time": "Closed"}], "id": "9914000001", "name": "USPS COLLECTION BOX - BLUE BOX", "address": {"city": "KELLER", "state": "WA", "street": "11673 S HIGHWAY 21", "postcode": "99140"}}},
{"geometry": {"type": "Point", "coordinates": [-118.0564034856, 48.6087012137]}, "type": "Feature", "properties": {"collection_times": [{"days": "Mon-Fri", "time": "4:45pm"}, {"days": "Sat", "time": "3:45pm"}, {"days": "Sun", "time": "Closed"}], "id": "9914100001", "name": "USPS COLLECTION BOX - BLUE BOX", "address": {"city": "KETTLE FALLS", "state": "WA", "street": "510 MEYERS ST", "postcode": "99141"}}},
{"geometry": {"type": "Point", "coordinates": [-118.0564034856, 48.6087012137]}, "type": "Feature", "properties": {"collection_times": [{"days": "Mon-Fri", "time": "5:00pm"}, {"days": "Sat", "time": "4:00pm"}, {"days": "Sun", "time": "Closed"}], "id": "9914100002", "name": "USPS COLLECTION BOX - PO LOBBY", "address": {"city": "KETTLE FALLS", "state": "WA", "street": "510 MEYERS ST", "postcode": "99141"}}},
{"geometry": {"type": "Point", "coordinates": [-118.059787583, 48.6106202206]}, "type": "Feature", "properties": {"collection_times": [{"days": "Mon-Sat", "time": "2:15pm"}, {"days": "Sun", "time": "Closed"}], "id": "9914100003", "name": "USPS COLLECTION BOX - BLUE BOX", "address": {"city": "KETTLE FALLS", "state": "WA", "street": "280 W 3RD AVE", "postcode": "99141"}}},
{"geometry": {"type": "Point", "coordinates": [-117.8804390047, 46.8147609059]}, "type": "Feature", "properties": {"collection_times": [{"days": "Mon-Fri", "time": "4:30pm"}, {"days": "Sat", "time": "12:00pm"}, {"days": "Sun", "time": "Closed"}], "id": "9914300001", "name": "USPS COLLECTION BOX - PO LOBBY", "address": {"city": "LACROSSE", "state": "WA", "street": "219 S MAIN ST", "postcode": "99143"}}},
{"geometry": {"type": "Point", "coordinates": [-118.2246326227, 48.9886451668]}, "type": "Feature", "properties": {"collection_times": [{"days": "Mon-Fri", "time": "1:30pm"}, {"days": "Sat", "time": "11:00am"}, {"days": "Sun", "time": "Closed"}], "id": "9914600001", "name": "USPS COLLECTION BOX - BLUE BOX", "address": {"city": "LAURIER", "state": "WA", "street": "27007 N HIGHWAY 395", "postcode": "99146"}}},
{"geometry": {"type": "Point", "coordinates": [-118.2246326227, 48.9886451668]}, "type": "Feature", "properties": {"collection_times": [{"days": "Mon-Fri", "time": "1:45pm"}, {"days": "Sat", "time": "11:15am"}, {"days": "Sun", "time": "Closed"}], "id": "9914600002", "name": "USPS COLLECTION BOX - PO LOBBY", "address": {"city": "LAURIER", "state": "WA", "street": "27007 N HIGHWAY 395 STE 1", "postcode": "99146"}}},
{"geometry": {"type": "Point", "coordinates": [-117.6271333128, 48.06261394]}, "type": "Feature", "properties": {"collection_times": [{"days": "Mon-Fri", "time": "4:45pm"}, {"days": "Sat", "time": "12:15pm"}, {"days": "Sun", "time": "Closed"}], "id": "9914800001", "name": "USPS COLLECTION BOX - PO LOBBY", "address": {"city": "LOON LAKE", "state": "WA", "street": "3992 COLVILLE RD", "postcode": "99148"}}},
{"geometry": {"type": "Point", "coordinates": [-117.6271333128, 48.06261394]}, "type": "Feature", "properties": {"collection_times": [{"days": "Mon-Fri", "time": "4:45pm"}, {"days": "Sat", "time": "12:15pm"}, {"days": "Sun", "time": "Closed"}], "id": "9914800003", "name": "USPS COLLECTION BOX - BLUE BOX", "address": {"city": "LOON LAKE", "state": "WA", "street": "3992 COLVILLE RD", "postcode": "99148"}}},
{"geometry": {"type": "Point", "coordinates": [-117.4728015008, 47.2295229361]}, "type": "Feature", "properties": {"collection_times": [{"days": "Mon-Fri", "time": "4:30pm"}, {"days": "Sat", "time": "11:45am"}, {"days": "Sun", "time": "Closed"}], "id": "9914900001", "name": "USPS COLLECTION BOX - BLUE BOX", "address": {"city": "MALDEN", "state": "WA", "street": "1 S MAIN ST", "postcode": "99149"}}},
{"geometry": {"type": "Point", "coordinates": [-117.4728015008, 47.2295229361]}, "type": "Feature", "properties": {"collection_times": [{"days": "Mon-Sat", "time": "11:45am"}, {"days": "Sun", "time": "Closed"}], "id": "9914900002", "name": "USPS COLLECTION BOX - PO LOBBY", "address": {"city": "MALDEN", "state": "WA", "street": "1 S MAIN ST", "postcode": "99149"}}},
{"geometry": {"type": "Point", "coordinates": [-118.5974686976, 48.8186550545]}, "type": "Feature", "properties": {"collection_times": [{"days": "Mon-Fri", "time": "2:15pm"}, {"days": "Sat", "time": "10:00am"}, {"days": "Sun", "time": "Closed"}], "id": "9915000001", "name": "USPS COLLECTION BOX - BLUE BOX", "address": {"city": "MALO", "state": "WA", "street": "17500 N HIGHWAY 21", "postcode": "99150"}}},
{"geometry": {"type": "Point", "coordinates": [-118.5974686976, 48.8186550545]}, "type": "Feature", "properties": {"collection_times": [{"days": "Mon-Fri", "time": "1:15pm"}, {"days": "Sat", "time": "10:00am"}, {"days": "Sun", "time": "Closed"}], "id": "9915000002", "name": "USPS COLLECTION BOX - PO LOBBY", "address": {"city": "MALO", "state": "WA", "street": "17500 N HIGHWAY 21", "postcode": "99150"}}},
{"geometry": {"type": "Point", "coordinates": [-118.0603174152, 48.6639077027]}, "type": "Feature", "properties": {"collection_times": [{"days": "Mon-Fri", "time": "3:00pm"}, {"days": "Sat", "time": "10:30am"}, {"days": "Sun", "time": "Closed"}], "id": "9915100002", "name": "USPS COLLECTION BOX - PO LOBBY", "address": {"city": "MARCUS", "state": "WA", "street": "1309 CIDER ST", "postcode": "99151"}}},
{"geometry": {"type": "Point", "coordinates": [-117.3890207779, 48.8501017102]}, "type": "Feature", "properties": {"collection_times": [{"days": "Mon-Fri", "time": "3:45pm"}, {"days": "Sat", "time": "11:00am"}, {"days": "Sun", "time": "Closed"}], "id": "9915200001", "name": "USPS COLLECTION BOX - BLUE BOX", "address": {"city": "METALINE", "state": "WA", "street": "101 N MAIN ST", "postcode": "99152"}}},
{"geometry": {"type": "Point", "coordinates": [-117.3890207779, 48.8501017102]}, "type": "Feature", "properties": {"collection_times": [{"days": "Mon-Fri", "time": "12:00pm"}, {"days": "Sat", "time": "11:00am"}, {"days": "Sun", "time": "Closed"}], "id": "9915200002", "name": "USPS COLLECTION BOX - PO LOBBY", "address": {"city": "METALINE", "state": "WA", "street": "101 N MAIN ST", "postcode": "99152"}}},
{"geometry": {"type": "Point", "coordinates": [-117.37074, 48.86225]}, "type": "Feature", "properties": {"collection_times": [{"days": "Mon-Fri", "time": "3:45pm"}, {"days": "Sat", "time": "11:00am"}, {"days": "Sun", "time": "Closed"}], "id": "9915300001", "name": "USPS COLLECTION BOX - BLUE BOX", "address": {"city": "METALINE FALLS", "state": "WA", "street": "224 E 5TH AVE", "postcode": "99153"}}},
{"geometry": {"type": "Point", "coordinates": [-117.3710507667, 48.8621158382]}, "type": "Feature", "properties": {"collection_times": [{"days": "Mon-Fri", "time": "3:45pm"}, {"days": "Sat", "time": "11:00am"}, {"days": "Sun", "time": "Closed"}], "id": "9915300002", "name": "USPS COLLECTION BOX - PO LOBBY", "address": {"city": "METALINE FALLS", "state": "WA", "street": "224 E 5TH AVE", "postcode": "99153"}}},
{"geometry": {"type": "Point", "coordinates": [-118.9766961443, 48.1678209487]}, "type": "Feature", "properties": {"collection_times": [{"days": "Mon-Fri", "time": "2:00pm"}, {"days": "Sat", "time": "10:45am"}, {"days": "Sun", "time": "Closed"}], "id": "9915500001", "name": "USPS COLLECTION BOX - BLUE BOX", "address": {"city": "NESPELEM", "state": "WA", "street": "100 9TH ST", "postcode": "99155"}}},
{"geometry": {"type": "Point", "coordinates": [-118.9765546749, 48.163819794]}, "type": "Feature", "properties": {"collection_times": [{"days": "Mon-Fri", "time": "3:15pm"}, {"days": "Sat", "time": "10:45am"}, {"days": "Sun", "time": "Closed"}], "id": "9915500002", "name": "USPS COLLECTION BOX - PO LOBBY", "address": {"city": "NESPELEM", "state": "WA", "street": "100 9TH ST", "postcode": "99155"}}},
{"geometry": {"type": "Point", "coordinates": [-117.0439578226, 48.1814914558]}, "type": "Feature", "properties": {"collection_times": [{"days": "Mon-Fri", "time": "5:15pm"}, {"days": "Sat", "time": "11:15am"}, {"days": "Sun", "time": "Closed"}], "id": "9915600001", "name": "USPS COLLECTION BOX - BLUE BOX", "address": {"city": "NEWPORT", "state": "WA", "street": "100 N WASHINGTON AVE", "postcode": "99156"}}},
{"geometry": {"type": "Point", "coordinates": [-117.0428927027, 48.1810986611]}, "type": "Feature", "properties": {"collection_times": [{"days": "Mon-Fri", "time": "5:15pm"}, {"days": "Sat", "time": "11:15am"}, {"days": "Sun", "time": "Closed"}], "id": "9915600004", "name": "USPS COLLECTION BOX - BLUE BOX", "address": {"city": "NEWPORT", "state": "WA", "street": "320 W 1ST ST", "postcode": "99156"}}},
{"geometry": {"type": "Point", "coordinates": [-117.0439578226, 48.1814914558]}, "type": "Feature", "properties": {"collection_times": [{"days": "Mon-Fri", "time": "5:15pm"}, {"days": "Sat", "time": "11:15am"}, {"days": "Sun", "time": "Closed"}], "id": "9915600006", "name": "USPS COLLECTION BOX - PO LOBBY", "address": {"city": "NEWPORT", "state": "WA", "street": "100 N WASHINGTON AVE", "postcode": "99156"}}},
{"geometry": {"type": "Point", "coordinates": [-117.0441020163, 48.1789668215]}, "type": "Feature", "properties": {"collection_times": [{"days": "Mon-Sat", "time": "9:30am"}, {"days": "Sun", "time": "Closed"}], "id": "9915600012", "name": "USPS COLLECTION BOX - BLUE BOX", "address": {"city": "NEWPORT", "state": "WA", "street": "301 S WASHINGTON AVE", "postcode": "99156"}}},
{"geometry": {"type": "Point", "coordinates": [-117.0458045516, 48.1839863637]}, "type": "Feature", "properties": {"collection_times": [{"days": "Mon-Sat", "time": "9:30am"}, {"days": "Sun", "time": "Closed"}], "id": "9915600013", "name": "USPS COLLECTION BOX - BLUE BOX", "address": {"city": "NEWPORT", "state": "WA", "street": "121 W WALNUT ST", "postcode": "99156"}}},
{"geometry": {"type": "Point", "coordinates": [-117.781948658, 48.9159390007]}, "type": "Feature", "properties": {"collection_times": [{"days": "Mon-Sat", "time": "2:30pm"}, {"days": "Sun", "time": "Closed"}], "id": "9915700001", "name": "USPS COLLECTION BOX - BLUE BOX", "address": {"city": "NORTHPORT", "state": "WA", "street": "409 CENTER AVE", "postcode": "99157"}}},
{"geometry": {"type": "Point", "coordinates": [-117.781948658, 48.9159390007]}, "type": "Feature", "properties": {"collection_times": [{"days": "Mon-Sat", "time": "2:45pm"}, {"days": "Sun", "time": "Closed"}], "id": "9915700002", "name": "USPS COLLECTION BOX - PO LOBBY", "address": {"city": "NORTHPORT", "state": "WA", "street": "409 CENTER AVE", "postcode": "99157"}}},
{"geometry": {"type": "Point", "coordinates": [-117.2426450268, 47.1283039437]}, "type": "Feature", "properties": {"collection_times": [{"days": "Mon-Fri", "time": "4:30pm"}, {"days": "Sat", "time": "10:30am"}, {"days": "Sun", "time": "Closed"}], "id": "9915800001", "name": "USPS COLLECTION BOX - PO LOBBY", "address": {"city": "OAKESDALE", "state": "WA", "street": "106 W STEPTOE AVE", "postcode": "99158"}}},
{"geometry": {"type": "Point", "coordinates": [-118.6937998116, 47.3333112337]}, "type": "Feature", "properties": {"collection_times": [{"days": "Mon-Fri", "time": "3:15pm"}, {"days": "Sat", "time": "10:30am"}, {"days": "Sun", "time": "Closed"}], "id": "9915900001", "name": "USPS COLLECTION BOX - BLUE BOX", "address": {"city": "ODESSA", "state": "WA", "street": "203 W 1ST AVE", "postcode": "99159"}}},
{"geometry": {"type": "Point", "coordinates": [-118.6937998116, 47.3333112337]}, "type": "Feature", "properties": {"collection_times": [{"days": "Mon-Fri", "time": "3:15pm"}, {"days": "Sat", "time": "10:30am"}, {"days": "Sun", "time": "Closed"}], "id": "9915900002", "name": "USPS COLLECTION BOX - PO LOBBY", "address": {"city": "ODESSA", "state": "WA", "street": "203 W 1ST AVE", "postcode": "99159"}}},
{"geometry": {"type": "Point", "coordinates": [-118.6937998116, 47.3333112337]}, "type": "Feature", "properties": {"collection_times": [{"days": "Mon-Fri", "time": "3:15pm"}, {"days": "Sat", "time": "10:30am"}, {"days": "Sun", "time": "Closed"}], "id": "9915900004", "name": "USPS COLLECTION BOX - PO LOBBY", "address": {"city": "ODESSA", "state": "WA", "street": "203 W 1ST AVE", "postcode": "99159"}}},
{"geometry": {"type": "Point", "coordinates": [-118.2038293372, 48.8659776838]}, "type": "Feature", "properties": {"collection_times": [{"days": "Mon-Fri", "time": "2:00pm"}, {"days": "Sat", "time": "11:00am"}, {"days": "Sun", "time": "Closed"}], "id": "9916000000", "name": "USPS COLLECTION BOX - PO LOBBY", "address": {"city": "ORIENT", "state": "WA", "street": "365 MAIN ST", "postcode": "99160"}}},
{"geometry": {"type": "Point", "coordinates": [-117.0744970712, 46.9099174362]}, "type": "Feature", "properties": {"collection_times": [{"days": "Mon-Fri", "time": "4:15pm"}, {"days": "Sat", "time": "10:30am"}, {"days": "Sun", "time": "Closed"}], "id": "9916100001", "name": "USPS COLLECTION BOX - BLUE BOX", "address": {"city": "PALOUSE", "state": "WA", "street": "300 E MAIN ST", "postcode": "99161"}}},
{"geometry": {"type": "Point", "coordinates": [-117.0744970712, 46.9099174362]}, "type": "Feature", "properties": {"collection_times": [{"days": "Mon-Fri", "time": "4:15pm"}, {"days": "Sat", "time": "10:30am"}, {"days": "Sun", "time": "Closed"}], "id": "9916100002", "name": "USPS COLLECTION BOX - PO LOBBY", "address": {"city": "PALOUSE", "state": "WA", "street": "300 E MAIN ST", "postcode": "99161"}}},
{"geometry": {"type": "Point", "coordinates": [-117.1843376541, 46.7202485615]}, "type": "Feature", "properties": {"collection_times": [{"days": "Mon-Fri", "time": "5:30pm"}, {"days": "Sat", "time": "4:00pm"}, {"days": "Sun", "time": "Closed"}], "id": "9916300002", "name": "USPS COLLECTION BOX - PO LOBBY", "address": {"city": "PULLMAN", "state": "WA", "street": "1135 S GRAND AVE", "postcode": "99163"}}},
{"geometry": {"type": "Point", "coordinates": [-117.1839509875, 46.7127032265]}, "type": "Feature", "properties": {"collection_times": [{"days": "Mon-Fri", "time": "4:30pm"}, {"days": "Sat", "time": "3:30pm"}, {"days": "Sun", "time": "Closed"}], "id": "9916300004", "name": "USPS COLLECTION BOX - BLUE BOX", "address": {"city": "PULLMAN", "state": "WA", "street": "1600 S GRAND AVE", "postcode": "99163"}}},
{"geometry": {"type": "Point", "coordinates": [-117.1797801543, 46.7296134225]}, "type": "Feature", "properties": {"collection_times": [{"days": "Mon-Fri", "time": "5:00pm"}, {"days": "Sat", "time": "3:30pm"}, {"days": "Sun", "time": "Closed"}], "id": "9916300005", "name": "USPS COLLECTION BOX - BLUE BOX", "address": {"city": "PULLMAN", "state": "WA", "street": "301 E MAIN ST", "postcode": "99163"}}},
{"geometry": {"type": "Point", "coordinates": [-117.1839476952, 46.7275567555]}, "type": "Feature", "properties": {"collection_times": [{"days": "Mon-Fri", "time": "5:00pm"}, {"days": "Sat", "time": "3:30pm"}, {"days": "Sun", "time": "Closed"}], "id": "9916300006", "name": "USPS COLLECTION BOX - BLUE BOX", "address": {"city": "PULLMAN", "state": "WA", "street": "375 S GRAND AVE", "postcode": "99163"}}},
{"geometry": {"type": "Point", "coordinates": [-117.1798095171, 46.7295586119]}, "type": "Feature", "properties": {"collection_times": [{"days": "Mon-Fri", "time": "5:00pm"}, {"days": "Sat", "time": "3:30pm"}, {"days": "Sun", "time": "Closed"}], "id": "9916300007", "name": "USPS COLLECTION BOX - BLUE BOX", "address": {"city": "PULLMAN", "state": "WA", "street": "305 E MAIN ST", "postcode": "99163"}}},
{"geometry": {"type": "Point", "coordinates": [-117.1548448429, 46.7431521739]}, "type": "Feature", "properties": {"collection_times": [{"days": "Mon-Sat", "time": "10:00am"}, {"days": "Sun", "time": "Closed"}], "id": "9916300010", "name": "USPS COLLECTION BOX - BLUE BOX", "address": {"city": "PULLMAN", "state": "WA", "street": "1540 NE MERMAN DR", "postcode": "99163"}}},
{"geometry": {"type": "Point", "coordinates": [-117.1661789395, 46.7202746318]}, "type": "Feature", "properties": {"collection_times": [{"days": "Mon-Fri", "time": "4:30pm"}, {"days": "Sat", "time": "3:30pm"}, {"days": "Sun", "time": "Closed"}], "id": "9916300013", "name": "USPS COLLECTION BOX - BLUE BOX", "address": {"city": "PULLMAN", "state": "WA", "street": "1205 SE PROFESSIONAL MALL BLVD", "postcode": "99163"}}},
{"geometry": {"type": "Point", "coordinates": [-117.1511537801, 46.7317252188]}, "type": "Feature", "properties": {"collection_times": [{"days": "Mon-Fri", "time": "4:45pm"}, {"days": "Sat", "time": "3:30pm"}, {"days": "Sun", "time": "Closed"}], "id": "9916300015", "name": "USPS COLLECTION BOX - BLUE BOX", "address": {"city": "PULLMAN", "state": "WA", "street": "1460 NE WILSON ST", "postcode": "99163"}}},
{"geometry": {"type": "Point", "coordinates": [-117.1843376541, 46.7202485615]}, "type": "Feature", "properties": {"collection_times": [{"days": "Mon-Fri", "time": "5:30pm"}, {"days": "Sat", "time": "4:00pm"}, {"days": "Sun", "time": "Closed"}], "id": "9916300017", "name": "USPS COLLECTION BOX - BLUE BOX", "address": {"city": "PULLMAN", "state": "WA", "street": "1135 S GRAND AVE", "postcode": "99163"}}},
{"geometry": {"type": "Point", "coordinates": [-117.1721768468, 46.7404155331]}, "type": "Feature", "properties": {"collection_times": [{"days": "Mon-Fri", "time": "4:45pm"}, {"days": "Sat", "time": "3:30pm"}, {"days": "Sun", "time": "Closed"}], "id": "9916300019", "name": "USPS COLLECTION BOX - BLUE BOX", "address": {"city": "PULLMAN", "state": "WA", "street": "1225 N GRAND AVE", "postcode": "99163"}}},
{"geometry": {"type": "Point", "coordinates": [-117.1480136882, 46.730753985]}, "type": "Feature", "properties": {"collection_times": [{"days": "Mon-Fri", "time": "4:30pm"}, {"days": "Sat", "time": "3:30pm"}, {"days": "Sun", "time": "Closed"}], "id": "9916300029", "name": "USPS COLLECTION BOX - BLUE BOX", "address": {"city": "PULLMAN", "state": "WA", "street": "1621 NE WILSON ST", "postcode": "99163"}}},
{"geometry": {"type": "Point", "coordinates": [-118.7382431454, 48.6487463566]}, "type": "Feature", "properties": {"collection_times": [{"days": "Mon-Fri", "time": "3:30pm"}, {"days": "Sat", "time": "1:30pm"}, {"days": "Sun", "time": "Closed"}], "id": "9916600001", "name": "USPS COLLECTION BOX - BLUE BOX", "address": {"city": "REPUBLIC", "state": "WA", "street": "128 N CLARK ST", "postcode": "99166"}}},
{"geometry": {"type": "Point", "coordinates": [-118.7382431454, 48.6487463566]}, "type": "Feature", "properties": {"collection_times": [{"days": "Mon-Fri", "time": "3:45pm"}, {"days": "Sat", "time": "1:30pm"}, {"days": "Sun", "time": "Closed"}], "id": "9916600004", "name": "USPS COLLECTION BOX - PO LOBBY", "address": {"city": "REPUBLIC", "state": "WA", "street": "128 N CLARK ST", "postcode": "99166"}}},
{"geometry": {"type": "Point", "coordinates": [-118.7375777409, 48.6451774409]}, "type": "Feature", "properties": {"collection_times": [{"days": "Mon-Fri", "time": "3:00pm"}, {"days": "Sat", "time": "2:30pm"}, {"days": "Sun", "time": "Closed"}], "id": "9916600005", "name": "USPS COLLECTION BOX - BLUE BOX", "address": {"city": "REPUBLIC", "state": "WA", "street": "852 S CLARK AVE", "postcode": "99166"}}},
{"geometry": {"type": "Point", "coordinates": [-118.7347619366, 48.6490736156]}, "type": "Feature", "properties": {"collection_times": [{"days": "Mon-Fri", "time": "2:30pm"}, {"days": "Sat", "time": "2:00pm"}, {"days": "Sun", "time": "Closed"}], "id": "9916600006", "name": "USPS COLLECTION BOX - BLUE BOX", "address": {"city": "REPUBLIC", "state": "WA", "street": "350 E DELAWARE AVE", "postcode": "99166"}}},
{"geometry": {"type": "Point", "coordinates": [-118.6830488872, 48.6516178716]}, "type": "Feature", "properties": {"collection_times": [{"days": "Mon-Fri", "time": "2:30pm"}, {"days": "Sat", "time": "2:00pm"}, {"days": "Sun", "time": "Closed"}], "id": "9916600009", "name": "USPS COLLECTION BOX - BLUE BOX", "address": {"city": "REPUBLIC", "state": "WA", "street": "16267 N HIGHWAY 21", "postcode": "99166"}}},
{"geometry": {"type": "Point", "coordinates": [-118.3811345143, 47.1270482337]}, "type": "Feature", "properties": {"collection_times": [{"days": "Mon-Fri", "time": "5:00pm"}, {"days": "Sat", "time": "2:45pm"}, {"days": "Sun", "time": "Closed"}], "id": "9916900008", "name": "USPS COLLECTION BOX - BLUE BOX", "address": {"city": "RITZVILLE", "state": "WA", "street": "210 N WASHINGTON ST", "postcode": "99169"}}},
{"geometry": {"type": "Point", "coordinates": [-118.3811345143, 47.1270482337]}, "type": "Feature", "properties": {"collection_times": [{"days": "Mon-Fri", "time": "4:45pm"}, {"days": "Sat", "time": "2:45pm"}, {"days": "Sun", "time": "Closed"}], "id": "9916900009", "name": "USPS COLLECTION BOX - PO LOBBY", "address": {"city": "RITZVILLE", "state": "WA", "street": "210 N WASHINGTON ST", "postcode": "99169"}}},
{"geometry": {"type": "Point", "coordinates": [-117.370153152, 47.2315528142]}, "type": "Feature", "properties": {"collection_times": [{"days": "Mon-Fri", "time": "4:45pm"}, {"days": "Sat", "time": "1:00pm"}, {"days": "Sun", "time": "Closed"}], "id": "9917000001", "name": "USPS COLLECTION BOX - BLUE BOX", "address": {"city": "ROSALIA", "state": "WA", "street": "511 S WHITMAN AVE", "postcode": "99170"}}},
{"geometry": {"type": "Point", "coordinates": [-117.370153152, 47.2315528142]}, "type": "Feature", "properties": {"collection_times": [{"days": "Mon-Fri", "time": "4:45pm"}, {"days": "Sat", "time": "7:30am"}, {"days": "Sun", "time": "Closed"}], "id": "9917000002", "name": "USPS COLLECTION BOX - PO LOBBY", "address": {"city": "ROSALIA", "state": "WA", "street": "511 S WHITMAN AVE", "postcode": "99170"}}},
{"geometry": {"type": "Point", "coordinates": [-117.5814909195, 47.0920962906]}, "type": "Feature", "properties": {"collection_times": [{"days": "Mon-Fri", "time": "4:15pm"}, {"days": "Sat", "time": "1:00pm"}, {"days": "Sun", "time": "Closed"}], "id": "9917100001", "name": "USPS COLLECTION BOX - PO LOBBY", "address": {"city": "SAINT JOHN", "state": "WA", "street": "5 N PARK ST", "postcode": "99171"}}},
{"geometry": {"type": "Point", "coordinates": [-117.5827294733, 47.0891013244]}, "type": "Feature", "properties": {"collection_times": [{"days": "Mon-Fri", "time": "12:00pm"}, {"days": "Sat", "time": "11:00am"}, {"days": "Sun", "time": "Closed"}], "id": "9917100002", "name": "USPS COLLECTION BOX - BLUE BOX", "address": {"city": "SAINT JOHN", "state": "WA", "street": "100 STATE ROUTE 21 N", "postcode": "99171"}}},
{"geometry": {"type": "Point", "coordinates": [-117.5814192084, 47.0918472459]}, "type": "Feature", "properties": {"collection_times": [{"days": "Mon-Fri", "time": "4:15pm"}, {"days": "Sat-Sun", "time": "Closed"}], "id": "9917100003", "name": "USPS COLLECTION BOX - BLUE BOX", "address": {"city": "SAINT JOHN", "state": "WA", "street": "5 N PARK ST", "postcode": "99171"}}},
{"geometry": {"type": "Point", "coordinates": [-117.7413315848, 48.0558097081]}, "type": "Feature", "properties": {"collection_times": [{"days": "Mon-Fri", "time": "4:00pm"}, {"days": "Sat", "time": "10:00am"}, {"days": "Sun", "time": "Closed"}], "id": "9917300001", "name": "USPS COLLECTION BOX - BLUE BOX", "address": {"city": "SPRINGDALE", "state": "WA", "street": "113 S MAIN ST", "postcode": "99173"}}},
{"geometry": {"type": "Point", "coordinates": [-117.7413315848, 48.0558097081]}, "type": "Feature", "properties": {"collection_times": [{"days": "Mon-Fri", "time": "2:15pm"}, {"days": "Sat", "time": "10:00am"}, {"days": "Sun", "time": "Closed"}], "id": "9917300002", "name": "USPS COLLECTION BOX - PO LOBBY", "address": {"city": "SPRINGDALE", "state": "WA", "street": "113 S MAIN ST", "postcode": "99173"}}},
{"geometry": {"type": "Point", "coordinates": [-117.3561223732, 47.0059837262]}, "type": "Feature", "properties": {"collection_times": [{"days": "Mon-Sat", "time": "10:00am"}, {"days": "Sun", "time": "Closed"}], "id": "9917400001", "name": "USPS COLLECTION BOX - BLUE BOX", "address": {"city": "STEPTOE", "state": "WA", "street": "100 STEPTOE ST", "postcode": "99174"}}},
{"geometry": {"type": "Point", "coordinates": [-117.0872293175, 46.5388660214]}, "type": "Feature", "properties": {"collection_times": [{"days": "Mon-Fri", "time": "4:00pm"}, {"days": "Sat", "time": "10:00am"}, {"days": "Sun", "time": "Closed"}], "id": "9917900001", "name": "USPS COLLECTION BOX - BLUE BOX", "address": {"city": "UNIONTOWN", "state": "WA", "street": "117 MONTGOMERY ST", "postcode": "99179"}}},
{"geometry": {"type": "Point", "coordinates": [-117.0872293175, 46.5388660214]}, "type": "Feature", "properties": {"collection_times": [{"days": "Mon-Fri", "time": "4:00pm"}, {"days": "Sat", "time": "10:00am"}, {"days": "Sun", "time": "Closed"}], "id": "9917900002", "name": "USPS COLLECTION BOX - PO LOBBY", "address": {"city": "UNIONTOWN", "state": "WA", "street": "117 MONTGOMERY ST", "postcode": "99179"}}},
{"geometry": {"type": "Point", "coordinates": [-117.2775014042, 48.3153146791]}, "type": "Feature", "properties": {"collection_times": [{"days": "Mon-Fri", "time": "4:45pm"}, {"days": "Sat", "time": "1:00pm"}, {"days": "Sun", "time": "Closed"}], "id": "9918000001", "name": "USPS COLLECTION BOX - BLUE BOX", "address": {"city": "USK", "state": "WA", "street": "102 5TH ST", "postcode": "99180"}}},
{"geometry": {"type": "Point", "coordinates": [-117.2775014042, 48.3153146791]}, "type": "Feature", "properties": {"collection_times": [{"days": "Mon-Fri", "time": "5:00pm"}, {"days": "Sat", "time": "1:00pm"}, {"days": "Sun", "time": "Closed"}], "id": "9918000002", "name": "USPS COLLECTION BOX - PO LOBBY", "address": {"city": "USK", "state": "WA", "street": "102 5TH ST", "postcode": "99180"}}},
{"geometry": {"type": "Point", "coordinates": [-117.7263069505, 48.1759167972]}, "type": "Feature", "properties": {"collection_times": [{"days": "Mon-Fri", "time": "4:30pm"}, {"days": "Sat", "time": "2:00pm"}, {"days": "Sun", "time": "Closed"}], "id": "9918100001", "name": "USPS COLLECTION BOX - BLUE BOX", "address": {"city": "VALLEY", "state": "WA", "street": "3073 3RD AVE", "postcode": "99181"}}},
{"geometry": {"type": "Point", "coordinates": [-117.7263069505, 48.1759167972]}, "type": "Feature", "properties": {"collection_times": [{"days": "Mon-Fri", "time": "4:30pm"}, {"days": "Sat", "time": "2:00pm"}, {"days": "Sun", "time": "Closed"}], "id": "9918100002", "name": "USPS COLLECTION BOX - PO LOBBY", "address": {"city": "VALLEY", "state": "WA", "street": "3073 3RD AVE", "postcode": "99181"}}},
{"geometry": {"type": "Point", "coordinates": [-118.7057661106, 47.7586118884]}, "type": "Feature", "properties": {"collection_times": [{"days": "Mon-Fri", "time": "4:15pm"}, {"days": "Sat", "time": "10:15am"}, {"days": "Sun", "time": "Closed"}], "id": "9918500001", "name": "USPS COLLECTION BOX - BLUE BOX", "address": {"city": "WILBUR", "state": "WA", "street": "5 SW BROADWAY ST", "postcode": "99185"}}},
{"geometry": {"type": "Point", "coordinates": [-118.7057661106, 47.7586118884]}, "type": "Feature", "properties": {"collection_times": [{"days": "Mon-Fri", "time": "4:15pm"}, {"days": "Sat", "time": "10:15am"}, {"days": "Sun", "time": "Closed"}], "id": "9918500003", "name": "USPS COLLECTION BOX - PO LOBBY", "address": {"city": "WILBUR", "state": "WA", "street": "5 SW BROADWAY ST", "postcode": "99185"}}},
{"geometry": {"type": "Point", "coordinates": [-118.6996074997, 47.7716576336]}, "type": "Feature", "properties": {"collection_times": [{"days": "Mon-Sat", "time": "3:15pm"}, {"days": "Sun", "time": "Closed"}], "id": "9918500004", "name": "USPS COLLECTION BOX - BLUE BOX", "address": {"city": "WILBUR", "state": "WA", "street": "100 STATE ROUTE 21 N", "postcode": "99185"}}}
]}
