{"type": "FeatureCollection", "features": [
{"geometry": {"type": "Point", "coordinates": [-117.4487780442, 47.6679954013]}, "type": "Feature", "properties": {"collection_times": [{"days": "Mon-Fri", "time": "2:15pm"}, {"days": "Sat-Sun", "time": "Closed"}], "id": "9920100006", "name": "USPS COLLECTION BOX - BLUE BOX", "address": {"city": "SPOKANE", "state": "WA", "street": "2501 W BOONE AVE", "postcode": "99201"}}},
{"geometry": {"type": "Point", "coordinates": [-117.4383526269, 47.6643436069]}, "type": "Feature", "properties": {"collection_times": [{"days": "Mon-Fri", "time": "3:15pm"}, {"days": "Sat-Sun", "time": "Closed"}], "id": "9920100011", "name": "USPS COLLECTION BOX - BLUE BOX", "address": {"city": "SPOKANE", "state": "WA", "street": "1811 W BROADWAY AVE", "postcode": "99201"}}},
{"geometry": {"type": "Point", "coordinates": [-117.4181490412, 47.6591482553]}, "type": "Feature", "properties": {"collection_times": [{"days": "Mon-Fri", "time": "5:00pm"}, {"days": "Sat", "time": "1:00pm"}, {"days": "Sun", "time": "Closed"}], "id": "9920100020", "name": "USPS COLLECTION BOX - BLUE BOX", "address": {"city": "SPOKANE", "state": "WA", "street": "207 N WASHINGTON ST", "postcode": "99201"}}},
{"geometry": {"type": "Point", "coordinates": [-117.426626354, 47.6702722331]}, "type": "Feature", "properties": {"collection_times": [{"days": "Mon-Fri", "time": "3:30pm"}, {"days": "Sat-Sun", "time": "Closed"}], "id": "9920100023", "name": "USPS COLLECTION BOX - BLUE BOX", "address": {"city": "SPOKANE", "state": "WA", "street": "1402 N MONROE ST", "postcode": "99201"}}},
{"geometry": {"type": "Point", "coordinates": [-117.4129023115, 47.6718379542]}, "type": "Feature", "properties": {"collection_times": [{"days": "Mon-Fri", "time": "12:05pm"}, {"days": "Sat-Sun", "time": "Closed"}], "id": "9920100025", "name": "USPS COLLECTION BOX - BLUE BOX", "address": {"city": "SPOKANE", "state": "WA", "street": "106 W MISSION AVE", "postcode": "99201"}}},
{"geometry": {"type": "Point", "coordinates": [-117.4154398947, 47.6717394664]}, "type": "Feature", "properties": {"collection_times": [{"days": "Mon-Sat", "time": "12:05pm"}, {"days": "Sun", "time": "Closed"}], "id": "9920100026", "name": "USPS COLLECTION BOX - BLUE BOX", "address": {"city": "SPOKANE", "state": "WA", "street": "222 W MISSION AVE", "postcode": "99201"}}},
{"geometry": {"type": "Point", "coordinates": [-117.4234694353, 47.6572636966]}, "type": "Feature", "properties": {"collection_times": [{"days": "Mon-Fri", "time": "5:00pm"}, {"days": "Sat", "time": "1:00pm"}, {"days": "Sun", "time": "Closed"}], "id": "9920100031", "name": "USPS COLLECTION BOX - BLUE BOX", "address": {"city": "SPOKANE", "state": "WA", "street": "10 N POST ST", "postcode": "99201"}}},
{"geometry": {"type": "Point", "coordinates": [-117.4307793236, 47.6579544456]}, "type": "Feature", "properties": {"collection_times": [{"days": "Mon-Fri", "time": "12:05pm"}, {"days": "Sat-Sun", "time": "Closed"}], "id": "9920100035", "name": "USPS COLLECTION BOX - BLUE BOX", "address": {"city": "SPOKANE", "state": "WA", "street": "1224 W RIVERSIDE AVE", "postcode": "99201"}}},
{"geometry": {"type": "Point", "coordinates": [-117.4250716121, 47.6581649514]}, "type": "Feature", "properties": {"collection_times": [{"days": "Mon-Fri", "time": "6:30pm"}, {"days": "Sat", "time": "4:30pm"}, {"days": "Sun", "time": "Closed"}], "id": "9920100059", "name": "USPS COLLECTION BOX - BLUE BOX", "address": {"city": "SPOKANE", "state": "WA", "street": "117 N LINCOLN ST", "postcode": "99201"}}},
{"geometry": {"type": "Point", "coordinates": [-117.4253895377, 47.6579570713]}, "type": "Feature", "properties": {"collection_times": [{"days": "Mon-Fri", "time": "6:30pm"}, {"days": "Sat", "time": "4:30pm"}, {"days": "Sun", "time": "Closed"}], "id": "9920100061", "name": "USPS COLLECTION BOX - BLUE BOX", "address": {"city": "SPOKANE", "state": "WA", "street": "904 W RIVERSIDE AVE", "postcode": "99201"}}},
{"geometry": {"type": "Point", "coordinates": [-117.4216669907, 47.6590273894]}, "type": "Feature", "properties": {"collection_times": [{"days": "Mon-Fri", "time": "5:00pm"}, {"days": "Sat", "time": "4:30pm"}, {"days": "Sun", "time": "Closed"}], "id": "9920100066", "name": "USPS COLLECTION BOX - BLUE BOX", "address": {"city": "SPOKANE", "state": "WA", "street": "601 W MAIN AVE", "postcode": "99201"}}},
{"geometry": {"type": "Point", "coordinates": [-117.4218787403, 47.6653183651]}, "type": "Feature", "properties": {"collection_times": [{"days": "Mon-Fri", "time": "5:00pm"}, {"days": "Sat", "time": "1:00pm"}, {"days": "Sun", "time": "Closed"}], "id": "9920100069", "name": "USPS COLLECTION BOX - BLUE BOX", "address": {"city": "SPOKANE", "state": "WA", "street": "621 W MALLON AVE", "postcode": "99201"}}},
{"geometry": {"type": "Point", "coordinates": [-117.4267320881, 47.6653686228]}, "type": "Feature", "properties": {"collection_times": [{"days": "Mon-Fri", "time": "5:00pm"}, {"days": "Sat", "time": "1:00pm"}, {"days": "Sun", "time": "Closed"}], "id": "9920100072", "name": "USPS COLLECTION BOX - BLUE BOX", "address": {"city": "SPOKANE", "state": "WA", "street": "901 N MONROE ST", "postcode": "99201"}}},
{"geometry": {"type": "Point", "coordinates": [-117.429651821, 47.6643223798]}, "type": "Feature", "properties": {"collection_times": [{"days": "Mon-Fri", "time": "4:00pm"}, {"days": "Sat-Sun", "time": "Closed"}], "id": "9920100076", "name": "USPS COLLECTION BOX - BLUE BOX", "address": {"city": "SPOKANE", "state": "WA", "street": "1199 W BROADWAY AVE", "postcode": "99201"}}},
{"geometry": {"type": "Point", "coordinates": [-117.429008434, 47.663477681]}, "type": "Feature", "properties": {"collection_times": [{"days": "Mon-Fri", "time": "5:00pm"}, {"days": "Sat", "time": "1:00pm"}, {"days": "Sun", "time": "Closed"}], "id": "9920100078", "name": "USPS COLLECTION BOX - BLUE BOX", "address": {"city": "SPOKANE", "state": "WA", "street": "1101 W COLLEGE AVE", "postcode": "99201"}}},
{"geometry": {"type": "Point", "coordinates": [-117.4192158997, 47.657942616]}, "type": "Feature", "properties": {"collection_times": [{"days": "Mon-Fri", "time": "5:00pm"}, {"days": "Sat", "time": "4:00pm"}, {"days": "Sun", "time": "Closed"}], "id": "9920100093", "name": "USPS COLLECTION BOX - BLUE BOX", "address": {"city": "SPOKANE", "state": "WA", "street": "422 W RIVERSIDE AVE", "postcode": "99201"}}},
{"geometry": {"type": "Point", "coordinates": [-117.4133117515, 47.6661334239]}, "type": "Feature", "properties": {"collection_times": [{"days": "Mon-Fri", "time": "5:00pm"}, {"days": "Sat", "time": "1:00pm"}, {"days": "Sun", "time": "Closed"}], "id": "9920100095", "name": "USPS COLLECTION BOX - BLUE BOX", "address": {"city": "SPOKANE", "state": "WA", "street": "111 W CATALDO AVE", "postcode": "99201"}}},
{"geometry": {"type": "Point", "coordinates": [-117.4282203689, 47.6584360369]}, "type": "Feature", "properties": {"collection_times": [{"days": "Mon-Fri", "time": "3:30pm"}, {"days": "Sat-Sun", "time": "Closed"}], "id": "9920100097", "name": "USPS COLLECTION BOX - BLUE BOX", "address": {"city": "SPOKANE", "state": "WA", "street": "99 N MADISON ST", "postcode": "99201"}}},
{"geometry": {"type": "Point", "coordinates": [-117.4226133578, 47.6579296034]}, "type": "Feature", "properties": {"collection_times": [{"days": "Mon-Fri", "time": "5:00pm"}, {"days": "Sat", "time": "1:00pm"}, {"days": "Sun", "time": "Closed"}], "id": "9920100119", "name": "USPS COLLECTION BOX - BLUE BOX", "address": {"city": "SPOKANE", "state": "WA", "street": "701 W RIVERSIDE AVE", "postcode": "99201"}}},
{"geometry": {"type": "Point", "coordinates": [-117.4252631859, 47.6579165909]}, "type": "Feature", "properties": {"collection_times": [{"days": "Mon-Fri", "time": "3:30pm"}, {"days": "Sat-Sun", "time": "Closed"}], "id": "9920100129", "name": "USPS COLLECTION BOX - PO LOBBY", "address": {"city": "SPOKANE", "state": "WA", "street": "904 W RIVERSIDE AVE", "postcode": "99201"}}},
{"geometry": {"type": "Point", "coordinates": [-117.4162654592, 47.6565540427]}, "type": "Feature", "properties": {"collection_times": [{"days": "Mon-Fri", "time": "10:00am"}, {"days": "Sat-Sun", "time": "Closed"}], "id": "9920100130", "name": "USPS COLLECTION BOX - BLUE BOX", "address": {"city": "SPOKANE", "state": "WA", "street": "221 W 1ST AVE", "postcode": "99201"}}},
{"geometry": {"type": "Point", "coordinates": [-117.4184958572, 47.656536298]}, "type": "Feature", "properties": {"collection_times": [{"days": "Mon-Fri", "time": "4:00pm"}, {"days": "Sat-Sun", "time": "Closed"}], "id": "9920100133", "name": "USPS COLLECTION BOX - BLUE BOX", "address": {"city": "SPOKANE", "state": "WA", "street": "429 W 1ST AVE", "postcode": "99201"}}},
{"geometry": {"type": "Point", "coordinates": [-117.4211377888, 47.6565312752]}, "type": "Feature", "properties": {"collection_times": [{"days": "Mon-Fri", "time": "5:00pm"}, {"days": "Sat", "time": "1:00pm"}, {"days": "Sun", "time": "Closed"}], "id": "9920100136", "name": "USPS COLLECTION BOX - BLUE BOX", "address": {"city": "SPOKANE", "state": "WA", "street": "601 W 1ST AVE", "postcode": "99201"}}},
{"geometry": {"type": "Point", "coordinates": [-117.3911880529, 47.6566945943]}, "type": "Feature", "properties": {"collection_times": [{"days": "Mon-Fri", "time": "5:00pm"}, {"days": "Sat", "time": "1:00pm"}, {"days": "Sun", "time": "Closed"}], "id": "9920100140", "name": "USPS COLLECTION BOX - BLUE BOX", "address": {"city": "SPOKANE", "state": "WA", "street": "1302 W 1ST AVE", "postcode": "99201"}}},
{"geometry": {"type": "Point", "coordinates": [-117.4117881003, 47.6545510726]}, "type": "Feature", "properties": {"collection_times": [{"days": "Mon-Fri", "time": "1:30pm"}, {"days": "Sat-Sun", "time": "Closed"}], "id": "9920100142", "name": "USPS COLLECTION BOX - BLUE BOX", "address": {"city": "SPOKANE", "state": "WA", "street": "10 W 2ND AVE", "postcode": "99201"}}},
{"geometry": {"type": "Point", "coordinates": [-117.4182957314, 47.6545826065]}, "type": "Feature", "properties": {"collection_times": [{"days": "Mon-Fri", "time": "5:00pm"}, {"days": "Sat", "time": "1:00pm"}, {"days": "Sun", "time": "Closed"}], "id": "9920100143", "name": "USPS COLLECTION BOX - BLUE BOX", "address": {"city": "SPOKANE", "state": "WA", "street": "416 W 2ND AVE", "postcode": "99201"}}},
{"geometry": {"type": "Point", "coordinates": [-117.4235642462, 47.6545356262]}, "type": "Feature", "properties": {"collection_times": [{"days": "Mon-Fri", "time": "4:30pm"}, {"days": "Sat-Sun", "time": "Closed"}], "id": "9920100144", "name": "USPS COLLECTION BOX - BLUE BOX", "address": {"city": "SPOKANE", "state": "WA", "street": "802 W 2ND AVE", "postcode": "99201"}}},
{"geometry": {"type": "Point", "coordinates": [-117.4260534025, 47.6534426401]}, "type": "Feature", "properties": {"collection_times": [{"days": "Mon-Fri", "time": "1:30pm"}, {"days": "Sat-Sun", "time": "Closed"}], "id": "9920100146", "name": "USPS COLLECTION BOX - BLUE BOX", "address": {"city": "SPOKANE", "state": "WA", "street": "933 W 3RD AVE", "postcode": "99201"}}},
{"geometry": {"type": "Point", "coordinates": [-117.4209861699, 47.6545362093]}, "type": "Feature", "properties": {"collection_times": [{"days": "Mon-Fri", "time": "5:00pm"}, {"days": "Sat", "time": "4:00pm"}, {"days": "Sun", "time": "Closed"}], "id": "9920100153", "name": "USPS COLLECTION BOX - BLUE BOX", "address": {"city": "SPOKANE", "state": "WA", "street": "199 S HOWARD ST", "postcode": "99201"}}},
{"geometry": {"type": "Point", "coordinates": [-117.4291764142, 47.6571488505]}, "type": "Feature", "properties": {"collection_times": [{"days": "Mon-Fri", "time": "1:00pm"}, {"days": "Sat-Sun", "time": "Closed"}], "id": "9920100163", "name": "USPS COLLECTION BOX - BLUE BOX", "address": {"city": "SPOKANE", "state": "WA", "street": "1120 W SPRAGUE AVE", "postcode": "99201"}}},
{"geometry": {"type": "Point", "coordinates": [-117.4179612982, 47.6571659698]}, "type": "Feature", "properties": {"collection_times": [{"days": "Mon-Fri", "time": "4:00pm"}, {"days": "Sat-Sun", "time": "Closed"}], "id": "9920100164", "name": "USPS COLLECTION BOX - BLUE BOX", "address": {"city": "SPOKANE", "state": "WA", "street": "9 S WASHINGTON ST", "postcode": "99201"}}},
{"geometry": {"type": "Point", "coordinates": [-117.4253732785, 47.6681982898]}, "type": "Feature", "properties": {"collection_times": [{"days": "Mon-Fri", "time": "5:00pm"}, {"days": "Sat", "time": "1:00pm"}, {"days": "Sun", "time": "Closed"}], "id": "9920100166", "name": "USPS COLLECTION BOX - BLUE BOX", "address": {"city": "SPOKANE", "state": "WA", "street": "910 W BOONE AVE", "postcode": "99201"}}},
{"geometry": {"type": "Point", "coordinates": [-117.4253444655, 47.6564857659]}, "type": "Feature", "properties": {"collection_times": [{"days": "Mon-Fri", "time": "5:00pm"}, {"days": "Sat", "time": "1:00pm"}, {"days": "Sun", "time": "Closed"}], "id": "9920100185", "name": "USPS COLLECTION BOX - BLUE BOX", "address": {"city": "SPOKANE", "state": "WA", "street": "919 W 1ST AVE", "postcode": "99201"}}},
{"geometry": {"type": "Point", "coordinates": [-117.4149950831, 47.659127354]}, "type": "Feature", "properties": {"collection_times": [{"days": "Mon-Fri", "time": "5:00pm"}, {"days": "Sat", "time": "1:00pm"}, {"days": "Sun", "time": "Closed"}], "id": "9920100187", "name": "USPS COLLECTION BOX - BLUE BOX", "address": {"city": "SPOKANE", "state": "WA", "street": "224 W MAIN AVE", "postcode": "99201"}}},
{"geometry": {"type": "Point", "coordinates": [-117.4209971732, 47.6551964031]}, "type": "Feature", "properties": {"collection_times": [{"days": "Mon-Fri", "time": "5:00pm"}, {"days": "Sat", "time": "1:00pm"}, {"days": "Sun", "time": "Closed"}], "id": "9920100188", "name": "USPS COLLECTION BOX - BLUE BOX", "address": {"city": "SPOKANE", "state": "WA", "street": "157 S HOWARD ST", "postcode": "99201"}}},
{"geometry": {"type": "Point", "coordinates": [-117.4239387894, 47.6571227443]}, "type": "Feature", "properties": {"collection_times": [{"days": "Mon-Fri", "time": "1:00pm"}, {"days": "Sat-Sun", "time": "Closed"}], "id": "9920100189", "name": "USPS COLLECTION BOX - BLUE BOX", "address": {"city": "SPOKANE", "state": "WA", "street": "825 W SPRAGUE AVE", "postcode": "99201"}}},
{"geometry": {"type": "Point", "coordinates": [-117.443488597, 47.6525133442]}, "type": "Feature", "properties": {"collection_times": [{"days": "Mon-Fri", "time": "10:00am"}, {"days": "Sat-Sun", "time": "Closed"}], "id": "9920100192", "name": "USPS COLLECTION BOX - BLUE BOX", "address": {"city": "SPOKANE", "state": "WA", "street": "2123 W 4TH AVE", "postcode": "99201"}}},
{"geometry": {"type": "Point", "coordinates": [-117.4371804415, 47.6522165478]}, "type": "Feature", "properties": {"collection_times": [{"days": "Mon-Fri", "time": "3:15pm"}, {"days": "Sat-Sun", "time": "Closed"}], "id": "9920100193", "name": "USPS COLLECTION BOX - BLUE BOX", "address": {"city": "SPOKANE", "state": "WA", "street": "430 S ASH ST", "postcode": "99201"}}},
{"geometry": {"type": "Point", "coordinates": [-117.4413242198, 47.6555423922]}, "type": "Feature", "properties": {"collection_times": [{"days": "Mon-Fri", "time": "12:00pm"}, {"days": "Sat-Sun", "time": "Closed"}], "id": "9920100194", "name": "USPS COLLECTION BOX - BLUE BOX", "address": {"city": "SPOKANE", "state": "WA", "street": "1931 W PACIFIC AVE", "postcode": "99201"}}},
{"geometry": {"type": "Point", "coordinates": [-117.4495374543, 47.6547054832]}, "type": "Feature", "properties": {"collection_times": [{"days": "Mon-Fri", "time": "12:15pm"}, {"days": "Sat", "time": "1:00pm"}, {"days": "Sun", "time": "Closed"}], "id": "9920100195", "name": "USPS COLLECTION BOX - BLUE BOX", "address": {"city": "SPOKANE", "state": "WA", "street": "178 S COEUR DALENE ST", "postcode": "99201"}}},
{"geometry": {"type": "Point", "coordinates": [-117.4402280481, 47.6511762809]}, "type": "Feature", "properties": {"collection_times": [{"days": "Mon-Fri", "time": "9:00am"}, {"days": "Sat-Sun", "time": "Closed"}], "id": "9920100196", "name": "USPS COLLECTION BOX - BLUE BOX", "address": {"city": "SPOKANE", "state": "WA", "street": "510 S ELM ST", "postcode": "99201"}}},
{"geometry": {"type": "Point", "coordinates": [-117.4325083058, 47.6622590851]}, "type": "Feature", "properties": {"collection_times": [{"days": "Mon-Fri", "time": "5:00pm"}, {"days": "Sat", "time": "4:15pm"}, {"days": "Sun", "time": "Closed"}], "id": "9920100198", "name": "USPS COLLECTION BOX - BLUE BOX", "address": {"city": "SPOKANE", "state": "WA", "street": "1808 W 3RD AVE", "postcode": "99201"}}},
{"geometry": {"type": "Point", "coordinates": [-117.4325083058, 47.6622590851]}, "type": "Feature", "properties": {"collection_times": [{"days": "Mon-Fri", "time": "5:00pm"}, {"days": "Sat", "time": "1:00pm"}, {"days": "Sun", "time": "Closed"}], "id": "9920100199", "name": "USPS COLLECTION BOX - BLUE BOX", "address": {"city": "SPOKANE", "state": "WA", "street": "1500 W 4TH AVE", "postcode": "99201"}}},
{"geometry": {"type": "Point", "coordinates": [-117.4325083058, 47.6622590851]}, "type": "Feature", "properties": {"collection_times": [{"days": "Mon-Fri", "time": "1:30pm"}, {"days": "Sat-Sun", "time": "Closed"}], "id": "9920100200", "name": "USPS COLLECTION BOX - BLUE BOX", "address": {"city": "SPOKANE", "state": "WA", "street": "10 S CEDAR ST", "postcode": "99201"}}},
{"geometry": {"type": "Point", "coordinates": [-117.3952538829, 47.6549355343]}, "type": "Feature", "properties": {"collection_times": [{"days": "Mon-Fri", "time": "5:00pm"}, {"days": "Sat", "time": "1:00pm"}, {"days": "Sun", "time": "Closed"}], "id": "9920200004", "name": "USPS COLLECTION BOX - BLUE BOX", "address": {"city": "SPOKANE", "state": "WA", "street": "140 S ARTHUR ST", "postcode": "99202"}}},
{"geometry": {"type": "Point", "coordinates": [-117.4080751011, 47.6498077499]}, "type": "Feature", "properties": {"collection_times": [{"days": "Mon-Fri", "time": "3:00pm"}, {"days": "Sat-Sun", "time": "Closed"}], "id": "9920200008", "name": "USPS COLLECTION BOX - BLUE BOX", "address": {"city": "SPOKANE", "state": "WA", "street": "711 S COWLEY ST", "postcode": "99202"}}},
{"geometry": {"type": "Point", "coordinates": [-117.3589226269, 47.6572416618]}, "type": "Feature", "properties": {"collection_times": [{"days": "Mon-Fri", "time": "5:00pm"}, {"days": "Sat", "time": "1:00pm"}, {"days": "Sun", "time": "Closed"}], "id": "9920200012", "name": "USPS COLLECTION BOX - BLUE BOX", "address": {"city": "SPOKANE", "state": "WA", "street": "15 S FERRALL ST", "postcode": "99202"}}},
{"geometry": {"type": "Point", "coordinates": [-117.3658252083, 47.6719198833]}, "type": "Feature", "properties": {"collection_times": [{"days": "Mon-Fri", "time": "10:00am"}, {"days": "Sat-Sun", "time": "Closed"}], "id": "9920200013", "name": "USPS COLLECTION BOX - BLUE BOX", "address": {"city": "SPOKANE", "state": "WA", "street": "3035 E MISSION AVE", "postcode": "99202"}}},
{"geometry": {"type": "Point", "coordinates": [-117.3808998588, 47.6718305542]}, "type": "Feature", "properties": {"collection_times": [{"days": "Mon-Fri", "time": "12:05pm"}, {"days": "Sat-Sun", "time": "Closed"}], "id": "9920200017", "name": "USPS COLLECTION BOX - BLUE BOX", "address": {"city": "SPOKANE", "state": "WA", "street": "2002 E MISSION AVE", "postcode": "99202"}}},
{"geometry": {"type": "Point", "coordinates": [-117.4013237295, 47.6687956988]}, "type": "Feature", "properties": {"collection_times": [{"days": "Mon-Fri", "time": "3:00pm"}, {"days": "Sat-Sun", "time": "Closed"}], "id": "9920200029", "name": "USPS COLLECTION BOX - BLUE BOX", "address": {"city": "SPOKANE", "state": "WA", "street": "1218 N STANDARD ST", "postcode": "99202"}}},
{"geometry": {"type": "Point", "coordinates": [-117.3602773598, 47.6535536123]}, "type": "Feature", "properties": {"collection_times": [{"days": "Mon-Fri", "time": "6:00pm"}, {"days": "Sat-Sun", "time": "Closed"}], "id": "9920200031", "name": "USPS COLLECTION BOX - BLUE BOX", "address": {"city": "SPOKANE", "state": "WA", "street": "301 S THOR ST", "postcode": "99202"}}},
{"geometry": {"type": "Point", "coordinates": [-117.3642653998, 47.6657138633]}, "type": "Feature", "properties": {"collection_times": [{"days": "Mon-Fri", "time": "8:00am"}, {"days": "Sat-Sun", "time": "Closed"}], "id": "9920200033", "name": "USPS COLLECTION BOX - BLUE BOX", "address": {"city": "SPOKANE", "state": "WA", "street": "3102 E TRENT AVE", "postcode": "99202"}}},
{"geometry": {"type": "Point", "coordinates": [-117.3898229183, 47.6663688327]}, "type": "Feature", "properties": {"collection_times": [{"days": "Mon-Fri", "time": "4:00pm"}, {"days": "Sat-Sun", "time": "Closed"}], "id": "9920200035", "name": "USPS COLLECTION BOX - BLUE BOX", "address": {"city": "SPOKANE", "state": "WA", "street": "928 S PERRY ST", "postcode": "99202"}}},
{"geometry": {"type": "Point", "coordinates": [-117.3963660164, 47.6689615173]}, "type": "Feature", "properties": {"collection_times": [{"days": "Mon-Fri", "time": "2:00pm"}, {"days": "Sat-Sun", "time": "Closed"}], "id": "9920200038", "name": "USPS COLLECTION BOX - BLUE BOX", "address": {"city": "SPOKANE", "state": "WA", "street": "1230 N HAMILTON ST", "postcode": "99202"}}},
{"geometry": {"type": "Point", "coordinates": [-117.3865662322, 47.657221011]}, "type": "Feature", "properties": {"collection_times": [{"days": "Mon-Fri", "time": "5:00pm"}, {"days": "Sat", "time": "3:00pm"}, {"days": "Sun", "time": "Closed"}], "id": "9920200047", "name": "USPS COLLECTION BOX - BLUE BOX", "address": {"city": "SPOKANE", "state": "WA", "street": "1602 E SPRAGUE AVE", "postcode": "99202"}}},
{"geometry": {"type": "Point", "coordinates": [-117.4080878047, 47.6619138092]}, "type": "Feature", "properties": {"collection_times": [{"days": "Mon-Fri", "time": "4:30pm"}, {"days": "Sat-Sun", "time": "Closed"}], "id": "9920200049", "name": "USPS COLLECTION BOX - BLUE BOX", "address": {"city": "SPOKANE", "state": "WA", "street": "501 N RIVERPOINT BLVD", "postcode": "99202"}}},
{"geometry": {"type": "Point", "coordinates": [-117.3577020335, 47.6559789041]}, "type": "Feature", "properties": {"collection_times": [{"days": "Mon-Fri", "time": "5:00pm"}, {"days": "Sat", "time": "1:00pm"}, {"days": "Sun", "time": "Closed"}], "id": "9920200055", "name": "USPS COLLECTION BOX - BLUE BOX", "address": {"city": "SPOKANE", "state": "WA", "street": "104 S FREYA ST", "postcode": "99202"}}},
{"geometry": {"type": "Point", "coordinates": [-117.3954620837, 47.671778504]}, "type": "Feature", "properties": {"collection_times": [{"days": "Mon-Fri", "time": "1:00pm"}, {"days": "Sat-Sun", "time": "Closed"}], "id": "9920200059", "name": "USPS COLLECTION BOX - BLUE BOX", "address": {"city": "SPOKANE", "state": "WA", "street": "933 E MISSION AVE", "postcode": "99202"}}},
{"geometry": {"type": "Point", "coordinates": [-117.3865662322, 47.657221011]}, "type": "Feature", "properties": {"collection_times": [{"days": "Mon-Fri", "time": "5:00pm"}, {"days": "Sat-Sun", "time": "Closed"}], "id": "9920200060", "name": "USPS COLLECTION BOX - PO LOBBY", "address": {"city": "SPOKANE", "state": "WA", "street": "1602 E SPRAGUE AVE", "postcode": "99202"}}},
{"geometry": {"type": "Point", "coordinates": [-117.4089541396, 47.6545178262]}, "type": "Feature", "properties": {"collection_times": [{"days": "Mon-Fri", "time": "7:00pm"}, {"days": "Sat", "time": "5:00pm"}, {"days": "Sun", "time": "Closed"}], "id": "9920200065", "name": "USPS COLLECTION BOX - BLUE BOX", "address": {"city": "SPOKANE", "state": "WA", "street": "150 E 2ND AVE", "postcode": "99202"}}},
{"geometry": {"type": "Point", "coordinates": [-117.4085469452, 47.6545190238]}, "type": "Feature", "properties": {"collection_times": [{"days": "Mon-Fri", "time": "7:00pm"}, {"days": "Sat", "time": "5:00pm"}, {"days": "Sun", "time": "Closed"}], "id": "9920200068", "name": "USPS COLLECTION BOX - BLUE BOX", "address": {"city": "SPOKANE", "state": "WA", "street": "178 E 2ND AVE", "postcode": "99202"}}},
{"geometry": {"type": "Point", "coordinates": [-117.4081741607, 47.6508235689]}, "type": "Feature", "properties": {"collection_times": [{"days": "Mon-Fri", "time": "3:00pm"}, {"days": "Sat-Sun", "time": "Closed"}], "id": "9920200071", "name": "USPS COLLECTION BOX - BLUE BOX", "address": {"city": "SPOKANE", "state": "WA", "street": "520 S COWLEY ST", "postcode": "99202"}}},
{"geometry": {"type": "Point", "coordinates": [-117.4072849056, 47.6426018014]}, "type": "Feature", "properties": {"collection_times": [{"days": "Mon-Fri", "time": "5:00pm"}, {"days": "Sat", "time": "1:00pm"}, {"days": "Sun", "time": "Closed"}], "id": "9920200080", "name": "USPS COLLECTION BOX - BLUE BOX", "address": {"city": "SPOKANE", "state": "WA", "street": "202 E 14TH AVE", "postcode": "99202"}}},
{"geometry": {"type": "Point", "coordinates": [-117.4112664154, 47.6564473559]}, "type": "Feature", "properties": {"collection_times": [{"days": "Mon-Fri", "time": "3:00pm"}, {"days": "Sat-Sun", "time": "Closed"}], "id": "9920200083", "name": "USPS COLLECTION BOX - BLUE BOX", "address": {"city": "SPOKANE", "state": "WA", "street": "101 S DIVISION ST", "postcode": "99202"}}},
{"geometry": {"type": "Point", "coordinates": [-117.3483082895, 47.6571509724]}, "type": "Feature", "properties": {"collection_times": [{"days": "Mon-Fri", "time": "2:00pm"}, {"days": "Sat-Sun", "time": "Closed"}], "id": "9920200084", "name": "USPS COLLECTION BOX - BLUE BOX", "address": {"city": "SPOKANE", "state": "WA", "street": "4208 E SPRAGUE AVE", "postcode": "99202"}}},
{"geometry": {"type": "Point", "coordinates": [-117.4020040025, 47.6208005155]}, "type": "Feature", "properties": {"collection_times": [{"days": "Mon-Fri", "time": "12:30pm"}, {"days": "Sat-Sun", "time": "Closed"}], "id": "9920300006", "name": "USPS COLLECTION BOX - BLUE BOX", "address": {"city": "SPOKANE", "state": "WA", "street": "3702 S GRAND BLVD", "postcode": "99203"}}},
{"geometry": {"type": "Point", "coordinates": [-117.4018015608, 47.6256726784]}, "type": "Feature", "properties": {"collection_times": [{"days": "Mon-Fri", "time": "5:30pm"}, {"days": "Sat", "time": "3:00pm"}, {"days": "Sun", "time": "Closed"}], "id": "9920300007", "name": "USPS COLLECTION BOX - BLUE BOX", "address": {"city": "SPOKANE", "state": "WA", "street": "3120 S GRAND BLVD", "postcode": "99203"}}},
{"geometry": {"type": "Point", "coordinates": [-117.3995057488, 47.628027531]}, "type": "Feature", "properties": {"collection_times": [{"days": "Mon-Fri", "time": "5:00pm"}, {"days": "Sat", "time": "3:30pm"}, {"days": "Sun", "time": "Closed"}], "id": "9920300010", "name": "USPS COLLECTION BOX - BLUE BOX", "address": {"city": "SPOKANE", "state": "WA", "street": "830 E 29TH AVE", "postcode": "99203"}}},
{"geometry": {"type": "Point", "coordinates": [-117.3771256319, 47.6345704856]}, "type": "Feature", "properties": {"collection_times": [{"days": "Mon-Fri", "time": "12:00pm"}, {"days": "Sat", "time": "1:00pm"}, {"days": "Sun", "time": "Closed"}], "id": "9920300019", "name": "USPS COLLECTION BOX - BLUE BOX", "address": {"city": "SPOKANE", "state": "WA", "street": "2389 S SOUTHEAST BLVD", "postcode": "99203"}}},
{"geometry": {"type": "Point", "coordinates": [-117.3771417143, 47.6346235236]}, "type": "Feature", "properties": {"collection_times": [{"days": "Mon-Fri", "time": "12:00pm"}, {"days": "Sat", "time": "1:00pm"}, {"days": "Sun", "time": "Closed"}], "id": "9920300020", "name": "USPS COLLECTION BOX - BLUE BOX", "address": {"city": "SPOKANE", "state": "WA", "street": "2381 S SOUTHEAST BLVD", "postcode": "99203"}}},
{"geometry": {"type": "Point", "coordinates": [-117.401811306, 47.62614267]}, "type": "Feature", "properties": {"collection_times": [{"days": "Mon-Fri", "time": "5:00pm"}, {"days": "Sat", "time": "3:00pm"}, {"days": "Sun", "time": "Closed"}], "id": "9920300021", "name": "USPS COLLECTION BOX - PO LOBBY", "address": {"city": "SPOKANE", "state": "WA", "street": "3120 S GRAND BLVD", "postcode": "99203"}}},
{"geometry": {"type": "Point", "coordinates": [-117.3786657289, 47.6281176372]}, "type": "Feature", "properties": {"collection_times": [{"days": "Mon-Fri", "time": "4:00pm"}, {"days": "Sat-Sun", "time": "Closed"}], "id": "9920300023", "name": "USPS COLLECTION BOX - BLUE BOX", "address": {"city": "SPOKANE", "state": "WA", "street": "2204 E 29TH AVE", "postcode": "99203"}}},
{"geometry": {"type": "Point", "coordinates": [-117.4164607883, 47.6510980154]}, "type": "Feature", "properties": {"collection_times": [{"days": "Mon-Fri", "time": "5:00pm"}, {"days": "Sat", "time": "1:00pm"}, {"days": "Sun", "time": "Closed"}], "id": "9920400019", "name": "USPS COLLECTION BOX - BLUE BOX", "address": {"city": "SPOKANE", "state": "WA", "street": "501 S BERNARD ST", "postcode": "99204"}}},
{"geometry": {"type": "Point", "coordinates": [-117.4245238366, 47.642663518]}, "type": "Feature", "properties": {"collection_times": [{"days": "Mon-Fri", "time": "5:00pm"}, {"days": "Sat", "time": "1:00pm"}, {"days": "Sun", "time": "Closed"}], "id": "9920400040", "name": "USPS COLLECTION BOX - BLUE BOX", "address": {"city": "SPOKANE", "state": "WA", "street": "907 W 14TH AVE", "postcode": "99204"}}},
{"geometry": {"type": "Point", "coordinates": [-117.4149619792, 47.647851976]}, "type": "Feature", "properties": {"collection_times": [{"days": "Mon-Fri", "time": "5:00pm"}, {"days": "Sat", "time": "1:00pm"}, {"days": "Sun", "time": "Closed"}], "id": "9920400049", "name": "USPS COLLECTION BOX - BLUE BOX", "address": {"city": "SPOKANE", "state": "WA", "street": "820 S MCCLELLAN ST", "postcode": "99204"}}},
{"geometry": {"type": "Point", "coordinates": [-117.4263136675, 47.6469850437]}, "type": "Feature", "properties": {"collection_times": [{"days": "Mon-Fri", "time": "5:00pm"}, {"days": "Sat", "time": "3:45pm"}, {"days": "Sun", "time": "Closed"}], "id": "9920400053", "name": "USPS COLLECTION BOX - BLUE BOX", "address": {"city": "SPOKANE", "state": "WA", "street": "906 S MONROE ST", "postcode": "99204"}}},
{"geometry": {"type": "Point", "coordinates": [-117.424050653, 47.6513807426]}, "type": "Feature", "properties": {"collection_times": [{"days": "Mon-Sat", "time": "8:00am"}, {"days": "Sun", "time": "Closed"}], "id": "9920400081", "name": "USPS COLLECTION BOX - BLUE BOX", "address": {"city": "SPOKANE", "state": "WA", "street": "801 W 5TH AVE", "postcode": "99204"}}},
{"geometry": {"type": "Point", "coordinates": [-117.423531334, 47.6493413213]}, "type": "Feature", "properties": {"collection_times": [{"days": "Mon-Fri", "time": "9:00am"}, {"days": "Sat-Sun", "time": "Closed"}], "id": "9920400103", "name": "USPS COLLECTION BOX - BLUE BOX", "address": {"city": "SPOKANE", "state": "WA", "street": "815 W 7TH AVE", "postcode": "99204"}}},
{"geometry": {"type": "Point", "coordinates": [-117.4133837464, 47.6483069391]}, "type": "Feature", "properties": {"collection_times": [{"days": "Mon-Fri", "time": "5:00pm"}, {"days": "Sat", "time": "1:00pm"}, {"days": "Sun", "time": "Closed"}], "id": "9920400106", "name": "USPS COLLECTION BOX - BLUE BOX", "address": {"city": "SPOKANE", "state": "WA", "street": "105 W 8TH AVE", "postcode": "99204"}}},
{"geometry": {"type": "Point", "coordinates": [-117.4133228347, 47.648307685]}, "type": "Feature", "properties": {"collection_times": [{"days": "Mon-Fri", "time": "5:00pm"}, {"days": "Sat", "time": "4:00pm"}, {"days": "Sun", "time": "Closed"}], "id": "9920400107", "name": "USPS COLLECTION BOX - BLUE BOX", "address": {"city": "SPOKANE", "state": "WA", "street": "101 W 8TH AVE", "postcode": "99204"}}},
{"geometry": {"type": "Point", "coordinates": [-117.4258617631, 47.652435942]}, "type": "Feature", "properties": {"collection_times": [{"days": "Mon-Fri", "time": "5:00pm"}, {"days": "Sat", "time": "1:00pm"}, {"days": "Sun", "time": "Closed"}], "id": "9920400118", "name": "USPS COLLECTION BOX - BLUE BOX", "address": {"city": "SPOKANE", "state": "WA", "street": "910 W 5TH AVE", "postcode": "99204"}}},
{"geometry": {"type": "Point", "coordinates": [-117.4135119014, 47.6515067476]}, "type": "Feature", "properties": {"collection_times": [{"days": "Mon-Fri", "time": "5:00pm"}, {"days": "Sat", "time": "1:00pm"}, {"days": "Sun", "time": "Closed"}], "id": "9920400131", "name": "USPS COLLECTION BOX - BLUE BOX", "address": {"city": "SPOKANE", "state": "WA", "street": "104 W 5TH AVE", "postcode": "99204"}}},
{"geometry": {"type": "Point", "coordinates": [-117.4210476657, 47.6513627217]}, "type": "Feature", "properties": {"collection_times": [{"days": "Mon-Fri", "time": "9:00am"}, {"days": "Sat-Sun", "time": "Closed"}], "id": "9920400134", "name": "USPS COLLECTION BOX - BLUE BOX", "address": {"city": "SPOKANE", "state": "WA", "street": "601 W 5TH AVE", "postcode": "99204"}}},
{"geometry": {"type": "Point", "coordinates": [-117.4491211023, 47.7082112742]}, "type": "Feature", "properties": {"collection_times": [{"days": "Mon-Fri", "time": "1:30pm"}, {"days": "Sat", "time": "4:15pm"}, {"days": "Sun", "time": "Closed"}], "id": "9920500001", "name": "USPS COLLECTION BOX - BLUE BOX", "address": {"city": "SPOKANE", "state": "WA", "street": "5503 N ALBERTA ST", "postcode": "99205"}}},
{"geometry": {"type": "Point", "coordinates": [-117.4355975154, 47.6790229447]}, "type": "Feature", "properties": {"collection_times": [{"days": "Mon-Fri", "time": "6:00pm"}, {"days": "Sat", "time": "4:45pm"}, {"days": "Sun", "time": "Closed"}], "id": "9920500003", "name": "USPS COLLECTION BOX - BLUE BOX", "address": {"city": "SPOKANE", "state": "WA", "street": "1617 W NORTHWEST BLVD", "postcode": "99205"}}},
{"geometry": {"type": "Point", "coordinates": [-117.4131224781, 47.6749866888]}, "type": "Feature", "properties": {"collection_times": [{"days": "Mon-Fri", "time": "2:30pm"}, {"days": "Sat-Sun", "time": "Closed"}], "id": "9920500005", "name": "USPS COLLECTION BOX - BLUE BOX", "address": {"city": "SPOKANE", "state": "WA", "street": "102 W INDIANA AVE", "postcode": "99205"}}},
{"geometry": {"type": "Point", "coordinates": [-117.4514473814, 47.6926120929]}, "type": "Feature", "properties": {"collection_times": [{"days": "Mon-Fri", "time": "1:30pm"}, {"days": "Sat", "time": "4:45pm"}, {"days": "Sun", "time": "Closed"}], "id": "9920500009", "name": "USPS COLLECTION BOX - BLUE BOX", "address": {"city": "SPOKANE", "state": "WA", "street": "2728 W PROVIDENCE AVE", "postcode": "99205"}}},
{"geometry": {"type": "Point", "coordinates": [-117.4706722487, 47.7099667853]}, "type": "Feature", "properties": {"collection_times": [{"days": "Mon-Sat", "time": "8:30am"}, {"days": "Sun", "time": "Closed"}], "id": "9920500010", "name": "USPS COLLECTION BOX - BLUE BOX", "address": {"city": "SPOKANE", "state": "WA", "street": "5611 N DRISCOLL BLVD", "postcode": "99205"}}},
{"geometry": {"type": "Point", "coordinates": [-117.4267359094, 47.6842699917]}, "type": "Feature", "properties": {"collection_times": [{"days": "Mon-Fri", "time": "8:30am"}, {"days": "Sat-Sun", "time": "Closed"}], "id": "9920500011", "name": "USPS COLLECTION BOX - BLUE BOX", "address": {"city": "SPOKANE", "state": "WA", "street": "2929 N MONROE ST", "postcode": "99205"}}},
{"geometry": {"type": "Point", "coordinates": [-117.4368147802, 47.7154273239]}, "type": "Feature", "properties": {"collection_times": [{"days": "Mon-Fri", "time": "5:00pm"}, {"days": "Sat", "time": "1:00pm"}, {"days": "Sun", "time": "Closed"}], "id": "9920500012", "name": "USPS COLLECTION BOX - BLUE BOX", "address": {"city": "SPOKANE", "state": "WA", "street": "1724 W FRANCIS AVE", "postcode": "99205"}}},
{"geometry": {"type": "Point", "coordinates": [-117.4255916456, 47.6749886123]}, "type": "Feature", "properties": {"collection_times": [{"days": "Mon-Fri", "time": "8:30am"}, {"days": "Sat-Sun", "time": "Closed"}], "id": "9920500014", "name": "USPS COLLECTION BOX - BLUE BOX", "address": {"city": "SPOKANE", "state": "WA", "street": "912 W INDIANA AVE", "postcode": "99205"}}},
{"geometry": {"type": "Point", "coordinates": [-117.4244688153, 47.6936044824]}, "type": "Feature", "properties": {"collection_times": [{"days": "Mon-Fri", "time": "1:45pm"}, {"days": "Sat-Sun", "time": "Closed"}], "id": "9920500015", "name": "USPS COLLECTION BOX - BLUE BOX", "address": {"city": "SPOKANE", "state": "WA", "street": "3910 N LINCOLN ST", "postcode": "99205"}}},
{"geometry": {"type": "Point", "coordinates": [-117.4266815537, 47.6788348543]}, "type": "Feature", "properties": {"collection_times": [{"days": "Mon-Fri", "time": "2:45pm"}, {"days": "Sat-Sun", "time": "Closed"}], "id": "9920500017", "name": "USPS COLLECTION BOX - BLUE BOX", "address": {"city": "SPOKANE", "state": "WA", "street": "2310 N MONROE ST", "postcode": "99205"}}},
{"geometry": {"type": "Point", "coordinates": [-117.4475697901, 47.7006917825]}, "type": "Feature", "properties": {"collection_times": [{"days": "Mon-Fri", "time": "5:00pm"}, {"days": "Sat", "time": "4:15pm"}, {"days": "Sun", "time": "Closed"}], "id": "9920500023", "name": "USPS COLLECTION BOX - BLUE BOX", "address": {"city": "SPOKANE", "state": "WA", "street": "2501 W WELLESLEY AVE", "postcode": "99205"}}},
{"geometry": {"type": "Point", "coordinates": [-117.412946279, 47.673987319]}, "type": "Feature", "properties": {"collection_times": [{"days": "Mon-Fri", "time": "5:00pm"}, {"days": "Sat", "time": "1:00pm"}, {"days": "Sun", "time": "Closed"}], "id": "9920500029", "name": "USPS COLLECTION BOX - BLUE BOX", "address": {"city": "SPOKANE", "state": "WA", "street": "106 W NORA AVE", "postcode": "99205"}}},
{"geometry": {"type": "Point", "coordinates": [-117.4391970778, 47.6934627568]}, "type": "Feature", "properties": {"collection_times": [{"days": "Mon-Fri", "time": "5:00pm"}, {"days": "Sat", "time": "4:30pm"}, {"days": "Sun", "time": "Closed"}], "id": "9920500035", "name": "USPS COLLECTION BOX - BLUE BOX", "address": {"city": "SPOKANE", "state": "WA", "street": "1903 W GARLAND AVE", "postcode": "99205"}}},
{"geometry": {"type": "Point", "coordinates": [-117.4259776931, 47.7000748825]}, "type": "Feature", "properties": {"collection_times": [{"days": "Mon-Fri", "time": "3:00pm"}, {"days": "Sat-Sun", "time": "Closed"}], "id": "9920500041", "name": "USPS COLLECTION BOX - BLUE BOX", "address": {"city": "SPOKANE", "state": "WA", "street": "4601 N MONROE ST", "postcode": "99205"}}},
{"geometry": {"type": "Point", "coordinates": [-117.4370336276, 47.6743384272]}, "type": "Feature", "properties": {"collection_times": [{"days": "Mon-Fri", "time": "3:00pm"}, {"days": "Sat-Sun", "time": "Closed"}], "id": "9920500043", "name": "USPS COLLECTION BOX - BLUE BOX", "address": {"city": "SPOKANE", "state": "WA", "street": "1809 N ASH ST", "postcode": "99205"}}},
{"geometry": {"type": "Point", "coordinates": [-117.4391970778, 47.6934627568]}, "type": "Feature", "properties": {"collection_times": [{"days": "Mon-Fri", "time": "5:00pm"}, {"days": "Sat", "time": "4:30pm"}, {"days": "Sun", "time": "Closed"}], "id": "9920500047", "name": "USPS COLLECTION BOX - PO LOBBY", "address": {"city": "SPOKANE", "state": "WA", "street": "1903 W GARLAND AVE", "postcode": "99205"}}},
{"geometry": {"type": "Point", "coordinates": [-117.4353817314, 47.7081051406]}, "type": "Feature", "properties": {"collection_times": [{"days": "Mon-Fri", "time": "3:45pm"}, {"days": "Sat", "time": "4:00pm"}, {"days": "Sun", "time": "Closed"}], "id": "9920500050", "name": "USPS COLLECTION BOX - BLUE BOX", "address": {"city": "SPOKANE", "state": "WA", "street": "1620 W ROWAN AVE", "postcode": "99205"}}},
{"geometry": {"type": "Point", "coordinates": [-117.4391970778, 47.6934627568]}, "type": "Feature", "properties": {"collection_times": [{"days": "Mon-Fri", "time": "5:00pm"}, {"days": "Sat", "time": "4:30pm"}, {"days": "Sun", "time": "Closed"}], "id": "9920500051", "name": "USPS COLLECTION BOX - APC", "address": {"city": "SPOKANE", "state": "WA", "street": "1903 W GARLAND AVE", "postcode": "99205"}}},
{"geometry": {"type": "Point", "coordinates": [-117.2419448094, 47.6662489873]}, "type": "Feature", "properties": {"collection_times": [{"days": "Mon-Fri", "time": "1:45pm"}, {"days": "Sat-Sun", "time": "Closed"}], "id": "9920600004", "name": "USPS COLLECTION BOX - BLUE BOX", "address": {"city": "SPOKANE VALLEY", "state": "WA", "street": "12135 E CATALDO AVE", "postcode": "99206"}}},
{"geometry": {"type": "Point", "coordinates": [-117.2538702999, 47.6800051619]}, "type": "Feature", "properties": {"collection_times": [{"days": "Mon-Fri", "time": "5:00pm"}, {"days": "Sat", "time": "1:00pm"}, {"days": "Sun", "time": "Closed"}], "id": "9920600006", "name": "USPS COLLECTION BOX - BLUE BOX", "address": {"city": "SPOKANE VALLEY", "state": "WA", "street": "11211 E MONTGOMERY DR", "postcode": "99206"}}},
{"geometry": {"type": "Point", "coordinates": [-117.2394670196, 47.6762700326]}, "type": "Feature", "properties": {"collection_times": [{"days": "Mon-Fri", "time": "8:00am"}, {"days": "Sat-Sun", "time": "Closed"}], "id": "9920600010", "name": "USPS COLLECTION BOX - BLUE BOX", "address": {"city": "SPOKANE VALLEY", "state": "WA", "street": "2128 N PINES RD", "postcode": "99206"}}},
{"geometry": {"type": "Point", "coordinates": [-117.2625517556, 47.6570272735]}, "type": "Feature", "properties": {"collection_times": [{"days": "Mon-Sat", "time": "9:00am"}, {"days": "Sun", "time": "Closed"}], "id": "9920600012", "name": "USPS COLLECTION BOX - BLUE BOX", "address": {"city": "SPOKANE VALLEY", "state": "WA", "street": "10618 E SPRAGUE AVE", "postcode": "99206"}}},
{"geometry": {"type": "Point", "coordinates": [-117.2613760509, 47.658373213]}, "type": "Feature", "properties": {"collection_times": [{"days": "Mon-Fri", "time": "12:45pm"}, {"days": "Sat-Sun", "time": "Closed"}], "id": "9920600015", "name": "USPS COLLECTION BOX - BLUE BOX", "address": {"city": "SPOKANE VALLEY", "state": "WA", "street": "112 N UNIVERSITY RD", "postcode": "99206"}}},
{"geometry": {"type": "Point", "coordinates": [-117.2472124832, 47.657049482]}, "type": "Feature", "properties": {"collection_times": [{"days": "Mon-Fri", "time": "5:00pm"}, {"days": "Sat", "time": "4:00pm"}, {"days": "Sun", "time": "Closed"}], "id": "9920600021", "name": "USPS COLLECTION BOX - BLUE BOX", "address": {"city": "SPOKANE VALLEY", "state": "WA", "street": "11712 E SPRAGUE AVE", "postcode": "99206"}}},
{"geometry": {"type": "Point", "coordinates": [-117.2472124832, 47.657049482]}, "type": "Feature", "properties": {"collection_times": [{"days": "Mon-Fri", "time": "5:00pm"}, {"days": "Sat", "time": "4:00pm"}, {"days": "Sun", "time": "Closed"}], "id": "9920600030", "name": "USPS COLLECTION BOX - PO LOBBY", "address": {"city": "SPOKANE VALLEY", "state": "WA", "street": "11712 E SPRAGUE AVE", "postcode": "99206"}}},
{"geometry": {"type": "Point", "coordinates": [-117.2815265739, 47.659065244]}, "type": "Feature", "properties": {"collection_times": [{"days": "Mon-Fri", "time": "3:45pm"}, {"days": "Sat-Sun", "time": "Closed"}], "id": "9920600032", "name": "USPS COLLECTION BOX - BLUE BOX", "address": {"city": "SPOKANE VALLEY", "state": "WA", "street": "200 N MULLAN RD", "postcode": "99206"}}},
{"geometry": {"type": "Point", "coordinates": [-117.2823484973, 47.6569470346]}, "type": "Feature", "properties": {"collection_times": [{"days": "Mon-Sat", "time": "9:00am"}, {"days": "Sun", "time": "Closed"}], "id": "9920600033", "name": "USPS COLLECTION BOX - BLUE BOX", "address": {"city": "SPOKANE VALLEY", "state": "WA", "street": "9116 E SPRAGUE AVE", "postcode": "99206"}}},
{"geometry": {"type": "Point", "coordinates": [-117.279036782, 47.6788143658]}, "type": "Feature", "properties": {"collection_times": [{"days": "Mon-Fri", "time": "5:00pm"}, {"days": "Sat", "time": "3:00pm"}, {"days": "Sun", "time": "Closed"}], "id": "9920600044", "name": "USPS COLLECTION BOX - BLUE BOX", "address": {"city": "SPOKANE VALLEY", "state": "WA", "street": "9329 E MONTGOMERY AVE", "postcode": "99206"}}},
{"geometry": {"type": "Point", "coordinates": [-117.2460105969, 47.6571961689]}, "type": "Feature", "properties": {"collection_times": [{"days": "Mon-Fri", "time": "5:00pm"}, {"days": "Sat", "time": "1:00pm"}, {"days": "Sun", "time": "Closed"}], "id": "9920600045", "name": "USPS COLLECTION BOX - BLUE BOX", "address": {"city": "SPOKANE VALLEY", "state": "WA", "street": "11707 E SPRAGUE AVE", "postcode": "99206"}}},
{"geometry": {"type": "Point", "coordinates": [-117.2472124832, 47.657049482]}, "type": "Feature", "properties": {"collection_times": [{"days": "Mon-Fri", "time": "5:00pm"}, {"days": "Sat", "time": "3:30pm"}, {"days": "Sun", "time": "Closed"}], "id": "9920600046", "name": "USPS COLLECTION BOX - APC", "address": {"city": "SPOKANE VALLEY", "state": "WA", "street": "11712 E SPRAGUE AVE", "postcode": "99206"}}},
{"geometry": {"type": "Point", "coordinates": [-117.4111812424, 47.6742284121]}, "type": "Feature", "properties": {"collection_times": [{"days": "Mon-Fri", "time": "4:30pm"}, {"days": "Sat", "time": "4:00pm"}, {"days": "Sun", "time": "Closed"}], "id": "9920700007", "name": "USPS COLLECTION BOX - BLUE BOX", "address": {"city": "SPOKANE", "state": "WA", "street": "1814 N DIVISION ST", "postcode": "99207"}}},
{"geometry": {"type": "Point", "coordinates": [-117.3650422939, 47.6940891101]}, "type": "Feature", "properties": {"collection_times": [{"days": "Mon-Fri", "time": "1:00pm"}, {"days": "Sat-Sun", "time": "Closed"}], "id": "9920700025", "name": "USPS COLLECTION BOX - BLUE BOX", "address": {"city": "SPOKANE", "state": "WA", "street": "3919 N MARKET ST", "postcode": "99207"}}},
{"geometry": {"type": "Point", "coordinates": [-117.4064490789, 47.6825824397]}, "type": "Feature", "properties": {"collection_times": [{"days": "Mon-Sat", "time": "8:45am"}, {"days": "Sun", "time": "Closed"}], "id": "9920700030", "name": "USPS COLLECTION BOX - BLUE BOX", "address": {"city": "SPOKANE", "state": "WA", "street": "210 E NORTH FOOTHILLS DR", "postcode": "99207"}}},
{"geometry": {"type": "Point", "coordinates": [-117.4045037909, 47.7078416673]}, "type": "Feature", "properties": {"collection_times": [{"days": "Mon-Fri", "time": "2:45pm"}, {"days": "Sat-Sun", "time": "Closed"}], "id": "9920700034", "name": "USPS COLLECTION BOX - BLUE BOX", "address": {"city": "SPOKANE", "state": "WA", "street": "406 E ROWAN AVE", "postcode": "99207"}}},
{"geometry": {"type": "Point", "coordinates": [-117.3788994752, 47.6938276762]}, "type": "Feature", "properties": {"collection_times": [{"days": "Mon-Fri", "time": "5:00pm"}, {"days": "Sat", "time": "2:45pm"}, {"days": "Sun", "time": "Closed"}], "id": "9920700040", "name": "USPS COLLECTION BOX - BLUE BOX", "address": {"city": "SPOKANE", "state": "WA", "street": "3910 N CRESTLINE ST", "postcode": "99207"}}},
{"geometry": {"type": "Point", "coordinates": [-117.3788994752, 47.6938276762]}, "type": "Feature", "properties": {"collection_times": [{"days": "Mon-Fri", "time": "5:00pm"}, {"days": "Sat", "time": "2:45pm"}, {"days": "Sun", "time": "Closed"}], "id": "9920700041", "name": "USPS COLLECTION BOX - PO LOBBY", "address": {"city": "SPOKANE", "state": "WA", "street": "3910 N CRESTLINE ST", "postcode": "99207"}}},
{"geometry": {"type": "Point", "coordinates": [-117.408149097, 47.704327196]}, "type": "Feature", "properties": {"collection_times": [{"days": "Mon-Fri", "time": "4:00pm"}, {"days": "Sat-Sun", "time": "Closed"}], "id": "9920700042", "name": "USPS COLLECTION BOX - BLUE BOX", "address": {"city": "SPOKANE", "state": "WA", "street": "103 E QUEEN AVE", "postcode": "99207"}}},
{"geometry": {"type": "Point", "coordinates": [-117.4113793952, 47.6984787809]}, "type": "Feature", "properties": {"collection_times": [{"days": "Mon-Fri", "time": "5:00pm"}, {"days": "Sat", "time": "1:00pm"}, {"days": "Sun", "time": "Closed"}], "id": "9920700045", "name": "USPS COLLECTION BOX - BLUE BOX", "address": {"city": "SPOKANE", "state": "WA", "street": "4407 N DIVISION ST", "postcode": "99207"}}},
{"geometry": {"type": "Point", "coordinates": [-117.4087195127, 47.6750170468]}, "type": "Feature", "properties": {"collection_times": [{"days": "Mon-Fri", "time": "2:30pm"}, {"days": "Sat-Sun", "time": "Closed"}], "id": "9920700059", "name": "USPS COLLECTION BOX - BLUE BOX", "address": {"city": "SPOKANE", "state": "WA", "street": "115 E INDIANA AVE", "postcode": "99207"}}},
{"geometry": {"type": "Point", "coordinates": [-117.4067665414, 47.7079515738]}, "type": "Feature", "properties": {"collection_times": [{"days": "Mon-Fri", "time": "5:00pm"}, {"days": "Sat", "time": "1:00pm"}, {"days": "Sun", "time": "Closed"}], "id": "9920700071", "name": "USPS COLLECTION BOX - BLUE BOX", "address": {"city": "SPOKANE", "state": "WA", "street": "235 E ROWAN AVE", "postcode": "99207"}}},
{"geometry": {"type": "Point", "coordinates": [-117.4114984523, 47.7246400859]}, "type": "Feature", "properties": {"collection_times": [{"days": "Mon-Fri", "time": "5:00pm"}, {"days": "Sat", "time": "1:00pm"}, {"days": "Sun", "time": "Closed"}], "id": "9920800003", "name": "USPS COLLECTION BOX - BLUE BOX", "address": {"city": "SPOKANE", "state": "WA", "street": "7399 N DIVISION ST", "postcode": "99208"}}},
{"geometry": {"type": "Point", "coordinates": [-117.3957040559, 47.7368227947]}, "type": "Feature", "properties": {"collection_times": [{"days": "Mon-Fri", "time": "8:30am"}, {"days": "Sat-Sun", "time": "Closed"}], "id": "9920800015", "name": "USPS COLLECTION BOX - BLUE BOX", "address": {"city": "SPOKANE", "state": "WA", "street": "777 E MAGNESIUM RD", "postcode": "99208"}}},
{"geometry": {"type": "Point", "coordinates": [-117.4254880973, 47.7155143808]}, "type": "Feature", "properties": {"collection_times": [{"days": "Mon-Fri", "time": "5:00pm"}, {"days": "Sat", "time": "3:00pm"}, {"days": "Sun", "time": "Closed"}], "id": "9920800016", "name": "USPS COLLECTION BOX - BLUE BOX", "address": {"city": "SPOKANE", "state": "WA", "street": "6325 N MONROE ST", "postcode": "99208"}}},
{"geometry": {"type": "Point", "coordinates": [-117.4625970089, 47.7184874161]}, "type": "Feature", "properties": {"collection_times": [{"days": "Mon-Fri", "time": "5:00pm"}, {"days": "Sat", "time": "4:00pm"}, {"days": "Sun", "time": "Closed"}], "id": "9920800019", "name": "USPS COLLECTION BOX - BLUE BOX", "address": {"city": "SPOKANE", "state": "WA", "street": "3321 W INDIAN TRAIL RD", "postcode": "99208"}}},
{"geometry": {"type": "Point", "coordinates": [-117.425443658, 47.7155455506]}, "type": "Feature", "properties": {"collection_times": [{"days": "Mon-Fri", "time": "5:00pm"}, {"days": "Sat", "time": "3:00pm"}, {"days": "Sun", "time": "Closed"}], "id": "9920800020", "name": "USPS COLLECTION BOX - BLUE BOX", "address": {"city": "SPOKANE", "state": "WA", "street": "6325 N MONROE ST", "postcode": "99208"}}},
{"geometry": {"type": "Point", "coordinates": [-117.4110993604, 47.7079920435]}, "type": "Feature", "properties": {"collection_times": [{"days": "Mon-Fri", "time": "2:30pm"}, {"days": "Sat-Sun", "time": "Closed"}], "id": "9920800034", "name": "USPS COLLECTION BOX - BLUE BOX", "address": {"city": "SPOKANE", "state": "WA", "street": "5510 N DIVISION ST", "postcode": "99208"}}},
{"geometry": {"type": "Point", "coordinates": [-117.4059087943, 47.7119494246]}, "type": "Feature", "properties": {"collection_times": [{"days": "Mon-Fri", "time": "2:45pm"}, {"days": "Sat-Sun", "time": "Closed"}], "id": "9920800038", "name": "USPS COLLECTION BOX - BLUE BOX", "address": {"city": "SPOKANE", "state": "WA", "street": "5901 N LIDGERWOOD ST", "postcode": "99208"}}},
{"geometry": {"type": "Point", "coordinates": [-117.3794531, 47.7149517744]}, "type": "Feature", "properties": {"collection_times": [{"days": "Mon-Fri", "time": "4:00pm"}, {"days": "Sat-Sun", "time": "Closed"}], "id": "9920800040", "name": "USPS COLLECTION BOX - BLUE BOX", "address": {"city": "SPOKANE", "state": "WA", "street": "6520 N NEVADA ST", "postcode": "99208"}}},
{"geometry": {"type": "Point", "coordinates": [-117.4254880973, 47.7155143808]}, "type": "Feature", "properties": {"collection_times": [{"days": "Mon-Fri", "time": "5:00pm"}, {"days": "Sat", "time": "2:00pm"}, {"days": "Sun", "time": "Closed"}], "id": "9920800044", "name": "USPS COLLECTION BOX - PO LOBBY", "address": {"city": "SPOKANE", "state": "WA", "street": "6325 N MONROE ST", "postcode": "99208"}}},
{"geometry": {"type": "Point", "coordinates": [-117.4111889665, 47.7276846375]}, "type": "Feature", "properties": {"collection_times": [{"days": "Mon-Fri", "time": "1:30pm"}, {"days": "Sat-Sun", "time": "Closed"}], "id": "9920800045", "name": "USPS COLLECTION BOX - BLUE BOX", "address": {"city": "SPOKANE", "state": "WA", "street": "7704 N DIVISION ST", "postcode": "99208"}}},
{"geometry": {"type": "Point", "coordinates": [-117.4254880973, 47.7155143808]}, "type": "Feature", "properties": {"collection_times": [{"days": "Mon-Fri", "time": "5:00pm"}, {"days": "Sat", "time": "2:00pm"}, {"days": "Sun", "time": "Closed"}], "id": "9920800046", "name": "USPS COLLECTION BOX - APC", "address": {"city": "SPOKANE", "state": "WA", "street": "6325 N MONROE ST", "postcode": "99208"}}},
{"geometry": {"type": "Point", "coordinates": [-117.4851701194, 47.7396952361]}, "type": "Feature", "properties": {"collection_times": [{"days": "Mon-Fri", "time": "5:00pm"}, {"days": "Sat", "time": "1:00pm"}, {"days": "Sun", "time": "Closed"}], "id": "9920800048", "name": "USPS COLLECTION BOX - BLUE BOX", "address": {"city": "SPOKANE", "state": "WA", "street": "8921 N INDIAN TRAIL RD", "postcode": "99208"}}},
{"geometry": {"type": "Point", "coordinates": [-117.2826882396, 47.6820678811]}, "type": "Feature", "properties": {"collection_times": [{"days": "Mon-Fri", "time": "5:00pm"}, {"days": "Sat", "time": "1:00pm"}, {"days": "Sun", "time": "Closed"}], "id": "9921200001", "name": "USPS COLLECTION BOX - BLUE BOX", "address": {"city": "SPOKANE VALLEY", "state": "WA", "street": "2716 N ARGONNE RD", "postcode": "99212"}}},
{"geometry": {"type": "Point", "coordinates": [-117.3226456794, 47.6516420696]}, "type": "Feature", "properties": {"collection_times": [{"days": "Mon-Fri", "time": "12:00pm"}, {"days": "Sat-Sun", "time": "Closed"}], "id": "9921200006", "name": "USPS COLLECTION BOX - BLUE BOX", "address": {"city": "SPOKANE VALLEY", "state": "WA", "street": "6011 E 6TH AVE", "postcode": "99212"}}},
{"geometry": {"type": "Point", "coordinates": [-117.320385888, 47.680015964]}, "type": "Feature", "properties": {"collection_times": [{"days": "Mon-Fri", "time": "8:00am"}, {"days": "Sat-Sun", "time": "Closed"}], "id": "9921200010", "name": "USPS COLLECTION BOX - BLUE BOX", "address": {"city": "SPOKANE VALLEY", "state": "WA", "street": "6105 E RUTTER AVE", "postcode": "99212"}}},
{"geometry": {"type": "Point", "coordinates": [-117.2940450014, 47.6586117282]}, "type": "Feature", "properties": {"collection_times": [{"days": "Mon-Fri", "time": "12:30pm"}, {"days": "Sat-Sun", "time": "Closed"}], "id": "9921200019", "name": "USPS COLLECTION BOX - PO LOBBY", "address": {"city": "SPOKANE VALLEY", "state": "WA", "street": "111 N VISTA RD", "postcode": "99212"}}},
{"geometry": {"type": "Point", "coordinates": [-117.3225280417, 47.6755742811]}, "type": "Feature", "properties": {"collection_times": [{"days": "Mon-Fri", "time": "5:00pm"}, {"days": "Sat", "time": "2:30pm"}, {"days": "Sun", "time": "Closed"}], "id": "9921200025", "name": "USPS COLLECTION BOX - BLUE BOX", "address": {"city": "SPOKANE VALLEY", "state": "WA", "street": "2020 N DICKEY RD", "postcode": "99212"}}},
{"geometry": {"type": "Point", "coordinates": [-117.2941695346, 47.7056421792]}, "type": "Feature", "properties": {"collection_times": [{"days": "Mon-Fri", "time": "12:00pm"}, {"days": "Sat-Sun", "time": "Closed"}], "id": "9921200027", "name": "USPS COLLECTION BOX - BLUE BOX", "address": {"city": "SPOKANE VALLEY", "state": "WA", "street": "8202 E COLUMBIA DR", "postcode": "99212"}}},
{"geometry": {"type": "Point", "coordinates": [-117.2940450014, 47.6586117282]}, "type": "Feature", "properties": {"collection_times": [{"days": "Mon-Fri", "time": "5:00pm"}, {"days": "Sat", "time": "2:00pm"}, {"days": "Sun", "time": "Closed"}], "id": "9921200028", "name": "USPS COLLECTION BOX - BLUE BOX", "address": {"city": "SPOKANE VALLEY", "state": "WA", "street": "111 N VISTA RD", "postcode": "99212"}}},
{"geometry": {"type": "Point", "coordinates": [-117.3292499116, 47.6619285254]}, "type": "Feature", "properties": {"collection_times": [{"days": "Mon-Fri", "time": "5:00pm"}, {"days": "Sat", "time": "3:00pm"}, {"days": "Sun", "time": "Closed"}], "id": "9921200032", "name": "USPS COLLECTION BOX - BLUE BOX", "address": {"city": "SPOKANE VALLEY", "state": "WA", "street": "5511 E ALKI AVE", "postcode": "99212"}}},
{"geometry": {"type": "Point", "coordinates": [-117.3225280417, 47.6755742811]}, "type": "Feature", "properties": {"collection_times": [{"days": "Mon-Fri", "time": "1:30pm"}, {"days": "Sat-Sun", "time": "Closed"}], "id": "9921200038", "name": "USPS COLLECTION BOX - PO LOBBY", "address": {"city": "SPOKANE VALLEY", "state": "WA", "street": "2020 N DICKEY RD", "postcode": "99212"}}},
{"geometry": {"type": "Point", "coordinates": [-117.2829113185, 47.6705942974]}, "type": "Feature", "properties": {"collection_times": [{"days": "Mon-Fri", "time": "5:00pm"}, {"days": "Sat", "time": "1:00pm"}, {"days": "Sun", "time": "Closed"}], "id": "9921200039", "name": "USPS COLLECTION BOX - BLUE BOX", "address": {"city": "SPOKANE VALLEY", "state": "WA", "street": "1501 N ARGONNE RD", "postcode": "99212"}}},
{"geometry": {"type": "Point", "coordinates": [-117.2247495449, 47.6279177635]}, "type": "Feature", "properties": {"collection_times": [{"days": "Mon-Fri", "time": "12:30pm"}, {"days": "Sat-Sun", "time": "Closed"}], "id": "9921600001", "name": "USPS COLLECTION BOX - BLUE BOX", "address": {"city": "SPOKANE VALLEY", "state": "WA", "street": "13423 E 32ND AVE", "postcode": "99216"}}},
{"geometry": {"type": "Point", "coordinates": [-117.2356194854, 47.6716436467]}, "type": "Feature", "properties": {"collection_times": [{"days": "Mon-Fri", "time": "8:00am"}, {"days": "Sat-Sun", "time": "Closed"}], "id": "9921600004", "name": "USPS COLLECTION BOX - BLUE BOX", "address": {"city": "SPOKANE VALLEY", "state": "WA", "street": "12606 E MISSION AVE", "postcode": "99216"}}},
{"geometry": {"type": "Point", "coordinates": [-117.2347263513, 47.6716460126]}, "type": "Feature", "properties": {"collection_times": [{"days": "Mon-Fri", "time": "8:00am"}, {"days": "Sat-Sun", "time": "Closed"}], "id": "9921600005", "name": "USPS COLLECTION BOX - BLUE BOX", "address": {"city": "SPOKANE VALLEY", "state": "WA", "street": "12615 E MISSION AVE", "postcode": "99216"}}},
{"geometry": {"type": "Point", "coordinates": [-117.2303403919, 47.6570032983]}, "type": "Feature", "properties": {"collection_times": [{"days": "Mon-Sat", "time": "8:00am"}, {"days": "Sun", "time": "Closed"}], "id": "9921600008", "name": "USPS COLLECTION BOX - BLUE BOX", "address": {"city": "SPOKANE VALLEY", "state": "WA", "street": "13014 E SPRAGUE AVE", "postcode": "99216"}}},
{"geometry": {"type": "Point", "coordinates": [-117.2112576284, 47.6948769608]}, "type": "Feature", "properties": {"collection_times": [{"days": "Mon-Fri", "time": "5:00pm"}, {"days": "Sat", "time": "3:00pm"}, {"days": "Sun", "time": "Closed"}], "id": "9921600016", "name": "USPS COLLECTION BOX - BLUE BOX", "address": {"city": "SPOKANE VALLEY", "state": "WA", "street": "14409 E TRENT AVE", "postcode": "99216"}}},
{"geometry": {"type": "Point", "coordinates": [-117.1967408383, 47.6899334579]}, "type": "Feature", "properties": {"collection_times": [{"days": "Mon-Fri", "time": "5:00pm"}, {"days": "Sat", "time": "2:45pm"}, {"days": "Sun", "time": "Closed"}], "id": "9921600020", "name": "USPS COLLECTION BOX - BLUE BOX", "address": {"city": "SPOKANE VALLEY", "state": "WA", "street": "3808 N SULLIVAN RD", "postcode": "99216"}}},
{"geometry": {"type": "Point", "coordinates": [-117.2344926503, 47.6862294523]}, "type": "Feature", "properties": {"collection_times": [{"days": "Mon-Fri", "time": "5:00pm"}, {"days": "Sat", "time": "1:00pm"}, {"days": "Sun", "time": "Closed"}], "id": "9921600022", "name": "USPS COLLECTION BOX - BLUE BOX", "address": {"city": "SPOKANE VALLEY", "state": "WA", "street": "12809 E MIRABEAU PKWY", "postcode": "99216"}}},
{"geometry": {"type": "Point", "coordinates": [-117.2211075645, 47.6278785391]}, "type": "Feature", "properties": {"collection_times": [{"days": "Mon-Fri", "time": "12:30pm"}, {"days": "Sat-Sun", "time": "Closed"}], "id": "9921600023", "name": "USPS COLLECTION BOX - BLUE BOX", "address": {"city": "SPOKANE VALLEY", "state": "WA", "street": "13606 E 32ND AVE", "postcode": "99216"}}},
{"geometry": {"type": "Point", "coordinates": [-117.3637106368, 47.6765867172]}, "type": "Feature", "properties": {"collection_times": [{"days": "Mon-Fri", "time": "8:30am"}, {"days": "Sat-Sun", "time": "Closed"}], "id": "9921700002", "name": "USPS COLLECTION BOX - BLUE BOX", "address": {"city": "SPOKANE", "state": "WA", "street": "2000 N GREENE ST", "postcode": "99217"}}},
{"geometry": {"type": "Point", "coordinates": [-117.3575327604, 47.6971297576]}, "type": "Feature", "properties": {"collection_times": [{"days": "Mon-Fri", "time": "5:00pm"}, {"days": "Sat", "time": "1:30pm"}, {"days": "Sun", "time": "Closed"}], "id": "9921700004", "name": "USPS COLLECTION BOX - BLUE BOX", "address": {"city": "SPOKANE", "state": "WA", "street": "4401 N FREYA ST", "postcode": "99217"}}},
{"geometry": {"type": "Point", "coordinates": [-117.3660808387, 47.703347839]}, "type": "Feature", "properties": {"collection_times": [{"days": "Mon-Fri", "time": "1:00pm"}, {"days": "Sat-Sun", "time": "Closed"}], "id": "9921700006", "name": "USPS COLLECTION BOX - BLUE BOX", "address": {"city": "SPOKANE", "state": "WA", "street": "3015 E OLYMPIC AVE", "postcode": "99217"}}},
{"geometry": {"type": "Point", "coordinates": [-117.3575327604, 47.6971297576]}, "type": "Feature", "properties": {"collection_times": [{"days": "Mon-Sat", "time": "4:00pm"}, {"days": "Sun", "time": "Closed"}], "id": "9921700007", "name": "USPS COLLECTION BOX - PO LOBBY", "address": {"city": "SPOKANE", "state": "WA", "street": "4401 N FREYA ST", "postcode": "99217"}}},
{"geometry": {"type": "Point", "coordinates": [-117.4113492226, 47.7486968619]}, "type": "Feature", "properties": {"collection_times": [{"days": "Mon-Fri", "time": "2:15pm"}, {"days": "Sat-Sun", "time": "Closed"}], "id": "9921800001", "name": "USPS COLLECTION BOX - BLUE BOX", "address": {"city": "SPOKANE", "state": "WA", "street": "10103 N DIVISION ST", "postcode": "99218"}}},
{"geometry": {"type": "Point", "coordinates": [-117.4211754945, 47.7683684261]}, "type": "Feature", "properties": {"collection_times": [{"days": "Mon-Fri", "time": "5:00pm"}, {"days": "Sat", "time": "1:00pm"}, {"days": "Sun", "time": "Closed"}], "id": "9921800002", "name": "USPS COLLECTION BOX - BLUE BOX", "address": {"city": "SPOKANE", "state": "WA", "street": "601 W HASTINGS RD", "postcode": "99218"}}},
{"geometry": {"type": "Point", "coordinates": [-117.4049796374, 47.767553581]}, "type": "Feature", "properties": {"collection_times": [{"days": "Mon-Fri", "time": "5:00pm"}, {"days": "Sat", "time": "1:00pm"}, {"days": "Sun", "time": "Closed"}], "id": "9921800004", "name": "USPS COLLECTION BOX - BLUE BOX", "address": {"city": "SPOKANE", "state": "WA", "street": "12312 N DIVISION ST", "postcode": "99218"}}},
{"geometry": {"type": "Point", "coordinates": [-117.4165364976, 47.7511455869]}, "type": "Feature", "properties": {"collection_times": [{"days": "Mon-Fri", "time": "8:30am"}, {"days": "Sat-Sun", "time": "Closed"}], "id": "9921800006", "name": "USPS COLLECTION BOX - BLUE BOX", "address": {"city": "SPOKANE", "state": "WA", "street": "300 W HAWTHORNE RD", "postcode": "99218"}}},
{"geometry": {"type": "Point", "coordinates": [-117.4045177986, 47.7467187848]}, "type": "Feature", "properties": {"collection_times": [{"days": "Mon-Fri", "time": "12:05pm"}, {"days": "Sat-Sun", "time": "Closed"}], "id": "9921800009", "name": "USPS COLLECTION BOX - BLUE BOX", "address": {"city": "SPOKANE", "state": "WA", "street": "9770 N NEWPORT HWY", "postcode": "99218"}}},
{"geometry": {"type": "Point", "coordinates": [-117.4040179095, 47.7472344599]}, "type": "Feature", "properties": {"collection_times": [{"days": "Mon-Fri", "time": "3:15pm"}, {"days": "Sat", "time": "2:00pm"}, {"days": "Sun", "time": "Closed"}], "id": "9921800012", "name": "USPS COLLECTION BOX - BLUE BOX", "address": {"city": "SPOKANE", "state": "WA", "street": "9986 N NEWPORT HWY", "postcode": "99218"}}},
{"geometry": {"type": "Point", "coordinates": [-117.3954169798, 47.7470804206]}, "type": "Feature", "properties": {"collection_times": [{"days": "Mon-Sat", "time": "5:00pm"}, {"days": "Sun", "time": "Closed"}], "id": "9921800016", "name": "USPS COLLECTION BOX - BLUE BOX", "address": {"city": "SPOKANE", "state": "WA", "street": "9857 N NEVADA ST", "postcode": "99218"}}},
{"geometry": {"type": "Point", "coordinates": [-117.3954169798, 47.7470804206]}, "type": "Feature", "properties": {"collection_times": [{"days": "Mon-Sat", "time": "5:00pm"}, {"days": "Sun", "time": "Closed"}], "id": "9921800018", "name": "USPS COLLECTION BOX - PO LOBBY", "address": {"city": "SPOKANE", "state": "WA", "street": "9857 N NEVADA ST", "postcode": "99218"}}},
{"geometry": {"type": "Point", "coordinates": [-117.3954112164, 47.7449610774]}, "type": "Feature", "properties": {"collection_times": [{"days": "Mon-Fri", "time": "3:15pm"}, {"days": "Sat-Sun", "time": "Closed"}], "id": "9921800019", "name": "USPS COLLECTION BOX - BLUE BOX", "address": {"city": "SPOKANE", "state": "WA", "street": "9631 N NEVADA ST", "postcode": "99218"}}},
{"geometry": {"type": "Point", "coordinates": [-117.3685062937, 47.6047224191]}, "type": "Feature", "properties": {"collection_times": [{"days": "Mon-Fri", "time": "5:00pm"}, {"days": "Sat", "time": "3:45pm"}, {"days": "Sun", "time": "Closed"}], "id": "9922300011", "name": "USPS COLLECTION BOX - BLUE BOX", "address": {"city": "SPOKANE", "state": "WA", "street": "5428 S REGAL ST", "postcode": "99223"}}},
{"geometry": {"type": "Point", "coordinates": [-117.3685062937, 47.6047224191]}, "type": "Feature", "properties": {"collection_times": [{"days": "Mon-Fri", "time": "5:00pm"}, {"days": "Sat", "time": "3:45pm"}, {"days": "Sun", "time": "Closed"}], "id": "9922300013", "name": "USPS COLLECTION BOX - PO LOBBY", "address": {"city": "SPOKANE", "state": "WA", "street": "5428 S REGAL ST", "postcode": "99223"}}},
{"geometry": {"type": "Point", "coordinates": [-117.5062953006, 47.6219966872]}, "type": "Feature", "properties": {"collection_times": [{"days": "Mon-Fri", "time": "5:15pm"}, {"days": "Sat", "time": "4:30pm"}, {"days": "Sun", "time": "Closed"}], "id": "9922400002", "name": "USPS COLLECTION BOX - BLUE BOX", "address": {"city": "SPOKANE", "state": "WA", "street": "6801 W FLIGHTLINE BLVD", "postcode": "99224"}}},
{"geometry": {"type": "Point", "coordinates": [-117.4686887536, 47.6741818369]}, "type": "Feature", "properties": {"collection_times": [{"days": "Mon-Fri", "time": "12:05pm"}, {"days": "Sat-Sun", "time": "Closed"}], "id": "9922400005", "name": "USPS COLLECTION BOX - BLUE BOX", "address": {"city": "SPOKANE", "state": "WA", "street": "3925 W RANDOLPH RD", "postcode": "99224"}}},
{"geometry": {"type": "Point", "coordinates": [-117.4590902789, 47.6758882968]}, "type": "Feature", "properties": {"collection_times": [{"days": "Mon-Fri", "time": "12:05pm"}, {"days": "Sat-Sun", "time": "Closed"}], "id": "9922400006", "name": "USPS COLLECTION BOX - BLUE BOX", "address": {"city": "SPOKANE", "state": "WA", "street": "3410 W FORT GEORGE WRIGHT DR", "postcode": "99224"}}},
{"geometry": {"type": "Point", "coordinates": [-117.5062953006, 47.6219966872]}, "type": "Feature", "properties": {"collection_times": [{"days": "Mon-Fri", "time": "5:00pm"}, {"days": "Sat", "time": "3:00pm"}, {"days": "Sun", "time": "Closed"}], "id": "9922400007", "name": "USPS COLLECTION BOX - PO LOBBY", "address": {"city": "SPOKANE", "state": "WA", "street": "6801 W FLIGHTLINE BLVD", "postcode": "99224"}}},
{"geometry": {"type": "Point", "coordinates": [-117.5153256721, 47.6338191392]}, "type": "Feature", "properties": {"collection_times": [{"days": "Mon-Sat", "time": "9:00pm"}, {"days": "Sun", "time": "Closed"}], "id": "9922400013", "name": "USPS COLLECTION BOX - BLUE BOX", "address": {"city": "SPOKANE", "state": "WA", "street": "2928 S SPOTTED RD", "postcode": "99224"}}},
{"geometry": {"type": "Point", "coordinates": [-117.5069209836, 47.6410101286]}, "type": "Feature", "properties": {"collection_times": [{"days": "Mon-Fri", "time": "12:30pm"}, {"days": "Sat-Sun", "time": "Closed"}], "id": "9922400017", "name": "USPS COLLECTION BOX - BLUE BOX", "address": {"city": "SPOKANE", "state": "WA", "street": "9000 W AIRPORT DR", "postcode": "99224"}}},
{"geometry": {"type": "Point", "coordinates": [-117.5356942464, 47.6046770196]}, "type": "Feature", "properties": {"collection_times": [{"days": "Mon-Sat", "time": "10:00am"}, {"days": "Sun", "time": "Closed"}], "id": "9922400018", "name": "USPS COLLECTION BOX - BLUE BOX", "address": {"city": "SPOKANE", "state": "WA", "street": "10440 W WESTBOW BLVD", "postcode": "99224"}}}
]}
