{"type": "FeatureCollection", "features": [
{"geometry": {"type": "Point", "coordinates": [-119.0950273299, 46.2376135331]}, "type": "Feature", "properties": {"collection_times": [{"days": "Mon-Fri", "time": "3:30pm"}, {"days": "Sat-Sun", "time": "Closed"}], "id": "9930100001", "name": "USPS COLLECTION BOX - BLUE BOX", "address": {"city": "PASCO", "state": "WA", "street": "1016 N 4TH AVE", "postcode": "99301"}}},
{"geometry": {"type": "Point", "coordinates": [-119.1038541104, 46.2341296149]}, "type": "Feature", "properties": {"collection_times": [{"days": "Mon-Sat", "time": "10:30am"}, {"days": "Sun", "time": "Closed"}], "id": "9930100003", "name": "USPS COLLECTION BOX - BLUE BOX", "address": {"city": "PASCO", "state": "WA", "street": "1029 W SYLVESTER ST", "postcode": "99301"}}},
{"geometry": {"type": "Point", "coordinates": [-119.1060223778, 46.2286972524]}, "type": "Feature", "properties": {"collection_times": [{"days": "Mon-Fri", "time": "11:00am"}, {"days": "Sat-Sun", "time": "Closed"}], "id": "9930100004", "name": "USPS COLLECTION BOX - BLUE BOX", "address": {"city": "PASCO", "state": "WA", "street": "1411 W CLARK ST", "postcode": "99301"}}},
{"geometry": {"type": "Point", "coordinates": [-119.0965890234, 46.2557922956]}, "type": "Feature", "properties": {"collection_times": [{"days": "Mon-Fri", "time": "3:15pm"}, {"days": "Sat-Sun", "time": "Closed"}], "id": "9930100009", "name": "USPS COLLECTION BOX - BLUE BOX", "address": {"city": "PASCO", "state": "WA", "street": "3412 N STEARMAN AVE", "postcode": "99301"}}},
{"geometry": {"type": "Point", "coordinates": [-119.0905560964, 46.2309844543]}, "type": "Feature", "properties": {"collection_times": [{"days": "Mon-Fri", "time": "4:00pm"}, {"days": "Sat", "time": "2:30pm"}, {"days": "Sun", "time": "Closed"}], "id": "9930100014", "name": "USPS COLLECTION BOX - BLUE BOX", "address": {"city": "PASCO", "state": "WA", "street": "403 W LEWIS ST", "postcode": "99301"}}},
{"geometry": {"type": "Point", "coordinates": [-119.0979135002, 46.2291231559]}, "type": "Feature", "properties": {"collection_times": [{"days": "Mon-Sat", "time": "11:30am"}, {"days": "Sun", "time": "Closed"}], "id": "9930100019", "name": "USPS COLLECTION BOX - BLUE BOX", "address": {"city": "PASCO", "state": "WA", "street": "824 W LEWIS ST", "postcode": "99301"}}},
{"geometry": {"type": "Point", "coordinates": [-119.11767374, 46.2415985055]}, "type": "Feature", "properties": {"collection_times": [{"days": "Mon-Fri", "time": "10:15am"}, {"days": "Sat-Sun", "time": "Closed"}], "id": "9930100024", "name": "USPS COLLECTION BOX - BLUE BOX", "address": {"city": "PASCO", "state": "WA", "street": "2019 W COURT ST", "postcode": "99301"}}},
{"geometry": {"type": "Point", "coordinates": [-119.1370206457, 46.241464411]}, "type": "Feature", "properties": {"collection_times": [{"days": "Mon-Sat", "time": "5:00pm"}, {"days": "Sun", "time": "Closed"}], "id": "9930100028", "name": "USPS COLLECTION BOX - BLUE BOX", "address": {"city": "PASCO", "state": "WA", "street": "3500 W COURT ST", "postcode": "99301"}}},
{"geometry": {"type": "Point", "coordinates": [-119.0905560964, 46.2309844543]}, "type": "Feature", "properties": {"collection_times": [{"days": "Mon-Fri", "time": "4:00pm"}, {"days": "Sat", "time": "2:30pm"}, {"days": "Sun", "time": "Closed"}], "id": "9930100031", "name": "USPS COLLECTION BOX - BLUE BOX", "address": {"city": "PASCO", "state": "WA", "street": "403 W LEWIS ST", "postcode": "99301"}}},
{"geometry": {"type": "Point", "coordinates": [-119.0905560964, 46.2309844543]}, "type": "Feature", "properties": {"collection_times": [{"days": "Mon-Fri", "time": "4:00pm"}, {"days": "Sat-Sun", "time": "Closed"}], "id": "9930100036", "name": "USPS COLLECTION BOX - PO LOBBY", "address": {"city": "PASCO", "state": "WA", "street": "403 W LEWIS ST", "postcode": "99301"}}},
{"geometry": {"type": "Point", "coordinates": [-119.0818810618, 46.2628032621]}, "type": "Feature", "properties": {"collection_times": [{"days": "Mon-Sat", "time": "11:00am"}, {"days": "Sun", "time": "Closed"}], "id": "9930100042", "name": "USPS COLLECTION BOX - BLUE BOX", "address": {"city": "PASCO", "state": "WA", "street": "2125 E HILLSBORO ST", "postcode": "99301"}}},
{"geometry": {"type": "Point", "coordinates": [-119.0943041422, 46.2346082659]}, "type": "Feature", "properties": {"collection_times": [{"days": "Mon-Fri", "time": "3:30pm"}, {"days": "Sat", "time": "2:00pm"}, {"days": "Sun", "time": "Closed"}], "id": "9930100044", "name": "USPS COLLECTION BOX - BLUE BOX", "address": {"city": "PASCO", "state": "WA", "street": "520 N 4TH AVE", "postcode": "99301"}}},
{"geometry": {"type": "Point", "coordinates": [-119.1370206457, 46.241464411]}, "type": "Feature", "properties": {"collection_times": [{"days": "Mon-Sat", "time": "5:00pm"}, {"days": "Sun", "time": "Closed"}], "id": "9930100046", "name": "USPS COLLECTION BOX - PO LOBBY", "address": {"city": "PASCO", "state": "WA", "street": "3500 W COURT ST", "postcode": "99301"}}},
{"geometry": {"type": "Point", "coordinates": [-119.1421289299, 46.2612685467]}, "type": "Feature", "properties": {"collection_times": [{"days": "Mon-Fri", "time": "2:30pm"}, {"days": "Sat", "time": "2:00pm"}, {"days": "Sun", "time": "Closed"}], "id": "9930100048", "name": "USPS COLLECTION BOX - BLUE BOX", "address": {"city": "PASCO", "state": "WA", "street": "4905 N ROAD 68", "postcode": "99301"}}},
{"geometry": {"type": "Point", "coordinates": [-119.1370206457, 46.241464411]}, "type": "Feature", "properties": {"collection_times": [{"days": "Mon-Sat", "time": "5:00pm"}, {"days": "Sun", "time": "Closed"}], "id": "9930100049", "name": "USPS COLLECTION BOX - APC", "address": {"city": "PASCO", "state": "WA", "street": "3500 W COURT ST", "postcode": "99301"}}},
{"geometry": {"type": "Point", "coordinates": [-119.0943041422, 46.2346082659]}, "type": "Feature", "properties": {"collection_times": [{"days": "Mon-Fri", "time": "2:30pm"}, {"days": "Sat", "time": "2:00pm"}, {"days": "Sun", "time": "Closed"}], "id": "9930100051", "name": "USPS COLLECTION BOX - BLUE BOX", "address": {"city": "PASCO", "state": "WA", "street": "520 N 4TH AVE", "postcode": "99301"}}},
{"geometry": {"type": "Point", "coordinates": [-119.4877282564, 46.2638612498]}, "type": "Feature", "properties": {"collection_times": [{"days": "Mon-Fri", "time": "3:50pm"}, {"days": "Sat", "time": "10:00am"}, {"days": "Sun", "time": "Closed"}], "id": "9932000001", "name": "USPS COLLECTION BOX - PO LOBBY", "address": {"city": "BENTON CITY", "state": "WA", "street": "909 DALE AVE", "postcode": "99320"}}},
{"geometry": {"type": "Point", "coordinates": [-119.4877282564, 46.2638612498]}, "type": "Feature", "properties": {"collection_times": [{"days": "Mon-Sat", "time": "3:50pm"}, {"days": "Sun", "time": "Closed"}], "id": "9932000002", "name": "USPS COLLECTION BOX - BLUE BOX", "address": {"city": "BENTON CITY", "state": "WA", "street": "909 DALE AVE", "postcode": "99320"}}},
{"geometry": {"type": "Point", "coordinates": [-119.9279506804, 46.8732767229]}, "type": "Feature", "properties": {"collection_times": [{"days": "Mon-Sat", "time": "12:25pm"}, {"days": "Sun", "time": "Closed"}], "id": "9932100001", "name": "USPS COLLECTION BOX - BLUE BOX", "address": {"city": "BEVERLY", "state": "WA", "street": "20476 SW B ST", "postcode": "99321"}}},
{"geometry": {"type": "Point", "coordinates": [-119.9279506804, 46.8732767229]}, "type": "Feature", "properties": {"collection_times": [{"days": "Mon-Fri", "time": "12:25pm"}, {"days": "Sat", "time": "10:45am"}, {"days": "Sun", "time": "Closed"}], "id": "9932100002", "name": "USPS COLLECTION BOX - PO LOBBY", "address": {"city": "BEVERLY", "state": "WA", "street": "20476 SW B ST", "postcode": "99321"}}},
{"geometry": {"type": "Point", "coordinates": [-120.3014649817, 45.997865048]}, "type": "Feature", "properties": {"collection_times": [{"days": "Mon-Fri", "time": "12:15pm"}, {"days": "Sat", "time": "11:00am"}, {"days": "Sun", "time": "Closed"}], "id": "9932200001", "name": "USPS COLLECTION BOX - BLUE BOX", "address": {"city": "BICKLETON", "state": "WA", "street": "205 E MARKET ST", "postcode": "99322"}}},
{"geometry": {"type": "Point", "coordinates": [-120.3015558495, 45.997897798]}, "type": "Feature", "properties": {"collection_times": [{"days": "Mon-Fri", "time": "12:15pm"}, {"days": "Sat", "time": "11:00am"}, {"days": "Sun", "time": "Closed"}], "id": "9932200002", "name": "USPS COLLECTION BOX - PO LOBBY", "address": {"city": "BICKLETON", "state": "WA", "street": "205 E MARKET ST", "postcode": "99322"}}},
{"geometry": {"type": "Point", "coordinates": [-119.0183336115, 46.2089221482]}, "type": "Feature", "properties": {"collection_times": [{"days": "Mon-Fri", "time": "3:00pm"}, {"days": "Sat", "time": "9:00am"}, {"days": "Sun", "time": "Closed"}], "id": "9932300001", "name": "USPS COLLECTION BOX - BLUE BOX", "address": {"city": "BURBANK", "state": "WA", "street": "114 2ND AVE", "postcode": "99323"}}},
{"geometry": {"type": "Point", "coordinates": [-119.0183336115, 46.2089221482]}, "type": "Feature", "properties": {"collection_times": [{"days": "Mon-Fri", "time": "3:00pm"}, {"days": "Sat", "time": "10:00am"}, {"days": "Sun", "time": "Closed"}], "id": "9932300002", "name": "USPS COLLECTION BOX - PO LOBBY", "address": {"city": "BURBANK", "state": "WA", "street": "114 2ND AVE", "postcode": "99323"}}},
{"geometry": {"type": "Point", "coordinates": [-118.3886442982, 46.0362027752]}, "type": "Feature", "properties": {"collection_times": [{"days": "Mon-Sat", "time": "12:30pm"}, {"days": "Sun", "time": "Closed"}], "id": "9932400001", "name": "USPS COLLECTION BOX - BLUE BOX", "address": {"city": "COLLEGE PLACE", "state": "WA", "street": "1117 S COLLEGE AVE", "postcode": "99324"}}},
{"geometry": {"type": "Point", "coordinates": [-118.3884305756, 46.043505107]}, "type": "Feature", "properties": {"collection_times": [{"days": "Mon-Sat", "time": "1:30pm"}, {"days": "Sun", "time": "Closed"}], "id": "9932400004", "name": "USPS COLLECTION BOX - BLUE BOX", "address": {"city": "COLLEGE PLACE", "state": "WA", "street": "500 S COLLEGE AVE", "postcode": "99324"}}},
{"geometry": {"type": "Point", "coordinates": [-118.4080687549, 46.0420791293]}, "type": "Feature", "properties": {"collection_times": [{"days": "Mon-Sat", "time": "12:30pm"}, {"days": "Sun", "time": "Closed"}], "id": "9932400005", "name": "USPS COLLECTION BOX - BLUE BOX", "address": {"city": "COLLEGE PLACE", "state": "WA", "street": "800 NE ROSE ST", "postcode": "99324"}}},
{"geometry": {"type": "Point", "coordinates": [-118.3884305756, 46.043505107]}, "type": "Feature", "properties": {"collection_times": [{"days": "Mon-Sat", "time": "1:30pm"}, {"days": "Sun", "time": "Closed"}], "id": "9932400006", "name": "USPS COLLECTION BOX - PO LOBBY", "address": {"city": "COLLEGE PLACE", "state": "WA", "street": "500 S COLLEGE AVE", "postcode": "99324"}}},
{"geometry": {"type": "Point", "coordinates": [-118.3885928953, 46.042047179]}, "type": "Feature", "properties": {"collection_times": [{"days": "Mon-Sat", "time": "12:30pm"}, {"days": "Sun", "time": "Closed"}], "id": "9932400007", "name": "USPS COLLECTION BOX - BLUE BOX", "address": {"city": "COLLEGE PLACE", "state": "WA", "street": "625 S COLLEGE AVE", "postcode": "99324"}}},
{"geometry": {"type": "Point", "coordinates": [-118.4080687549, 46.0420791293]}, "type": "Feature", "properties": {"collection_times": [{"days": "Mon-Sat", "time": "12:30pm"}, {"days": "Sun", "time": "Closed"}], "id": "9932400009", "name": "USPS COLLECTION BOX - BLUE BOX", "address": {"city": "COLLEGE PLACE", "state": "WA", "street": "1700 SE MEADOWBROOK BLVD", "postcode": "99324"}}},
{"geometry": {"type": "Point", "coordinates": [-118.8610232317, 46.6603945106]}, "type": "Feature", "properties": {"collection_times": [{"days": "Mon-Sat", "time": "1:30pm"}, {"days": "Sun", "time": "Closed"}], "id": "9932600001", "name": "USPS COLLECTION BOX - BLUE BOX", "address": {"city": "CONNELL", "state": "WA", "street": "115 E FRANKLIN ST", "postcode": "99326"}}},
{"geometry": {"type": "Point", "coordinates": [-118.8610232317, 46.6603945106]}, "type": "Feature", "properties": {"collection_times": [{"days": "Mon-Fri", "time": "1:30pm"}, {"days": "Sat", "time": "9:30am"}, {"days": "Sun", "time": "Closed"}], "id": "9932600002", "name": "USPS COLLECTION BOX - PO LOBBY", "address": {"city": "CONNELL", "state": "WA", "street": "115 E FRANKLIN ST", "postcode": "99326"}}},
{"geometry": {"type": "Point", "coordinates": [-117.978163128, 46.3194975001]}, "type": "Feature", "properties": {"collection_times": [{"days": "Mon-Fri", "time": "1:15pm"}, {"days": "Sat", "time": "11:00am"}, {"days": "Sun", "time": "Closed"}], "id": "9932800001", "name": "USPS COLLECTION BOX - BLUE BOX", "address": {"city": "DAYTON", "state": "WA", "street": "202 S 2ND ST", "postcode": "99328"}}},
{"geometry": {"type": "Point", "coordinates": [-117.978163128, 46.3194975001]}, "type": "Feature", "properties": {"collection_times": [{"days": "Mon-Fri", "time": "1:15pm"}, {"days": "Sat", "time": "11:00am"}, {"days": "Sun", "time": "Closed"}], "id": "9932800003", "name": "USPS COLLECTION BOX - BLUE BOX", "address": {"city": "DAYTON", "state": "WA", "street": "202 S 2ND ST", "postcode": "99328"}}},
{"geometry": {"type": "Point", "coordinates": [-117.978163128, 46.3194975001]}, "type": "Feature", "properties": {"collection_times": [{"days": "Mon-Fri", "time": "1:15pm"}, {"days": "Sat", "time": "11:00am"}, {"days": "Sun", "time": "Closed"}], "id": "9932800004", "name": "USPS COLLECTION BOX - PO LOBBY", "address": {"city": "DAYTON", "state": "WA", "street": "202 S 2ND ST", "postcode": "99328"}}},
{"geometry": {"type": "Point", "coordinates": [-118.155041152, 46.140134607]}, "type": "Feature", "properties": {"collection_times": [{"days": "Mon-Fri", "time": "1:00pm"}, {"days": "Sat", "time": "9:00am"}, {"days": "Sun", "time": "Closed"}], "id": "9932900001", "name": "USPS COLLECTION BOX - BLUE BOX", "address": {"city": "DIXIE", "state": "WA", "street": "10202 E HIGHWAY 12", "postcode": "99329"}}},
{"geometry": {"type": "Point", "coordinates": [-119.1114651272, 46.4636310524]}, "type": "Feature", "properties": {"collection_times": [{"days": "Mon-Fri", "time": "2:15pm"}, {"days": "Sat", "time": "10:00am"}, {"days": "Sun", "time": "Closed"}], "id": "9933000001", "name": "USPS COLLECTION BOX - BLUE BOX", "address": {"city": "ELTOPIA", "state": "WA", "street": "13101 GLADE NORTH RD", "postcode": "99330"}}},
{"geometry": {"type": "Point", "coordinates": [-119.1114651272, 46.4636310524]}, "type": "Feature", "properties": {"collection_times": [{"days": "Mon-Fri", "time": "2:15pm"}, {"days": "Sat", "time": "10:00am"}, {"days": "Sun", "time": "Closed"}], "id": "9933000002", "name": "USPS COLLECTION BOX - PO LOBBY", "address": {"city": "ELTOPIA", "state": "WA", "street": "13101 GLADE NORTH RD", "postcode": "99330"}}},
{"geometry": {"type": "Point", "coordinates": [-118.1479073905, 46.7575964071]}, "type": "Feature", "properties": {"collection_times": [{"days": "Mon-Sat", "time": "12:10pm"}, {"days": "Sun", "time": "Closed"}], "id": "9933300001", "name": "USPS COLLECTION BOX - BLUE BOX", "address": {"city": "HOOPER", "state": "WA", "street": "51 HAXTON RD", "postcode": "99333"}}},
{"geometry": {"type": "Point", "coordinates": [-118.1479073905, 46.7575964071]}, "type": "Feature", "properties": {"collection_times": [{"days": "Mon-Sat", "time": "12:10pm"}, {"days": "Sun", "time": "Closed"}], "id": "9933300002", "name": "USPS COLLECTION BOX - PO LOBBY", "address": {"city": "HOOPER", "state": "WA", "street": "51 HAXTON RD", "postcode": "99333"}}},
{"geometry": {"type": "Point", "coordinates": [-118.5549579671, 46.6421876336]}, "type": "Feature", "properties": {"collection_times": [{"days": "Mon-Fri", "time": "1:00pm"}, {"days": "Sat", "time": "9:15am"}, {"days": "Sun", "time": "Closed"}], "id": "9933500001", "name": "USPS COLLECTION BOX - BLUE BOX", "address": {"city": "KAHLOTUS", "state": "WA", "street": "125 E WESTON ST", "postcode": "99335"}}},
{"geometry": {"type": "Point", "coordinates": [-118.5549579671, 46.6421876336]}, "type": "Feature", "properties": {"collection_times": [{"days": "Mon-Fri", "time": "12:30pm"}, {"days": "Sat", "time": "9:15am"}, {"days": "Sun", "time": "Closed"}], "id": "9933500002", "name": "USPS COLLECTION BOX - PO LOBBY", "address": {"city": "KAHLOTUS", "state": "WA", "street": "125 E WESTON ST", "postcode": "99335"}}},
{"geometry": {"type": "Point", "coordinates": [-119.180022528, 46.2105125873]}, "type": "Feature", "properties": {"collection_times": [{"days": "Mon-Fri", "time": "2:30pm"}, {"days": "Sat", "time": "3:45pm"}, {"days": "Sun", "time": "Closed"}], "id": "9933600002", "name": "USPS COLLECTION BOX - BLUE BOX", "address": {"city": "KENNEWICK", "state": "WA", "street": "101 N UNION ST", "postcode": "99336"}}},
{"geometry": {"type": "Point", "coordinates": [-119.2025062814, 46.2189305942]}, "type": "Feature", "properties": {"collection_times": [{"days": "Mon-Fri", "time": "2:45pm"}, {"days": "Sat-Sun", "time": "Closed"}], "id": "9933600003", "name": "USPS COLLECTION BOX - BLUE BOX", "address": {"city": "KENNEWICK", "state": "WA", "street": "815 N KELLOGG ST", "postcode": "99336"}}},
{"geometry": {"type": "Point", "coordinates": [-119.1564519902, 46.2105732474]}, "type": "Feature", "properties": {"collection_times": [{"days": "Mon-Fri", "time": "3:30pm"}, {"days": "Sat", "time": "3:15pm"}, {"days": "Sun", "time": "Closed"}], "id": "9933600005", "name": "USPS COLLECTION BOX - BLUE BOX", "address": {"city": "KENNEWICK", "state": "WA", "street": "114 VISTA WAY", "postcode": "99336"}}},
{"geometry": {"type": "Point", "coordinates": [-119.1200697418, 46.2075997652]}, "type": "Feature", "properties": {"collection_times": [{"days": "Mon-Fri", "time": "9:30am"}, {"days": "Sat-Sun", "time": "Closed"}], "id": "9933600009", "name": "USPS COLLECTION BOX - BLUE BOX", "address": {"city": "KENNEWICK", "state": "WA", "street": "203 W 1ST AVE", "postcode": "99336"}}},
{"geometry": {"type": "Point", "coordinates": [-119.1496373562, 46.2057705329]}, "type": "Feature", "properties": {"collection_times": [{"days": "Mon-Fri", "time": "3:45pm"}, {"days": "Sat", "time": "3:00pm"}, {"days": "Sun", "time": "Closed"}], "id": "9933600010", "name": "USPS COLLECTION BOX - BLUE BOX", "address": {"city": "KENNEWICK", "state": "WA", "street": "2203 W 4TH AVE", "postcode": "99336"}}},
{"geometry": {"type": "Point", "coordinates": [-119.1215757431, 46.208619134]}, "type": "Feature", "properties": {"collection_times": [{"days": "Mon-Fri", "time": "9:00am"}, {"days": "Sat-Sun", "time": "Closed"}], "id": "9933600012", "name": "USPS COLLECTION BOX - BLUE BOX", "address": {"city": "KENNEWICK", "state": "WA", "street": "303 W KENNEWICK AVE", "postcode": "99336"}}},
{"geometry": {"type": "Point", "coordinates": [-119.1665202034, 46.209546368]}, "type": "Feature", "properties": {"collection_times": [{"days": "Mon-Fri", "time": "3:00pm"}, {"days": "Sat", "time": "3:45pm"}, {"days": "Sun", "time": "Closed"}], "id": "9933600014", "name": "USPS COLLECTION BOX - BLUE BOX", "address": {"city": "KENNEWICK", "state": "WA", "street": "3321 W KENNEWICK AVE", "postcode": "99336"}}},
{"geometry": {"type": "Point", "coordinates": [-119.1741776905, 46.2094195961]}, "type": "Feature", "properties": {"collection_times": [{"days": "Mon-Fri", "time": "3:30pm"}, {"days": "Sat-Sun", "time": "Closed"}], "id": "9933600021", "name": "USPS COLLECTION BOX - BLUE BOX", "address": {"city": "KENNEWICK", "state": "WA", "street": "7122 W OKANOGAN PL", "postcode": "99336"}}},
{"geometry": {"type": "Point", "coordinates": [-119.1695952486, 46.2144189985]}, "type": "Feature", "properties": {"collection_times": [{"days": "Mon-Fri", "time": "2:15pm"}, {"days": "Sat", "time": "3:45pm"}, {"days": "Sun", "time": "Closed"}], "id": "9933600022", "name": "USPS COLLECTION BOX - BLUE BOX", "address": {"city": "KENNEWICK", "state": "WA", "street": "500 N MORAIN ST", "postcode": "99336"}}},
{"geometry": {"type": "Point", "coordinates": [-119.1183715947, 46.2033154325]}, "type": "Feature", "properties": {"collection_times": [{"days": "Mon-Fri", "time": "5:00pm"}, {"days": "Sat", "time": "2:45pm"}, {"days": "Sun", "time": "Closed"}], "id": "9933600026", "name": "USPS COLLECTION BOX - BLUE BOX", "address": {"city": "KENNEWICK", "state": "WA", "street": "525 S AUBURN ST", "postcode": "99336"}}},
{"geometry": {"type": "Point", "coordinates": [-119.2119143646, 46.2105397307]}, "type": "Feature", "properties": {"collection_times": [{"days": "Mon-Fri", "time": "3:00pm"}, {"days": "Sat", "time": "4:00pm"}, {"days": "Sun", "time": "Closed"}], "id": "9933600032", "name": "USPS COLLECTION BOX - BLUE BOX", "address": {"city": "KENNEWICK", "state": "WA", "street": "6855 W CLEARWATER AVE", "postcode": "99336"}}},
{"geometry": {"type": "Point", "coordinates": [-119.2246444859, 46.2177134317]}, "type": "Feature", "properties": {"collection_times": [{"days": "Mon-Fri", "time": "3:15pm"}, {"days": "Sat", "time": "4:15pm"}, {"days": "Sun", "time": "Closed"}], "id": "9933600033", "name": "USPS COLLECTION BOX - BLUE BOX", "address": {"city": "KENNEWICK", "state": "WA", "street": "751 N COLUMBIA CENTER BLVD", "postcode": "99336"}}},
{"geometry": {"type": "Point", "coordinates": [-119.2333035275, 46.2237757104]}, "type": "Feature", "properties": {"collection_times": [{"days": "Mon-Fri", "time": "3:45pm"}, {"days": "Sat", "time": "4:30pm"}, {"days": "Sun", "time": "Closed"}], "id": "9933600036", "name": "USPS COLLECTION BOX - BLUE BOX", "address": {"city": "KENNEWICK", "state": "WA", "street": "8203 W QUINAULT AVE", "postcode": "99336"}}},
{"geometry": {"type": "Point", "coordinates": [-119.2339864356, 46.2271619959]}, "type": "Feature", "properties": {"collection_times": [{"days": "Mon-Sat", "time": "4:15pm"}, {"days": "Sun", "time": "Closed"}], "id": "9933600037", "name": "USPS COLLECTION BOX - BLUE BOX", "address": {"city": "KENNEWICK", "state": "WA", "street": "8382 W GAGE BLVD", "postcode": "99336"}}},
{"geometry": {"type": "Point", "coordinates": [-119.1897934279, 46.21249061]}, "type": "Feature", "properties": {"collection_times": [{"days": "Mon-Fri", "time": "2:30pm"}, {"days": "Sat", "time": "4:00pm"}, {"days": "Sun", "time": "Closed"}], "id": "9933600039", "name": "USPS COLLECTION BOX - BLUE BOX", "address": {"city": "KENNEWICK", "state": "WA", "street": "5204 W CLEARWATER AVE", "postcode": "99336"}}},
{"geometry": {"type": "Point", "coordinates": [-119.1183729501, 46.1998837793]}, "type": "Feature", "properties": {"collection_times": [{"days": "Mon-Fri", "time": "10:30am"}, {"days": "Sat-Sun", "time": "Closed"}], "id": "9933600041", "name": "USPS COLLECTION BOX - BLUE BOX", "address": {"city": "KENNEWICK", "state": "WA", "street": "821 S AUBURN ST", "postcode": "99336"}}},
{"geometry": {"type": "Point", "coordinates": [-119.1659595294, 46.212278738]}, "type": "Feature", "properties": {"collection_times": [{"days": "Mon-Fri", "time": "2:15pm"}, {"days": "Sat", "time": "3:30pm"}, {"days": "Sun", "time": "Closed"}], "id": "9933600051", "name": "USPS COLLECTION BOX - BLUE BOX", "address": {"city": "KENNEWICK", "state": "WA", "street": "3311 W CLEARWATER AVE", "postcode": "99336"}}},
{"geometry": {"type": "Point", "coordinates": [-119.1659595294, 46.212278738]}, "type": "Feature", "properties": {"collection_times": [{"days": "Mon-Fri", "time": "2:15pm"}, {"days": "Sat", "time": "3:30pm"}, {"days": "Sun", "time": "Closed"}], "id": "9933600052", "name": "USPS COLLECTION BOX - BLUE BOX", "address": {"city": "KENNEWICK", "state": "WA", "street": "3311 W CLEARWATER AVE", "postcode": "99336"}}},
{"geometry": {"type": "Point", "coordinates": [-119.1695952486, 46.2144189985]}, "type": "Feature", "properties": {"collection_times": [{"days": "Mon-Fri", "time": "2:15pm"}, {"days": "Sat", "time": "3:45pm"}, {"days": "Sun", "time": "Closed"}], "id": "9933600054", "name": "USPS COLLECTION BOX - BLUE BOX", "address": {"city": "KENNEWICK", "state": "WA", "street": "500 N MORAIN ST", "postcode": "99336"}}},
{"geometry": {"type": "Point", "coordinates": [-119.1183715947, 46.2033154325]}, "type": "Feature", "properties": {"collection_times": [{"days": "Mon-Fri", "time": "5:00pm"}, {"days": "Sat", "time": "2:45pm"}, {"days": "Sun", "time": "Closed"}], "id": "9933600056", "name": "USPS COLLECTION BOX - BLUE BOX", "address": {"city": "KENNEWICK", "state": "WA", "street": "525 S AUBURN ST", "postcode": "99336"}}},
{"geometry": {"type": "Point", "coordinates": [-119.1183715947, 46.2033154325]}, "type": "Feature", "properties": {"collection_times": [{"days": "Mon-Fri", "time": "5:00pm"}, {"days": "Sat", "time": "2:45pm"}, {"days": "Sun", "time": "Closed"}], "id": "9933600057", "name": "USPS COLLECTION BOX - BLUE BOX", "address": {"city": "KENNEWICK", "state": "WA", "street": "525 S AUBURN ST", "postcode": "99336"}}},
{"geometry": {"type": "Point", "coordinates": [-119.1183715947, 46.2033154325]}, "type": "Feature", "properties": {"collection_times": [{"days": "Mon-Fri", "time": "5:00pm"}, {"days": "Sat", "time": "2:45pm"}, {"days": "Sun", "time": "Closed"}], "id": "9933600058", "name": "USPS COLLECTION BOX - BLUE BOX", "address": {"city": "KENNEWICK", "state": "WA", "street": "525 S AUBURN ST", "postcode": "99336"}}},
{"geometry": {"type": "Point", "coordinates": [-119.1647482538, 46.2123663994]}, "type": "Feature", "properties": {"collection_times": [{"days": "Mon-Fri", "time": "2:15pm"}, {"days": "Sat-Sun", "time": "Closed"}], "id": "9933600066", "name": "USPS COLLECTION BOX - BLUE BOX", "address": {"city": "KENNEWICK", "state": "WA", "street": "3180 W CLEARWATER AVE", "postcode": "99336"}}},
{"geometry": {"type": "Point", "coordinates": [-119.2234348881, 46.2172570741]}, "type": "Feature", "properties": {"collection_times": [{"days": "Mon-Fri", "time": "3:15pm"}, {"days": "Sat-Sun", "time": "Closed"}], "id": "9933600080", "name": "USPS COLLECTION BOX - BLUE BOX", "address": {"city": "KENNEWICK", "state": "WA", "street": "901 N COLORADO ST", "postcode": "99336"}}},
{"geometry": {"type": "Point", "coordinates": [-119.1183715947, 46.2033154325]}, "type": "Feature", "properties": {"collection_times": [{"days": "Mon-Fri", "time": "5:00pm"}, {"days": "Sat-Sun", "time": "Closed"}], "id": "9933600089", "name": "USPS COLLECTION BOX - PO LOBBY", "address": {"city": "KENNEWICK", "state": "WA", "street": "525 S AUBURN ST", "postcode": "99336"}}},
{"geometry": {"type": "Point", "coordinates": [-119.207138454, 46.2121757396]}, "type": "Feature", "properties": {"collection_times": [{"days": "Mon-Fri", "time": "3:00pm"}, {"days": "Sat-Sun", "time": "Closed"}], "id": "9933600093", "name": "USPS COLLECTION BOX - BLUE BOX", "address": {"city": "KENNEWICK", "state": "WA", "street": "6515 W CLEARWATER AVE", "postcode": "99336"}}},
{"geometry": {"type": "Point", "coordinates": [-119.1900795953, 46.2123788465]}, "type": "Feature", "properties": {"collection_times": [{"days": "Mon-Fri", "time": "2:45pm"}, {"days": "Sat-Sun", "time": "Closed"}], "id": "9933600094", "name": "USPS COLLECTION BOX - BLUE BOX", "address": {"city": "KENNEWICK", "state": "WA", "street": "5219 W CLEARWATER AVE", "postcode": "99336"}}},
{"geometry": {"type": "Point", "coordinates": [-119.220867257, 46.2100254811]}, "type": "Feature", "properties": {"collection_times": [{"days": "Mon-Fri", "time": "3:00pm"}, {"days": "Sat", "time": "4:00pm"}, {"days": "Sun", "time": "Closed"}], "id": "9933600096", "name": "USPS COLLECTION BOX - BLUE BOX", "address": {"city": "KENNEWICK", "state": "WA", "street": "7601 W CLEARWATER AVE", "postcode": "99336"}}},
{"geometry": {"type": "Point", "coordinates": [-119.1599487096, 46.1985862371]}, "type": "Feature", "properties": {"collection_times": [{"days": "Mon-Sat", "time": "3:15pm"}, {"days": "Sun", "time": "Closed"}], "id": "9933600097", "name": "USPS COLLECTION BOX - BLUE BOX", "address": {"city": "KENNEWICK", "state": "WA", "street": "2811 W 10TH AVE", "postcode": "99336"}}},
{"geometry": {"type": "Point", "coordinates": [-119.2321897748, 46.220540492]}, "type": "Feature", "properties": {"collection_times": [{"days": "Mon-Fri", "time": "3:45pm"}, {"days": "Sat-Sun", "time": "Closed"}], "id": "9933600099", "name": "USPS COLLECTION BOX - BLUE BOX", "address": {"city": "KENNEWICK", "state": "WA", "street": "1009 N CENTER PKWY", "postcode": "99336"}}},
{"geometry": {"type": "Point", "coordinates": [-119.1595167309, 46.1985745935]}, "type": "Feature", "properties": {"collection_times": [{"days": "Mon-Fri", "time": "3:15pm"}, {"days": "Sat-Sun", "time": "Closed"}], "id": "9933600102", "name": "USPS COLLECTION BOX - BLUE BOX", "address": {"city": "KENNEWICK", "state": "WA", "street": "2721 W 10TH AVE", "postcode": "99336"}}},
{"geometry": {"type": "Point", "coordinates": [-119.2254107526, 46.2097536298]}, "type": "Feature", "properties": {"collection_times": [{"days": "Mon-Sat", "time": "4:15pm"}, {"days": "Sun", "time": "Closed"}], "id": "9933600103", "name": "USPS COLLECTION BOX - BLUE BOX", "address": {"city": "KENNEWICK", "state": "WA", "street": "100 COLUMBIA CTR", "postcode": "99336"}}},
{"geometry": {"type": "Point", "coordinates": [-119.215367473, 46.2182290162]}, "type": "Feature", "properties": {"collection_times": [{"days": "Mon-Fri", "time": "3:15pm"}, {"days": "Sat-Sun", "time": "Closed"}], "id": "9933600106", "name": "USPS COLLECTION BOX - BLUE BOX", "address": {"city": "KENNEWICK", "state": "WA", "street": "7103 W GRANDRIDGE BLVD", "postcode": "99336"}}},
{"geometry": {"type": "Point", "coordinates": [-119.2025402072, 46.2217946539]}, "type": "Feature", "properties": {"collection_times": [{"days": "Mon-Fri", "time": "2:45pm"}, {"days": "Sat-Sun", "time": "Closed"}], "id": "9933600109", "name": "USPS COLLECTION BOX - BLUE BOX", "address": {"city": "KENNEWICK", "state": "WA", "street": "1029 N KELLOGG ST", "postcode": "99336"}}},
{"geometry": {"type": "Point", "coordinates": [-119.1741776905, 46.2094195961]}, "type": "Feature", "properties": {"collection_times": [{"days": "Mon-Fri", "time": "3:15pm"}, {"days": "Sat-Sun", "time": "Closed"}], "id": "9933600113", "name": "USPS COLLECTION BOX - BLUE BOX", "address": {"city": "KENNEWICK", "state": "WA", "street": "7301 W DESCHUTES AVE", "postcode": "99336"}}},
{"geometry": {"type": "Point", "coordinates": [-119.1183715947, 46.2033154325]}, "type": "Feature", "properties": {"collection_times": [{"days": "Mon-Fri", "time": "4:30pm"}, {"days": "Sat", "time": "2:45pm"}, {"days": "Sun", "time": "Closed"}], "id": "9933600114", "name": "USPS COLLECTION BOX - APC", "address": {"city": "KENNEWICK", "state": "WA", "street": "525 S AUBURN ST", "postcode": "99336"}}},
{"geometry": {"type": "Point", "coordinates": [-119.1741776905, 46.2094195961]}, "type": "Feature", "properties": {"collection_times": [{"days": "Mon-Fri", "time": "3:30pm"}, {"days": "Sat-Sun", "time": "Closed"}], "id": "9933600115", "name": "USPS COLLECTION BOX - BLUE BOX", "address": {"city": "KENNEWICK", "state": "WA", "street": "7122 W OKANOGAN PL", "postcode": "99336"}}},
{"geometry": {"type": "Point", "coordinates": [-119.1803307653, 46.2139955366]}, "type": "Feature", "properties": {"collection_times": [{"days": "Mon-Fri", "time": "3:30pm"}, {"days": "Sat-Sun", "time": "Closed"}], "id": "9933600116", "name": "USPS COLLECTION BOX - BLUE BOX", "address": {"city": "KENNEWICK", "state": "WA", "street": "7102 W OKANOGAN PL", "postcode": "99336"}}},
{"geometry": {"type": "Point", "coordinates": [-119.1740462757, 46.1842505147]}, "type": "Feature", "properties": {"collection_times": [{"days": "Mon-Fri", "time": "2:45pm"}, {"days": "Sat", "time": "3:15pm"}, {"days": "Sun", "time": "Closed"}], "id": "9933700001", "name": "USPS COLLECTION BOX - BLUE BOX", "address": {"city": "KENNEWICK", "state": "WA", "street": "2720 S QUILLAN ST", "postcode": "99337"}}},
{"geometry": {"type": "Point", "coordinates": [-118.6152052742, 46.9718927598]}, "type": "Feature", "properties": {"collection_times": [{"days": "Mon-Sat", "time": "12:50pm"}, {"days": "Sun", "time": "Closed"}], "id": "9934100001", "name": "USPS COLLECTION BOX - BLUE BOX", "address": {"city": "LIND", "state": "WA", "street": "119 W 2ND AVE", "postcode": "99341"}}},
{"geometry": {"type": "Point", "coordinates": [-118.6152052742, 46.9718927598]}, "type": "Feature", "properties": {"collection_times": [{"days": "Mon-Fri", "time": "12:50pm"}, {"days": "Sat", "time": "10:00am"}, {"days": "Sun", "time": "Closed"}], "id": "9934100002", "name": "USPS COLLECTION BOX - PO LOBBY", "address": {"city": "LIND", "state": "WA", "street": "119 W 2ND AVE", "postcode": "99341"}}},
{"geometry": {"type": "Point", "coordinates": [-119.1475463626, 46.5920817017]}, "type": "Feature", "properties": {"collection_times": [{"days": "Mon-Sat", "time": "2:30pm"}, {"days": "Sun", "time": "Closed"}], "id": "9934300001", "name": "USPS COLLECTION BOX - BLUE BOX", "address": {"city": "MESA", "state": "WA", "street": "111 1ST AVE", "postcode": "99343"}}},
{"geometry": {"type": "Point", "coordinates": [-119.1442260472, 46.5915143169]}, "type": "Feature", "properties": {"collection_times": [{"days": "Mon-Sat", "time": "10:00am"}, {"days": "Sun", "time": "Closed"}], "id": "9934300002", "name": "USPS COLLECTION BOX - BLUE BOX", "address": {"city": "MESA", "state": "WA", "street": "50 N CANAL BLVD", "postcode": "99343"}}},
{"geometry": {"type": "Point", "coordinates": [-119.1475463626, 46.5920817017]}, "type": "Feature", "properties": {"collection_times": [{"days": "Mon-Fri", "time": "2:30pm"}, {"days": "Sat", "time": "9:00am"}, {"days": "Sun", "time": "Closed"}], "id": "9934300003", "name": "USPS COLLECTION BOX - PO LOBBY", "address": {"city": "MESA", "state": "WA", "street": "111 1ST AVE", "postcode": "99343"}}},
{"geometry": {"type": "Point", "coordinates": [-119.1687836028, 46.8261428116]}, "type": "Feature", "properties": {"collection_times": [{"days": "Mon-Fri", "time": "1:50pm"}, {"days": "Sat", "time": "12:00pm"}, {"days": "Sun", "time": "Closed"}], "id": "9934400001", "name": "USPS COLLECTION BOX - BLUE BOX", "address": {"city": "OTHELLO", "state": "WA", "street": "602 E MAIN ST", "postcode": "99344"}}},
{"geometry": {"type": "Point", "coordinates": [-119.1687836028, 46.8261428116]}, "type": "Feature", "properties": {"collection_times": [{"days": "Mon-Fri", "time": "1:50pm"}, {"days": "Sat", "time": "12:00pm"}, {"days": "Sun", "time": "Closed"}], "id": "9934400005", "name": "USPS COLLECTION BOX - PO LOBBY", "address": {"city": "OTHELLO", "state": "WA", "street": "602 E MAIN ST", "postcode": "99344"}}},
{"geometry": {"type": "Point", "coordinates": [-119.6030952913, 45.9396717872]}, "type": "Feature", "properties": {"collection_times": [{"days": "Mon-Fri", "time": "2:15pm"}, {"days": "Sat", "time": "11:00am"}, {"days": "Sun", "time": "Closed"}], "id": "9934500001", "name": "USPS COLLECTION BOX - BLUE BOX", "address": {"city": "PATERSON", "state": "WA", "street": "48801 W PRIOR AVE", "postcode": "99345"}}},
{"geometry": {"type": "Point", "coordinates": [-119.6030952913, 45.9396717872]}, "type": "Feature", "properties": {"collection_times": [{"days": "Mon-Fri", "time": "2:15pm"}, {"days": "Sat", "time": "11:00am"}, {"days": "Sun", "time": "Closed"}], "id": "9934500002", "name": "USPS COLLECTION BOX - PO LOBBY", "address": {"city": "PATERSON", "state": "WA", "street": "48801 W PRIOR AVE", "postcode": "99345"}}},
{"geometry": {"type": "Point", "coordinates": [-119.3563191424, 45.9359507513]}, "type": "Feature", "properties": {"collection_times": [{"days": "Mon-Fri", "time": "2:45pm"}, {"days": "Sat", "time": "7:45am"}, {"days": "Sun", "time": "Closed"}], "id": "9934600001", "name": "USPS COLLECTION BOX - BLUE BOX", "address": {"city": "PLYMOUTH", "state": "WA", "street": "72304 SE 3RD AVE", "postcode": "99346"}}},
{"geometry": {"type": "Point", "coordinates": [-119.3563191424, 45.9359507513]}, "type": "Feature", "properties": {"collection_times": [{"days": "Mon-Fri", "time": "11:45am"}, {"days": "Sat", "time": "7:45am"}, {"days": "Sun", "time": "Closed"}], "id": "9934600002", "name": "USPS COLLECTION BOX - PO LOBBY", "address": {"city": "PLYMOUTH", "state": "WA", "street": "72304 SE 3RD AVE", "postcode": "99346"}}},
{"geometry": {"type": "Point", "coordinates": [-117.5961118797, 46.4740515631]}, "type": "Feature", "properties": {"collection_times": [{"days": "Mon-Sat", "time": "12:30pm"}, {"days": "Sun", "time": "Closed"}], "id": "9934700001", "name": "USPS COLLECTION BOX - BLUE BOX", "address": {"city": "POMEROY", "state": "WA", "street": "1076 MAIN ST", "postcode": "99347"}}},
{"geometry": {"type": "Point", "coordinates": [-117.5959937896, 46.4739963686]}, "type": "Feature", "properties": {"collection_times": [{"days": "Mon-Fri", "time": "12:30pm"}, {"days": "Sat", "time": "9:30am"}, {"days": "Sun", "time": "Closed"}], "id": "9934700002", "name": "USPS COLLECTION BOX - PO LOBBY", "address": {"city": "POMEROY", "state": "WA", "street": "1076 MAIN ST", "postcode": "99347"}}},
{"geometry": {"type": "Point", "coordinates": [-118.3146112503, 46.2994981971]}, "type": "Feature", "properties": {"collection_times": [{"days": "Mon-Fri", "time": "2:00pm"}, {"days": "Sat", "time": "8:45am"}, {"days": "Sun", "time": "Closed"}], "id": "9934800001", "name": "USPS COLLECTION BOX - BLUE BOX", "address": {"city": "PRESCOTT", "state": "WA", "street": "106 S D ST", "postcode": "99348"}}},
{"geometry": {"type": "Point", "coordinates": [-118.4612174806, 46.4135007473]}, "type": "Feature", "properties": {"collection_times": [{"days": "Mon-Sat", "time": "9:15am"}, {"days": "Sun", "time": "Closed"}], "id": "9934800002", "name": "USPS COLLECTION BOX - BLUE BOX", "address": {"city": "PRESCOTT", "state": "WA", "street": "300 FISHOOK PARK RD", "postcode": "99348"}}},
{"geometry": {"type": "Point", "coordinates": [-118.3146112503, 46.2994981971]}, "type": "Feature", "properties": {"collection_times": [{"days": "Mon-Fri", "time": "2:00pm"}, {"days": "Sat", "time": "8:45am"}, {"days": "Sun", "time": "Closed"}], "id": "9934800003", "name": "USPS COLLECTION BOX - PO LOBBY", "address": {"city": "PRESCOTT", "state": "WA", "street": "106 S D ST", "postcode": "99348"}}},
{"geometry": {"type": "Point", "coordinates": [-119.906454765, 46.7377757962]}, "type": "Feature", "properties": {"collection_times": [{"days": "Mon-Fri", "time": "12:00pm"}, {"days": "Sat", "time": "11:45am"}, {"days": "Sun", "time": "Closed"}], "id": "9934900000", "name": "USPS COLLECTION BOX - PO LOBBY", "address": {"city": "MATTAWA", "state": "WA", "street": "111 GOVERNMENT RD", "postcode": "99349"}}},
{"geometry": {"type": "Point", "coordinates": [-119.906454765, 46.7377757962]}, "type": "Feature", "properties": {"collection_times": [{"days": "Mon-Sat", "time": "12:00pm"}, {"days": "Sun", "time": "Closed"}], "id": "9934900001", "name": "USPS COLLECTION BOX - BLUE BOX", "address": {"city": "MATTAWA", "state": "WA", "street": "111 GOVERNMENT RD", "postcode": "99349"}}},
{"geometry": {"type": "Point", "coordinates": [-119.7868928655, 46.2199130625]}, "type": "Feature", "properties": {"collection_times": [{"days": "Mon-Sat", "time": "9:30am"}, {"days": "Sun", "time": "Closed"}], "id": "9935000001", "name": "USPS COLLECTION BOX - BLUE BOX", "address": {"city": "PROSSER", "state": "WA", "street": "101 MERLOT DR", "postcode": "99350"}}},
{"geometry": {"type": "Point", "coordinates": [-119.7707140038, 46.2042030347]}, "type": "Feature", "properties": {"collection_times": [{"days": "Mon-Sat", "time": "3:15pm"}, {"days": "Sun", "time": "Closed"}], "id": "9935000007", "name": "USPS COLLECTION BOX - PO LOBBY", "address": {"city": "PROSSER", "state": "WA", "street": "1103 MEADE AVE", "postcode": "99350"}}},
{"geometry": {"type": "Point", "coordinates": [-119.7707140038, 46.2042030347]}, "type": "Feature", "properties": {"collection_times": [{"days": "Mon-Sat", "time": "3:15pm"}, {"days": "Sun", "time": "Closed"}], "id": "9935000008", "name": "USPS COLLECTION BOX - BLUE BOX", "address": {"city": "PROSSER", "state": "WA", "street": "1103 MEADE AVE", "postcode": "99350"}}},
{"geometry": {"type": "Point", "coordinates": [-119.2771411814, 46.2839056074]}, "type": "Feature", "properties": {"collection_times": [{"days": "Mon-Fri", "time": "3:00pm"}, {"days": "Sat-Sun", "time": "Closed"}], "id": "9935200012", "name": "USPS COLLECTION BOX - BLUE BOX", "address": {"city": "RICHLAND", "state": "WA", "street": "1200 JADWIN AVE", "postcode": "99352"}}},
{"geometry": {"type": "Point", "coordinates": [-119.27528635, 46.2769494459]}, "type": "Feature", "properties": {"collection_times": [{"days": "Mon-Fri", "time": "4:30pm"}, {"days": "Sat", "time": "2:00pm"}, {"days": "Sun", "time": "Closed"}], "id": "9935200016", "name": "USPS COLLECTION BOX - PO LOBBY", "address": {"city": "RICHLAND", "state": "WA", "street": "639 CULLUM AVE", "postcode": "99352"}}},
{"geometry": {"type": "Point", "coordinates": [-119.2796212324, 46.2805116467]}, "type": "Feature", "properties": {"collection_times": [{"days": "Mon-Sat", "time": "3:00pm"}, {"days": "Sun", "time": "Closed"}], "id": "9935200023", "name": "USPS COLLECTION BOX - BLUE BOX", "address": {"city": "RICHLAND", "state": "WA", "street": "888 SWIFT BLVD", "postcode": "99352"}}},
{"geometry": {"type": "Point", "coordinates": [-119.3034706273, 46.2597136297]}, "type": "Feature", "properties": {"collection_times": [{"days": "Mon-Fri", "time": "9:45am"}, {"days": "Sat", "time": "9:30am"}, {"days": "Sun", "time": "Closed"}], "id": "9935200033", "name": "USPS COLLECTION BOX - BLUE BOX", "address": {"city": "RICHLAND", "state": "WA", "street": "105 SKYLINE DR", "postcode": "99352"}}},
{"geometry": {"type": "Point", "coordinates": [-119.2753849933, 46.276594069]}, "type": "Feature", "properties": {"collection_times": [{"days": "Mon-Fri", "time": "4:30pm"}, {"days": "Sat", "time": "2:00pm"}, {"days": "Sun", "time": "Closed"}], "id": "9935200039", "name": "USPS COLLECTION BOX - BLUE BOX", "address": {"city": "RICHLAND", "state": "WA", "street": "639 CULLUM AVE", "postcode": "99352"}}},
{"geometry": {"type": "Point", "coordinates": [-119.2614341837, 46.2673048745]}, "type": "Feature", "properties": {"collection_times": [{"days": "Mon-Fri", "time": "3:00pm"}, {"days": "Sat-Sun", "time": "Closed"}], "id": "9935200054", "name": "USPS COLLECTION BOX - BLUE BOX", "address": {"city": "RICHLAND", "state": "WA", "street": "303 BRADLEY BLVD", "postcode": "99352"}}},
{"geometry": {"type": "Point", "coordinates": [-119.2545538986, 46.2272543351]}, "type": "Feature", "properties": {"collection_times": [{"days": "Mon-Sat", "time": "11:00am"}, {"days": "Sun", "time": "Closed"}], "id": "9935200060", "name": "USPS COLLECTION BOX - BLUE BOX", "address": {"city": "RICHLAND", "state": "WA", "street": "690 GAGE BLVD", "postcode": "99352"}}},
{"geometry": {"type": "Point", "coordinates": [-119.2687004779, 46.2289756068]}, "type": "Feature", "properties": {"collection_times": [{"days": "Mon-Fri", "time": "12:00pm"}, {"days": "Sat", "time": "12:30pm"}, {"days": "Sun", "time": "Closed"}], "id": "9935200061", "name": "USPS COLLECTION BOX - BLUE BOX", "address": {"city": "RICHLAND", "state": "WA", "street": "1950 KEENE RD", "postcode": "99352"}}},
{"geometry": {"type": "Point", "coordinates": [-119.2767780135, 46.273778541]}, "type": "Feature", "properties": {"collection_times": [{"days": "Mon-Fri", "time": "4:30pm"}, {"days": "Sat", "time": "2:00pm"}, {"days": "Sun", "time": "Closed"}], "id": "9935200064", "name": "USPS COLLECTION BOX - BLUE BOX", "address": {"city": "RICHLAND", "state": "WA", "street": "639 CULLUM AVE", "postcode": "99352"}}},
{"geometry": {"type": "Point", "coordinates": [-119.3455501713, 46.2998735616]}, "type": "Feature", "properties": {"collection_times": [{"days": "Mon-Sat", "time": "4:00pm"}, {"days": "Sun", "time": "Closed"}], "id": "9935300003", "name": "USPS COLLECTION BOX - BLUE BOX", "address": {"city": "WEST RICHLAND", "state": "WA", "street": "4801 W VAN GIESEN ST", "postcode": "99353"}}},
{"geometry": {"type": "Point", "coordinates": [-119.3455501713, 46.2998735616]}, "type": "Feature", "properties": {"collection_times": [{"days": "Mon-Sat", "time": "4:00pm"}, {"days": "Sun", "time": "Closed"}], "id": "9935300004", "name": "USPS COLLECTION BOX - PO LOBBY", "address": {"city": "WEST RICHLAND", "state": "WA", "street": "4801 W VAN GIESEN ST", "postcode": "99353"}}},
{"geometry": {"type": "Point", "coordinates": [-119.3503683734, 46.2882844649]}, "type": "Feature", "properties": {"collection_times": [{"days": "Mon-Sat", "time": "3:00pm"}, {"days": "Sun", "time": "Closed"}], "id": "9935300005", "name": "USPS COLLECTION BOX - BLUE BOX", "address": {"city": "WEST RICHLAND", "state": "WA", "street": "1401 BOMBING RANGE RD", "postcode": "99353"}}},
{"geometry": {"type": "Point", "coordinates": [-119.2800551984, 46.3416576447]}, "type": "Feature", "properties": {"collection_times": [{"days": "Mon-Fri", "time": "2:00pm"}, {"days": "Sat-Sun", "time": "Closed"}], "id": "9935400000", "name": "USPS COLLECTION BOX - BLUE BOX", "address": {"city": "RICHLAND", "state": "WA", "street": "3051 EINSTEIN AVE", "postcode": "99354"}}},
{"geometry": {"type": "Point", "coordinates": [-119.27433594, 46.2857637265]}, "type": "Feature", "properties": {"collection_times": [{"days": "Mon-Sat", "time": "2:00pm"}, {"days": "Sun", "time": "Closed"}], "id": "9935400004", "name": "USPS COLLECTION BOX - BLUE BOX", "address": {"city": "RICHLAND", "state": "WA", "street": "1301 GEORGE WASHINGTON WAY", "postcode": "99354"}}},
{"geometry": {"type": "Point", "coordinates": [-119.2742237484, 46.3005786993]}, "type": "Feature", "properties": {"collection_times": [{"days": "Mon-Fri", "time": "2:00pm"}, {"days": "Sat", "time": "12:15pm"}, {"days": "Sun", "time": "Closed"}], "id": "9935400007", "name": "USPS COLLECTION BOX - BLUE BOX", "address": {"city": "RICHLAND", "state": "WA", "street": "1906 GEORGE WASHINGTON WAY", "postcode": "99354"}}},
{"geometry": {"type": "Point", "coordinates": [-119.2985844065, 46.2930369882]}, "type": "Feature", "properties": {"collection_times": [{"days": "Mon-Sat", "time": "2:00pm"}, {"days": "Sun", "time": "Closed"}], "id": "9935400009", "name": "USPS COLLECTION BOX - BLUE BOX", "address": {"city": "RICHLAND", "state": "WA", "street": "2143 VAN GIESEN ST", "postcode": "99354"}}},
{"geometry": {"type": "Point", "coordinates": [-120.216887317, 45.7441206312]}, "type": "Feature", "properties": {"collection_times": [{"days": "Mon-Fri", "time": "1:35pm"}, {"days": "Sat", "time": "12:00pm"}, {"days": "Sun", "time": "Closed"}], "id": "9935600001", "name": "USPS COLLECTION BOX - BLUE BOX", "address": {"city": "ROOSEVELT", "state": "WA", "street": "222 FRONTAGE RD", "postcode": "99356"}}},
{"geometry": {"type": "Point", "coordinates": [-120.216887317, 45.7441206312]}, "type": "Feature", "properties": {"collection_times": [{"days": "Mon-Fri", "time": "1:35pm"}, {"days": "Sat", "time": "9:00am"}, {"days": "Sun", "time": "Closed"}], "id": "9935600002", "name": "USPS COLLECTION BOX - PO LOBBY", "address": {"city": "ROOSEVELT", "state": "WA", "street": "222 FRONTAGE RD", "postcode": "99356"}}},
{"geometry": {"type": "Point", "coordinates": [-119.6305674385, 46.8998012277]}, "type": "Feature", "properties": {"collection_times": [{"days": "Mon-Sat", "time": "12:55pm"}, {"days": "Sun", "time": "Closed"}], "id": "9935700001", "name": "USPS COLLECTION BOX - BLUE BOX", "address": {"city": "ROYAL CITY", "state": "WA", "street": "132 EVERGREEN AVE NW", "postcode": "99357"}}},
{"geometry": {"type": "Point", "coordinates": [-119.6305674385, 46.8998012277]}, "type": "Feature", "properties": {"collection_times": [{"days": "Mon-Fri", "time": "12:55pm"}, {"days": "Sat", "time": "12:45pm"}, {"days": "Sun", "time": "Closed"}], "id": "9935700002", "name": "USPS COLLECTION BOX - PO LOBBY", "address": {"city": "ROYAL CITY", "state": "WA", "street": "132 EVERGREEN AVE NW", "postcode": "99357"}}},
{"geometry": {"type": "Point", "coordinates": [-119.6745398338, 46.9138275427]}, "type": "Feature", "properties": {"collection_times": [{"days": "Mon-Sat", "time": "12:00pm"}, {"days": "Sun", "time": "Closed"}], "id": "9935700003", "name": "USPS COLLECTION BOX - BLUE BOX", "address": {"city": "ROYAL CITY", "state": "WA", "street": "122 FRONTIER WAY W", "postcode": "99357"}}},
{"geometry": {"type": "Point", "coordinates": [-118.1275986895, 46.5202642163]}, "type": "Feature", "properties": {"collection_times": [{"days": "Mon-Sat", "time": "10:00am"}, {"days": "Sun", "time": "Closed"}], "id": "9935900001", "name": "USPS COLLECTION BOX - PO LOBBY", "address": {"city": "STARBUCK", "state": "WA", "street": "301 MAIN ST", "postcode": "99359"}}},
{"geometry": {"type": "Point", "coordinates": [-118.1275986895, 46.5202642163]}, "type": "Feature", "properties": {"collection_times": [{"days": "Mon-Sat", "time": "10:00am"}, {"days": "Sun", "time": "Closed"}], "id": "9935900002", "name": "USPS COLLECTION BOX - BLUE BOX", "address": {"city": "STARBUCK", "state": "WA", "street": "301 MAIN ST", "postcode": "99359"}}},
{"geometry": {"type": "Point", "coordinates": [-118.6692617433, 46.0420453452]}, "type": "Feature", "properties": {"collection_times": [{"days": "Mon-Fri", "time": "2:30pm"}, {"days": "Sat", "time": "9:30am"}, {"days": "Sun", "time": "Closed"}], "id": "9936000001", "name": "USPS COLLECTION BOX - BLUE BOX", "address": {"city": "TOUCHET", "state": "WA", "street": "69 TOUCHET NORTH RD", "postcode": "99360"}}},
{"geometry": {"type": "Point", "coordinates": [-118.6692617433, 46.0420453452]}, "type": "Feature", "properties": {"collection_times": [{"days": "Mon-Fri", "time": "11:30am"}, {"days": "Sat", "time": "9:30am"}, {"days": "Sun", "time": "Closed"}], "id": "9936000002", "name": "USPS COLLECTION BOX - PO LOBBY", "address": {"city": "TOUCHET", "state": "WA", "street": "69 TOUCHET NORTH RD", "postcode": "99360"}}},
{"geometry": {"type": "Point", "coordinates": [-118.7120769656, 46.1064222202]}, "type": "Feature", "properties": {"collection_times": [{"days": "Mon-Sat", "time": "2:30pm"}, {"days": "Sun", "time": "Closed"}], "id": "9936000003", "name": "USPS COLLECTION BOX - BLUE BOX", "address": {"city": "TOUCHET", "state": "WA", "street": "12020 W HIGHWAY 12", "postcode": "99360"}}},
{"geometry": {"type": "Point", "coordinates": [-118.1550159807, 46.2714091738]}, "type": "Feature", "properties": {"collection_times": [{"days": "Mon-Sat", "time": "1:45pm"}, {"days": "Sun", "time": "Closed"}], "id": "9936100001", "name": "USPS COLLECTION BOX - BLUE BOX", "address": {"city": "WAITSBURG", "state": "WA", "street": "224 MAIN ST", "postcode": "99361"}}},
{"geometry": {"type": "Point", "coordinates": [-118.1550159807, 46.2714091738]}, "type": "Feature", "properties": {"collection_times": [{"days": "Mon-Fri", "time": "1:45pm"}, {"days": "Sat-Sun", "time": "Closed"}], "id": "9936100002", "name": "USPS COLLECTION BOX - PO LOBBY", "address": {"city": "WAITSBURG", "state": "WA", "street": "224 MAIN ST", "postcode": "99361"}}},
{"geometry": {"type": "Point", "coordinates": [-118.3393845126, 46.0666400133]}, "type": "Feature", "properties": {"collection_times": [{"days": "Mon-Sat", "time": "2:35pm"}, {"days": "Sun", "time": "Closed"}], "id": "9936200005", "name": "USPS COLLECTION BOX - BLUE BOX", "address": {"city": "WALLA WALLA", "state": "WA", "street": "7 W MAIN ST", "postcode": "99362"}}},
{"geometry": {"type": "Point", "coordinates": [-118.3401117848, 46.0678231927]}, "type": "Feature", "properties": {"collection_times": [{"days": "Mon-Sat", "time": "3:30pm"}, {"days": "Sun", "time": "Closed"}], "id": "9936200006", "name": "USPS COLLECTION BOX - BLUE BOX", "address": {"city": "WALLA WALLA", "state": "WA", "street": "128 N 2ND AVE", "postcode": "99362"}}},
{"geometry": {"type": "Point", "coordinates": [-118.3419016628, 46.0678901535]}, "type": "Feature", "properties": {"collection_times": [{"days": "Mon-Sat", "time": "3:10pm"}, {"days": "Sun", "time": "Closed"}], "id": "9936200008", "name": "USPS COLLECTION BOX - BLUE BOX", "address": {"city": "WALLA WALLA", "state": "WA", "street": "210 N 3RD AVE", "postcode": "99362"}}},
{"geometry": {"type": "Point", "coordinates": [-118.3434369639, 46.0651541591]}, "type": "Feature", "properties": {"collection_times": [{"days": "Mon-Sat", "time": "2:30pm"}, {"days": "Sun", "time": "Closed"}], "id": "9936200010", "name": "USPS COLLECTION BOX - BLUE BOX", "address": {"city": "WALLA WALLA", "state": "WA", "street": "310 W MAIN ST", "postcode": "99362"}}},
{"geometry": {"type": "Point", "coordinates": [-118.3422615186, 46.0633494014]}, "type": "Feature", "properties": {"collection_times": [{"days": "Mon-Sat", "time": "2:25pm"}, {"days": "Sun", "time": "Closed"}], "id": "9936200011", "name": "USPS COLLECTION BOX - BLUE BOX", "address": {"city": "WALLA WALLA", "state": "WA", "street": "328 W POPLAR ST", "postcode": "99362"}}},
{"geometry": {"type": "Point", "coordinates": [-118.3355913697, 46.0647198314]}, "type": "Feature", "properties": {"collection_times": [{"days": "Mon-Sat", "time": "2:50pm"}, {"days": "Sun", "time": "Closed"}], "id": "9936200016", "name": "USPS COLLECTION BOX - BLUE BOX", "address": {"city": "WALLA WALLA", "state": "WA", "street": "120 E BIRCH ST", "postcode": "99362"}}},
{"geometry": {"type": "Point", "coordinates": [-118.3308534996, 46.0701892171]}, "type": "Feature", "properties": {"collection_times": [{"days": "Mon-Fri", "time": "3:00pm"}, {"days": "Sat-Sun", "time": "Closed"}], "id": "9936200023", "name": "USPS COLLECTION BOX - BLUE BOX", "address": {"city": "WALLA WALLA", "state": "WA", "street": "201 BOYER AVE", "postcode": "99362"}}},
{"geometry": {"type": "Point", "coordinates": [-118.330055177, 46.0667468967]}, "type": "Feature", "properties": {"collection_times": [{"days": "Mon-Sat", "time": "2:55pm"}, {"days": "Sun", "time": "Closed"}], "id": "9936200025", "name": "USPS COLLECTION BOX - BLUE BOX", "address": {"city": "WALLA WALLA", "state": "WA", "street": "364 S PARK ST", "postcode": "99362"}}},
{"geometry": {"type": "Point", "coordinates": [-118.3045178449, 46.0778147677]}, "type": "Feature", "properties": {"collection_times": [{"days": "Mon-Sat", "time": "2:15pm"}, {"days": "Sun", "time": "Closed"}], "id": "9936200035", "name": "USPS COLLECTION BOX - BLUE BOX", "address": {"city": "WALLA WALLA", "state": "WA", "street": "490 N WILBUR AVE", "postcode": "99362"}}},
{"geometry": {"type": "Point", "coordinates": [-118.3372361379, 46.0663979889]}, "type": "Feature", "properties": {"collection_times": [{"days": "Mon-Sat", "time": "2:45pm"}, {"days": "Sun", "time": "Closed"}], "id": "9936200041", "name": "USPS COLLECTION BOX - BLUE BOX", "address": {"city": "WALLA WALLA", "state": "WA", "street": "100 E ALDER ST", "postcode": "99362"}}},
{"geometry": {"type": "Point", "coordinates": [-118.3590005524, 46.0458207735]}, "type": "Feature", "properties": {"collection_times": [{"days": "Mon-Sat", "time": "2:20pm"}, {"days": "Sun", "time": "Closed"}], "id": "9936200047", "name": "USPS COLLECTION BOX - BLUE BOX", "address": {"city": "WALLA WALLA", "state": "WA", "street": "1501 BUSINESS ONE CIR", "postcode": "99362"}}},
{"geometry": {"type": "Point", "coordinates": [-118.3401117848, 46.0678231927]}, "type": "Feature", "properties": {"collection_times": [{"days": "Mon-Sat", "time": "3:30pm"}, {"days": "Sun", "time": "Closed"}], "id": "9936200049", "name": "USPS COLLECTION BOX - PO LOBBY", "address": {"city": "WALLA WALLA", "state": "WA", "street": "128 N 2ND AVE", "postcode": "99362"}}},
{"geometry": {"type": "Point", "coordinates": [-118.349194906, 46.0638402149]}, "type": "Feature", "properties": {"collection_times": [{"days": "Mon-Sat", "time": "2:10pm"}, {"days": "Sun", "time": "Closed"}], "id": "9936200050", "name": "USPS COLLECTION BOX - BLUE BOX", "address": {"city": "WALLA WALLA", "state": "WA", "street": "706 W ROSE ST", "postcode": "99362"}}},
{"geometry": {"type": "Point", "coordinates": [-118.338646197, 46.0658024429]}, "type": "Feature", "properties": {"collection_times": [{"days": "Mon-Sat", "time": "2:40pm"}, {"days": "Sun", "time": "Closed"}], "id": "9936200063", "name": "USPS COLLECTION BOX - BLUE BOX", "address": {"city": "WALLA WALLA", "state": "WA", "street": "5 W ALDER ST", "postcode": "99362"}}},
{"geometry": {"type": "Point", "coordinates": [-118.3694597258, 46.0577798014]}, "type": "Feature", "properties": {"collection_times": [{"days": "Mon-Sat", "time": "2:05pm"}, {"days": "Sun", "time": "Closed"}], "id": "9936200065", "name": "USPS COLLECTION BOX - BLUE BOX", "address": {"city": "WALLA WALLA", "state": "WA", "street": "1631 W ROSE ST", "postcode": "99362"}}},
{"geometry": {"type": "Point", "coordinates": [-118.3401117848, 46.0678231927]}, "type": "Feature", "properties": {"collection_times": [{"days": "Mon-Sat", "time": "3:30pm"}, {"days": "Sun", "time": "Closed"}], "id": "9936200066", "name": "USPS COLLECTION BOX - BLUE BOX", "address": {"city": "WALLA WALLA", "state": "WA", "street": "128 N 2ND AVE", "postcode": "99362"}}},
{"geometry": {"type": "Point", "coordinates": [-118.9078798498, 46.08238203]}, "type": "Feature", "properties": {"collection_times": [{"days": "Mon-Fri", "time": "2:55pm"}, {"days": "Sat", "time": "8:00am"}, {"days": "Sun", "time": "Closed"}], "id": "9936300001", "name": "USPS COLLECTION BOX - BLUE BOX", "address": {"city": "WALLULA", "state": "WA", "street": "150 N COLUMBIA WAY", "postcode": "99363"}}},
{"geometry": {"type": "Point", "coordinates": [-118.9078798498, 46.08238203]}, "type": "Feature", "properties": {"collection_times": [{"days": "Mon-Fri", "time": "11:30am"}, {"days": "Sat", "time": "8:00am"}, {"days": "Sun", "time": "Closed"}], "id": "9936300002", "name": "USPS COLLECTION BOX - PO LOBBY", "address": {"city": "WALLULA", "state": "WA", "street": "150 N COLUMBIA WAY", "postcode": "99363"}}},
{"geometry": {"type": "Point", "coordinates": [-118.2620106348, 46.8263595602]}, "type": "Feature", "properties": {"collection_times": [{"days": "Mon-Fri", "time": "12:30pm"}, {"days": "Sat", "time": "12:00pm"}, {"days": "Sun", "time": "Closed"}], "id": "9937100001", "name": "USPS COLLECTION BOX - BLUE BOX", "address": {"city": "WASHTUCNA", "state": "WA", "street": "170 SW MAIN ST", "postcode": "99371"}}}
]}
