{"type": "FeatureCollection", "features": [
{"geometry": {"type": "Point", "coordinates": [-117.1332420333, 46.1363158308]}, "type": "Feature", "properties": {"collection_times": [{"days": "Mon-Sat", "time": "12:00pm"}, {"days": "Sun", "time": "Closed"}], "id": "9940100001", "name": "USPS COLLECTION BOX - BLUE BOX", "address": {"city": "ANATONE", "state": "WA", "street": "1128 FIR ST", "postcode": "99401"}}},
{"geometry": {"type": "Point", "coordinates": [-117.0561374294, 46.340251226]}, "type": "Feature", "properties": {"collection_times": [{"days": "Mon-Fri", "time": "4:15pm"}, {"days": "Sat", "time": "12:00pm"}, {"days": "Sun", "time": "Closed"}], "id": "9940200001", "name": "USPS COLLECTION BOX - BLUE BOX", "address": {"city": "ASOTIN", "state": "WA", "street": "121 2ND ST", "postcode": "99402"}}},
{"geometry": {"type": "Point", "coordinates": [-117.0561374294, 46.340251226]}, "type": "Feature", "properties": {"collection_times": [{"days": "Mon-Fri", "time": "4:15pm"}, {"days": "Sat", "time": "12:00pm"}, {"days": "Sun", "time": "Closed"}], "id": "9940200002", "name": "USPS COLLECTION BOX - PO LOBBY", "address": {"city": "ASOTIN", "state": "WA", "street": "121 2ND ST", "postcode": "99402"}}},
{"geometry": {"type": "Point", "coordinates": [-117.0417121704, 46.4162542941]}, "type": "Feature", "properties": {"collection_times": [{"days": "Mon-Sat", "time": "9:00am"}, {"days": "Sun", "time": "Closed"}], "id": "9940300006", "name": "USPS COLLECTION BOX - BLUE BOX", "address": {"city": "CLARKSTON", "state": "WA", "street": "601 3RD ST", "postcode": "99403"}}},
{"geometry": {"type": "Point", "coordinates": [-117.0815390284, 46.3888996007]}, "type": "Feature", "properties": {"collection_times": [{"days": "Mon-Sat", "time": "2:00pm"}, {"days": "Sun", "time": "Closed"}], "id": "9940300007", "name": "USPS COLLECTION BOX - BLUE BOX", "address": {"city": "CLARKSTON", "state": "WA", "street": "2113 5TH AVE", "postcode": "99403"}}},
{"geometry": {"type": "Point", "coordinates": [-117.0441693811, 46.415692079]}, "type": "Feature", "properties": {"collection_times": [{"days": "Mon-Fri", "time": "4:15pm"}, {"days": "Sat", "time": "3:45pm"}, {"days": "Sun", "time": "Closed"}], "id": "9940300008", "name": "USPS COLLECTION BOX - BLUE BOX", "address": {"city": "CLARKSTON", "state": "WA", "street": "744 5TH ST", "postcode": "99403"}}},
{"geometry": {"type": "Point", "coordinates": [-117.04554, 46.41541]}, "type": "Feature", "properties": {"collection_times": [{"days": "Mon-Fri", "time": "4:15pm"}, {"days": "Sat", "time": "3:45pm"}, {"days": "Sun", "time": "Closed"}], "id": "9940300011", "name": "USPS COLLECTION BOX - BLUE BOX", "address": {"city": "CLARKSTON", "state": "WA", "street": "749 6TH ST", "postcode": "99403"}}},
{"geometry": {"type": "Point", "coordinates": [-120.5562630964, 47.4112505258]}, "type": "Feature", "properties": {"collection_times": [{"days": "Mon-Fri", "time": "5:00pm"}, {"days": "Sat", "time": "3:30pm"}, {"days": "Sun", "time": "Closed"}], "id": "9940300016", "name": "USPS COLLECTION BOX - BLUE BOX", "address": {"city": "CLARKSTON", "state": "WA", "street": "949 6TH ST", "postcode": "99403"}}},
{"geometry": {"type": "Point", "coordinates": [-117.0456319912, 46.4117956745]}, "type": "Feature", "properties": {"collection_times": [{"days": "Mon-Fri", "time": "5:00pm"}, {"days": "Sat", "time": "12:00pm"}, {"days": "Sun", "time": "Closed"}], "id": "9940300021", "name": "USPS COLLECTION BOX - PO LOBBY", "address": {"city": "CLARKSTON", "state": "WA", "street": "949 6TH ST", "postcode": "99403"}}},
{"geometry": {"type": "Point", "coordinates": [-117.0425585888, 46.4200232625]}, "type": "Feature", "properties": {"collection_times": [{"days": "Mon-Fri", "time": "4:15pm"}, {"days": "Sat", "time": "3:45pm"}, {"days": "Sun", "time": "Closed"}], "id": "9940300022", "name": "USPS COLLECTION BOX - BLUE BOX", "address": {"city": "CLARKSTON", "state": "WA", "street": "370 BRIDGE ST", "postcode": "99403"}}}
]}
