{"type": "FeatureCollection", "features": [
{"geometry": {"type": "Point", "coordinates": [-75.7085879172, 39.6077033902]}, "type": "Feature", "properties": {"collection_times": [{"days": "Mon-Sat", "time": "5:00pm"}, {"days": "Sun", "time": "Closed"}], "id": "1970100001", "name": "USPS COLLECTION BOX - BLUE BOX", "address": {"city": "BEAR", "state": "DE", "street": "125 RICKEY BLVD", "postcode": "19701"}}},
{"geometry": {"type": "Point", "coordinates": [-75.6998552217, 39.5824317633]}, "type": "Feature", "properties": {"collection_times": [{"days": "Mon-Sat", "time": "12:00pm"}, {"days": "Sun", "time": "Closed"}], "id": "1970100002", "name": "USPS COLLECTION BOX - BLUE BOX", "address": {"city": "BEAR", "state": "DE", "street": "1101 GOVERNORS PL ((RR#022))", "postcode": "19701"}}},
{"geometry": {"type": "Point", "coordinates": [-75.6998552217, 39.5824317633]}, "type": "Feature", "properties": {"collection_times": [{"days": "Mon-Sat", "time": "10:00am"}, {"days": "Sun", "time": "Closed"}], "id": "1970100003", "name": "USPS COLLECTION BOX - BLUE BOX", "address": {"city": "BEAR", "state": "DE", "street": "265 BEAR CHRISTIANA RD ((RR#009))", "postcode": "19701"}}},
{"geometry": {"type": "Point", "coordinates": [-75.6998552217, 39.5824317633]}, "type": "Feature", "properties": {"collection_times": [{"days": "Mon-Sat", "time": "12:00pm"}, {"days": "Sun", "time": "Closed"}], "id": "1970100005", "name": "USPS COLLECTION BOX - BLUE BOX", "address": {"city": "BEAR", "state": "DE", "street": "26 FOX HUNT DR ((RR#014))", "postcode": "19701"}}},
{"geometry": {"type": "Point", "coordinates": [-75.7085879172, 39.6077033902]}, "type": "Feature", "properties": {"collection_times": [{"days": "Mon-Sat", "time": "5:00pm"}, {"days": "Sun", "time": "Closed"}], "id": "1970100006", "name": "USPS COLLECTION BOX - BLUE BOX", "address": {"city": "BEAR", "state": "DE", "street": "125 RICKEY BLVD", "postcode": "19701"}}},
{"geometry": {"type": "Point", "coordinates": [-75.6998552217, 39.5824317633]}, "type": "Feature", "properties": {"collection_times": [{"days": "Mon-Sat", "time": "12:00pm"}, {"days": "Sun", "time": "Closed"}], "id": "1970100008", "name": "USPS COLLECTION BOX - BLUE BOX", "address": {"city": "BEAR", "state": "DE", "street": "300 EDEN SQ  ((RR#026))", "postcode": "19701"}}},
{"geometry": {"type": "Point", "coordinates": [-75.7085879172, 39.6077033902]}, "type": "Feature", "properties": {"collection_times": [{"days": "Mon-Fri", "time": "5:30pm"}, {"days": "Sat", "time": "5:00pm"}, {"days": "Sun", "time": "Closed"}], "id": "1970100011", "name": "USPS COLLECTION BOX - PO LOBBY", "address": {"city": "BEAR", "state": "DE", "street": "125 RICKEY BLVD", "postcode": "19701"}}},
{"geometry": {"type": "Point", "coordinates": [-75.6998552217, 39.5824317633]}, "type": "Feature", "properties": {"collection_times": [{"days": "Mon-Fri", "time": "5:30pm"}, {"days": "Sat", "time": "5:00pm"}, {"days": "Sun", "time": "Closed"}], "id": "1970100012", "name": "USPS COLLECTION BOX - APC", "address": {"city": "BEAR", "state": "DE", "street": "125 RICHEY BLVD", "postcode": "19701"}}},
{"geometry": {"type": "Point", "coordinates": [-75.7085879172, 39.6077033902]}, "type": "Feature", "properties": {"collection_times": [{"days": "Mon-Sat", "time": "5:00pm"}, {"days": "Sun", "time": "Closed"}], "id": "1970100013", "name": "USPS COLLECTION BOX - BLUE BOX", "address": {"city": "BEAR", "state": "DE", "street": "125 RICKEY BLVD", "postcode": "19701"}}},
{"geometry": {"type": "Point", "coordinates": [-75.7085879172, 39.6077033902]}, "type": "Feature", "properties": {"collection_times": [{"days": "Mon-Sat", "time": "5:00pm"}, {"days": "Sun", "time": "Closed"}], "id": "1970100014", "name": "USPS COLLECTION BOX - BLUE BOX", "address": {"city": "BEAR", "state": "DE", "street": "125 RICKEY BLVD", "postcode": "19701"}}},
{"geometry": {"type": "Point", "coordinates": [-75.7271428186, 39.6235180243]}, "type": "Feature", "properties": {"collection_times": [{"days": "Mon-Sat", "time": "2:45pm"}, {"days": "Sun", "time": "Closed"}], "id": "1970200007", "name": "USPS COLLECTION BOX - BLUE BOX", "address": {"city": "NEWARK", "state": "DE", "street": "100 CAPANO DR", "postcode": "19702"}}},
{"geometry": {"type": "Point", "coordinates": [-75.7271428186, 39.6235180243]}, "type": "Feature", "properties": {"collection_times": [{"days": "Mon-Sat", "time": "1:45pm"}, {"days": "Sun", "time": "Closed"}], "id": "1970200010", "name": "USPS COLLECTION BOX - BLUE BOX", "address": {"city": "NEWARK", "state": "DE", "street": "1 SCOTLAND DR", "postcode": "19702"}}},
{"geometry": {"type": "Point", "coordinates": [-75.7466731471, 39.6274779669]}, "type": "Feature", "properties": {"collection_times": [{"days": "Mon-Sat", "time": "1:15pm"}, {"days": "Sun", "time": "Closed"}], "id": "1970200011", "name": "USPS COLLECTION BOX - BLUE BOX", "address": {"city": "NEWARK", "state": "DE", "street": "700 PLAZA DR", "postcode": "19702"}}},
{"geometry": {"type": "Point", "coordinates": [-75.6607183133, 39.665571677]}, "type": "Feature", "properties": {"collection_times": [{"days": "Mon-Sat", "time": "1:00pm"}, {"days": "Sun", "time": "Closed"}], "id": "1970200013", "name": "USPS COLLECTION BOX - BLUE BOX", "address": {"city": "NEWARK", "state": "DE", "street": "10 W MAIN ST", "postcode": "19702"}}},
{"geometry": {"type": "Point", "coordinates": [-75.7467454416, 39.6027740002]}, "type": "Feature", "properties": {"collection_times": [{"days": "Mon-Sat", "time": "1:30pm"}, {"days": "Sun", "time": "Closed"}], "id": "1970200014", "name": "USPS COLLECTION BOX - BLUE BOX", "address": {"city": "NEWARK", "state": "DE", "street": "300 PEOPLES PLZ", "postcode": "19702"}}},
{"geometry": {"type": "Point", "coordinates": [-75.6733454166, 39.6679554867]}, "type": "Feature", "properties": {"collection_times": [{"days": "Mon-Sat", "time": "12:30pm"}, {"days": "Sun", "time": "Closed"}], "id": "1970200015", "name": "USPS COLLECTION BOX - BLUE BOX", "address": {"city": "NEWARK", "state": "DE", "street": "261 CHAPMAN RD", "postcode": "19702"}}},
{"geometry": {"type": "Point", "coordinates": [-75.6796386687, 39.6552138882]}, "type": "Feature", "properties": {"collection_times": [{"days": "Mon-Sat", "time": "12:45pm"}, {"days": "Sun", "time": "Closed"}], "id": "1970200020", "name": "USPS COLLECTION BOX - BLUE BOX", "address": {"city": "NEWARK", "state": "DE", "street": "1 WOODSHADE DR", "postcode": "19702"}}},
{"geometry": {"type": "Point", "coordinates": [-75.6692837326, 39.6664370657]}, "type": "Feature", "properties": {"collection_times": [{"days": "Mon-Sat", "time": "12:30pm"}, {"days": "Sun", "time": "Closed"}], "id": "1970200022", "name": "USPS COLLECTION BOX - BLUE BOX", "address": {"city": "NEWARK", "state": "DE", "street": "100 UNIVERSITY PLZ", "postcode": "19702"}}},
{"geometry": {"type": "Point", "coordinates": [-75.7271428186, 39.6235180243]}, "type": "Feature", "properties": {"collection_times": [{"days": "Mon-Sat", "time": "1:30pm"}, {"days": "Sun", "time": "Closed"}], "id": "1970200029", "name": "USPS COLLECTION BOX - BLUE BOX", "address": {"city": "NEWARK", "state": "DE", "street": "1 CORPORATE BLVD", "postcode": "19702"}}},
{"geometry": {"type": "Point", "coordinates": [-75.6655045517, 39.6673328028]}, "type": "Feature", "properties": {"collection_times": [{"days": "Mon-Sat", "time": "1:00pm"}, {"days": "Sun", "time": "Closed"}], "id": "1970200033", "name": "USPS COLLECTION BOX - BLUE BOX", "address": {"city": "NEWARK", "state": "DE", "street": "56 W MAIN ST", "postcode": "19702"}}},
{"geometry": {"type": "Point", "coordinates": [-75.7500846925, 39.6021966905]}, "type": "Feature", "properties": {"collection_times": [{"days": "Mon-Sat", "time": "1:30pm"}, {"days": "Sun", "time": "Closed"}], "id": "1970200034", "name": "USPS COLLECTION BOX - BLUE BOX", "address": {"city": "NEWARK", "state": "DE", "street": "1400 PEOPLES PLZ", "postcode": "19702"}}},
{"geometry": {"type": "Point", "coordinates": [-75.4615720285, 39.8198950669]}, "type": "Feature", "properties": {"collection_times": [{"days": "Mon-Sat", "time": "2:00pm"}, {"days": "Sun", "time": "Closed"}], "id": "1970300007", "name": "USPS COLLECTION BOX - BLUE BOX", "address": {"city": "CLAYMONT", "state": "DE", "street": "1200 SOCIETY DR", "postcode": "19703"}}},
{"geometry": {"type": "Point", "coordinates": [-75.4766203108, 39.8008462834]}, "type": "Feature", "properties": {"collection_times": [{"days": "Mon-Sat", "time": "1:30pm"}, {"days": "Sun", "time": "Closed"}], "id": "1970300016", "name": "USPS COLLECTION BOX - BLUE BOX", "address": {"city": "CLAYMONT", "state": "DE", "street": "1 GLENROCK DR", "postcode": "19703"}}},
{"geometry": {"type": "Point", "coordinates": [-75.4688201219, 39.7947218284]}, "type": "Feature", "properties": {"collection_times": [{"days": "Mon-Sat", "time": "1:30pm"}, {"days": "Sun", "time": "Closed"}], "id": "1970300018", "name": "USPS COLLECTION BOX - BLUE BOX", "address": {"city": "CLAYMONT", "state": "DE", "street": "99 HARVEY RD", "postcode": "19703"}}},
{"geometry": {"type": "Point", "coordinates": [-75.4589279765, 39.8016341341]}, "type": "Feature", "properties": {"collection_times": [{"days": "Mon-Fri", "time": "5:00pm"}, {"days": "Sat", "time": "12:30pm"}, {"days": "Sun", "time": "Closed"}], "id": "1970300022", "name": "USPS COLLECTION BOX - BLUE BOX", "address": {"city": "CLAYMONT", "state": "DE", "street": "3430 PHILADELPHIA PIKE", "postcode": "19703"}}},
{"geometry": {"type": "Point", "coordinates": [-75.4589279765, 39.8016341341]}, "type": "Feature", "properties": {"collection_times": [{"days": "Mon-Fri", "time": "5:00pm"}, {"days": "Sat", "time": "12:30pm"}, {"days": "Sun", "time": "Closed"}], "id": "1970300027", "name": "USPS COLLECTION BOX - PO LOBBY", "address": {"city": "CLAYMONT", "state": "DE", "street": "3430 PHILADELPHIA PIKE", "postcode": "19703"}}},
{"geometry": {"type": "Point", "coordinates": [-75.4433437274, 39.8110090734]}, "type": "Feature", "properties": {"collection_times": [{"days": "Mon-Sat", "time": "2:00pm"}, {"days": "Sun", "time": "Closed"}], "id": "1970300031", "name": "USPS COLLECTION BOX - BLUE BOX", "address": {"city": "CLAYMONT", "state": "DE", "street": "100 NAAMANS RD", "postcode": "19703"}}},
{"geometry": {"type": "Point", "coordinates": [-75.5883945545, 39.5787421888]}, "type": "Feature", "properties": {"collection_times": [{"days": "Mon-Fri", "time": "5:00pm"}, {"days": "Sat", "time": "12:00pm"}, {"days": "Sun", "time": "Closed"}], "id": "1970600001", "name": "USPS COLLECTION BOX - BLUE BOX", "address": {"city": "DELAWARE CITY", "state": "DE", "street": "54 CLINTON ST", "postcode": "19706"}}},
{"geometry": {"type": "Point", "coordinates": [-75.5883945545, 39.5787421888]}, "type": "Feature", "properties": {"collection_times": [{"days": "Mon-Fri", "time": "5:00pm"}, {"days": "Sat", "time": "12:00pm"}, {"days": "Sun", "time": "Closed"}], "id": "1970600003", "name": "USPS COLLECTION BOX - PO LOBBY", "address": {"city": "DELAWARE CITY", "state": "DE", "street": "54 CLINTON ST", "postcode": "19706"}}},
{"geometry": {"type": "Point", "coordinates": [-75.6904097928, 39.778702831]}, "type": "Feature", "properties": {"collection_times": [{"days": "Mon-Sat", "time": "11:00am"}, {"days": "Sun", "time": "Closed"}], "id": "1970700007", "name": "USPS COLLECTION BOX - BLUE BOX", "address": {"city": "HOCKESSIN", "state": "DE", "street": "500 HOCKESSIN CORS", "postcode": "19707"}}},
{"geometry": {"type": "Point", "coordinates": [-75.6827063466, 39.786239111]}, "type": "Feature", "properties": {"collection_times": [{"days": "Mon-Sat", "time": "11:00am"}, {"days": "Sun", "time": "Closed"}], "id": "1970700011", "name": "USPS COLLECTION BOX - BLUE BOX", "address": {"city": "HOCKESSIN", "state": "DE", "street": "724 YORKLYN RD  ((RR#011))", "postcode": "19707"}}},
{"geometry": {"type": "Point", "coordinates": [-75.7130441236, 39.7767020909]}, "type": "Feature", "properties": {"collection_times": [{"days": "Mon-Fri", "time": "4:30pm"}, {"days": "Sat", "time": "2:45pm"}, {"days": "Sun", "time": "Closed"}], "id": "1970700013", "name": "USPS COLLECTION BOX - BLUE BOX", "address": {"city": "HOCKESSIN", "state": "DE", "street": "651 VALLEY RD", "postcode": "19707"}}},
{"geometry": {"type": "Point", "coordinates": [-75.7130441236, 39.7767020909]}, "type": "Feature", "properties": {"collection_times": [{"days": "Mon-Fri", "time": "4:30pm"}, {"days": "Sat", "time": "2:45pm"}, {"days": "Sun", "time": "Closed"}], "id": "1970700014", "name": "USPS COLLECTION BOX - BLUE BOX", "address": {"city": "HOCKESSIN", "state": "DE", "street": "651 VALLEY RD", "postcode": "19707"}}},
{"geometry": {"type": "Point", "coordinates": [-75.7130441236, 39.7767020909]}, "type": "Feature", "properties": {"collection_times": [{"days": "Mon-Fri", "time": "4:30pm"}, {"days": "Sat", "time": "2:45pm"}, {"days": "Sun", "time": "Closed"}], "id": "1970700019", "name": "USPS COLLECTION BOX - PO LOBBY", "address": {"city": "HOCKESSIN", "state": "DE", "street": "651 VALLEY RD", "postcode": "19707"}}},
{"geometry": {"type": "Point", "coordinates": [-75.7130441236, 39.7767020909]}, "type": "Feature", "properties": {"collection_times": [{"days": "Mon-Fri", "time": "4:30pm"}, {"days": "Sat", "time": "2:45pm"}, {"days": "Sun", "time": "Closed"}], "id": "1970700021", "name": "USPS COLLECTION BOX - APC", "address": {"city": "HOCKESSIN", "state": "DE", "street": "651 VALLEY RD", "postcode": "19707"}}},
{"geometry": {"type": "Point", "coordinates": [-75.6973830558, 39.5709688698]}, "type": "Feature", "properties": {"collection_times": [{"days": "Mon-Fri", "time": "4:15pm"}, {"days": "Sat", "time": "11:30am"}, {"days": "Sun", "time": "Closed"}], "id": "1970800001", "name": "USPS COLLECTION BOX - BLUE BOX", "address": {"city": "KIRKWOOD", "state": "DE", "street": "2501 RED LION RD", "postcode": "19708"}}},
{"geometry": {"type": "Point", "coordinates": [-75.6973830558, 39.5709688698]}, "type": "Feature", "properties": {"collection_times": [{"days": "Mon-Fri", "time": "4:15pm"}, {"days": "Sat", "time": "11:30am"}, {"days": "Sun", "time": "Closed"}], "id": "1970800002", "name": "USPS COLLECTION BOX - PO LOBBY", "address": {"city": "KIRKWOOD", "state": "DE", "street": "2501 RED LION RD", "postcode": "19708"}}},
{"geometry": {"type": "Point", "coordinates": [-75.7077929688, 39.450106048]}, "type": "Feature", "properties": {"collection_times": [{"days": "Mon-Fri", "time": "5:00pm"}, {"days": "Sat", "time": "3:00pm"}, {"days": "Sun", "time": "Closed"}], "id": "1970900013", "name": "USPS COLLECTION BOX - PO LOBBY", "address": {"city": "MIDDLETOWN", "state": "DE", "street": "298 E MAIN ST", "postcode": "19709"}}},
{"geometry": {"type": "Point", "coordinates": [-75.7077929688, 39.450106048]}, "type": "Feature", "properties": {"collection_times": [{"days": "Mon-Fri", "time": "5:00pm"}, {"days": "Sat", "time": "3:00pm"}, {"days": "Sun", "time": "Closed"}], "id": "1970900016", "name": "USPS COLLECTION BOX - BLUE BOX", "address": {"city": "MIDDLETOWN", "state": "DE", "street": "298 E MAIN ST", "postcode": "19709"}}},
{"geometry": {"type": "Point", "coordinates": [-75.7077929688, 39.450106048]}, "type": "Feature", "properties": {"collection_times": [{"days": "Mon-Fri", "time": "5:00pm"}, {"days": "Sat", "time": "3:00pm"}, {"days": "Sun", "time": "Closed"}], "id": "1970900018", "name": "USPS COLLECTION BOX - BLUE BOX", "address": {"city": "MIDDLETOWN", "state": "DE", "street": "298 E MAIN ST", "postcode": "19709"}}},
{"geometry": {"type": "Point", "coordinates": [-75.5795630378, 39.7711773691]}, "type": "Feature", "properties": {"collection_times": [{"days": "Mon-Fri", "time": "4:30pm"}, {"days": "Sat", "time": "11:00am"}, {"days": "Sun", "time": "Closed"}], "id": "1971000001", "name": "USPS COLLECTION BOX - BLUE BOX", "address": {"city": "MONTCHANIN", "state": "DE", "street": "101 STONE BLOCK ROW", "postcode": "19710"}}},
{"geometry": {"type": "Point", "coordinates": [-75.589397104, 39.789698279]}, "type": "Feature", "properties": {"collection_times": [{"days": "Mon-Fri", "time": "4:30pm"}, {"days": "Sat", "time": "11:00am"}, {"days": "Sun", "time": "Closed"}], "id": "1971000002", "name": "USPS COLLECTION BOX - PO LOBBY", "address": {"city": "MONTCHANIN", "state": "DE", "street": "101 STONE BLOCK ROW", "postcode": "19710"}}},
{"geometry": {"type": "Point", "coordinates": [-75.735865768, 39.6846454072]}, "type": "Feature", "properties": {"collection_times": [{"days": "Mon-Fri", "time": "5:15pm"}, {"days": "Sat", "time": "4:00pm"}, {"days": "Sun", "time": "Closed"}], "id": "1971100000", "name": "USPS COLLECTION BOX - BLUE BOX", "address": {"city": "NEWARK", "state": "DE", "street": "401 OGLETOWN RD", "postcode": "19711"}}},
{"geometry": {"type": "Point", "coordinates": [-75.735865768, 39.6846454072]}, "type": "Feature", "properties": {"collection_times": [{"days": "Mon-Fri", "time": "5:15pm"}, {"days": "Sat", "time": "4:00pm"}, {"days": "Sun", "time": "Closed"}], "id": "1971100001", "name": "USPS COLLECTION BOX - BLUE BOX", "address": {"city": "NEWARK", "state": "DE", "street": "401 OGLETOWN RD", "postcode": "19711"}}},
{"geometry": {"type": "Point", "coordinates": [-75.7594220298, 39.6720303328]}, "type": "Feature", "properties": {"collection_times": [{"days": "Mon-Sat", "time": "12:45pm"}, {"days": "Sun", "time": "Closed"}], "id": "1971100005", "name": "USPS COLLECTION BOX - BLUE BOX", "address": {"city": "NEWARK", "state": "DE", "street": "443 BEVERLY RD", "postcode": "19711"}}},
{"geometry": {"type": "Point", "coordinates": [-75.7432237727, 39.6838185189]}, "type": "Feature", "properties": {"collection_times": [{"days": "Mon-Sat", "time": "2:45pm"}, {"days": "Sun", "time": "Closed"}], "id": "1971100006", "name": "USPS COLLECTION BOX - BLUE BOX", "address": {"city": "NEWARK", "state": "DE", "street": "230 E MAIN ST", "postcode": "19711"}}},
{"geometry": {"type": "Point", "coordinates": [-75.7018583955, 39.70000222]}, "type": "Feature", "properties": {"collection_times": [{"days": "Mon-Sat", "time": "1:30pm"}, {"days": "Sun", "time": "Closed"}], "id": "1971100010", "name": "USPS COLLECTION BOX - BLUE BOX", "address": {"city": "NEWARK", "state": "DE", "street": "2 DARWIN DR", "postcode": "19711"}}},
{"geometry": {"type": "Point", "coordinates": [-75.688760342, 39.6924848763]}, "type": "Feature", "properties": {"collection_times": [{"days": "Mon-Sat", "time": "2:45pm"}, {"days": "Sun", "time": "Closed"}], "id": "1971100017", "name": "USPS COLLECTION BOX - BLUE BOX", "address": {"city": "NEWARK", "state": "DE", "street": "9 E RUTHAR DR", "postcode": "19711"}}},
{"geometry": {"type": "Point", "coordinates": [-75.6854752649, 39.707829037]}, "type": "Feature", "properties": {"collection_times": [{"days": "Mon-Sat", "time": "1:45pm"}, {"days": "Sun", "time": "Closed"}], "id": "1971100018", "name": "USPS COLLECTION BOX - BLUE BOX", "address": {"city": "NEWARK", "state": "DE", "street": "31 MEADOWOOD DR", "postcode": "19711"}}},
{"geometry": {"type": "Point", "coordinates": [-75.7397750182, 39.7136853035]}, "type": "Feature", "properties": {"collection_times": [{"days": "Mon-Sat", "time": "12:15pm"}, {"days": "Sun", "time": "Closed"}], "id": "1971100019", "name": "USPS COLLECTION BOX - BLUE BOX", "address": {"city": "NEWARK", "state": "DE", "street": "409 FAIRFIELD SHOPPING CTR", "postcode": "19711"}}},
{"geometry": {"type": "Point", "coordinates": [-75.7397750182, 39.7136853035]}, "type": "Feature", "properties": {"collection_times": [{"days": "Mon-Sat", "time": "1:30pm"}, {"days": "Sun", "time": "Closed"}], "id": "1971100023", "name": "USPS COLLECTION BOX - BLUE BOX", "address": {"city": "NEWARK", "state": "DE", "street": "2624 KIRKWOOD HWY", "postcode": "19711"}}},
{"geometry": {"type": "Point", "coordinates": [-75.7397750182, 39.7136853035]}, "type": "Feature", "properties": {"collection_times": [{"days": "Mon-Fri", "time": "4:45pm"}, {"days": "Sat", "time": "3:00pm"}, {"days": "Sun", "time": "Closed"}], "id": "1971100025", "name": "USPS COLLECTION BOX - BLUE BOX", "address": {"city": "NEWARK", "state": "DE", "street": "1 POLLY DRUMMOND SHPG CTR", "postcode": "19711"}}},
{"geometry": {"type": "Point", "coordinates": [-75.7628916485, 39.6837215163]}, "type": "Feature", "properties": {"collection_times": [{"days": "Mon-Sat", "time": "12:30pm"}, {"days": "Sun", "time": "Closed"}], "id": "1971100030", "name": "USPS COLLECTION BOX - BLUE BOX", "address": {"city": "NEWARK", "state": "DE", "street": "200 DALLAM RD", "postcode": "19711"}}},
{"geometry": {"type": "Point", "coordinates": [-75.7631696438, 39.6767598027]}, "type": "Feature", "properties": {"collection_times": [{"days": "Mon-Sat", "time": "12:30pm"}, {"days": "Sun", "time": "Closed"}], "id": "1971100031", "name": "USPS COLLECTION BOX - BLUE BOX", "address": {"city": "NEWARK", "state": "DE", "street": "267 ELKTON RD", "postcode": "19711"}}},
{"geometry": {"type": "Point", "coordinates": [-75.7358048441, 39.7277298793]}, "type": "Feature", "properties": {"collection_times": [{"days": "Mon-Sat", "time": "3:00pm"}, {"days": "Sun", "time": "Closed"}], "id": "1971100033", "name": "USPS COLLECTION BOX - BLUE BOX", "address": {"city": "NEWARK", "state": "DE", "street": "1 POLLY DRUMMOND SHPG CTR", "postcode": "19711"}}},
{"geometry": {"type": "Point", "coordinates": [-75.7767961482, 39.66836316]}, "type": "Feature", "properties": {"collection_times": [{"days": "Mon-Sat", "time": "12:45pm"}, {"days": "Sun", "time": "Closed"}], "id": "1971100035", "name": "USPS COLLECTION BOX - BLUE BOX", "address": {"city": "NEWARK", "state": "DE", "street": "216 SUBURBAN DR", "postcode": "19711"}}},
{"geometry": {"type": "Point", "coordinates": [-75.750015233, 39.677465617]}, "type": "Feature", "properties": {"collection_times": [{"days": "Mon-Sat", "time": "12:15pm"}, {"days": "Sun", "time": "Closed"}], "id": "1971100040", "name": "USPS COLLECTION BOX - BLUE BOX", "address": {"city": "NEWARK", "state": "DE", "street": "325 ACADEMY ST", "postcode": "19711"}}},
{"geometry": {"type": "Point", "coordinates": [-75.7422667589, 39.6838965942]}, "type": "Feature", "properties": {"collection_times": [{"days": "Mon-Sat", "time": "2:45pm"}, {"days": "Sun", "time": "Closed"}], "id": "1971100041", "name": "USPS COLLECTION BOX - BLUE BOX", "address": {"city": "NEWARK", "state": "DE", "street": "273 E MAIN ST", "postcode": "19711"}}},
{"geometry": {"type": "Point", "coordinates": [-75.7486843113, 39.683382007]}, "type": "Feature", "properties": {"collection_times": [{"days": "Mon-Fri", "time": "5:00pm"}, {"days": "Sat", "time": "3:15pm"}, {"days": "Sun", "time": "Closed"}], "id": "1971100042", "name": "USPS COLLECTION BOX - BLUE BOX", "address": {"city": "NEWARK", "state": "DE", "street": "110 E MAIN ST", "postcode": "19711"}}},
{"geometry": {"type": "Point", "coordinates": [-75.735865768, 39.6846454072]}, "type": "Feature", "properties": {"collection_times": [{"days": "Mon-Fri", "time": "5:15pm"}, {"days": "Sat", "time": "4:00pm"}, {"days": "Sun", "time": "Closed"}], "id": "1971100044", "name": "USPS COLLECTION BOX - BLUE BOX", "address": {"city": "NEWARK", "state": "DE", "street": "401 OGLETOWN RD", "postcode": "19711"}}},
{"geometry": {"type": "Point", "coordinates": [-75.735865768, 39.6846454072]}, "type": "Feature", "properties": {"collection_times": [{"days": "Mon-Fri", "time": "5:15pm"}, {"days": "Sat", "time": "4:00pm"}, {"days": "Sun", "time": "Closed"}], "id": "1971100046", "name": "USPS COLLECTION BOX - BLUE BOX", "address": {"city": "NEWARK", "state": "DE", "street": "401 OGLETOWN RD", "postcode": "19711"}}},
{"geometry": {"type": "Point", "coordinates": [-75.7486843113, 39.683382007]}, "type": "Feature", "properties": {"collection_times": [{"days": "Mon-Fri", "time": "5:00pm"}, {"days": "Sat", "time": "3:15pm"}, {"days": "Sun", "time": "Closed"}], "id": "1971100048", "name": "USPS COLLECTION BOX - BLUE BOX", "address": {"city": "NEWARK", "state": "DE", "street": "110 E MAIN ST", "postcode": "19711"}}},
{"geometry": {"type": "Point", "coordinates": [-75.735865768, 39.6846454072]}, "type": "Feature", "properties": {"collection_times": [{"days": "Mon-Fri", "time": "5:15pm"}, {"days": "Sat", "time": "4:00pm"}, {"days": "Sun", "time": "Closed"}], "id": "1971100054", "name": "USPS COLLECTION BOX - PO LOBBY", "address": {"city": "NEWARK", "state": "DE", "street": "401 OGLETOWN RD", "postcode": "19711"}}},
{"geometry": {"type": "Point", "coordinates": [-75.7486843113, 39.683382007]}, "type": "Feature", "properties": {"collection_times": [{"days": "Mon-Fri", "time": "4:00pm"}, {"days": "Sat", "time": "12:00pm"}, {"days": "Sun", "time": "Closed"}], "id": "1971100055", "name": "USPS COLLECTION BOX - PO LOBBY", "address": {"city": "NEWARK", "state": "DE", "street": "110 E MAIN ST", "postcode": "19711"}}},
{"geometry": {"type": "Point", "coordinates": [-75.735865768, 39.6846454072]}, "type": "Feature", "properties": {"collection_times": [{"days": "Mon-Fri", "time": "5:15pm"}, {"days": "Sat", "time": "4:00pm"}, {"days": "Sun", "time": "Closed"}], "id": "1971100057", "name": "USPS COLLECTION BOX - APC", "address": {"city": "NEWARK", "state": "DE", "street": "401 OGLETOWN RD", "postcode": "19711"}}},
{"geometry": {"type": "Point", "coordinates": [-75.7397750182, 39.7136853035]}, "type": "Feature", "properties": {"collection_times": [{"days": "Mon-Fri", "time": "4:45pm"}, {"days": "Sat", "time": "3:00pm"}, {"days": "Sun", "time": "Closed"}], "id": "1971100059", "name": "USPS COLLECTION BOX - BLUE BOX", "address": {"city": "NEWARK", "state": "DE", "street": "1 POLLY DRUMMOND SHPG CTR", "postcode": "19711"}}},
{"geometry": {"type": "Point", "coordinates": [-75.7549054925, 39.6496511151]}, "type": "Feature", "properties": {"collection_times": [{"days": "Mon-Sat", "time": "1:00pm"}, {"days": "Sun", "time": "Closed"}], "id": "1971300018", "name": "USPS COLLECTION BOX - BLUE BOX", "address": {"city": "NEWARK", "state": "DE", "street": "68 WELSH TRACT RD", "postcode": "19713"}}},
{"geometry": {"type": "Point", "coordinates": [-75.6751060266, 39.6888422612]}, "type": "Feature", "properties": {"collection_times": [{"days": "Mon-Sat", "time": "2:00pm"}, {"days": "Sun", "time": "Closed"}], "id": "1971300023", "name": "USPS COLLECTION BOX - BLUE BOX", "address": {"city": "NEWARK", "state": "DE", "street": "4745 OGLETOWN STANTON RD", "postcode": "19713"}}},
{"geometry": {"type": "Point", "coordinates": [-75.7811328757, 39.6479015188]}, "type": "Feature", "properties": {"collection_times": [{"days": "Mon-Sat", "time": "1:00pm"}, {"days": "Sun", "time": "Closed"}], "id": "1971300025", "name": "USPS COLLECTION BOX - BLUE BOX", "address": {"city": "NEWARK", "state": "DE", "street": "38 WENARK DR", "postcode": "19713"}}},
{"geometry": {"type": "Point", "coordinates": [-75.7438424603, 39.6586214929]}, "type": "Feature", "properties": {"collection_times": [{"days": "Mon-Sat", "time": "2:00pm"}, {"days": "Sun", "time": "Closed"}], "id": "1971300030", "name": "USPS COLLECTION BOX - BLUE BOX", "address": {"city": "NEWARK", "state": "DE", "street": "1 ROBSCOTT TURN", "postcode": "19713"}}},
{"geometry": {"type": "Point", "coordinates": [-75.7195705082, 39.6661652223]}, "type": "Feature", "properties": {"collection_times": [{"days": "Mon-Sat", "time": "2:15pm"}, {"days": "Sun", "time": "Closed"}], "id": "1971300032", "name": "USPS COLLECTION BOX - BLUE BOX", "address": {"city": "NEWARK", "state": "DE", "street": "146 CHESTNUT CROSSING DR", "postcode": "19713"}}},
{"geometry": {"type": "Point", "coordinates": [-75.7076817706, 39.6812455831]}, "type": "Feature", "properties": {"collection_times": [{"days": "Mon-Sat", "time": "2:30pm"}, {"days": "Sun", "time": "Closed"}], "id": "1971300033", "name": "USPS COLLECTION BOX - BLUE BOX", "address": {"city": "NEWARK", "state": "DE", "street": "3 AUGUSTA DR", "postcode": "19713"}}},
{"geometry": {"type": "Point", "coordinates": [-75.72377, 39.66239]}, "type": "Feature", "properties": {"collection_times": [{"days": "Mon-Sat", "time": "2:00pm"}, {"days": "Sun", "time": "Closed"}], "id": "1971300038", "name": "USPS COLLECTION BOX - BLUE BOX", "address": {"city": "NEWARK", "state": "DE", "street": "19 CHESTNUT HILL PLZ", "postcode": "19713"}}},
{"geometry": {"type": "Point", "coordinates": [-75.67168, 39.690815]}, "type": "Feature", "properties": {"collection_times": [{"days": "Mon-Sat", "time": "2:00pm"}, {"days": "Sun", "time": "Closed"}], "id": "1971300039", "name": "USPS COLLECTION BOX - BLUE BOX", "address": {"city": "NEWARK", "state": "DE", "street": "4755 OGLETOWN STANTON RD", "postcode": "19713"}}},
{"geometry": {"type": "Point", "coordinates": [-75.6877453632, 39.682173023]}, "type": "Feature", "properties": {"collection_times": [{"days": "Mon-Sat", "time": "1:15pm"}, {"days": "Sun", "time": "Closed"}], "id": "1971300042", "name": "USPS COLLECTION BOX - BLUE BOX", "address": {"city": "NEWARK", "state": "DE", "street": "2 ALLANDALE DR", "postcode": "19713"}}},
{"geometry": {"type": "Point", "coordinates": [-75.6858218719, 39.6843958029]}, "type": "Feature", "properties": {"collection_times": [{"days": "Mon-Sat", "time": "2:45pm"}, {"days": "Sun", "time": "Closed"}], "id": "1971300043", "name": "USPS COLLECTION BOX - BLUE BOX", "address": {"city": "NEWARK", "state": "DE", "street": "54 CHESWOLD BLVD", "postcode": "19713"}}},
{"geometry": {"type": "Point", "coordinates": [-75.7112543067, 39.670698321]}, "type": "Feature", "properties": {"collection_times": [{"days": "Mon-Sat", "time": "2:15pm"}, {"days": "Sun", "time": "Closed"}], "id": "1971300046", "name": "USPS COLLECTION BOX - BLUE BOX", "address": {"city": "NEWARK", "state": "DE", "street": "101 KENMARK RD", "postcode": "19713"}}},
{"geometry": {"type": "Point", "coordinates": [-75.6586564022, 39.6884249611]}, "type": "Feature", "properties": {"collection_times": [{"days": "Mon-Sat", "time": "2:15pm"}, {"days": "Sun", "time": "Closed"}], "id": "1971300056", "name": "USPS COLLECTION BOX - BLUE BOX", "address": {"city": "NEWARK", "state": "DE", "street": "111 CONTINENTAL DR", "postcode": "19713"}}},
{"geometry": {"type": "Point", "coordinates": [-75.6592526136, 39.687419446]}, "type": "Feature", "properties": {"collection_times": [{"days": "Mon-Sat", "time": "2:30pm"}, {"days": "Sun", "time": "Closed"}], "id": "1971300058", "name": "USPS COLLECTION BOX - BLUE BOX", "address": {"city": "NEWARK", "state": "DE", "street": "220 CONTINENTAL DR", "postcode": "19713"}}},
{"geometry": {"type": "Point", "coordinates": [-75.6589131043, 39.6876572207]}, "type": "Feature", "properties": {"collection_times": [{"days": "Mon-Sat", "time": "2:30pm"}, {"days": "Sun", "time": "Closed"}], "id": "1971300059", "name": "USPS COLLECTION BOX - BLUE BOX", "address": {"city": "NEWARK", "state": "DE", "street": "200 CONTINENTAL DR", "postcode": "19713"}}},
{"geometry": {"type": "Point", "coordinates": [-75.7462805387, 39.6581684197]}, "type": "Feature", "properties": {"collection_times": [{"days": "Mon-Sat", "time": "1:15pm"}, {"days": "Sun", "time": "Closed"}], "id": "1971300060", "name": "USPS COLLECTION BOX - BLUE BOX", "address": {"city": "NEWARK", "state": "DE", "street": "153 E CHESTNUT HILL RD", "postcode": "19713"}}},
{"geometry": {"type": "Point", "coordinates": [-75.6752956849, 39.6887452267]}, "type": "Feature", "properties": {"collection_times": [{"days": "Mon-Sat", "time": "2:00pm"}, {"days": "Sun", "time": "Closed"}], "id": "1971300065", "name": "USPS COLLECTION BOX - BLUE BOX", "address": {"city": "NEWARK", "state": "DE", "street": "4735 OGLETOWN STANTON RD", "postcode": "19713"}}},
{"geometry": {"type": "Point", "coordinates": [-75.6606260289, 39.6863867228]}, "type": "Feature", "properties": {"collection_times": [{"days": "Mon-Sat", "time": "2:30pm"}, {"days": "Sun", "time": "Closed"}], "id": "1971300066", "name": "USPS COLLECTION BOX - BLUE BOX", "address": {"city": "NEWARK", "state": "DE", "street": "131 CONTINENTAL DR", "postcode": "19713"}}},
{"geometry": {"type": "Point", "coordinates": [-75.7015433966, 39.657263456]}, "type": "Feature", "properties": {"collection_times": [{"days": "Mon-Sat", "time": "2:30pm"}, {"days": "Sun", "time": "Closed"}], "id": "1971300067", "name": "USPS COLLECTION BOX - BLUE BOX", "address": {"city": "NEWARK", "state": "DE", "street": "100 COMMERCE DR", "postcode": "19713"}}},
{"geometry": {"type": "Point", "coordinates": [-75.6601753216, 39.6870006785]}, "type": "Feature", "properties": {"collection_times": [{"days": "Mon-Sat", "time": "2:15pm"}, {"days": "Sun", "time": "Closed"}], "id": "1971300068", "name": "USPS COLLECTION BOX - BLUE BOX", "address": {"city": "NEWARK", "state": "DE", "street": "121 CONTINENTAL DR", "postcode": "19713"}}},
{"geometry": {"type": "Point", "coordinates": [-75.6743601825, 39.6916295969]}, "type": "Feature", "properties": {"collection_times": [{"days": "Mon-Sat", "time": "2:45pm"}, {"days": "Sun", "time": "Closed"}], "id": "1971300070", "name": "USPS COLLECTION BOX - BLUE BOX", "address": {"city": "NEWARK", "state": "DE", "street": "200 HYGEIA DR", "postcode": "19713"}}},
{"geometry": {"type": "Point", "coordinates": [-75.686367216, 39.6766225795]}, "type": "Feature", "properties": {"collection_times": [{"days": "Mon-Sat", "time": "1:15pm"}, {"days": "Sun", "time": "Closed"}], "id": "1971300073", "name": "USPS COLLECTION BOX - BLUE BOX", "address": {"city": "NEWARK", "state": "DE", "street": "1100 BIRCHWOOD DR", "postcode": "19713"}}},
{"geometry": {"type": "Point", "coordinates": [-75.6586564022, 39.6884249611]}, "type": "Feature", "properties": {"collection_times": [{"days": "Mon-Sat", "time": "2:15pm"}, {"days": "Sun", "time": "Closed"}], "id": "1971300075", "name": "USPS COLLECTION BOX - BLUE BOX", "address": {"city": "NEWARK", "state": "DE", "street": "111 CONTINENTAL DR", "postcode": "19713"}}},
{"geometry": {"type": "Point", "coordinates": [-75.5660638381, 39.6614203738]}, "type": "Feature", "properties": {"collection_times": [{"days": "Mon-Fri", "time": "5:15pm"}, {"days": "Sat", "time": "3:15pm"}, {"days": "Sun", "time": "Closed"}], "id": "1972000000", "name": "USPS COLLECTION BOX - BLUE BOX", "address": {"city": "NEW CASTLE", "state": "DE", "street": "501 DELAWARE ST", "postcode": "19720"}}},
{"geometry": {"type": "Point", "coordinates": [-75.5610954105, 39.6631806168]}, "type": "Feature", "properties": {"collection_times": [{"days": "Mon-Sat", "time": "1:45pm"}, {"days": "Sun", "time": "Closed"}], "id": "1972000005", "name": "USPS COLLECTION BOX - BLUE BOX", "address": {"city": "NEW CASTLE", "state": "DE", "street": "308 CHESTNUT ST", "postcode": "19720"}}},
{"geometry": {"type": "Point", "coordinates": [-75.5651186539, 39.6918129556]}, "type": "Feature", "properties": {"collection_times": [{"days": "Mon-Sat", "time": "2:00pm"}, {"days": "Sun", "time": "Closed"}], "id": "1972000009", "name": "USPS COLLECTION BOX - BLUE BOX", "address": {"city": "NEW CASTLE", "state": "DE", "street": "69 LANDERS LN", "postcode": "19720"}}},
{"geometry": {"type": "Point", "coordinates": [-75.5549948911, 39.6923985203]}, "type": "Feature", "properties": {"collection_times": [{"days": "Mon-Sat", "time": "2:00pm"}, {"days": "Sun", "time": "Closed"}], "id": "1972000011", "name": "USPS COLLECTION BOX - BLUE BOX", "address": {"city": "NEW CASTLE", "state": "DE", "street": "2062 NEW CASTLE AVE", "postcode": "19720"}}},
{"geometry": {"type": "Point", "coordinates": [-75.5579842284, 39.7039288213]}, "type": "Feature", "properties": {"collection_times": [{"days": "Mon-Fri", "time": "2:15pm"}, {"days": "Sat", "time": "2:00pm"}, {"days": "Sun", "time": "Closed"}], "id": "1972000018", "name": "USPS COLLECTION BOX - BLUE BOX", "address": {"city": "NEW CASTLE", "state": "DE", "street": "61 MEMORIAL DR", "postcode": "19720"}}},
{"geometry": {"type": "Point", "coordinates": [-75.5752223064, 39.6974012537]}, "type": "Feature", "properties": {"collection_times": [{"days": "Mon-Fri", "time": "5:00pm"}, {"days": "Sat", "time": "2:15pm"}, {"days": "Sun", "time": "Closed"}], "id": "1972000019", "name": "USPS COLLECTION BOX - BLUE BOX", "address": {"city": "NEW CASTLE", "state": "DE", "street": "1901 N DUPONT HWY", "postcode": "19720"}}},
{"geometry": {"type": "Point", "coordinates": [-75.5821356253, 39.6891661498]}, "type": "Feature", "properties": {"collection_times": [{"days": "Mon-Fri", "time": "5:00pm"}, {"days": "Sat", "time": "1:45pm"}, {"days": "Sun", "time": "Closed"}], "id": "1972000020", "name": "USPS COLLECTION BOX - BLUE BOX", "address": {"city": "NEW CASTLE", "state": "DE", "street": "1412 N DUPONT HWY", "postcode": "19720"}}},
{"geometry": {"type": "Point", "coordinates": [-75.5740736338, 39.6897128911]}, "type": "Feature", "properties": {"collection_times": [{"days": "Mon-Fri", "time": "5:00pm"}, {"days": "Sat", "time": "1:45pm"}, {"days": "Sun", "time": "Closed"}], "id": "1972000022", "name": "USPS COLLECTION BOX - BLUE BOX", "address": {"city": "NEW CASTLE", "state": "DE", "street": "2 SOUTHGATE BLVD", "postcode": "19720"}}},
{"geometry": {"type": "Point", "coordinates": [-75.582151957, 39.6946661229]}, "type": "Feature", "properties": {"collection_times": [{"days": "Mon-Fri", "time": "5:15pm"}, {"days": "Sat", "time": "3:30pm"}, {"days": "Sun", "time": "Closed"}], "id": "1972000023", "name": "USPS COLLECTION BOX - BLUE BOX", "address": {"city": "NEW CASTLE", "state": "DE", "street": "100 MCMULLEN AVE", "postcode": "19720"}}},
{"geometry": {"type": "Point", "coordinates": [-75.5824762108, 39.6893583157]}, "type": "Feature", "properties": {"collection_times": [{"days": "Mon-Fri", "time": "2:30pm"}, {"days": "Sat", "time": "2:15pm"}, {"days": "Sun", "time": "Closed"}], "id": "1972000025", "name": "USPS COLLECTION BOX - BLUE BOX", "address": {"city": "NEW CASTLE", "state": "DE", "street": "1401 N DUPONT HWY", "postcode": "19720"}}},
{"geometry": {"type": "Point", "coordinates": [-75.5955479074, 39.6889584756]}, "type": "Feature", "properties": {"collection_times": [{"days": "Mon-Fri", "time": "2:30pm"}, {"days": "Sat", "time": "2:15pm"}, {"days": "Sun", "time": "Closed"}], "id": "1972000026", "name": "USPS COLLECTION BOX - BLUE BOX", "address": {"city": "NEW CASTLE", "state": "DE", "street": "33 MORRIS RD", "postcode": "19720"}}},
{"geometry": {"type": "Point", "coordinates": [-75.5866127495, 39.6752087227]}, "type": "Feature", "properties": {"collection_times": [{"days": "Mon-Sat", "time": "1:30pm"}, {"days": "Sun", "time": "Closed"}], "id": "1972000031", "name": "USPS COLLECTION BOX - BLUE BOX", "address": {"city": "NEW CASTLE", "state": "DE", "street": "450 E BASIN RD", "postcode": "19720"}}},
{"geometry": {"type": "Point", "coordinates": [-75.5876114357, 39.6777558542]}, "type": "Feature", "properties": {"collection_times": [{"days": "Mon-Sat", "time": "1:30pm"}, {"days": "Sun", "time": "Closed"}], "id": "1972000032", "name": "USPS COLLECTION BOX - BLUE BOX", "address": {"city": "NEW CASTLE", "state": "DE", "street": "40 CRIPPEN DR", "postcode": "19720"}}},
{"geometry": {"type": "Point", "coordinates": [-75.6114847306, 39.6861536799]}, "type": "Feature", "properties": {"collection_times": [{"days": "Mon-Fri", "time": "4:45pm"}, {"days": "Sat", "time": "2:30pm"}, {"days": "Sun", "time": "Closed"}], "id": "1972000034", "name": "USPS COLLECTION BOX - BLUE BOX", "address": {"city": "NEW CASTLE", "state": "DE", "street": "92 READS WAY", "postcode": "19720"}}},
{"geometry": {"type": "Point", "coordinates": [-75.6087213384, 39.6880475972]}, "type": "Feature", "properties": {"collection_times": [{"days": "Mon-Fri", "time": "4:45pm"}, {"days": "Sat", "time": "2:30pm"}, {"days": "Sun", "time": "Closed"}], "id": "1972000035", "name": "USPS COLLECTION BOX - BLUE BOX", "address": {"city": "NEW CASTLE", "state": "DE", "street": "2 READS WAY", "postcode": "19720"}}},
{"geometry": {"type": "Point", "coordinates": [-75.6168802064, 39.6648107342]}, "type": "Feature", "properties": {"collection_times": [{"days": "Mon-Fri", "time": "3:00pm"}, {"days": "Sat", "time": "2:45pm"}, {"days": "Sun", "time": "Closed"}], "id": "1972000041", "name": "USPS COLLECTION BOX - BLUE BOX", "address": {"city": "NEW CASTLE", "state": "DE", "street": "135 CHRISTIANA RD", "postcode": "19720"}}},
{"geometry": {"type": "Point", "coordinates": [-75.6338970711, 39.6692941487]}, "type": "Feature", "properties": {"collection_times": [{"days": "Mon-Fri", "time": "2:45pm"}, {"days": "Sat", "time": "2:30pm"}, {"days": "Sun", "time": "Closed"}], "id": "1972000043", "name": "USPS COLLECTION BOX - BLUE BOX", "address": {"city": "NEW CASTLE", "state": "DE", "street": "1 W EDINBURGH DR", "postcode": "19720"}}},
{"geometry": {"type": "Point", "coordinates": [-75.6385167872, 39.662826477]}, "type": "Feature", "properties": {"collection_times": [{"days": "Mon-Fri", "time": "3:00pm"}, {"days": "Sat", "time": "2:45pm"}, {"days": "Sun", "time": "Closed"}], "id": "1972000045", "name": "USPS COLLECTION BOX - BLUE BOX", "address": {"city": "NEW CASTLE", "state": "DE", "street": "287 CHRISTIANA RD", "postcode": "19720"}}},
{"geometry": {"type": "Point", "coordinates": [-75.6440958451, 39.6608478555]}, "type": "Feature", "properties": {"collection_times": [{"days": "Mon-Fri", "time": "3:15pm"}, {"days": "Sat", "time": "2:45pm"}, {"days": "Sun", "time": "Closed"}], "id": "1972000046", "name": "USPS COLLECTION BOX - BLUE BOX", "address": {"city": "NEW CASTLE", "state": "DE", "street": "1 WEDGEFIELD DR", "postcode": "19720"}}},
{"geometry": {"type": "Point", "coordinates": [-75.6230729966, 39.6513439294]}, "type": "Feature", "properties": {"collection_times": [{"days": "Mon-Fri", "time": "3:15pm"}, {"days": "Sat", "time": "2:45pm"}, {"days": "Sun", "time": "Closed"}], "id": "1972000048", "name": "USPS COLLECTION BOX - BLUE BOX", "address": {"city": "NEW CASTLE", "state": "DE", "street": "100 WILTON BLVD", "postcode": "19720"}}},
{"geometry": {"type": "Point", "coordinates": [-75.6238880553, 39.643224099]}, "type": "Feature", "properties": {"collection_times": [{"days": "Mon-Fri", "time": "3:15pm"}, {"days": "Sat", "time": "3:00pm"}, {"days": "Sun", "time": "Closed"}], "id": "1972000050", "name": "USPS COLLECTION BOX - BLUE BOX", "address": {"city": "NEW CASTLE", "state": "DE", "street": "100 SCHAFER BLVD", "postcode": "19720"}}},
{"geometry": {"type": "Point", "coordinates": [-75.5879367494, 39.6624590118]}, "type": "Feature", "properties": {"collection_times": [{"days": "Mon-Fri", "time": "5:30pm"}, {"days": "Sat", "time": "3:30pm"}, {"days": "Sun", "time": "Closed"}], "id": "1972000053", "name": "USPS COLLECTION BOX - BLUE BOX", "address": {"city": "NEW CASTLE", "state": "DE", "street": "101 JOHNSON WAY", "postcode": "19720"}}},
{"geometry": {"type": "Point", "coordinates": [-75.5660638381, 39.6614203738]}, "type": "Feature", "properties": {"collection_times": [{"days": "Mon-Fri", "time": "5:15pm"}, {"days": "Sat", "time": "3:15pm"}, {"days": "Sun", "time": "Closed"}], "id": "1972000054", "name": "USPS COLLECTION BOX - BLUE BOX", "address": {"city": "NEW CASTLE", "state": "DE", "street": "501 DELAWARE ST", "postcode": "19720"}}},
{"geometry": {"type": "Point", "coordinates": [-75.6066702122, 39.6879867697]}, "type": "Feature", "properties": {"collection_times": [{"days": "Mon-Fri", "time": "4:45pm"}, {"days": "Sat", "time": "2:15pm"}, {"days": "Sun", "time": "Closed"}], "id": "1972000060", "name": "USPS COLLECTION BOX - BLUE BOX", "address": {"city": "NEW CASTLE", "state": "DE", "street": "100 W COMMONS BLVD", "postcode": "19720"}}},
{"geometry": {"type": "Point", "coordinates": [-75.566499167, 39.679662784]}, "type": "Feature", "properties": {"collection_times": [{"days": "Mon-Sat", "time": "1:45pm"}, {"days": "Sun", "time": "Closed"}], "id": "1972000061", "name": "USPS COLLECTION BOX - BLUE BOX", "address": {"city": "NEW CASTLE", "state": "DE", "street": "2 CONSTITUTION BLVD", "postcode": "19720"}}},
{"geometry": {"type": "Point", "coordinates": [-75.6298667299, 39.6639909437]}, "type": "Feature", "properties": {"collection_times": [{"days": "Mon-Fri", "time": "3:00pm"}, {"days": "Sat", "time": "2:30pm"}, {"days": "Sun", "time": "Closed"}], "id": "1972000064", "name": "USPS COLLECTION BOX - BLUE BOX", "address": {"city": "NEW CASTLE", "state": "DE", "street": "65 E EDINBURGH DR", "postcode": "19720"}}},
{"geometry": {"type": "Point", "coordinates": [-75.5669250323, 39.6857124362]}, "type": "Feature", "properties": {"collection_times": [{"days": "Mon-Fri", "time": "2:00pm"}, {"days": "Sat", "time": "1:45pm"}, {"days": "Sun", "time": "Closed"}], "id": "1972000065", "name": "USPS COLLECTION BOX - BLUE BOX", "address": {"city": "NEW CASTLE", "state": "DE", "street": "1 MIDFIELD RD", "postcode": "19720"}}},
{"geometry": {"type": "Point", "coordinates": [-75.582151957, 39.6946661229]}, "type": "Feature", "properties": {"collection_times": [{"days": "Mon-Fri", "time": "5:15pm"}, {"days": "Sat", "time": "3:30pm"}, {"days": "Sun", "time": "Closed"}], "id": "1972000066", "name": "USPS COLLECTION BOX - PO LOBBY", "address": {"city": "NEW CASTLE", "state": "DE", "street": "100 MCMULLEN AVE", "postcode": "19720"}}},
{"geometry": {"type": "Point", "coordinates": [-75.5660638381, 39.6614203738]}, "type": "Feature", "properties": {"collection_times": [{"days": "Mon-Fri", "time": "5:15pm"}, {"days": "Sat", "time": "3:15pm"}, {"days": "Sun", "time": "Closed"}], "id": "1972000067", "name": "USPS COLLECTION BOX - PO LOBBY", "address": {"city": "NEW CASTLE", "state": "DE", "street": "501 DELAWARE ST", "postcode": "19720"}}},
{"geometry": {"type": "Point", "coordinates": [-75.6590325832, 39.4555062557]}, "type": "Feature", "properties": {"collection_times": [{"days": "Mon-Fri", "time": "4:30pm"}, {"days": "Sat", "time": "12:00pm"}, {"days": "Sun", "time": "Closed"}], "id": "1973000001", "name": "USPS COLLECTION BOX - BLUE BOX", "address": {"city": "ODESSA", "state": "DE", "street": "312 MAIN ST", "postcode": "19730"}}},
{"geometry": {"type": "Point", "coordinates": [-75.6590325832, 39.4555062557]}, "type": "Feature", "properties": {"collection_times": [{"days": "Mon-Fri", "time": "4:30pm"}, {"days": "Sat", "time": "12:00pm"}, {"days": "Sun", "time": "Closed"}], "id": "1973000002", "name": "USPS COLLECTION BOX - PO LOBBY", "address": {"city": "ODESSA", "state": "DE", "street": "312 MAIN ST", "postcode": "19730"}}},
{"geometry": {"type": "Point", "coordinates": [-75.7177059646, 39.4496139388]}, "type": "Feature", "properties": {"collection_times": [{"days": "Mon-Fri", "time": "4:45pm"}, {"days": "Sat", "time": "11:45am"}, {"days": "Sun", "time": "Closed"}], "id": "1973100000", "name": "USPS COLLECTION BOX - BLUE BOX", "address": {"city": "PORT PENN", "state": "DE", "street": "3 S CONGRESS ST", "postcode": "19731"}}},
{"geometry": {"type": "Point", "coordinates": [-75.7177059646, 39.4496139388]}, "type": "Feature", "properties": {"collection_times": [{"days": "Mon-Fri", "time": "4:45pm"}, {"days": "Sat", "time": "11:45am"}, {"days": "Sun", "time": "Closed"}], "id": "1973100001", "name": "USPS COLLECTION BOX - PO LOBBY", "address": {"city": "PORT PENN", "state": "DE", "street": "3 S CONGRESS ST", "postcode": "19731"}}},
{"geometry": {"type": "Point", "coordinates": [-75.5953593256, 39.7756528419]}, "type": "Feature", "properties": {"collection_times": [{"days": "Mon-Fri", "time": "4:00pm"}, {"days": "Sat", "time": "11:00am"}, {"days": "Sun", "time": "Closed"}], "id": "1973200001", "name": "USPS COLLECTION BOX - BLUE BOX", "address": {"city": "ROCKLAND", "state": "DE", "street": "700 ROCKLAND RD", "postcode": "19732"}}},
{"geometry": {"type": "Point", "coordinates": [-75.5953593256, 39.7756528419]}, "type": "Feature", "properties": {"collection_times": [{"days": "Mon-Fri", "time": "4:00pm"}, {"days": "Sat", "time": "11:00am"}, {"days": "Sun", "time": "Closed"}], "id": "1973200002", "name": "USPS COLLECTION BOX - PO LOBBY", "address": {"city": "ROCKLAND", "state": "DE", "street": "700 ROCKLAND RD", "postcode": "19732"}}},
{"geometry": {"type": "Point", "coordinates": [-75.650936412, 39.5567912023]}, "type": "Feature", "properties": {"collection_times": [{"days": "Mon-Fri", "time": "4:30pm"}, {"days": "Sat", "time": "11:00am"}, {"days": "Sun", "time": "Closed"}], "id": "1973300001", "name": "USPS COLLECTION BOX - BLUE BOX", "address": {"city": "SAINT GEORGES", "state": "DE", "street": "201 BROAD ST", "postcode": "19733"}}},
{"geometry": {"type": "Point", "coordinates": [-75.650936412, 39.5567912023]}, "type": "Feature", "properties": {"collection_times": [{"days": "Mon-Fri", "time": "4:30pm"}, {"days": "Sat", "time": "11:00am"}, {"days": "Sun", "time": "Closed"}], "id": "1973300002", "name": "USPS COLLECTION BOX - PO LOBBY", "address": {"city": "SAINT GEORGES", "state": "DE", "street": "201 BROAD ST", "postcode": "19733"}}},
{"geometry": {"type": "Point", "coordinates": [-75.6938896521, 39.3943721193]}, "type": "Feature", "properties": {"collection_times": [{"days": "Mon-Fri", "time": "5:00pm"}, {"days": "Sat", "time": "11:30am"}, {"days": "Sun", "time": "Closed"}], "id": "1973400001", "name": "USPS COLLECTION BOX - BLUE BOX", "address": {"city": "TOWNSEND", "state": "DE", "street": "400 MAIN ST", "postcode": "19734"}}},
{"geometry": {"type": "Point", "coordinates": [-75.6938896521, 39.3943721193]}, "type": "Feature", "properties": {"collection_times": [{"days": "Mon-Fri", "time": "5:00pm"}, {"days": "Sat", "time": "11:30am"}, {"days": "Sun", "time": "Closed"}], "id": "1973400003", "name": "USPS COLLECTION BOX - PO LOBBY", "address": {"city": "TOWNSEND", "state": "DE", "street": "400 MAIN ST", "postcode": "19734"}}},
{"geometry": {"type": "Point", "coordinates": [-75.6475362344, 39.7903153432]}, "type": "Feature", "properties": {"collection_times": [{"days": "Mon-Fri", "time": "4:30pm"}, {"days": "Sat", "time": "11:00am"}, {"days": "Sun", "time": "Closed"}], "id": "1973600001", "name": "USPS COLLECTION BOX - BLUE BOX", "address": {"city": "YORKLYN", "state": "DE", "street": "1149 YORKLYN RD", "postcode": "19736"}}},
{"geometry": {"type": "Point", "coordinates": [-75.6475362344, 39.7903153432]}, "type": "Feature", "properties": {"collection_times": [{"days": "Mon-Fri", "time": "4:30pm"}, {"days": "Sat", "time": "11:00am"}, {"days": "Sun", "time": "Closed"}], "id": "1973600002", "name": "USPS COLLECTION BOX - PO LOBBY", "address": {"city": "YORKLYN", "state": "DE", "street": "1149 YORKLYN RD", "postcode": "19736"}}}
]}
