{"type": "FeatureCollection", "features": [
{"geometry": {"type": "Point", "coordinates": [-75.549865581, 39.7452685053]}, "type": "Feature", "properties": {"collection_times": [{"days": "Mon-Fri", "time": "3:15pm"}, {"days": "Sat-Sun", "time": "Closed"}], "id": "1980100001", "name": "USPS COLLECTION BOX - BLUE BOX", "address": {"city": "WILMINGTON", "state": "DE", "street": "200 W 9TH ST", "postcode": "19801"}}},
{"geometry": {"type": "Point", "coordinates": [-75.5524846522, 39.7461580904]}, "type": "Feature", "properties": {"collection_times": [{"days": "Mon-Fri", "time": "3:45pm"}, {"days": "Sat", "time": "1:45pm"}, {"days": "Sun", "time": "Closed"}], "id": "1980100004", "name": "USPS COLLECTION BOX - BLUE BOX", "address": {"city": "WILMINGTON", "state": "DE", "street": "831 N WASHINGTON ST", "postcode": "19801"}}},
{"geometry": {"type": "Point", "coordinates": [-75.5517382051, 39.7483016121]}, "type": "Feature", "properties": {"collection_times": [{"days": "Mon-Fri", "time": "12:45pm"}, {"days": "Sat", "time": "1:45pm"}, {"days": "Sun", "time": "Closed"}], "id": "1980100005", "name": "USPS COLLECTION BOX - BLUE BOX", "address": {"city": "WILMINGTON", "state": "DE", "street": "501 W 11TH ST", "postcode": "19801"}}},
{"geometry": {"type": "Point", "coordinates": [-75.5494468136, 39.7506486027]}, "type": "Feature", "properties": {"collection_times": [{"days": "Mon-Fri", "time": "1:00pm"}, {"days": "Sat-Sun", "time": "Closed"}], "id": "1980100008", "name": "USPS COLLECTION BOX - BLUE BOX", "address": {"city": "WILMINGTON", "state": "DE", "street": "1330 N WASHINGTON ST", "postcode": "19801"}}},
{"geometry": {"type": "Point", "coordinates": [-75.5497910546, 39.7463970481]}, "type": "Feature", "properties": {"collection_times": [{"days": "Mon-Fri", "time": "4:45pm"}, {"days": "Sat-Sun", "time": "Closed"}], "id": "1980100011", "name": "USPS COLLECTION BOX - BLUE BOX", "address": {"city": "WILMINGTON", "state": "DE", "street": "222 DELAWARE AVE", "postcode": "19801"}}},
{"geometry": {"type": "Point", "coordinates": [-75.5513586806, 39.7428421979]}, "type": "Feature", "properties": {"collection_times": [{"days": "Mon-Fri", "time": "4:15pm"}, {"days": "Sat-Sun", "time": "Closed"}], "id": "1980100019", "name": "USPS COLLECTION BOX - BLUE BOX", "address": {"city": "WILMINGTON", "state": "DE", "street": "625 N ORANGE ST", "postcode": "19801"}}},
{"geometry": {"type": "Point", "coordinates": [-75.5479146671, 39.7479086991]}, "type": "Feature", "properties": {"collection_times": [{"days": "Mon-Fri", "time": "5:15pm"}, {"days": "Sat", "time": "1:15pm"}, {"days": "Sun", "time": "Closed"}], "id": "1980100022", "name": "USPS COLLECTION BOX - BLUE BOX", "address": {"city": "WILMINGTON", "state": "DE", "street": "1201 N ORANGE ST", "postcode": "19801"}}},
{"geometry": {"type": "Point", "coordinates": [-75.5489915042, 39.7460834577]}, "type": "Feature", "properties": {"collection_times": [{"days": "Mon-Fri", "time": "4:00pm"}, {"days": "Sat-Sun", "time": "Closed"}], "id": "1980100024", "name": "USPS COLLECTION BOX - BLUE BOX", "address": {"city": "WILMINGTON", "state": "DE", "street": "1000 N ORANGE ST", "postcode": "19801"}}},
{"geometry": {"type": "Point", "coordinates": [-75.5521569725, 39.7448189809]}, "type": "Feature", "properties": {"collection_times": [{"days": "Mon-Fri", "time": "5:00pm"}, {"days": "Sat", "time": "2:00pm"}, {"days": "Sun", "time": "Closed"}], "id": "1980100026", "name": "USPS COLLECTION BOX - BLUE BOX", "address": {"city": "WILMINGTON", "state": "DE", "street": "801 N WEST ST", "postcode": "19801"}}},
{"geometry": {"type": "Point", "coordinates": [-75.5508571887, 39.745619881]}, "type": "Feature", "properties": {"collection_times": [{"days": "Mon-Fri", "time": "5:00pm"}, {"days": "Sat", "time": "2:00pm"}, {"days": "Sun", "time": "Closed"}], "id": "1980100027", "name": "USPS COLLECTION BOX - BLUE BOX", "address": {"city": "WILMINGTON", "state": "DE", "street": "322 W 9TH ST", "postcode": "19801"}}},
{"geometry": {"type": "Point", "coordinates": [-75.5518250694, 39.7437659297]}, "type": "Feature", "properties": {"collection_times": [{"days": "Mon-Fri", "time": "5:00pm"}, {"days": "Sat", "time": "1:45pm"}, {"days": "Sun", "time": "Closed"}], "id": "1980100029", "name": "USPS COLLECTION BOX - BLUE BOX", "address": {"city": "WILMINGTON", "state": "DE", "street": "726 N TATNALL ST", "postcode": "19801"}}},
{"geometry": {"type": "Point", "coordinates": [-75.5463798545, 39.7461506205]}, "type": "Feature", "properties": {"collection_times": [{"days": "Mon-Fri", "time": "4:30pm"}, {"days": "Sat-Sun", "time": "Closed"}], "id": "1980100034", "name": "USPS COLLECTION BOX - BLUE BOX", "address": {"city": "WILMINGTON", "state": "DE", "street": "1101 N KING ST", "postcode": "19801"}}},
{"geometry": {"type": "Point", "coordinates": [-75.5452958105, 39.7476178618]}, "type": "Feature", "properties": {"collection_times": [{"days": "Mon-Fri", "time": "4:00pm"}, {"days": "Sat-Sun", "time": "Closed"}], "id": "1980100036", "name": "USPS COLLECTION BOX - BLUE BOX", "address": {"city": "WILMINGTON", "state": "DE", "street": "1225 N KING ST", "postcode": "19801"}}},
{"geometry": {"type": "Point", "coordinates": [-75.5477114128, 39.7440524235]}, "type": "Feature", "properties": {"collection_times": [{"days": "Mon-Fri", "time": "5:00pm"}, {"days": "Sat-Sun", "time": "Closed"}], "id": "1980100042", "name": "USPS COLLECTION BOX - BLUE BOX", "address": {"city": "WILMINGTON", "state": "DE", "street": "844 N KING ST", "postcode": "19801"}}},
{"geometry": {"type": "Point", "coordinates": [-75.5509420737, 39.739250793]}, "type": "Feature", "properties": {"collection_times": [{"days": "Mon-Fri", "time": "11:30am"}, {"days": "Sat", "time": "1:15pm"}, {"days": "Sun", "time": "Closed"}], "id": "1980100045", "name": "USPS COLLECTION BOX - BLUE BOX", "address": {"city": "WILMINGTON", "state": "DE", "street": "233 N KING ST", "postcode": "19801"}}},
{"geometry": {"type": "Point", "coordinates": [-75.5463868151, 39.7471798631]}, "type": "Feature", "properties": {"collection_times": [{"days": "Mon-Fri", "time": "5:30pm"}, {"days": "Sat", "time": "2:15pm"}, {"days": "Sun", "time": "Closed"}], "id": "1980100046", "name": "USPS COLLECTION BOX - BLUE BOX", "address": {"city": "WILMINGTON", "state": "DE", "street": "10 E 12TH ST", "postcode": "19801"}}},
{"geometry": {"type": "Point", "coordinates": [-75.5471802642, 39.7431308984]}, "type": "Feature", "properties": {"collection_times": [{"days": "Mon-Fri", "time": "4:15pm"}, {"days": "Sat-Sun", "time": "Closed"}], "id": "1980100048", "name": "USPS COLLECTION BOX - BLUE BOX", "address": {"city": "WILMINGTON", "state": "DE", "street": "800 N FRENCH ST", "postcode": "19801"}}},
{"geometry": {"type": "Point", "coordinates": [-75.5468017173, 39.7436939869]}, "type": "Feature", "properties": {"collection_times": [{"days": "Mon-Fri", "time": "4:15pm"}, {"days": "Sat-Sun", "time": "Closed"}], "id": "1980100049", "name": "USPS COLLECTION BOX - BLUE BOX", "address": {"city": "WILMINGTON", "state": "DE", "street": "820 N FRENCH ST", "postcode": "19801"}}},
{"geometry": {"type": "Point", "coordinates": [-75.551296294, 39.73692712]}, "type": "Feature", "properties": {"collection_times": [{"days": "Mon-Fri", "time": "11:45am"}, {"days": "Sat-Sun", "time": "Closed"}], "id": "1980100050", "name": "USPS COLLECTION BOX - BLUE BOX", "address": {"city": "WILMINGTON", "state": "DE", "street": "100 S FRENCH ST", "postcode": "19801"}}},
{"geometry": {"type": "Point", "coordinates": [-75.5530394599, 39.7453430317]}, "type": "Feature", "properties": {"collection_times": [{"days": "Mon-Fri", "time": "12:45pm"}, {"days": "Sat", "time": "1:45pm"}, {"days": "Sun", "time": "Closed"}], "id": "1980100051", "name": "USPS COLLECTION BOX - BLUE BOX", "address": {"city": "WILMINGTON", "state": "DE", "street": "800 N WASHINGTON ST", "postcode": "19801"}}},
{"geometry": {"type": "Point", "coordinates": [-75.5494018611, 39.7381175183]}, "type": "Feature", "properties": {"collection_times": [{"days": "Mon-Fri", "time": "5:15pm"}, {"days": "Sat-Sun", "time": "Closed"}], "id": "1980100054", "name": "USPS COLLECTION BOX - BLUE BOX", "address": {"city": "WILMINGTON", "state": "DE", "street": "201 N WALNUT ST", "postcode": "19801"}}},
{"geometry": {"type": "Point", "coordinates": [-75.5496751246, 39.7353221863]}, "type": "Feature", "properties": {"collection_times": [{"days": "Mon-Fri", "time": "4:45pm"}, {"days": "Sat-Sun", "time": "Closed"}], "id": "1980100059", "name": "USPS COLLECTION BOX - BLUE BOX", "address": {"city": "WILMINGTON", "state": "DE", "street": "110 S POPLAR ST", "postcode": "19801"}}},
{"geometry": {"type": "Point", "coordinates": [-75.5540591706, 39.7479668347]}, "type": "Feature", "properties": {"collection_times": [{"days": "Mon-Fri", "time": "12:45pm"}, {"days": "Sat", "time": "1:30pm"}, {"days": "Sun", "time": "Closed"}], "id": "1980100060", "name": "USPS COLLECTION BOX - BLUE BOX", "address": {"city": "WILMINGTON", "state": "DE", "street": "922 N MADISON ST", "postcode": "19801"}}},
{"geometry": {"type": "Point", "coordinates": [-75.5572425131, 39.7428493542]}, "type": "Feature", "properties": {"collection_times": [{"days": "Mon-Fri", "time": "12:30pm"}, {"days": "Sat", "time": "1:30pm"}, {"days": "Sun", "time": "Closed"}], "id": "1980100061", "name": "USPS COLLECTION BOX - BLUE BOX", "address": {"city": "WILMINGTON", "state": "DE", "street": "630 W 4TH ST", "postcode": "19801"}}},
{"geometry": {"type": "Point", "coordinates": [-75.5568497708, 39.7106220031]}, "type": "Feature", "properties": {"collection_times": [{"days": "Mon-Fri", "time": "12:00pm"}, {"days": "Sat", "time": "1:15pm"}, {"days": "Sun", "time": "Closed"}], "id": "1980100064", "name": "USPS COLLECTION BOX - BLUE BOX", "address": {"city": "WILMINGTON", "state": "DE", "street": "142 BUNCHE BLVD", "postcode": "19801"}}},
{"geometry": {"type": "Point", "coordinates": [-75.5427413366, 39.7296854063]}, "type": "Feature", "properties": {"collection_times": [{"days": "Mon-Fri", "time": "12:00pm"}, {"days": "Sat", "time": "1:15pm"}, {"days": "Sun", "time": "Closed"}], "id": "1980100067", "name": "USPS COLLECTION BOX - BLUE BOX", "address": {"city": "WILMINGTON", "state": "DE", "street": "440 NEW CASTLE AVE", "postcode": "19801"}}},
{"geometry": {"type": "Point", "coordinates": [-75.5401925256, 39.7428446224]}, "type": "Feature", "properties": {"collection_times": [{"days": "Mon-Fri", "time": "12:15pm"}, {"days": "Sat", "time": "1:30pm"}, {"days": "Sun", "time": "Closed"}], "id": "1980100070", "name": "USPS COLLECTION BOX - BLUE BOX", "address": {"city": "WILMINGTON", "state": "DE", "street": "1001 N SPRUCE ST", "postcode": "19801"}}},
{"geometry": {"type": "Point", "coordinates": [-75.5449225563, 39.7380588778]}, "type": "Feature", "properties": {"collection_times": [{"days": "Mon-Fri", "time": "12:15pm"}, {"days": "Sat", "time": "1:30pm"}, {"days": "Sun", "time": "Closed"}], "id": "1980100072", "name": "USPS COLLECTION BOX - BLUE BOX", "address": {"city": "WILMINGTON", "state": "DE", "street": "400 N PINE ST", "postcode": "19801"}}},
{"geometry": {"type": "Point", "coordinates": [-75.5471353117, 39.7396648287]}, "type": "Feature", "properties": {"collection_times": [{"days": "Mon-Fri", "time": "11:30am"}, {"days": "Sat", "time": "2:15pm"}, {"days": "Sun", "time": "Closed"}], "id": "1980100074", "name": "USPS COLLECTION BOX - BLUE BOX", "address": {"city": "WILMINGTON", "state": "DE", "street": "325 E 5TH ST", "postcode": "19801"}}},
{"geometry": {"type": "Point", "coordinates": [-75.5502228346, 39.7419857942]}, "type": "Feature", "properties": {"collection_times": [{"days": "Mon-Fri", "time": "5:00pm"}, {"days": "Sat", "time": "2:00pm"}, {"days": "Sun", "time": "Closed"}], "id": "1980100080", "name": "USPS COLLECTION BOX - BLUE BOX", "address": {"city": "WILMINGTON", "state": "DE", "street": "601 N MARKET ST", "postcode": "19801"}}},
{"geometry": {"type": "Point", "coordinates": [-75.5493415302, 39.7433201719]}, "type": "Feature", "properties": {"collection_times": [{"days": "Mon-Fri", "time": "5:00pm"}, {"days": "Sat", "time": "2:00pm"}, {"days": "Sun", "time": "Closed"}], "id": "1980100083", "name": "USPS COLLECTION BOX - BLUE BOX", "address": {"city": "WILMINGTON", "state": "DE", "street": "727 N MARKET ST", "postcode": "19801"}}},
{"geometry": {"type": "Point", "coordinates": [-75.5474073923, 39.7460670026]}, "type": "Feature", "properties": {"collection_times": [{"days": "Mon-Fri", "time": "4:00pm"}, {"days": "Sat-Sun", "time": "Closed"}], "id": "1980100087", "name": "USPS COLLECTION BOX - BLUE BOX", "address": {"city": "WILMINGTON", "state": "DE", "street": "1007 N MARKET ST", "postcode": "19801"}}},
{"geometry": {"type": "Point", "coordinates": [-75.548654231, 39.744268905]}, "type": "Feature", "properties": {"collection_times": [{"days": "Mon-Fri", "time": "5:00pm"}, {"days": "Sat-Sun", "time": "Closed"}], "id": "1980100089", "name": "USPS COLLECTION BOX - BLUE BOX", "address": {"city": "WILMINGTON", "state": "DE", "street": "824 N MARKET ST", "postcode": "19801"}}},
{"geometry": {"type": "Point", "coordinates": [-75.5483474421, 39.7448048162]}, "type": "Feature", "properties": {"collection_times": [{"days": "Mon-Fri", "time": "5:00pm"}, {"days": "Sat-Sun", "time": "Closed"}], "id": "1980100092", "name": "USPS COLLECTION BOX - BLUE BOX", "address": {"city": "WILMINGTON", "state": "DE", "street": "913 N MARKET ST", "postcode": "19801"}}},
{"geometry": {"type": "Point", "coordinates": [-75.5468312913, 39.7469506729]}, "type": "Feature", "properties": {"collection_times": [{"days": "Mon-Fri", "time": "4:45pm"}, {"days": "Sat-Sun", "time": "Closed"}], "id": "1980100093", "name": "USPS COLLECTION BOX - BLUE BOX", "address": {"city": "WILMINGTON", "state": "DE", "street": "1100 N MARKET ST", "postcode": "19801"}}},
{"geometry": {"type": "Point", "coordinates": [-75.548312283, 39.7448563998]}, "type": "Feature", "properties": {"collection_times": [{"days": "Mon-Fri", "time": "5:00pm"}, {"days": "Sat-Sun", "time": "Closed"}], "id": "1980100094", "name": "USPS COLLECTION BOX - BLUE BOX", "address": {"city": "WILMINGTON", "state": "DE", "street": "919 N MARKET ST", "postcode": "19801"}}},
{"geometry": {"type": "Point", "coordinates": [-75.5462693858, 39.7478272455]}, "type": "Feature", "properties": {"collection_times": [{"days": "Mon-Fri", "time": "5:15pm"}, {"days": "Sat-Sun", "time": "Closed"}], "id": "1980100098", "name": "USPS COLLECTION BOX - BLUE BOX", "address": {"city": "WILMINGTON", "state": "DE", "street": "1201 N MARKET ST", "postcode": "19801"}}},
{"geometry": {"type": "Point", "coordinates": [-75.5500453908, 39.7405839878]}, "type": "Feature", "properties": {"collection_times": [{"days": "Mon-Fri", "time": "4:45pm"}, {"days": "Sat", "time": "1:15pm"}, {"days": "Sun", "time": "Closed"}], "id": "1980100099", "name": "USPS COLLECTION BOX - BLUE BOX", "address": {"city": "WILMINGTON", "state": "DE", "street": "500 N KING ST", "postcode": "19801"}}},
{"geometry": {"type": "Point", "coordinates": [-75.5458624479, 39.7484352864]}, "type": "Feature", "properties": {"collection_times": [{"days": "Mon-Fri", "time": "4:00pm"}, {"days": "Sat-Sun", "time": "Closed"}], "id": "1980100100", "name": "USPS COLLECTION BOX - BLUE BOX", "address": {"city": "WILMINGTON", "state": "DE", "street": "1300 N MARKET ST", "postcode": "19801"}}},
{"geometry": {"type": "Point", "coordinates": [-75.5456625278, 39.7487215625]}, "type": "Feature", "properties": {"collection_times": [{"days": "Mon-Fri", "time": "4:00pm"}, {"days": "Sat-Sun", "time": "Closed"}], "id": "1980100102", "name": "USPS COLLECTION BOX - BLUE BOX", "address": {"city": "WILMINGTON", "state": "DE", "street": "1313 N MARKET ST", "postcode": "19801"}}},
{"geometry": {"type": "Point", "coordinates": [-75.549201941, 39.7384428321]}, "type": "Feature", "properties": {"collection_times": [{"days": "Mon-Fri", "time": "5:15pm"}, {"days": "Sat-Sun", "time": "Closed"}], "id": "1980100104", "name": "USPS COLLECTION BOX - BLUE BOX", "address": {"city": "WILMINGTON", "state": "DE", "street": "301 N WALNUT ST", "postcode": "19801"}}},
{"geometry": {"type": "Point", "coordinates": [-75.5506226748, 39.7397192448]}, "type": "Feature", "properties": {"collection_times": [{"days": "Mon-Fri", "time": "11:30am"}, {"days": "Sat-Sun", "time": "Closed"}], "id": "1980100106", "name": "USPS COLLECTION BOX - BLUE BOX", "address": {"city": "WILMINGTON", "state": "DE", "street": "300 N KING ST", "postcode": "19801"}}},
{"geometry": {"type": "Point", "coordinates": [-75.5484862509, 39.744499582]}, "type": "Feature", "properties": {"collection_times": [{"days": "Mon-Fri", "time": "5:00pm"}, {"days": "Sat", "time": "2:00pm"}, {"days": "Sun", "time": "Closed"}], "id": "1980100107", "name": "USPS COLLECTION BOX - BLUE BOX", "address": {"city": "WILMINGTON", "state": "DE", "street": "838 N MARKET ST", "postcode": "19801"}}},
{"geometry": {"type": "Point", "coordinates": [-75.5533896158, 39.7496478194]}, "type": "Feature", "properties": {"collection_times": [{"days": "Mon-Fri", "time": "4:00pm"}, {"days": "Sat-Sun", "time": "Closed"}], "id": "1980100108", "name": "USPS COLLECTION BOX - BLUE BOX", "address": {"city": "WILMINGTON", "state": "DE", "street": "800 DELAWARE AVE", "postcode": "19801"}}},
{"geometry": {"type": "Point", "coordinates": [-75.5479146671, 39.7479086991]}, "type": "Feature", "properties": {"collection_times": [{"days": "Mon-Fri", "time": "5:15pm"}, {"days": "Sat", "time": "1:15pm"}, {"days": "Sun", "time": "Closed"}], "id": "1980100112", "name": "USPS COLLECTION BOX - BLUE BOX", "address": {"city": "WILMINGTON", "state": "DE", "street": "1201 N ORANGE ST", "postcode": "19801"}}},
{"geometry": {"type": "Point", "coordinates": [-75.5435272869, 39.7449692167]}, "type": "Feature", "properties": {"collection_times": [{"days": "Mon-Fri", "time": "1:30pm"}, {"days": "Sat", "time": "2:15pm"}, {"days": "Sun", "time": "Closed"}], "id": "1980100119", "name": "USPS COLLECTION BOX - BLUE BOX", "address": {"city": "WILMINGTON", "state": "DE", "street": "321 E 11TH ST", "postcode": "19801"}}},
{"geometry": {"type": "Point", "coordinates": [-75.5473494273, 39.7380323453]}, "type": "Feature", "properties": {"collection_times": [{"days": "Mon-Fri", "time": "12:15pm"}, {"days": "Sat", "time": "1:30pm"}, {"days": "Sun", "time": "Closed"}], "id": "1980100123", "name": "USPS COLLECTION BOX - BLUE BOX", "address": {"city": "WILMINGTON", "state": "DE", "street": "401 E 3RD ST", "postcode": "19801"}}},
{"geometry": {"type": "Point", "coordinates": [-75.5543206045, 39.7145790009]}, "type": "Feature", "properties": {"collection_times": [{"days": "Mon-Fri", "time": "12:00pm"}, {"days": "Sat-Sun", "time": "Closed"}], "id": "1980100125", "name": "USPS COLLECTION BOX - BLUE BOX", "address": {"city": "WILMINGTON", "state": "DE", "street": "701 CORNELL DR", "postcode": "19801"}}},
{"geometry": {"type": "Point", "coordinates": [-75.5477114128, 39.7440524235]}, "type": "Feature", "properties": {"collection_times": [{"days": "Mon-Fri", "time": "5:00pm"}, {"days": "Sat-Sun", "time": "Closed"}], "id": "1980100129", "name": "USPS COLLECTION BOX - BLUE BOX", "address": {"city": "WILMINGTON", "state": "DE", "street": "844 N KING ST", "postcode": "19801"}}},
{"geometry": {"type": "Point", "coordinates": [-75.5452413944, 39.74769712]}, "type": "Feature", "properties": {"collection_times": [{"days": "Mon-Fri", "time": "4:30pm"}, {"days": "Sat", "time": "1:15pm"}, {"days": "Sun", "time": "Closed"}], "id": "1980100131", "name": "USPS COLLECTION BOX - BLUE BOX", "address": {"city": "WILMINGTON", "state": "DE", "street": "1232 N KING ST", "postcode": "19801"}}},
{"geometry": {"type": "Point", "coordinates": [-75.5516199092, 39.7480177019]}, "type": "Feature", "properties": {"collection_times": [{"days": "Mon-Fri", "time": "6:00pm"}, {"days": "Sat", "time": "3:00pm"}, {"days": "Sun", "time": "Closed"}], "id": "1980100132", "name": "USPS COLLECTION BOX - PO LOBBY", "address": {"city": "WILMINGTON", "state": "DE", "street": "500 DELAWARE AVE", "postcode": "19801"}}},
{"geometry": {"type": "Point", "coordinates": [-75.5516199092, 39.7480177019]}, "type": "Feature", "properties": {"collection_times": [{"days": "Mon-Fri", "time": "6:00pm"}, {"days": "Sat", "time": "3:00pm"}, {"days": "Sun", "time": "Closed"}], "id": "1980100133", "name": "USPS COLLECTION BOX - PO LOBBY", "address": {"city": "WILMINGTON", "state": "DE", "street": "500 DELAWARE AVE", "postcode": "19801"}}},
{"geometry": {"type": "Point", "coordinates": [-75.5516199092, 39.7480177019]}, "type": "Feature", "properties": {"collection_times": [{"days": "Mon-Fri", "time": "6:00pm"}, {"days": "Sat", "time": "3:00pm"}, {"days": "Sun", "time": "Closed"}], "id": "1980100134", "name": "USPS COLLECTION BOX - PO LOBBY", "address": {"city": "WILMINGTON", "state": "DE", "street": "500 DELAWARE AVE", "postcode": "19801"}}},
{"geometry": {"type": "Point", "coordinates": [-75.5462693858, 39.7478272455]}, "type": "Feature", "properties": {"collection_times": [{"days": "Mon-Fri", "time": "5:15pm"}, {"days": "Sat-Sun", "time": "Closed"}], "id": "1980100135", "name": "USPS COLLECTION BOX - BLUE BOX", "address": {"city": "WILMINGTON", "state": "DE", "street": "1201 N MARKET ST", "postcode": "19801"}}},
{"geometry": {"type": "Point", "coordinates": [-75.5469220152, 39.7436321571]}, "type": "Feature", "properties": {"collection_times": [{"days": "Mon-Fri", "time": "4:15pm"}, {"days": "Sat-Sun", "time": "Closed"}], "id": "1980100137", "name": "USPS COLLECTION BOX - BLUE BOX", "address": {"city": "WILMINGTON", "state": "DE", "street": "801 N FRENCH ST", "postcode": "19801"}}},
{"geometry": {"type": "Point", "coordinates": [-75.5487003664, 39.7459274134]}, "type": "Feature", "properties": {"collection_times": [{"days": "Mon-Fri", "time": "3:30pm"}, {"days": "Sat-Sun", "time": "Closed"}], "id": "1980100139", "name": "USPS COLLECTION BOX - BLUE BOX", "address": {"city": "WILMINGTON", "state": "DE", "street": "100 W 10TH ST", "postcode": "19801"}}},
{"geometry": {"type": "Point", "coordinates": [-75.5488114338, 39.7422795591]}, "type": "Feature", "properties": {"collection_times": [{"days": "Mon-Fri", "time": "1:15pm"}, {"days": "Sat-Sun", "time": "Closed"}], "id": "1980100141", "name": "USPS COLLECTION BOX - BLUE BOX", "address": {"city": "WILMINGTON", "state": "DE", "street": "700 N KING ST", "postcode": "19801"}}},
{"geometry": {"type": "Point", "coordinates": [-75.549174733, 39.7459274134]}, "type": "Feature", "properties": {"collection_times": [{"days": "Mon-Fri", "time": "3:15pm"}, {"days": "Sat", "time": "1:45pm"}, {"days": "Sun", "time": "Closed"}], "id": "1980100143", "name": "USPS COLLECTION BOX - BLUE BOX", "address": {"city": "WILMINGTON", "state": "DE", "street": "925 N ORANGE ST", "postcode": "19801"}}},
{"geometry": {"type": "Point", "coordinates": [-75.5461629195, 39.7479904939]}, "type": "Feature", "properties": {"collection_times": [{"days": "Mon-Fri", "time": "4:30pm"}, {"days": "Sat-Sun", "time": "Closed"}], "id": "1980100145", "name": "USPS COLLECTION BOX - BLUE BOX", "address": {"city": "WILMINGTON", "state": "DE", "street": "1220 N MARKET ST", "postcode": "19801"}}},
{"geometry": {"type": "Point", "coordinates": [-75.5516199092, 39.7480177019]}, "type": "Feature", "properties": {"collection_times": [{"days": "Mon-Fri", "time": "6:00pm"}, {"days": "Sat", "time": "3:00pm"}, {"days": "Sun", "time": "Closed"}], "id": "1980100152", "name": "USPS COLLECTION BOX - BLUE BOX", "address": {"city": "WILMINGTON", "state": "DE", "street": "500 DELAWARE AVE", "postcode": "19801"}}},
{"geometry": {"type": "Point", "coordinates": [-75.5516199092, 39.7480177019]}, "type": "Feature", "properties": {"collection_times": [{"days": "Mon-Fri", "time": "6:00pm"}, {"days": "Sat", "time": "3:00pm"}, {"days": "Sun", "time": "Closed"}], "id": "1980100153", "name": "USPS COLLECTION BOX - BLUE BOX", "address": {"city": "WILMINGTON", "state": "DE", "street": "500 DELAWARE AVE", "postcode": "19801"}}},
{"geometry": {"type": "Point", "coordinates": [-75.5487003664, 39.7459274134]}, "type": "Feature", "properties": {"collection_times": [{"days": "Mon-Fri", "time": "3:30pm"}, {"days": "Sat-Sun", "time": "Closed"}], "id": "1980100156", "name": "USPS COLLECTION BOX - BLUE BOX", "address": {"city": "WILMINGTON", "state": "DE", "street": "100 W 10TH ST", "postcode": "19801"}}},
{"geometry": {"type": "Point", "coordinates": [-75.548654231, 39.744268905]}, "type": "Feature", "properties": {"collection_times": [{"days": "Mon-Fri", "time": "5:00pm"}, {"days": "Sat-Sun", "time": "Closed"}], "id": "1980100157", "name": "USPS COLLECTION BOX - BLUE BOX", "address": {"city": "WILMINGTON", "state": "DE", "street": "824 N MARKET ST", "postcode": "19801"}}},
{"geometry": {"type": "Point", "coordinates": [-75.5463868151, 39.7471798631]}, "type": "Feature", "properties": {"collection_times": [{"days": "Mon-Fri", "time": "5:30pm"}, {"days": "Sat", "time": "2:15pm"}, {"days": "Sun", "time": "Closed"}], "id": "1980100158", "name": "USPS COLLECTION BOX - BLUE BOX", "address": {"city": "WILMINGTON", "state": "DE", "street": "10 E 12TH ST", "postcode": "19801"}}},
{"geometry": {"type": "Point", "coordinates": [-75.5463868151, 39.7471798631]}, "type": "Feature", "properties": {"collection_times": [{"days": "Mon-Fri", "time": "5:30pm"}, {"days": "Sat", "time": "2:15pm"}, {"days": "Sun", "time": "Closed"}], "id": "1980100159", "name": "USPS COLLECTION BOX - BLUE BOX", "address": {"city": "WILMINGTON", "state": "DE", "street": "10 E 12TH ST", "postcode": "19801"}}},
{"geometry": {"type": "Point", "coordinates": [-75.5500453908, 39.7405839878]}, "type": "Feature", "properties": {"collection_times": [{"days": "Mon-Fri", "time": "4:45pm"}, {"days": "Sat", "time": "1:15pm"}, {"days": "Sun", "time": "Closed"}], "id": "1980100160", "name": "USPS COLLECTION BOX - BLUE BOX", "address": {"city": "WILMINGTON", "state": "DE", "street": "500 N KING ST", "postcode": "19801"}}},
{"geometry": {"type": "Point", "coordinates": [-75.5501471253, 39.7467235448]}, "type": "Feature", "properties": {"collection_times": [{"days": "Mon-Fri", "time": "4:45pm"}, {"days": "Sat-Sun", "time": "Closed"}], "id": "1980100162", "name": "USPS COLLECTION BOX - BLUE BOX", "address": {"city": "WILMINGTON", "state": "DE", "street": "300 DELAWARE AVE", "postcode": "19801"}}},
{"geometry": {"type": "Point", "coordinates": [-75.54994991, 39.74655788]}, "type": "Feature", "properties": {"collection_times": [{"days": "Mon-Fri", "time": "4:45pm"}, {"days": "Sat-Sun", "time": "Closed"}], "id": "1980100163", "name": "USPS COLLECTION BOX - BLUE BOX", "address": {"city": "WILMINGTON", "state": "DE", "street": "222 DELAWARE AVE", "postcode": "19801"}}},
{"geometry": {"type": "Point", "coordinates": [-75.5329551826, 39.7557873764]}, "type": "Feature", "properties": {"collection_times": [{"days": "Mon-Fri", "time": "10:00am"}, {"days": "Sat", "time": "9:00am"}, {"days": "Sun", "time": "Closed"}], "id": "1980200004", "name": "USPS COLLECTION BOX - BLUE BOX", "address": {"city": "WILMINGTON", "state": "DE", "street": "2900 N MARKET ST", "postcode": "19802"}}},
{"geometry": {"type": "Point", "coordinates": [-75.5443226737, 39.7624737696]}, "type": "Feature", "properties": {"collection_times": [{"days": "Mon-Fri", "time": "10:30am"}, {"days": "Sat", "time": "9:30am"}, {"days": "Sun", "time": "Closed"}], "id": "1980200015", "name": "USPS COLLECTION BOX - BLUE BOX", "address": {"city": "WILMINGTON", "state": "DE", "street": "2400 N BROOM ST", "postcode": "19802"}}},
{"geometry": {"type": "Point", "coordinates": [-75.535497754, 39.765864844]}, "type": "Feature", "properties": {"collection_times": [{"days": "Mon-Fri", "time": "10:15am"}, {"days": "Sat", "time": "9:15am"}, {"days": "Sun", "time": "Closed"}], "id": "1980200028", "name": "USPS COLLECTION BOX - BLUE BOX", "address": {"city": "WILMINGTON", "state": "DE", "street": "3400 BROOM PL", "postcode": "19802"}}},
{"geometry": {"type": "Point", "coordinates": [-75.531128694, 39.7708310656]}, "type": "Feature", "properties": {"collection_times": [{"days": "Mon-Fri", "time": "10:15am"}, {"days": "Sat", "time": "9:15am"}, {"days": "Sun", "time": "Closed"}], "id": "1980200030", "name": "USPS COLLECTION BOX - BLUE BOX", "address": {"city": "WILMINGTON", "state": "DE", "street": "4305 MILLER RD", "postcode": "19802"}}},
{"geometry": {"type": "Point", "coordinates": [-75.5258136594, 39.7632589452]}, "type": "Feature", "properties": {"collection_times": [{"days": "Mon-Fri", "time": "10:15am"}, {"days": "Sat", "time": "9:15am"}, {"days": "Sun", "time": "Closed"}], "id": "1980200035", "name": "USPS COLLECTION BOX - BLUE BOX", "address": {"city": "WILMINGTON", "state": "DE", "street": "3900 N WASHINGTON ST", "postcode": "19802"}}},
{"geometry": {"type": "Point", "coordinates": [-75.523372032, 39.7650298348]}, "type": "Feature", "properties": {"collection_times": [{"days": "Mon-Fri", "time": "10:00am"}, {"days": "Sat", "time": "9:00am"}, {"days": "Sun", "time": "Closed"}], "id": "1980200045", "name": "USPS COLLECTION BOX - BLUE BOX", "address": {"city": "WILMINGTON", "state": "DE", "street": "301 E LEA BLVD", "postcode": "19802"}}},
{"geometry": {"type": "Point", "coordinates": [-75.518678645, 39.7623650773]}, "type": "Feature", "properties": {"collection_times": [{"days": "Mon-Fri", "time": "10:00am"}, {"days": "Sat", "time": "9:00am"}, {"days": "Sun", "time": "Closed"}], "id": "1980200049", "name": "USPS COLLECTION BOX - BLUE BOX", "address": {"city": "WILMINGTON", "state": "DE", "street": "4425 N MARKET ST", "postcode": "19802"}}},
{"geometry": {"type": "Point", "coordinates": [-75.5520892637, 39.7938674523]}, "type": "Feature", "properties": {"collection_times": [{"days": "Mon-Fri", "time": "11:15am"}, {"days": "Sat", "time": "10:15am"}, {"days": "Sun", "time": "Closed"}], "id": "1980300001", "name": "USPS COLLECTION BOX - BLUE BOX", "address": {"city": "TALLEYVILLE", "state": "DE", "street": "300 SHARPLEY RD", "postcode": "19803"}}},
{"geometry": {"type": "Point", "coordinates": [-75.5461558217, 39.7709954969]}, "type": "Feature", "properties": {"collection_times": [{"days": "Mon-Fri", "time": "10:30am"}, {"days": "Sat", "time": "9:30am"}, {"days": "Sun", "time": "Closed"}], "id": "1980300002", "name": "USPS COLLECTION BOX - BLUE BOX", "address": {"city": "TALLEYVILLE", "state": "DE", "street": "1 EDGEWOOD RD", "postcode": "19803"}}},
{"geometry": {"type": "Point", "coordinates": [-75.55499844, 39.7614360055]}, "type": "Feature", "properties": {"collection_times": [{"days": "Mon-Fri", "time": "4:00pm"}, {"days": "Sat", "time": "9:30am"}, {"days": "Sun", "time": "Closed"}], "id": "1980300003", "name": "USPS COLLECTION BOX - BLUE BOX", "address": {"city": "TALLEYVILLE", "state": "DE", "street": "1701 AUGUSTINE CUT OFF", "postcode": "19803"}}},
{"geometry": {"type": "Point", "coordinates": [-75.5452484922, 39.7806224169]}, "type": "Feature", "properties": {"collection_times": [{"days": "Mon-Fri", "time": "4:00pm"}, {"days": "Sat", "time": "10:00am"}, {"days": "Sun", "time": "Closed"}], "id": "1980300006", "name": "USPS COLLECTION BOX - BLUE BOX", "address": {"city": "TALLEYVILLE", "state": "DE", "street": "1601 CONCORD PIKE", "postcode": "19803"}}},
{"geometry": {"type": "Point", "coordinates": [-75.5446806719, 39.7841925871]}, "type": "Feature", "properties": {"collection_times": [{"days": "Mon-Fri", "time": "10:45am"}, {"days": "Sat", "time": "10:00am"}, {"days": "Sun", "time": "Closed"}], "id": "1980300007", "name": "USPS COLLECTION BOX - BLUE BOX", "address": {"city": "TALLEYVILLE", "state": "DE", "street": "6 YORK RD", "postcode": "19803"}}},
{"geometry": {"type": "Point", "coordinates": [-75.5464456467, 39.7901085649]}, "type": "Feature", "properties": {"collection_times": [{"days": "Mon-Fri", "time": "11:00am"}, {"days": "Sat", "time": "10:15am"}, {"days": "Sun", "time": "Closed"}], "id": "1980300010", "name": "USPS COLLECTION BOX - BLUE BOX", "address": {"city": "TALLEYVILLE", "state": "DE", "street": "2115 CONCORD PIKE", "postcode": "19803"}}},
{"geometry": {"type": "Point", "coordinates": [-75.541130612, 39.7894295464]}, "type": "Feature", "properties": {"collection_times": [{"days": "Mon-Fri", "time": "10:45am"}, {"days": "Sat", "time": "10:00am"}, {"days": "Sun", "time": "Closed"}], "id": "1980300011", "name": "USPS COLLECTION BOX - BLUE BOX", "address": {"city": "TALLEYVILLE", "state": "DE", "street": "1902 THOMAS RD", "postcode": "19803"}}},
{"geometry": {"type": "Point", "coordinates": [-75.5334271833, 39.7898506798]}, "type": "Feature", "properties": {"collection_times": [{"days": "Mon-Fri", "time": "11:00am"}, {"days": "Sat", "time": "10:00am"}, {"days": "Sun", "time": "Closed"}], "id": "1980300013", "name": "USPS COLLECTION BOX - BLUE BOX", "address": {"city": "TALLEYVILLE", "state": "DE", "street": "1800 FAIRFAX BLVD", "postcode": "19803"}}},
{"geometry": {"type": "Point", "coordinates": [-75.5211078486, 39.7869985657]}, "type": "Feature", "properties": {"collection_times": [{"days": "Mon-Fri", "time": "4:15pm"}, {"days": "Sat", "time": "12:15pm"}, {"days": "Sun", "time": "Closed"}], "id": "1980300014", "name": "USPS COLLECTION BOX - BLUE BOX", "address": {"city": "TALLEYVILLE", "state": "DE", "street": "1312 SHIPLEY RD", "postcode": "19803"}}},
{"geometry": {"type": "Point", "coordinates": [-75.5177152387, 39.7820086899]}, "type": "Feature", "properties": {"collection_times": [{"days": "Mon-Fri", "time": "4:15pm"}, {"days": "Sat", "time": "12:15pm"}, {"days": "Sun", "time": "Closed"}], "id": "1980300015", "name": "USPS COLLECTION BOX - BLUE BOX", "address": {"city": "TALLEYVILLE", "state": "DE", "street": "61 SHELLBURNE DR", "postcode": "19803"}}},
{"geometry": {"type": "Point", "coordinates": [-75.5055625848, 39.7930139121]}, "type": "Feature", "properties": {"collection_times": [{"days": "Mon-Fri", "time": "4:15pm"}, {"days": "Sat", "time": "12:15pm"}, {"days": "Sun", "time": "Closed"}], "id": "1980300016", "name": "USPS COLLECTION BOX - BLUE BOX", "address": {"city": "TALLEYVILLE", "state": "DE", "street": "1401 MARSH RD", "postcode": "19803"}}},
{"geometry": {"type": "Point", "coordinates": [-75.4938619374, 39.7957323515]}, "type": "Feature", "properties": {"collection_times": [{"days": "Mon-Fri", "time": "4:15pm"}, {"days": "Sat", "time": "12:45pm"}, {"days": "Sun", "time": "Closed"}], "id": "1980300017", "name": "USPS COLLECTION BOX - BLUE BOX", "address": {"city": "TALLEYVILLE", "state": "DE", "street": "1431 ATHENS RD", "postcode": "19803"}}},
{"geometry": {"type": "Point", "coordinates": [-75.5140104974, 39.7954900873]}, "type": "Feature", "properties": {"collection_times": [{"days": "Mon-Fri", "time": "4:30pm"}, {"days": "Sat", "time": "12:30pm"}, {"days": "Sun", "time": "Closed"}], "id": "1980300018", "name": "USPS COLLECTION BOX - BLUE BOX", "address": {"city": "TALLEYVILLE", "state": "DE", "street": "1019 PIPER RD", "postcode": "19803"}}},
{"geometry": {"type": "Point", "coordinates": [-75.5157514104, 39.8076731396]}, "type": "Feature", "properties": {"collection_times": [{"days": "Mon-Fri", "time": "1:00pm"}, {"days": "Sat", "time": "12:00pm"}, {"days": "Sun", "time": "Closed"}], "id": "1980300019", "name": "USPS COLLECTION BOX - BLUE BOX", "address": {"city": "TALLEYVILLE", "state": "DE", "street": "1707 FOULK RD", "postcode": "19803"}}},
{"geometry": {"type": "Point", "coordinates": [-75.524987954, 39.8008900529]}, "type": "Feature", "properties": {"collection_times": [{"days": "Mon-Fri", "time": "4:00pm"}, {"days": "Sat", "time": "12:15pm"}, {"days": "Sun", "time": "Closed"}], "id": "1980300020", "name": "USPS COLLECTION BOX - BLUE BOX", "address": {"city": "TALLEYVILLE", "state": "DE", "street": "1401 FOULK RD", "postcode": "19803"}}},
{"geometry": {"type": "Point", "coordinates": [-75.5540319625, 39.7815806137]}, "type": "Feature", "properties": {"collection_times": [{"days": "Mon-Fri", "time": "10:45am"}, {"days": "Sat", "time": "9:45am"}, {"days": "Sun", "time": "Closed"}], "id": "1980300023", "name": "USPS COLLECTION BOX - BLUE BOX", "address": {"city": "TALLEYVILLE", "state": "DE", "street": "1600 ROCKLAND RD", "postcode": "19803"}}},
{"geometry": {"type": "Point", "coordinates": [-75.5469223791, 39.8211766162]}, "type": "Feature", "properties": {"collection_times": [{"days": "Mon-Fri", "time": "11:45am"}, {"days": "Sat", "time": "11:00am"}, {"days": "Sun", "time": "Closed"}], "id": "1980300026", "name": "USPS COLLECTION BOX - BLUE BOX", "address": {"city": "TALLEYVILLE", "state": "DE", "street": "4737 CONCORD PIKE", "postcode": "19803"}}},
{"geometry": {"type": "Point", "coordinates": [-75.5409815592, 39.8004062226]}, "type": "Feature", "properties": {"collection_times": [{"days": "Mon-Fri", "time": "11:30am"}, {"days": "Sat", "time": "10:30am"}, {"days": "Sun", "time": "Closed"}], "id": "1980300031", "name": "USPS COLLECTION BOX - BLUE BOX", "address": {"city": "TALLEYVILLE", "state": "DE", "street": "327 CLEVELAND AVE", "postcode": "19803"}}},
{"geometry": {"type": "Point", "coordinates": [-75.5492185025, 39.8247467863]}, "type": "Feature", "properties": {"collection_times": [{"days": "Mon-Fri", "time": "12:00pm"}, {"days": "Sat", "time": "11:00am"}, {"days": "Sun", "time": "Closed"}], "id": "1980300038", "name": "USPS COLLECTION BOX - BLUE BOX", "address": {"city": "TALLEYVILLE", "state": "DE", "street": "1300 ROCKY RUN PKWY", "postcode": "19803"}}},
{"geometry": {"type": "Point", "coordinates": [-75.542573822, 39.7792892222]}, "type": "Feature", "properties": {"collection_times": [{"days": "Mon-Fri", "time": "4:00pm"}, {"days": "Sat", "time": "9:45am"}, {"days": "Sun", "time": "Closed"}], "id": "1980300042", "name": "USPS COLLECTION BOX - BLUE BOX", "address": {"city": "TALLEYVILLE", "state": "DE", "street": "103 FOULK RD", "postcode": "19803"}}},
{"geometry": {"type": "Point", "coordinates": [-75.5436077281, 39.7962635003]}, "type": "Feature", "properties": {"collection_times": [{"days": "Mon-Fri", "time": "11:15am"}, {"days": "Sat", "time": "10:30am"}, {"days": "Sun", "time": "Closed"}], "id": "1980300044", "name": "USPS COLLECTION BOX - BLUE BOX", "address": {"city": "TALLEYVILLE", "state": "DE", "street": "124 PROSPECT DR", "postcode": "19803"}}},
{"geometry": {"type": "Point", "coordinates": [-75.524987954, 39.8008900529]}, "type": "Feature", "properties": {"collection_times": [{"days": "Mon-Fri", "time": "4:00pm"}, {"days": "Sat", "time": "12:15pm"}, {"days": "Sun", "time": "Closed"}], "id": "1980300057", "name": "USPS COLLECTION BOX - BLUE BOX", "address": {"city": "TALLEYVILLE", "state": "DE", "street": "1401 FOULK RD", "postcode": "19803"}}},
{"geometry": {"type": "Point", "coordinates": [-75.5487778164, 39.8068021793]}, "type": "Feature", "properties": {"collection_times": [{"days": "Mon-Fri", "time": "5:30pm"}, {"days": "Sat", "time": "3:30pm"}, {"days": "Sun", "time": "Closed"}], "id": "1980300058", "name": "USPS COLLECTION BOX - BLUE BOX", "address": {"city": "TALLEYVILLE", "state": "DE", "street": "3911 CONCORD PIKE", "postcode": "19803"}}},
{"geometry": {"type": "Point", "coordinates": [-75.5463025086, 39.7890415359]}, "type": "Feature", "properties": {"collection_times": [{"days": "Mon-Fri", "time": "4:00pm"}, {"days": "Sat", "time": "10:15am"}, {"days": "Sun", "time": "Closed"}], "id": "1980300061", "name": "USPS COLLECTION BOX - BLUE BOX", "address": {"city": "TALLEYVILLE", "state": "DE", "street": "2015 CONCORD PIKE", "postcode": "19803"}}},
{"geometry": {"type": "Point", "coordinates": [-75.5487778164, 39.8068021793]}, "type": "Feature", "properties": {"collection_times": [{"days": "Mon-Fri", "time": "5:30pm"}, {"days": "Sat", "time": "3:30pm"}, {"days": "Sun", "time": "Closed"}], "id": "1980300062", "name": "USPS COLLECTION BOX - BLUE BOX", "address": {"city": "TALLEYVILLE", "state": "DE", "street": "3911 CONCORD PIKE", "postcode": "19803"}}},
{"geometry": {"type": "Point", "coordinates": [-75.5487778164, 39.8068021793]}, "type": "Feature", "properties": {"collection_times": [{"days": "Mon-Fri", "time": "5:30pm"}, {"days": "Sat", "time": "3:30pm"}, {"days": "Sun", "time": "Closed"}], "id": "1980300065", "name": "USPS COLLECTION BOX - PO LOBBY", "address": {"city": "TALLEYVILLE", "state": "DE", "street": "3911 CONCORD PIKE", "postcode": "19803"}}},
{"geometry": {"type": "Point", "coordinates": [-75.5487778164, 39.8068021793]}, "type": "Feature", "properties": {"collection_times": [{"days": "Mon-Fri", "time": "5:30pm"}, {"days": "Sat", "time": "3:30pm"}, {"days": "Sun", "time": "Closed"}], "id": "1980300068", "name": "USPS COLLECTION BOX - APC", "address": {"city": "TALLEYVILLE", "state": "DE", "street": "3911 CONCORD PIKE", "postcode": "19803"}}},
{"geometry": {"type": "Point", "coordinates": [-75.542573822, 39.7792892222]}, "type": "Feature", "properties": {"collection_times": [{"days": "Mon-Fri", "time": "4:00pm"}, {"days": "Sat", "time": "9:45am"}, {"days": "Sun", "time": "Closed"}], "id": "1980300070", "name": "USPS COLLECTION BOX - BLUE BOX", "address": {"city": "TALLEYVILLE", "state": "DE", "street": "103 FOULK RD", "postcode": "19803"}}},
{"geometry": {"type": "Point", "coordinates": [-75.5487778164, 39.8068021793]}, "type": "Feature", "properties": {"collection_times": [{"days": "Mon-Fri", "time": "5:30pm"}, {"days": "Sat", "time": "3:30pm"}, {"days": "Sun", "time": "Closed"}], "id": "1980300071", "name": "USPS COLLECTION BOX - PO LOBBY", "address": {"city": "TALLEYVILLE", "state": "DE", "street": "3911 CONCORD PIKE", "postcode": "19803"}}},
{"geometry": {"type": "Point", "coordinates": [-75.5921543107, 39.7241222709]}, "type": "Feature", "properties": {"collection_times": [{"days": "Mon-Sat", "time": "1:00pm"}, {"days": "Sun", "time": "Closed"}], "id": "1980400002", "name": "USPS COLLECTION BOX - BLUE BOX", "address": {"city": "NEWPORT", "state": "DE", "street": "622 S MARYLAND AVE", "postcode": "19804"}}},
{"geometry": {"type": "Point", "coordinates": [-75.5843819577, 39.7253451104]}, "type": "Feature", "properties": {"collection_times": [{"days": "Mon-Sat", "time": "1:00pm"}, {"days": "Sun", "time": "Closed"}], "id": "1980400004", "name": "USPS COLLECTION BOX - BLUE BOX", "address": {"city": "NEWPORT", "state": "DE", "street": "318 S DUPONT RD", "postcode": "19804"}}},
{"geometry": {"type": "Point", "coordinates": [-75.5793024818, 39.7324032617]}, "type": "Feature", "properties": {"collection_times": [{"days": "Mon-Sat", "time": "1:00pm"}, {"days": "Sun", "time": "Closed"}], "id": "1980400005", "name": "USPS COLLECTION BOX - BLUE BOX", "address": {"city": "NEWPORT", "state": "DE", "street": "1 GERMAY DR", "postcode": "19804"}}},
{"geometry": {"type": "Point", "coordinates": [-75.5959193565, 39.725876259]}, "type": "Feature", "properties": {"collection_times": [{"days": "Mon-Sat", "time": "1:15pm"}, {"days": "Sun", "time": "Closed"}], "id": "1980400009", "name": "USPS COLLECTION BOX - BLUE BOX", "address": {"city": "NEWPORT", "state": "DE", "street": "200 WESTMORELAND AVE", "postcode": "19804"}}},
{"geometry": {"type": "Point", "coordinates": [-75.6047454133, 39.7244531593]}, "type": "Feature", "properties": {"collection_times": [{"days": "Mon-Sat", "time": "1:15pm"}, {"days": "Sun", "time": "Closed"}], "id": "1980400013", "name": "USPS COLLECTION BOX - BLUE BOX", "address": {"city": "NEWPORT", "state": "DE", "street": "600 BOXWOOD RD", "postcode": "19804"}}},
{"geometry": {"type": "Point", "coordinates": [-75.6086601368, 39.7156263443]}, "type": "Feature", "properties": {"collection_times": [{"days": "Mon-Sat", "time": "12:45pm"}, {"days": "Sun", "time": "Closed"}], "id": "1980400017", "name": "USPS COLLECTION BOX - BLUE BOX", "address": {"city": "NEWPORT", "state": "DE", "street": "100 E CHRISTIAN ST", "postcode": "19804"}}},
{"geometry": {"type": "Point", "coordinates": [-75.610750113, 39.7174512252]}, "type": "Feature", "properties": {"collection_times": [{"days": "Mon-Sat", "time": "12:45pm"}, {"days": "Sun", "time": "Closed"}], "id": "1980400020", "name": "USPS COLLECTION BOX - BLUE BOX", "address": {"city": "NEWPORT", "state": "DE", "street": "234 N JAMES ST", "postcode": "19804"}}},
{"geometry": {"type": "Point", "coordinates": [-75.6300000438, 39.7156451409]}, "type": "Feature", "properties": {"collection_times": [{"days": "Mon-Sat", "time": "12:15pm"}, {"days": "Sun", "time": "Closed"}], "id": "1980400030", "name": "USPS COLLECTION BOX - BLUE BOX", "address": {"city": "NEWPORT", "state": "DE", "street": "1704 W NEWPORT PIKE", "postcode": "19804"}}},
{"geometry": {"type": "Point", "coordinates": [-75.6185365915, 39.7165069826]}, "type": "Feature", "properties": {"collection_times": [{"days": "Mon-Sat", "time": "12:00pm"}, {"days": "Sun", "time": "Closed"}], "id": "1980400031", "name": "USPS COLLECTION BOX - BLUE BOX", "address": {"city": "NEWPORT", "state": "DE", "street": "100 1ST STATE BLVD", "postcode": "19804"}}},
{"geometry": {"type": "Point", "coordinates": [-75.6235177891, 39.7149137782]}, "type": "Feature", "properties": {"collection_times": [{"days": "Mon-Sat", "time": "12:15pm"}, {"days": "Sun", "time": "Closed"}], "id": "1980400032", "name": "USPS COLLECTION BOX - BLUE BOX", "address": {"city": "NEWPORT", "state": "DE", "street": "1401 W NEWPORT PIKE", "postcode": "19804"}}},
{"geometry": {"type": "Point", "coordinates": [-75.6155484202, 39.7138568591]}, "type": "Feature", "properties": {"collection_times": [{"days": "Mon-Sat", "time": "12:15pm"}, {"days": "Sun", "time": "Closed"}], "id": "1980400035", "name": "USPS COLLECTION BOX - BLUE BOX", "address": {"city": "NEWPORT", "state": "DE", "street": "601 W NEWPORT PIKE", "postcode": "19804"}}},
{"geometry": {"type": "Point", "coordinates": [-75.6110872563, 39.7135983279]}, "type": "Feature", "properties": {"collection_times": [{"days": "Mon-Sat", "time": "12:30pm"}, {"days": "Sun", "time": "Closed"}], "id": "1980400037", "name": "USPS COLLECTION BOX - BLUE BOX", "address": {"city": "NEWPORT", "state": "DE", "street": "103 W MARKET ST", "postcode": "19804"}}},
{"geometry": {"type": "Point", "coordinates": [-75.6300000438, 39.7156451409]}, "type": "Feature", "properties": {"collection_times": [{"days": "Mon-Fri", "time": "5:15pm"}, {"days": "Sat", "time": "1:00pm"}, {"days": "Sun", "time": "Closed"}], "id": "1980400041", "name": "USPS COLLECTION BOX - PO LOBBY", "address": {"city": "NEWPORT", "state": "DE", "street": "1704 W NEWPORT PIKE", "postcode": "19804"}}},
{"geometry": {"type": "Point", "coordinates": [-75.6300000438, 39.7156451409]}, "type": "Feature", "properties": {"collection_times": [{"days": "Mon-Fri", "time": "5:15pm"}, {"days": "Sat", "time": "1:00pm"}, {"days": "Sun", "time": "Closed"}], "id": "1980400044", "name": "USPS COLLECTION BOX - PO LOBBY", "address": {"city": "NEWPORT", "state": "DE", "street": "1704 W NEWPORT PIKE", "postcode": "19804"}}},
{"geometry": {"type": "Point", "coordinates": [-75.6300000438, 39.7156451409]}, "type": "Feature", "properties": {"collection_times": [{"days": "Mon-Fri", "time": "5:15pm"}, {"days": "Sat", "time": "12:15pm"}, {"days": "Sun", "time": "Closed"}], "id": "1980400045", "name": "USPS COLLECTION BOX - BLUE BOX", "address": {"city": "NEWPORT", "state": "DE", "street": "1704 W NEWPORT PIKE", "postcode": "19804"}}},
{"geometry": {"type": "Point", "coordinates": [-75.5649352953, 39.7429061362]}, "type": "Feature", "properties": {"collection_times": [{"days": "Mon-Sat", "time": "10:30am"}, {"days": "Sun", "time": "Closed"}], "id": "1980500003", "name": "USPS COLLECTION BOX - BLUE BOX", "address": {"city": "WILMINGTON", "state": "DE", "street": "1200 LANCASTER AVE", "postcode": "19805"}}},
{"geometry": {"type": "Point", "coordinates": [-75.5664459339, 39.7497578346]}, "type": "Feature", "properties": {"collection_times": [{"days": "Mon-Sat", "time": "10:30am"}, {"days": "Sun", "time": "Closed"}], "id": "1980500006", "name": "USPS COLLECTION BOX - BLUE BOX", "address": {"city": "WILMINGTON", "state": "DE", "street": "700 N CLAYTON ST", "postcode": "19805"}}},
{"geometry": {"type": "Point", "coordinates": [-75.5969451926, 39.7559126739]}, "type": "Feature", "properties": {"collection_times": [{"days": "Mon-Fri", "time": "5:00pm"}, {"days": "Sat", "time": "10:30am"}, {"days": "Sun", "time": "Closed"}], "id": "1980500009", "name": "USPS COLLECTION BOX - BLUE BOX", "address": {"city": "WILMINGTON", "state": "DE", "street": "3901 LANCASTER PIKE", "postcode": "19805"}}},
{"geometry": {"type": "Point", "coordinates": [-75.5703769065, 39.7508934752]}, "type": "Feature", "properties": {"collection_times": [{"days": "Mon-Sat", "time": "12:30pm"}, {"days": "Sun", "time": "Closed"}], "id": "1980500014", "name": "USPS COLLECTION BOX - BLUE BOX", "address": {"city": "WILMINGTON", "state": "DE", "street": "623 N LINCOLN ST", "postcode": "19805"}}},
{"geometry": {"type": "Point", "coordinates": [-75.5793792242, 39.7443872009]}, "type": "Feature", "properties": {"collection_times": [{"days": "Mon-Sat", "time": "10:00am"}, {"days": "Sun", "time": "Closed"}], "id": "1980500015", "name": "USPS COLLECTION BOX - BLUE BOX", "address": {"city": "WILMINGTON", "state": "DE", "street": "601 S BANCROFT PKWY", "postcode": "19805"}}},
{"geometry": {"type": "Point", "coordinates": [-75.5658332814, 39.7529334248]}, "type": "Feature", "properties": {"collection_times": [{"days": "Mon-Sat", "time": "10:30am"}, {"days": "Sun", "time": "Closed"}], "id": "1980500017", "name": "USPS COLLECTION BOX - BLUE BOX", "address": {"city": "WILMINGTON", "state": "DE", "street": "1000 N DUPONT ST", "postcode": "19805"}}},
{"geometry": {"type": "Point", "coordinates": [-75.5712783213, 39.7556690805]}, "type": "Feature", "properties": {"collection_times": [{"days": "Mon-Fri", "time": "5:00pm"}, {"days": "Sat", "time": "12:15pm"}, {"days": "Sun", "time": "Closed"}], "id": "1980500018", "name": "USPS COLLECTION BOX - BLUE BOX", "address": {"city": "WILMINGTON", "state": "DE", "street": "1000 N BANCROFT PKWY", "postcode": "19805"}}},
{"geometry": {"type": "Point", "coordinates": [-75.6058680414, 39.7385563961]}, "type": "Feature", "properties": {"collection_times": [{"days": "Mon-Sat", "time": "1:30pm"}, {"days": "Sun", "time": "Closed"}], "id": "1980500023", "name": "USPS COLLECTION BOX - BLUE BOX", "address": {"city": "WILMINGTON", "state": "DE", "street": "1606 KIRKWOOD HWY", "postcode": "19805"}}},
{"geometry": {"type": "Point", "coordinates": [-75.5987267295, 39.7396428705]}, "type": "Feature", "properties": {"collection_times": [{"days": "Mon-Sat", "time": "11:30am"}, {"days": "Sun", "time": "Closed"}], "id": "1980500024", "name": "USPS COLLECTION BOX - BLUE BOX", "address": {"city": "WILMINGTON", "state": "DE", "street": "1101 NEW RD", "postcode": "19805"}}},
{"geometry": {"type": "Point", "coordinates": [-75.5776222299, 39.7481505769]}, "type": "Feature", "properties": {"collection_times": [{"days": "Mon-Sat", "time": "10:00am"}, {"days": "Sun", "time": "Closed"}], "id": "1980500029", "name": "USPS COLLECTION BOX - BLUE BOX", "address": {"city": "WILMINGTON", "state": "DE", "street": "2205 LANCASTER AVE", "postcode": "19805"}}},
{"geometry": {"type": "Point", "coordinates": [-75.5844529352, 39.7508639012]}, "type": "Feature", "properties": {"collection_times": [{"days": "Mon-Sat", "time": "10:15am"}, {"days": "Sun", "time": "Closed"}], "id": "1980500031", "name": "USPS COLLECTION BOX - BLUE BOX", "address": {"city": "WILMINGTON", "state": "DE", "street": "2909 LANCASTER AVE", "postcode": "19805"}}},
{"geometry": {"type": "Point", "coordinates": [-75.6146668902, 39.7481939628]}, "type": "Feature", "properties": {"collection_times": [{"days": "Mon-Sat", "time": "11:15am"}, {"days": "Sun", "time": "Closed"}], "id": "1980500032", "name": "USPS COLLECTION BOX - BLUE BOX", "address": {"city": "WILMINGTON", "state": "DE", "street": "1003 KENDALL RD", "postcode": "19805"}}},
{"geometry": {"type": "Point", "coordinates": [-75.5901985669, 39.7531612075]}, "type": "Feature", "properties": {"collection_times": [{"days": "Mon-Fri", "time": "5:00pm"}, {"days": "Sat", "time": "10:15am"}, {"days": "Sun", "time": "Closed"}], "id": "1980500034", "name": "USPS COLLECTION BOX - BLUE BOX", "address": {"city": "WILMINGTON", "state": "DE", "street": "3301 LANCASTER PIKE", "postcode": "19805"}}},
{"geometry": {"type": "Point", "coordinates": [-75.5953373407, 39.7370303791]}, "type": "Feature", "properties": {"collection_times": [{"days": "Mon-Sat", "time": "1:30pm"}, {"days": "Sun", "time": "Closed"}], "id": "1980500036", "name": "USPS COLLECTION BOX - BLUE BOX", "address": {"city": "WILMINGTON", "state": "DE", "street": "201 FILBERT AVE", "postcode": "19805"}}},
{"geometry": {"type": "Point", "coordinates": [-75.5933545979, 39.7456657534]}, "type": "Feature", "properties": {"collection_times": [{"days": "Mon-Sat", "time": "11:15am"}, {"days": "Sun", "time": "Closed"}], "id": "1980500037", "name": "USPS COLLECTION BOX - BLUE BOX", "address": {"city": "WILMINGTON", "state": "DE", "street": "1300 OAKHILL RD", "postcode": "19805"}}},
{"geometry": {"type": "Point", "coordinates": [-75.6069965842, 39.7385646768]}, "type": "Feature", "properties": {"collection_times": [{"days": "Mon-Fri", "time": "11:45am"}, {"days": "Sat-Sun", "time": "Closed"}], "id": "1980500040", "name": "USPS COLLECTION BOX - BLUE BOX", "address": {"city": "WILMINGTON", "state": "DE", "street": "1601 KIRKWOOD HWY", "postcode": "19805"}}},
{"geometry": {"type": "Point", "coordinates": [-75.6053262462, 39.757932081]}, "type": "Feature", "properties": {"collection_times": [{"days": "Mon-Fri", "time": "5:15pm"}, {"days": "Sat", "time": "11:00am"}, {"days": "Sun", "time": "Closed"}], "id": "1980500042", "name": "USPS COLLECTION BOX - BLUE BOX", "address": {"city": "WILMINGTON", "state": "DE", "street": "1011 CENTRE RD", "postcode": "19805"}}},
{"geometry": {"type": "Point", "coordinates": [-75.5651931803, 39.7471458612]}, "type": "Feature", "properties": {"collection_times": [{"days": "Mon-Sat", "time": "10:15am"}, {"days": "Sun", "time": "Closed"}], "id": "1980500045", "name": "USPS COLLECTION BOX - BLUE BOX", "address": {"city": "WILMINGTON", "state": "DE", "street": "500 S BROOM ST", "postcode": "19805"}}},
{"geometry": {"type": "Point", "coordinates": [-75.5650358468, 39.7400694006]}, "type": "Feature", "properties": {"collection_times": [{"days": "Mon-Sat", "time": "10:15am"}, {"days": "Sun", "time": "Closed"}], "id": "1980500047", "name": "USPS COLLECTION BOX - BLUE BOX", "address": {"city": "WILMINGTON", "state": "DE", "street": "401 S VAN BUREN ST", "postcode": "19805"}}},
{"geometry": {"type": "Point", "coordinates": [-75.5701367659, 39.7534403858]}, "type": "Feature", "properties": {"collection_times": [{"days": "Mon-Sat", "time": "12:30pm"}, {"days": "Sun", "time": "Closed"}], "id": "1980500049", "name": "USPS COLLECTION BOX - BLUE BOX", "address": {"city": "WILMINGTON", "state": "DE", "street": "837 N UNION ST", "postcode": "19805"}}},
{"geometry": {"type": "Point", "coordinates": [-75.5721036007, 39.7488460938]}, "type": "Feature", "properties": {"collection_times": [{"days": "Mon-Sat", "time": "12:45pm"}, {"days": "Sun", "time": "Closed"}], "id": "1980500050", "name": "USPS COLLECTION BOX - BLUE BOX", "address": {"city": "WILMINGTON", "state": "DE", "street": "1920 W 4TH ST", "postcode": "19805"}}},
{"geometry": {"type": "Point", "coordinates": [-75.5697038029, 39.7343651725]}, "type": "Feature", "properties": {"collection_times": [{"days": "Mon-Sat", "time": "10:00am"}, {"days": "Sun", "time": "Closed"}], "id": "1980500051", "name": "USPS COLLECTION BOX - BLUE BOX", "address": {"city": "WILMINGTON", "state": "DE", "street": "126 6TH AVE", "postcode": "19805"}}},
{"geometry": {"type": "Point", "coordinates": [-75.5703094779, 39.7361585383]}, "type": "Feature", "properties": {"collection_times": [{"days": "Mon-Sat", "time": "10:00am"}, {"days": "Sun", "time": "Closed"}], "id": "1980500052", "name": "USPS COLLECTION BOX - BLUE BOX", "address": {"city": "WILMINGTON", "state": "DE", "street": "1200 MARYLAND AVE", "postcode": "19805"}}},
{"geometry": {"type": "Point", "coordinates": [-75.5739843587, 39.735121579]}, "type": "Feature", "properties": {"collection_times": [{"days": "Mon-Sat", "time": "10:00am"}, {"days": "Sun", "time": "Closed"}], "id": "1980500054", "name": "USPS COLLECTION BOX - BLUE BOX", "address": {"city": "WILMINGTON", "state": "DE", "street": "1301 S RODNEY ST", "postcode": "19805"}}},
{"geometry": {"type": "Point", "coordinates": [-75.5636517848, 39.7494124105]}, "type": "Feature", "properties": {"collection_times": [{"days": "Mon-Sat", "time": "10:15am"}, {"days": "Sun", "time": "Closed"}], "id": "1980500058", "name": "USPS COLLECTION BOX - BLUE BOX", "address": {"city": "WILMINGTON", "state": "DE", "street": "800 S BROOM ST", "postcode": "19805"}}},
{"geometry": {"type": "Point", "coordinates": [-75.5651525267, 39.7515487199]}, "type": "Feature", "properties": {"collection_times": [{"days": "Mon-Sat", "time": "10:00am"}, {"days": "Sun", "time": "Closed"}], "id": "1980500059", "name": "USPS COLLECTION BOX - BLUE BOX", "address": {"city": "WILMINGTON", "state": "DE", "street": "900 S CLAYTON RD", "postcode": "19805"}}},
{"geometry": {"type": "Point", "coordinates": [-75.6110628894, 39.7478744806]}, "type": "Feature", "properties": {"collection_times": [{"days": "Mon-Fri", "time": "5:30pm"}, {"days": "Sat", "time": "11:15am"}, {"days": "Sun", "time": "Closed"}], "id": "1980500062", "name": "USPS COLLECTION BOX - BLUE BOX", "address": {"city": "WILMINGTON", "state": "DE", "street": "1720 FAULKLAND RD", "postcode": "19805"}}},
{"geometry": {"type": "Point", "coordinates": [-75.624235372, 39.7499492933]}, "type": "Feature", "properties": {"collection_times": [{"days": "Mon-Sat", "time": "11:15am"}, {"days": "Sun", "time": "Closed"}], "id": "1980500064", "name": "USPS COLLECTION BOX - BLUE BOX", "address": {"city": "WILMINGTON", "state": "DE", "street": "2500 CENTERVILLE RD", "postcode": "19805"}}},
{"geometry": {"type": "Point", "coordinates": [-75.5638576197, 39.7491083901]}, "type": "Feature", "properties": {"collection_times": [{"days": "Mon-Sat", "time": "10:30am"}, {"days": "Sun", "time": "Closed"}], "id": "1980500068", "name": "USPS COLLECTION BOX - BLUE BOX", "address": {"city": "WILMINGTON", "state": "DE", "street": "709 N BROOM ST", "postcode": "19805"}}},
{"geometry": {"type": "Point", "coordinates": [-75.6020168295, 39.7405068911]}, "type": "Feature", "properties": {"collection_times": [{"days": "Mon-Fri", "time": "5:30pm"}, {"days": "Sat", "time": "11:30am"}, {"days": "Sun", "time": "Closed"}], "id": "1980500070", "name": "USPS COLLECTION BOX - BLUE BOX", "address": {"city": "WILMINGTON", "state": "DE", "street": "11 POPLAR AVE", "postcode": "19805"}}},
{"geometry": {"type": "Point", "coordinates": [-75.5767187495, 39.7270497543]}, "type": "Feature", "properties": {"collection_times": [{"days": "Mon-Sat", "time": "10:00am"}, {"days": "Sun", "time": "Closed"}], "id": "1980500072", "name": "USPS COLLECTION BOX - BLUE BOX", "address": {"city": "WILMINGTON", "state": "DE", "street": "328 ROBINSON LN", "postcode": "19805"}}},
{"geometry": {"type": "Point", "coordinates": [-75.5651167401, 39.7381532054]}, "type": "Feature", "properties": {"collection_times": [{"days": "Mon-Sat", "time": "10:15am"}, {"days": "Sun", "time": "Closed"}], "id": "1980500073", "name": "USPS COLLECTION BOX - BLUE BOX", "address": {"city": "WILMINGTON", "state": "DE", "street": "624 MARYLAND AVE", "postcode": "19805"}}},
{"geometry": {"type": "Point", "coordinates": [-75.5712783213, 39.7556690805]}, "type": "Feature", "properties": {"collection_times": [{"days": "Mon-Fri", "time": "5:00pm"}, {"days": "Sat", "time": "12:15pm"}, {"days": "Sun", "time": "Closed"}], "id": "1980500074", "name": "USPS COLLECTION BOX - BLUE BOX", "address": {"city": "WILMINGTON", "state": "DE", "street": "1000 N BANCROFT PKWY", "postcode": "19805"}}},
{"geometry": {"type": "Point", "coordinates": [-75.6053262462, 39.757932081]}, "type": "Feature", "properties": {"collection_times": [{"days": "Mon-Fri", "time": "5:15pm"}, {"days": "Sat", "time": "11:00am"}, {"days": "Sun", "time": "Closed"}], "id": "1980500075", "name": "USPS COLLECTION BOX - BLUE BOX", "address": {"city": "WILMINGTON", "state": "DE", "street": "1011 CENTRE RD", "postcode": "19805"}}},
{"geometry": {"type": "Point", "coordinates": [-75.5708938596, 39.7484080784]}, "type": "Feature", "properties": {"collection_times": [{"days": "Mon-Sat", "time": "12:45pm"}, {"days": "Sun", "time": "Closed"}], "id": "1980500079", "name": "USPS COLLECTION BOX - BLUE BOX", "address": {"city": "WILMINGTON", "state": "DE", "street": "1800 W 4TH ST", "postcode": "19805"}}},
{"geometry": {"type": "Point", "coordinates": [-75.576878449, 39.7457795436]}, "type": "Feature", "properties": {"collection_times": [{"days": "Mon-Sat", "time": "10:00am"}, {"days": "Sun", "time": "Closed"}], "id": "1980500081", "name": "USPS COLLECTION BOX - BLUE BOX", "address": {"city": "WILMINGTON", "state": "DE", "street": "214 S BANCROFT PKWY", "postcode": "19805"}}},
{"geometry": {"type": "Point", "coordinates": [-75.5901051132, 39.7256219228]}, "type": "Feature", "properties": {"collection_times": [{"days": "Mon-Sat", "time": "10:15am"}, {"days": "Sun", "time": "Closed"}], "id": "1980500083", "name": "USPS COLLECTION BOX - BLUE BOX", "address": {"city": "WILMINGTON", "state": "DE", "street": "401 MARYLAND AVE", "postcode": "19805"}}},
{"geometry": {"type": "Point", "coordinates": [-75.5614142748, 39.7444837499]}, "type": "Feature", "properties": {"collection_times": [{"days": "Mon-Sat", "time": "10:30am"}, {"days": "Sun", "time": "Closed"}], "id": "1980500084", "name": "USPS COLLECTION BOX - BLUE BOX", "address": {"city": "WILMINGTON", "state": "DE", "street": "1010 W 4TH ST", "postcode": "19805"}}},
{"geometry": {"type": "Point", "coordinates": [-75.5800043913, 39.7521425492]}, "type": "Feature", "properties": {"collection_times": [{"days": "Mon-Sat", "time": "10:15am"}, {"days": "Sun", "time": "Closed"}], "id": "1980500085", "name": "USPS COLLECTION BOX - BLUE BOX", "address": {"city": "WILMINGTON", "state": "DE", "street": "400 GREENHILL AVE", "postcode": "19805"}}},
{"geometry": {"type": "Point", "coordinates": [-75.6069965842, 39.7385646768]}, "type": "Feature", "properties": {"collection_times": [{"days": "Mon-Fri", "time": "11:45am"}, {"days": "Sat-Sun", "time": "Closed"}], "id": "1980500089", "name": "USPS COLLECTION BOX - BLUE BOX", "address": {"city": "WILMINGTON", "state": "DE", "street": "1601 KIRKWOOD HWY", "postcode": "19805"}}},
{"geometry": {"type": "Point", "coordinates": [-75.5546695774, 39.7537846269]}, "type": "Feature", "properties": {"collection_times": [{"days": "Mon-Sat", "time": "11:15am"}, {"days": "Sun", "time": "Closed"}], "id": "1980600001", "name": "USPS COLLECTION BOX - BLUE BOX", "address": {"city": "WILMINGTON", "state": "DE", "street": "1415 N VAN BUREN ST", "postcode": "19806"}}},
{"geometry": {"type": "Point", "coordinates": [-75.5559628016, 39.7535320116]}, "type": "Feature", "properties": {"collection_times": [{"days": "Mon-Sat", "time": "11:00am"}, {"days": "Sun", "time": "Closed"}], "id": "1980600002", "name": "USPS COLLECTION BOX - BLUE BOX", "address": {"city": "WILMINGTON", "state": "DE", "street": "1100 GILPIN AVE", "postcode": "19806"}}},
{"geometry": {"type": "Point", "coordinates": [-75.5584550461, 39.7543607279]}, "type": "Feature", "properties": {"collection_times": [{"days": "Mon-Sat", "time": "11:00am"}, {"days": "Sun", "time": "Closed"}], "id": "1980600004", "name": "USPS COLLECTION BOX - BLUE BOX", "address": {"city": "WILMINGTON", "state": "DE", "street": "1301 DELAWARE AVE", "postcode": "19806"}}},
{"geometry": {"type": "Point", "coordinates": [-75.5631644057, 39.7542507127]}, "type": "Feature", "properties": {"collection_times": [{"days": "Mon-Sat", "time": "10:45am"}, {"days": "Sun", "time": "Closed"}], "id": "1980600008", "name": "USPS COLLECTION BOX - BLUE BOX", "address": {"city": "WILMINGTON", "state": "DE", "street": "1508 PENNSYLVANIA AVE", "postcode": "19806"}}},
{"geometry": {"type": "Point", "coordinates": [-75.5627917736, 39.7527128661]}, "type": "Feature", "properties": {"collection_times": [{"days": "Mon-Sat", "time": "10:45am"}, {"days": "Sun", "time": "Closed"}], "id": "1980600009", "name": "USPS COLLECTION BOX - BLUE BOX", "address": {"city": "WILMINGTON", "state": "DE", "street": "1022 N RODNEY ST", "postcode": "19806"}}},
{"geometry": {"type": "Point", "coordinates": [-75.5655068624, 39.7557539307]}, "type": "Feature", "properties": {"collection_times": [{"days": "Mon-Sat", "time": "11:45am"}, {"days": "Sun", "time": "Closed"}], "id": "1980600011", "name": "USPS COLLECTION BOX - BLUE BOX", "address": {"city": "WILMINGTON", "state": "DE", "street": "1228 N SCOTT ST", "postcode": "19806"}}},
{"geometry": {"type": "Point", "coordinates": [-75.5644798561, 39.7597976073]}, "type": "Feature", "properties": {"collection_times": [{"days": "Mon-Sat", "time": "11:45am"}, {"days": "Sun", "time": "Closed"}], "id": "1980600012", "name": "USPS COLLECTION BOX - BLUE BOX", "address": {"city": "WILMINGTON", "state": "DE", "street": "1901 DELAWARE AVE", "postcode": "19806"}}},
{"geometry": {"type": "Point", "coordinates": [-75.5618183098, 39.757473324]}, "type": "Feature", "properties": {"collection_times": [{"days": "Mon-Fri", "time": "5:15pm"}, {"days": "Sat", "time": "11:30am"}, {"days": "Sun", "time": "Closed"}], "id": "1980600019", "name": "USPS COLLECTION BOX - BLUE BOX", "address": {"city": "WILMINGTON", "state": "DE", "street": "1601 DELAWARE AVE", "postcode": "19806"}}},
{"geometry": {"type": "Point", "coordinates": [-75.5719727182, 39.7584833399]}, "type": "Feature", "properties": {"collection_times": [{"days": "Mon-Sat", "time": "12:15pm"}, {"days": "Sun", "time": "Closed"}], "id": "1980600022", "name": "USPS COLLECTION BOX - BLUE BOX", "address": {"city": "WILMINGTON", "state": "DE", "street": "2300 PENNSYLVANIA AVE", "postcode": "19806"}}},
{"geometry": {"type": "Point", "coordinates": [-75.5654427847, 39.7606517037]}, "type": "Feature", "properties": {"collection_times": [{"days": "Mon-Sat", "time": "12:00pm"}, {"days": "Sun", "time": "Closed"}], "id": "1980600023", "name": "USPS COLLECTION BOX - BLUE BOX", "address": {"city": "WILMINGTON", "state": "DE", "street": "2000 DELAWARE AVE", "postcode": "19806"}}},
{"geometry": {"type": "Point", "coordinates": [-75.572063806, 39.7639592569]}, "type": "Feature", "properties": {"collection_times": [{"days": "Mon-Sat", "time": "12:15pm"}, {"days": "Sun", "time": "Closed"}], "id": "1980600024", "name": "USPS COLLECTION BOX - BLUE BOX", "address": {"city": "WILMINGTON", "state": "DE", "street": "1800 GREEN HILL AVE", "postcode": "19806"}}},
{"geometry": {"type": "Point", "coordinates": [-75.5683569263, 39.7563348207]}, "type": "Feature", "properties": {"collection_times": [{"days": "Mon-Sat", "time": "12:30pm"}, {"days": "Sun", "time": "Closed"}], "id": "1980600026", "name": "USPS COLLECTION BOX - BLUE BOX", "address": {"city": "WILMINGTON", "state": "DE", "street": "2010 PENNSYLVANIA AVE", "postcode": "19806"}}},
{"geometry": {"type": "Point", "coordinates": [-75.5616617324, 39.7621033608]}, "type": "Feature", "properties": {"collection_times": [{"days": "Mon-Fri", "time": "5:00pm"}, {"days": "Sat", "time": "12:00pm"}, {"days": "Sun", "time": "Closed"}], "id": "1980600028", "name": "USPS COLLECTION BOX - BLUE BOX", "address": {"city": "WILMINGTON", "state": "DE", "street": "1927 LOVERING AVE", "postcode": "19806"}}},
{"geometry": {"type": "Point", "coordinates": [-75.5613124579, 39.7603068181]}, "type": "Feature", "properties": {"collection_times": [{"days": "Mon-Sat", "time": "11:45am"}, {"days": "Sun", "time": "Closed"}], "id": "1980600031", "name": "USPS COLLECTION BOX - BLUE BOX", "address": {"city": "WILMINGTON", "state": "DE", "street": "1913 N SCOTT ST", "postcode": "19806"}}},
{"geometry": {"type": "Point", "coordinates": [-75.5685279943, 39.7443143641]}, "type": "Feature", "properties": {"collection_times": [{"days": "Mon-Fri", "time": "6:00pm"}, {"days": "Sat", "time": "4:00pm"}, {"days": "Sun", "time": "Closed"}], "id": "1980600034", "name": "USPS COLLECTION BOX - BLUE BOX", "address": {"city": "WILMINGTON", "state": "DE", "street": "1500 LANCASTER AVE", "postcode": "19806"}}},
{"geometry": {"type": "Point", "coordinates": [-75.5579854114, 39.7632270053]}, "type": "Feature", "properties": {"collection_times": [{"days": "Mon-Fri", "time": "5:00pm"}, {"days": "Sat", "time": "12:00pm"}, {"days": "Sun", "time": "Closed"}], "id": "1980600035", "name": "USPS COLLECTION BOX - BLUE BOX", "address": {"city": "WILMINGTON", "state": "DE", "street": "3 MILL RD", "postcode": "19806"}}},
{"geometry": {"type": "Point", "coordinates": [-75.5611249845, 39.749976682]}, "type": "Feature", "properties": {"collection_times": [{"days": "Mon-Sat", "time": "10:45am"}, {"days": "Sun", "time": "Closed"}], "id": "1980600040", "name": "USPS COLLECTION BOX - BLUE BOX", "address": {"city": "WILMINGTON", "state": "DE", "street": "901 N FRANKLIN ST", "postcode": "19806"}}},
{"geometry": {"type": "Point", "coordinates": [-75.5658426248, 39.7628259822]}, "type": "Feature", "properties": {"collection_times": [{"days": "Mon-Sat", "time": "12:00pm"}, {"days": "Sun", "time": "Closed"}], "id": "1980600041", "name": "USPS COLLECTION BOX - BLUE BOX", "address": {"city": "WILMINGTON", "state": "DE", "street": "2000 N BANCROFT PKWY", "postcode": "19806"}}},
{"geometry": {"type": "Point", "coordinates": [-75.5623363344, 39.7578433591]}, "type": "Feature", "properties": {"collection_times": [{"days": "Mon-Fri", "time": "5:30pm"}, {"days": "Sat", "time": "11:30am"}, {"days": "Sun", "time": "Closed"}], "id": "1980600042", "name": "USPS COLLECTION BOX - BLUE BOX", "address": {"city": "WILMINGTON", "state": "DE", "street": "1624 DELAWARE AVE", "postcode": "19806"}}},
{"geometry": {"type": "Point", "coordinates": [-75.5578410904, 39.7565279087]}, "type": "Feature", "properties": {"collection_times": [{"days": "Mon-Sat", "time": "11:00am"}, {"days": "Sun", "time": "Closed"}], "id": "1980600043", "name": "USPS COLLECTION BOX - BLUE BOX", "address": {"city": "WILMINGTON", "state": "DE", "street": "1607 N BROOM ST", "postcode": "19806"}}},
{"geometry": {"type": "Point", "coordinates": [-75.5685279943, 39.7443143641]}, "type": "Feature", "properties": {"collection_times": [{"days": "Mon-Fri", "time": "6:00pm"}, {"days": "Sat", "time": "4:00pm"}, {"days": "Sun", "time": "Closed"}], "id": "1980600044", "name": "USPS COLLECTION BOX - BLUE BOX", "address": {"city": "WILMINGTON", "state": "DE", "street": "1500 LANCASTER AVE", "postcode": "19806"}}},
{"geometry": {"type": "Point", "coordinates": [-75.5618183098, 39.757473324]}, "type": "Feature", "properties": {"collection_times": [{"days": "Mon-Fri", "time": "5:15pm"}, {"days": "Sat", "time": "11:30am"}, {"days": "Sun", "time": "Closed"}], "id": "1980600046", "name": "USPS COLLECTION BOX - BLUE BOX", "address": {"city": "WILMINGTON", "state": "DE", "street": "1601 DELAWARE AVE", "postcode": "19806"}}},
{"geometry": {"type": "Point", "coordinates": [-75.5579854114, 39.7632270053]}, "type": "Feature", "properties": {"collection_times": [{"days": "Mon-Fri", "time": "5:00pm"}, {"days": "Sat", "time": "12:00pm"}, {"days": "Sun", "time": "Closed"}], "id": "1980600048", "name": "USPS COLLECTION BOX - BLUE BOX", "address": {"city": "WILMINGTON", "state": "DE", "street": "3 MILL RD", "postcode": "19806"}}},
{"geometry": {"type": "Point", "coordinates": [-75.5685279943, 39.7443143641]}, "type": "Feature", "properties": {"collection_times": [{"days": "Mon-Fri", "time": "6:00pm"}, {"days": "Sat", "time": "4:00pm"}, {"days": "Sun", "time": "Closed"}], "id": "1980600051", "name": "USPS COLLECTION BOX - PO LOBBY", "address": {"city": "WILMINGTON", "state": "DE", "street": "1500 LANCASTER AVE", "postcode": "19806"}}},
{"geometry": {"type": "Point", "coordinates": [-75.555534075, 39.7518375022]}, "type": "Feature", "properties": {"collection_times": [{"days": "Mon-Sat", "time": "11:15am"}, {"days": "Sun", "time": "Closed"}], "id": "1980600052", "name": "USPS COLLECTION BOX - BLUE BOX", "address": {"city": "WILMINGTON", "state": "DE", "street": "1001 DELAWARE AVE", "postcode": "19806"}}},
{"geometry": {"type": "Point", "coordinates": [-75.5575737416, 39.7546067834]}, "type": "Feature", "properties": {"collection_times": [{"days": "Mon-Sat", "time": "11:00am"}, {"days": "Sun", "time": "Closed"}], "id": "1980600053", "name": "USPS COLLECTION BOX - BLUE BOX", "address": {"city": "WILMINGTON", "state": "DE", "street": "1420 N FRANKLIN ST", "postcode": "19806"}}},
{"geometry": {"type": "Point", "coordinates": [-75.5610989594, 39.7537964565]}, "type": "Feature", "properties": {"collection_times": [{"days": "Mon-Sat", "time": "11:30am"}, {"days": "Sun", "time": "Closed"}], "id": "1980600054", "name": "USPS COLLECTION BOX - BLUE BOX", "address": {"city": "WILMINGTON", "state": "DE", "street": "1401 PENNSYLVANIA AVE", "postcode": "19806"}}},
{"geometry": {"type": "Point", "coordinates": [-75.5602259356, 39.7512980471]}, "type": "Feature", "properties": {"collection_times": [{"days": "Mon-Sat", "time": "10:45am"}, {"days": "Sun", "time": "Closed"}], "id": "1980600055", "name": "USPS COLLECTION BOX - BLUE BOX", "address": {"city": "WILMINGTON", "state": "DE", "street": "1005 N FRANKLIN ST", "postcode": "19806"}}},
{"geometry": {"type": "Point", "coordinates": [-75.5575500825, 39.7531576586]}, "type": "Feature", "properties": {"collection_times": [{"days": "Mon-Sat", "time": "11:15am"}, {"days": "Sun", "time": "Closed"}], "id": "1980600057", "name": "USPS COLLECTION BOX - BLUE BOX", "address": {"city": "WILMINGTON", "state": "DE", "street": "1201 N HARRISON ST", "postcode": "19806"}}},
{"geometry": {"type": "Point", "coordinates": [-75.596366515, 39.7741125937]}, "type": "Feature", "properties": {"collection_times": [{"days": "Mon-Sat", "time": "10:45am"}, {"days": "Sun", "time": "Closed"}], "id": "1980700003", "name": "USPS COLLECTION BOX - BLUE BOX", "address": {"city": "WILMINGTON", "state": "DE", "street": "130 SENATORIAL DR", "postcode": "19807"}}},
{"geometry": {"type": "Point", "coordinates": [-75.5974171461, 39.7779008395]}, "type": "Feature", "properties": {"collection_times": [{"days": "Mon-Fri", "time": "5:00pm"}, {"days": "Sat", "time": "1:30pm"}, {"days": "Sun", "time": "Closed"}], "id": "1980700007", "name": "USPS COLLECTION BOX - BLUE BOX", "address": {"city": "WILMINGTON", "state": "DE", "street": "3801 KENNETT PIKE STE A101", "postcode": "19807"}}},
{"geometry": {"type": "Point", "coordinates": [-75.5974171461, 39.7779008395]}, "type": "Feature", "properties": {"collection_times": [{"days": "Mon-Fri", "time": "5:00pm"}, {"days": "Sat", "time": "1:30pm"}, {"days": "Sun", "time": "Closed"}], "id": "1980700066", "name": "USPS COLLECTION BOX - BLUE BOX", "address": {"city": "WILMINGTON", "state": "DE", "street": "3801 KENNETT PIKE STE A101", "postcode": "19807"}}},
{"geometry": {"type": "Point", "coordinates": [-75.5998984028, 39.7812182831]}, "type": "Feature", "properties": {"collection_times": [{"days": "Mon-Sat", "time": "10:45am"}, {"days": "Sun", "time": "Closed"}], "id": "1980700067", "name": "USPS COLLECTION BOX - BLUE BOX", "address": {"city": "WILMINGTON", "state": "DE", "street": "4017 KENNETT PIKE", "postcode": "19807"}}},
{"geometry": {"type": "Point", "coordinates": [-75.5974171461, 39.7779008395]}, "type": "Feature", "properties": {"collection_times": [{"days": "Mon-Fri", "time": "5:00pm"}, {"days": "Sat", "time": "1:30pm"}, {"days": "Sun", "time": "Closed"}], "id": "1980700070", "name": "USPS COLLECTION BOX - PO LOBBY", "address": {"city": "WILMINGTON", "state": "DE", "street": "3801 KENNETT PIKE STE A101", "postcode": "19807"}}},
{"geometry": {"type": "Point", "coordinates": [-75.6537707817, 39.7216045942]}, "type": "Feature", "properties": {"collection_times": [{"days": "Mon-Sat", "time": "1:45pm"}, {"days": "Sun", "time": "Closed"}], "id": "1980800005", "name": "USPS COLLECTION BOX - BLUE BOX", "address": {"city": "WILMINGTON", "state": "DE", "street": "4527 HENDRY AVE", "postcode": "19808"}}},
{"geometry": {"type": "Point", "coordinates": [-75.628294573, 39.7467198204]}, "type": "Feature", "properties": {"collection_times": [{"days": "Mon-Sat", "time": "11:15am"}, {"days": "Sun", "time": "Closed"}], "id": "1980800008", "name": "USPS COLLECTION BOX - BLUE BOX", "address": {"city": "WILMINGTON", "state": "DE", "street": "2528 FAULKLAND RD", "postcode": "19808"}}},
{"geometry": {"type": "Point", "coordinates": [-75.6422762524, 39.7325915541]}, "type": "Feature", "properties": {"collection_times": [{"days": "Mon-Sat", "time": "1:00pm"}, {"days": "Sun", "time": "Closed"}], "id": "1980800010", "name": "USPS COLLECTION BOX - BLUE BOX", "address": {"city": "WILMINGTON", "state": "DE", "street": "1 DUNLINDEN DR", "postcode": "19808"}}},
{"geometry": {"type": "Point", "coordinates": [-75.6909570968, 39.7409495221]}, "type": "Feature", "properties": {"collection_times": [{"days": "Mon-Sat", "time": "12:15pm"}, {"days": "Sun", "time": "Closed"}], "id": "1980800013", "name": "USPS COLLECTION BOX - BLUE BOX", "address": {"city": "WILMINGTON", "state": "DE", "street": "4744 LIMESTONE RD", "postcode": "19808"}}},
{"geometry": {"type": "Point", "coordinates": [-75.66151798, 39.7329077671]}, "type": "Feature", "properties": {"collection_times": [{"days": "Mon-Sat", "time": "1:00pm"}, {"days": "Sun", "time": "Closed"}], "id": "1980800014", "name": "USPS COLLECTION BOX - BLUE BOX", "address": {"city": "WILMINGTON", "state": "DE", "street": "2603 PECKSNIFF RD", "postcode": "19808"}}},
{"geometry": {"type": "Point", "coordinates": [-75.6745624685, 39.7199744767]}, "type": "Feature", "properties": {"collection_times": [{"days": "Mon-Sat", "time": "12:45pm"}, {"days": "Sun", "time": "Closed"}], "id": "1980800015", "name": "USPS COLLECTION BOX - BLUE BOX", "address": {"city": "WILMINGTON", "state": "DE", "street": "2600 GRENDON DR", "postcode": "19808"}}},
{"geometry": {"type": "Point", "coordinates": [-75.6250988301, 39.7371445974]}, "type": "Feature", "properties": {"collection_times": [{"days": "Mon-Sat", "time": "11:15am"}, {"days": "Sun", "time": "Closed"}], "id": "1980800017", "name": "USPS COLLECTION BOX - BLUE BOX", "address": {"city": "WILMINGTON", "state": "DE", "street": "3202 KIRKWOOD HWY", "postcode": "19808"}}},
{"geometry": {"type": "Point", "coordinates": [-75.6526343003, 39.7268248369]}, "type": "Feature", "properties": {"collection_times": [{"days": "Mon-Sat", "time": "1:15pm"}, {"days": "Sun", "time": "Closed"}], "id": "1980800018", "name": "USPS COLLECTION BOX - BLUE BOX", "address": {"city": "WILMINGTON", "state": "DE", "street": "4391 KIRKWOOD HWY", "postcode": "19808"}}},
{"geometry": {"type": "Point", "coordinates": [-75.6569407255, 39.724613209]}, "type": "Feature", "properties": {"collection_times": [{"days": "Mon-Sat", "time": "1:15pm"}, {"days": "Sun", "time": "Closed"}], "id": "1980800019", "name": "USPS COLLECTION BOX - BLUE BOX", "address": {"city": "WILMINGTON", "state": "DE", "street": "4555 KIRKWOOD HWY", "postcode": "19808"}}},
{"geometry": {"type": "Point", "coordinates": [-75.6584802913, 39.7327558663]}, "type": "Feature", "properties": {"collection_times": [{"days": "Mon-Sat", "time": "1:00pm"}, {"days": "Sun", "time": "Closed"}], "id": "1980800022", "name": "USPS COLLECTION BOX - BLUE BOX", "address": {"city": "WILMINGTON", "state": "DE", "street": "2439 HARTLEY PL", "postcode": "19808"}}},
{"geometry": {"type": "Point", "coordinates": [-75.662036116, 39.7277855547]}, "type": "Feature", "properties": {"collection_times": [{"days": "Mon-Sat", "time": "12:45pm"}, {"days": "Sun", "time": "Closed"}], "id": "1980800023", "name": "USPS COLLECTION BOX - BLUE BOX", "address": {"city": "WILMINGTON", "state": "DE", "street": "4544 PICKWICK DR", "postcode": "19808"}}},
{"geometry": {"type": "Point", "coordinates": [-75.666273475, 39.7137793206]}, "type": "Feature", "properties": {"collection_times": [{"days": "Mon-Sat", "time": "1:30pm"}, {"days": "Sun", "time": "Closed"}], "id": "1980800025", "name": "USPS COLLECTION BOX - BLUE BOX", "address": {"city": "WILMINGTON", "state": "DE", "street": "132 2ND AVE", "postcode": "19808"}}},
{"geometry": {"type": "Point", "coordinates": [-75.6610637237, 39.7538981909]}, "type": "Feature", "properties": {"collection_times": [{"days": "Mon-Sat", "time": "11:45am"}, {"days": "Sun", "time": "Closed"}], "id": "1980800029", "name": "USPS COLLECTION BOX - BLUE BOX", "address": {"city": "WILMINGTON", "state": "DE", "street": "1 BRAEMORE PL", "postcode": "19808"}}},
{"geometry": {"type": "Point", "coordinates": [-75.66030663, 39.7215868498]}, "type": "Feature", "properties": {"collection_times": [{"days": "Mon-Fri", "time": "1:30pm"}, {"days": "Sat", "time": "1:45pm"}, {"days": "Sun", "time": "Closed"}], "id": "1980800033", "name": "USPS COLLECTION BOX - BLUE BOX", "address": {"city": "WILMINGTON", "state": "DE", "street": "4800 OLD CAPITOL TRL", "postcode": "19808"}}},
{"geometry": {"type": "Point", "coordinates": [-75.6536737791, 39.7192315785]}, "type": "Feature", "properties": {"collection_times": [{"days": "Mon-Fri", "time": "4:00pm"}, {"days": "Sat", "time": "1:45pm"}, {"days": "Sun", "time": "Closed"}], "id": "1980800034", "name": "USPS COLLECTION BOX - BLUE BOX", "address": {"city": "WILMINGTON", "state": "DE", "street": "1941 LIMESTONE RD", "postcode": "19808"}}},
{"geometry": {"type": "Point", "coordinates": [-75.6723325908, 39.7345508971]}, "type": "Feature", "properties": {"collection_times": [{"days": "Mon-Sat", "time": "12:00pm"}, {"days": "Sun", "time": "Closed"}], "id": "1980800035", "name": "USPS COLLECTION BOX - BLUE BOX", "address": {"city": "WILMINGTON", "state": "DE", "street": "1406 ARUNDEL DR", "postcode": "19808"}}},
{"geometry": {"type": "Point", "coordinates": [-75.6966210784, 39.736812271]}, "type": "Feature", "properties": {"collection_times": [{"days": "Mon-Sat", "time": "12:30pm"}, {"days": "Sun", "time": "Closed"}], "id": "1980800036", "name": "USPS COLLECTION BOX - BLUE BOX", "address": {"city": "WILMINGTON", "state": "DE", "street": "3604 RUSTIC LN", "postcode": "19808"}}},
{"geometry": {"type": "Point", "coordinates": [-75.6659462973, 39.7310257789]}, "type": "Feature", "properties": {"collection_times": [{"days": "Mon-Sat", "time": "11:45am"}, {"days": "Sun", "time": "Closed"}], "id": "1980800038", "name": "USPS COLLECTION BOX - BLUE BOX", "address": {"city": "WILMINGTON", "state": "DE", "street": "1323 MCKENNANS CHURCH RD", "postcode": "19808"}}},
{"geometry": {"type": "Point", "coordinates": [-75.6693816855, 39.7288460556]}, "type": "Feature", "properties": {"collection_times": [{"days": "Mon-Fri", "time": "12:45pm"}, {"days": "Sat", "time": "1:00pm"}, {"days": "Sun", "time": "Closed"}], "id": "1980800039", "name": "USPS COLLECTION BOX - BLUE BOX", "address": {"city": "WILMINGTON", "state": "DE", "street": "1 THUNDER HOLLOW RD", "postcode": "19808"}}},
{"geometry": {"type": "Point", "coordinates": [-75.6692699101, 39.7193368618]}, "type": "Feature", "properties": {"collection_times": [{"days": "Mon-Fri", "time": "1:15pm"}, {"days": "Sat", "time": "1:30pm"}, {"days": "Sun", "time": "Closed"}], "id": "1980800041", "name": "USPS COLLECTION BOX - BLUE BOX", "address": {"city": "WILMINGTON", "state": "DE", "street": "5073 E WOODMILL DR", "postcode": "19808"}}},
{"geometry": {"type": "Point", "coordinates": [-75.6950785258, 39.7434585781]}, "type": "Feature", "properties": {"collection_times": [{"days": "Mon-Fri", "time": "3:45pm"}, {"days": "Sat", "time": "12:15pm"}, {"days": "Sun", "time": "Closed"}], "id": "1980800043", "name": "USPS COLLECTION BOX - BLUE BOX", "address": {"city": "WILMINGTON", "state": "DE", "street": "5301 LIMESTONE RD", "postcode": "19808"}}},
{"geometry": {"type": "Point", "coordinates": [-75.6899160929, 39.7347425364]}, "type": "Feature", "properties": {"collection_times": [{"days": "Mon-Fri", "time": "4:00pm"}, {"days": "Sat-Sun", "time": "Closed"}], "id": "1980800045", "name": "USPS COLLECTION BOX - BLUE BOX", "address": {"city": "WILMINGTON", "state": "DE", "street": "4550 NEW LINDEN HILL RD", "postcode": "19808"}}},
{"geometry": {"type": "Point", "coordinates": [-75.7001664323, 39.7467921564]}, "type": "Feature", "properties": {"collection_times": [{"days": "Mon-Fri", "time": "4:00pm"}, {"days": "Sat", "time": "12:30pm"}, {"days": "Sun", "time": "Closed"}], "id": "1980800046", "name": "USPS COLLECTION BOX - BLUE BOX", "address": {"city": "WILMINGTON", "state": "DE", "street": "5349 LIMESTONE RD", "postcode": "19808"}}},
{"geometry": {"type": "Point", "coordinates": [-75.6642754573, 39.7369357423]}, "type": "Feature", "properties": {"collection_times": [{"days": "Mon-Fri", "time": "12:00pm"}, {"days": "Sat", "time": "11:45am"}, {"days": "Sun", "time": "Closed"}], "id": "1980800047", "name": "USPS COLLECTION BOX - BLUE BOX", "address": {"city": "WILMINGTON", "state": "DE", "street": "2702 PECKSNIFF RD", "postcode": "19808"}}},
{"geometry": {"type": "Point", "coordinates": [-75.6292492253, 39.7312185017]}, "type": "Feature", "properties": {"collection_times": [{"days": "Mon-Fri", "time": "5:00pm"}, {"days": "Sat", "time": "2:00pm"}, {"days": "Sun", "time": "Closed"}], "id": "1980800050", "name": "USPS COLLECTION BOX - BLUE BOX", "address": {"city": "WILMINGTON", "state": "DE", "street": "3434 OLD CAPITOL TRL", "postcode": "19808"}}},
{"geometry": {"type": "Point", "coordinates": [-75.6567991567, 39.7225509613]}, "type": "Feature", "properties": {"collection_times": [{"days": "Mon-Fri", "time": "4:15pm"}, {"days": "Sat", "time": "2:00pm"}, {"days": "Sun", "time": "Closed"}], "id": "1980800054", "name": "USPS COLLECTION BOX - BLUE BOX", "address": {"city": "WILMINGTON", "state": "DE", "street": "2055 LIMESTONE RD", "postcode": "19808"}}},
{"geometry": {"type": "Point", "coordinates": [-75.6746358119, 39.7160553336]}, "type": "Feature", "properties": {"collection_times": [{"days": "Mon-Fri", "time": "4:00pm"}, {"days": "Sat", "time": "1:30pm"}, {"days": "Sun", "time": "Closed"}], "id": "1980800055", "name": "USPS COLLECTION BOX - BLUE BOX", "address": {"city": "WILMINGTON", "state": "DE", "street": "2601 ANNAND DR", "postcode": "19808"}}},
{"geometry": {"type": "Point", "coordinates": [-75.6903265797, 39.7355221064]}, "type": "Feature", "properties": {"collection_times": [{"days": "Mon-Sat", "time": "12:30pm"}, {"days": "Sun", "time": "Closed"}], "id": "1980800056", "name": "USPS COLLECTION BOX - BLUE BOX", "address": {"city": "WILMINGTON", "state": "DE", "street": "4551 NEW LINDEN HILL RD", "postcode": "19808"}}},
{"geometry": {"type": "Point", "coordinates": [-75.650367903, 39.729335936]}, "type": "Feature", "properties": {"collection_times": [{"days": "Mon-Fri", "time": "1:00pm"}, {"days": "Sat", "time": "1:15pm"}, {"days": "Sun", "time": "Closed"}], "id": "1980800058", "name": "USPS COLLECTION BOX - BLUE BOX", "address": {"city": "WILMINGTON", "state": "DE", "street": "2315 FARRAND DR", "postcode": "19808"}}},
{"geometry": {"type": "Point", "coordinates": [-75.6943214321, 39.7284953301]}, "type": "Feature", "properties": {"collection_times": [{"days": "Mon-Sat", "time": "12:45pm"}, {"days": "Sun", "time": "Closed"}], "id": "1980800059", "name": "USPS COLLECTION BOX - BLUE BOX", "address": {"city": "WILMINGTON", "state": "DE", "street": "3204 SKYLINE DR", "postcode": "19808"}}},
{"geometry": {"type": "Point", "coordinates": [-75.6292492253, 39.7312185017]}, "type": "Feature", "properties": {"collection_times": [{"days": "Mon-Fri", "time": "5:00pm"}, {"days": "Sat", "time": "2:00pm"}, {"days": "Sun", "time": "Closed"}], "id": "1980800069", "name": "USPS COLLECTION BOX - BLUE BOX", "address": {"city": "WILMINGTON", "state": "DE", "street": "3434 OLD CAPITOL TRL", "postcode": "19808"}}},
{"geometry": {"type": "Point", "coordinates": [-75.6292492253, 39.7312185017]}, "type": "Feature", "properties": {"collection_times": [{"days": "Mon-Fri", "time": "5:00pm"}, {"days": "Sat", "time": "2:00pm"}, {"days": "Sun", "time": "Closed"}], "id": "1980800070", "name": "USPS COLLECTION BOX - BLUE BOX", "address": {"city": "WILMINGTON", "state": "DE", "street": "3434 OLD CAPITOL TRL", "postcode": "19808"}}},
{"geometry": {"type": "Point", "coordinates": [-75.6292492253, 39.7312185017]}, "type": "Feature", "properties": {"collection_times": [{"days": "Mon-Fri", "time": "5:00pm"}, {"days": "Sat", "time": "2:00pm"}, {"days": "Sun", "time": "Closed"}], "id": "1980800078", "name": "USPS COLLECTION BOX - PO LOBBY", "address": {"city": "WILMINGTON", "state": "DE", "street": "3434 OLD CAPITOL TRL", "postcode": "19808"}}},
{"geometry": {"type": "Point", "coordinates": [-75.6292492253, 39.7312185017]}, "type": "Feature", "properties": {"collection_times": [{"days": "Mon-Fri", "time": "5:00pm"}, {"days": "Sat", "time": "2:00pm"}, {"days": "Sun", "time": "Closed"}], "id": "1980800079", "name": "USPS COLLECTION BOX - PO LOBBY", "address": {"city": "WILMINGTON", "state": "DE", "street": "3434 OLD CAPITOL TRL", "postcode": "19808"}}},
{"geometry": {"type": "Point", "coordinates": [-75.6733074983, 39.7154201721]}, "type": "Feature", "properties": {"collection_times": [{"days": "Mon-Fri", "time": "4:00pm"}, {"days": "Sat-Sun", "time": "Closed"}], "id": "1980800080", "name": "USPS COLLECTION BOX - BLUE BOX", "address": {"city": "WILMINGTON", "state": "DE", "street": "5570 KIRKWOOD HWY", "postcode": "19808"}}},
{"geometry": {"type": "Point", "coordinates": [-75.4997258653, 39.7709458126]}, "type": "Feature", "properties": {"collection_times": [{"days": "Mon-Fri", "time": "3:45pm"}, {"days": "Sat", "time": "1:15pm"}, {"days": "Sun", "time": "Closed"}], "id": "1980900005", "name": "USPS COLLECTION BOX - BLUE BOX", "address": {"city": "WILMINGTON", "state": "DE", "street": "729 PHILADELPHIA PIKE", "postcode": "19809"}}},
{"geometry": {"type": "Point", "coordinates": [-75.4863359528, 39.7864224647]}, "type": "Feature", "properties": {"collection_times": [{"days": "Mon-Fri", "time": "4:00pm"}, {"days": "Sat", "time": "1:00pm"}, {"days": "Sun", "time": "Closed"}], "id": "1980900006", "name": "USPS COLLECTION BOX - BLUE BOX", "address": {"city": "WILMINGTON", "state": "DE", "street": "501 SILVERSIDE RD", "postcode": "19809"}}},
{"geometry": {"type": "Point", "coordinates": [-75.4853895144, 39.7940906438]}, "type": "Feature", "properties": {"collection_times": [{"days": "Mon-Fri", "time": "1:15pm"}, {"days": "Sat", "time": "1:00pm"}, {"days": "Sun", "time": "Closed"}], "id": "1980900008", "name": "USPS COLLECTION BOX - BLUE BOX", "address": {"city": "WILMINGTON", "state": "DE", "street": "800 CLOISTER RD", "postcode": "19809"}}},
{"geometry": {"type": "Point", "coordinates": [-75.4839463757, 39.7810435503]}, "type": "Feature", "properties": {"collection_times": [{"days": "Mon-Fri", "time": "1:30pm"}, {"days": "Sat", "time": "1:00pm"}, {"days": "Sun", "time": "Closed"}], "id": "1980900017", "name": "USPS COLLECTION BOX - BLUE BOX", "address": {"city": "WILMINGTON", "state": "DE", "street": "1200 PHILADELPHIA PIKE", "postcode": "19809"}}},
{"geometry": {"type": "Point", "coordinates": [-75.4966690993, 39.7725842107]}, "type": "Feature", "properties": {"collection_times": [{"days": "Mon-Fri", "time": "1:30pm"}, {"days": "Sat", "time": "1:15pm"}, {"days": "Sun", "time": "Closed"}], "id": "1980900019", "name": "USPS COLLECTION BOX - BLUE BOX", "address": {"city": "WILMINGTON", "state": "DE", "street": "814 PHILADELPHIA PIKE", "postcode": "19809"}}},
{"geometry": {"type": "Point", "coordinates": [-75.4982081289, 39.7688129376]}, "type": "Feature", "properties": {"collection_times": [{"days": "Mon-Fri", "time": "1:30pm"}, {"days": "Sat", "time": "1:15pm"}, {"days": "Sun", "time": "Closed"}], "id": "1980900020", "name": "USPS COLLECTION BOX - BLUE BOX", "address": {"city": "WILMINGTON", "state": "DE", "street": "1201 TALLEY RD", "postcode": "19809"}}},
{"geometry": {"type": "Point", "coordinates": [-75.4976142835, 39.7554407694]}, "type": "Feature", "properties": {"collection_times": [{"days": "Mon-Fri", "time": "6:00pm"}, {"days": "Sat", "time": "5:00pm"}, {"days": "Sun", "time": "Closed"}], "id": "1980900028", "name": "USPS COLLECTION BOX - BLUE BOX", "address": {"city": "WILMINGTON", "state": "DE", "street": "4901 GOVERNOR PRINTZ BLVD", "postcode": "19809"}}},
{"geometry": {"type": "Point", "coordinates": [-75.4858390717, 39.7858324615]}, "type": "Feature", "properties": {"collection_times": [{"days": "Mon-Fri", "time": "4:00pm"}, {"days": "Sat", "time": "1:00pm"}, {"days": "Sun", "time": "Closed"}], "id": "1980900029", "name": "USPS COLLECTION BOX - BLUE BOX", "address": {"city": "WILMINGTON", "state": "DE", "street": "409 SILVERSIDE RD", "postcode": "19809"}}},
{"geometry": {"type": "Point", "coordinates": [-75.49700914, 39.755666869]}, "type": "Feature", "properties": {"collection_times": [{"days": "Mon-Fri", "time": "6:00pm"}, {"days": "Sat", "time": "5:00pm"}, {"days": "Sun", "time": "Closed"}], "id": "1980900030", "name": "USPS COLLECTION BOX - BLUE BOX", "address": {"city": "WILMINGTON", "state": "DE", "street": "4901 GOVERNOR PRINTZ BLVD", "postcode": "19809"}}},
{"geometry": {"type": "Point", "coordinates": [-75.4976142835, 39.7554407694]}, "type": "Feature", "properties": {"collection_times": [{"days": "Mon-Fri", "time": "6:00pm"}, {"days": "Sat", "time": "5:00pm"}, {"days": "Sun", "time": "Closed"}], "id": "1980900031", "name": "USPS COLLECTION BOX - PO LOBBY", "address": {"city": "WILMINGTON", "state": "DE", "street": "4901 GOVERNOR PRINTZ BLVD", "postcode": "19809"}}},
{"geometry": {"type": "Point", "coordinates": [-75.4976142835, 39.7554407694]}, "type": "Feature", "properties": {"collection_times": [{"days": "Mon-Fri", "time": "6:00pm"}, {"days": "Sat", "time": "5:00pm"}, {"days": "Sun", "time": "Closed"}], "id": "1980900032", "name": "USPS COLLECTION BOX - PO LOBBY", "address": {"city": "WILMINGTON", "state": "DE", "street": "4901 GOVERNOR PRINTZ BLVD", "postcode": "19809"}}},
{"geometry": {"type": "Point", "coordinates": [-75.503770402, 39.8036972145]}, "type": "Feature", "properties": {"collection_times": [{"days": "Mon-Fri", "time": "5:00pm"}, {"days": "Sat", "time": "12:45pm"}, {"days": "Sun", "time": "Closed"}], "id": "1981000002", "name": "USPS COLLECTION BOX - BLUE BOX", "address": {"city": "WILMINGTON", "state": "DE", "street": "1812 MARSH RD", "postcode": "19810"}}},
{"geometry": {"type": "Point", "coordinates": [-75.5052748619, 39.8003494606]}, "type": "Feature", "properties": {"collection_times": [{"days": "Mon-Fri", "time": "5:00pm"}, {"days": "Sat", "time": "12:30pm"}, {"days": "Sun", "time": "Closed"}], "id": "1981000003", "name": "USPS COLLECTION BOX - BLUE BOX", "address": {"city": "WILMINGTON", "state": "DE", "street": "1716 MARSH RD", "postcode": "19810"}}},
{"geometry": {"type": "Point", "coordinates": [-75.5085789521, 39.8053451682]}, "type": "Feature", "properties": {"collection_times": [{"days": "Mon-Fri", "time": "1:15pm"}, {"days": "Sat", "time": "12:30pm"}, {"days": "Sun", "time": "Closed"}], "id": "1981000004", "name": "USPS COLLECTION BOX - BLUE BOX", "address": {"city": "WILMINGTON", "state": "DE", "street": "1800 FLORAL DR", "postcode": "19810"}}},
{"geometry": {"type": "Point", "coordinates": [-75.5245680036, 39.8121553711]}, "type": "Feature", "properties": {"collection_times": [{"days": "Mon-Fri", "time": "12:45pm"}, {"days": "Sat", "time": "12:00pm"}, {"days": "Sun", "time": "Closed"}], "id": "1981000005", "name": "USPS COLLECTION BOX - BLUE BOX", "address": {"city": "WILMINGTON", "state": "DE", "street": "2401 KINGMAN DR", "postcode": "19810"}}},
{"geometry": {"type": "Point", "coordinates": [-75.51017021, 39.8181304968]}, "type": "Feature", "properties": {"collection_times": [{"days": "Mon-Fri", "time": "12:30pm"}, {"days": "Sat", "time": "11:45am"}, {"days": "Sun", "time": "Closed"}], "id": "1981000007", "name": "USPS COLLECTION BOX - BLUE BOX", "address": {"city": "WILMINGTON", "state": "DE", "street": "2600 MAJESTIC DR", "postcode": "19810"}}},
{"geometry": {"type": "Point", "coordinates": [-75.4983347056, 39.8103146869]}, "type": "Feature", "properties": {"collection_times": [{"days": "Mon-Fri", "time": "4:30pm"}, {"days": "Sat", "time": "11:45am"}, {"days": "Sun", "time": "Closed"}], "id": "1981000010", "name": "USPS COLLECTION BOX - BLUE BOX", "address": {"city": "WILMINGTON", "state": "DE", "street": "2101 COVENTRY DR", "postcode": "19810"}}},
{"geometry": {"type": "Point", "coordinates": [-75.5002905975, 39.8246137114]}, "type": "Feature", "properties": {"collection_times": [{"days": "Mon-Fri", "time": "5:00pm"}, {"days": "Sat", "time": "11:30am"}, {"days": "Sun", "time": "Closed"}], "id": "1981000011", "name": "USPS COLLECTION BOX - BLUE BOX", "address": {"city": "WILMINGTON", "state": "DE", "street": "2072 NAAMANS RD", "postcode": "19810"}}},
{"geometry": {"type": "Point", "coordinates": [-75.5182888021, 39.8280182153]}, "type": "Feature", "properties": {"collection_times": [{"days": "Mon-Fri", "time": "12:00pm"}, {"days": "Sat", "time": "11:15am"}, {"days": "Sun", "time": "Closed"}], "id": "1981000012", "name": "USPS COLLECTION BOX - BLUE BOX", "address": {"city": "WILMINGTON", "state": "DE", "street": "2500 DARTMOUTH WOODS RD", "postcode": "19810"}}},
{"geometry": {"type": "Point", "coordinates": [-75.4655378919, 39.8216972757]}, "type": "Feature", "properties": {"collection_times": [{"days": "Mon-Fri", "time": "12:15pm"}, {"days": "Sat", "time": "11:30am"}, {"days": "Sun", "time": "Closed"}], "id": "1981000015", "name": "USPS COLLECTION BOX - BLUE BOX", "address": {"city": "WILMINGTON", "state": "DE", "street": "2601 CARPENTER STATION RD", "postcode": "19810"}}},
{"geometry": {"type": "Point", "coordinates": [-75.5382631195, 39.8294419504]}, "type": "Feature", "properties": {"collection_times": [{"days": "Mon-Fri", "time": "12:00pm"}, {"days": "Sat", "time": "11:15am"}, {"days": "Sun", "time": "Closed"}], "id": "1981000017", "name": "USPS COLLECTION BOX - BLUE BOX", "address": {"city": "WILMINGTON", "state": "DE", "street": "3120 NAAMANS RD", "postcode": "19810"}}},
{"geometry": {"type": "Point", "coordinates": [-75.5434574923, 39.8089176124]}, "type": "Feature", "properties": {"collection_times": [{"days": "Mon-Fri", "time": "4:00pm"}, {"days": "Sat", "time": "10:45am"}, {"days": "Sun", "time": "Closed"}], "id": "1981000019", "name": "USPS COLLECTION BOX - BLUE BOX", "address": {"city": "WILMINGTON", "state": "DE", "street": "3505 SILVERSIDE RD", "postcode": "19810"}}},
{"geometry": {"type": "Point", "coordinates": [-75.5476973079, 39.8092245419]}, "type": "Feature", "properties": {"collection_times": [{"days": "Mon-Fri", "time": "11:45am"}, {"days": "Sat", "time": "11:00am"}, {"days": "Sun", "time": "Closed"}], "id": "1981000020", "name": "USPS COLLECTION BOX - BLUE BOX", "address": {"city": "WILMINGTON", "state": "DE", "street": "3629 SILVERSIDE RD", "postcode": "19810"}}},
{"geometry": {"type": "Point", "coordinates": [-75.5197793857, 39.8109937054]}, "type": "Feature", "properties": {"collection_times": [{"days": "Mon-Fri", "time": "5:00pm"}, {"days": "Sat", "time": "12:00pm"}, {"days": "Sun", "time": "Closed"}], "id": "1981000025", "name": "USPS COLLECTION BOX - BLUE BOX", "address": {"city": "WILMINGTON", "state": "DE", "street": "2700 SILVERSIDE RD", "postcode": "19810"}}},
{"geometry": {"type": "Point", "coordinates": [-75.5105475739, 39.813311122]}, "type": "Feature", "properties": {"collection_times": [{"days": "Mon-Fri", "time": "5:00pm"}, {"days": "Sat", "time": "11:45am"}, {"days": "Sun", "time": "Closed"}], "id": "1981000032", "name": "USPS COLLECTION BOX - BLUE BOX", "address": {"city": "WILMINGTON", "state": "DE", "street": "2004 FOULK RD", "postcode": "19810"}}},
{"geometry": {"type": "Point", "coordinates": [-75.5434574923, 39.8089176124]}, "type": "Feature", "properties": {"collection_times": [{"days": "Mon-Fri", "time": "4:00pm"}, {"days": "Sat", "time": "10:45am"}, {"days": "Sun", "time": "Closed"}], "id": "1981000034", "name": "USPS COLLECTION BOX - BLUE BOX", "address": {"city": "WILMINGTON", "state": "DE", "street": "3505 SILVERSIDE RD", "postcode": "19810"}}},
{"geometry": {"type": "Point", "coordinates": [-75.5434574923, 39.8089176124]}, "type": "Feature", "properties": {"collection_times": [{"days": "Mon-Fri", "time": "4:00pm"}, {"days": "Sat", "time": "10:45am"}, {"days": "Sun", "time": "Closed"}], "id": "1981000035", "name": "USPS COLLECTION BOX - BLUE BOX", "address": {"city": "WILMINGTON", "state": "DE", "street": "3505 SILVERSIDE RD", "postcode": "19810"}}},
{"geometry": {"type": "Point", "coordinates": [-75.508378801, 39.8172243488]}, "type": "Feature", "properties": {"collection_times": [{"days": "Mon-Fri", "time": "5:00pm"}, {"days": "Sat", "time": "11:45am"}, {"days": "Sun", "time": "Closed"}], "id": "1981000037", "name": "USPS COLLECTION BOX - BLUE BOX", "address": {"city": "WILMINGTON", "state": "DE", "street": "2500 GRUBB RD", "postcode": "19810"}}},
{"geometry": {"type": "Point", "coordinates": [-75.5445020451, 39.8088691111]}, "type": "Feature", "properties": {"collection_times": [{"days": "Mon-Fri", "time": "11:30am"}, {"days": "Sat", "time": "10:45am"}, {"days": "Sun", "time": "Closed"}], "id": "1981000039", "name": "USPS COLLECTION BOX - BLUE BOX", "address": {"city": "WILMINGTON", "state": "DE", "street": "3512 SILVERSIDE RD", "postcode": "19810"}}},
{"geometry": {"type": "Point", "coordinates": [-75.5001808635, 39.8275529462]}, "type": "Feature", "properties": {"collection_times": [{"days": "Mon-Fri", "time": "12:30pm"}, {"days": "Sat", "time": "11:15am"}, {"days": "Sun", "time": "Closed"}], "id": "1981000041", "name": "USPS COLLECTION BOX - BLUE BOX", "address": {"city": "WILMINGTON", "state": "DE", "street": "2522 FOULK RD", "postcode": "19810"}}},
{"geometry": {"type": "Point", "coordinates": [-75.5518388774, 39.7481313723]}, "type": "Feature", "properties": {"collection_times": [{"days": "Mon-Sat", "time": "6:00pm"}, {"days": "Sun", "time": "Closed"}], "id": "1985000000", "name": "USPS COLLECTION BOX - EXPRESS", "address": {"city": "WILMINGTON", "state": "DE", "street": "147 QUIGLEY BLVD", "postcode": "19850"}}},
{"geometry": {"type": "Point", "coordinates": [-75.5466576569, 39.7456629118]}, "type": "Feature", "properties": {"collection_times": [{"days": "Mon-Fri", "time": "8:00pm"}, {"days": "Sat", "time": "6:00pm"}, {"days": "Sun", "time": "Closed"}], "id": "1985000001", "name": "USPS COLLECTION BOX - BLUE BOX", "address": {"city": "WILMINGTON", "state": "DE", "street": "147 QUIGLEY BLVD", "postcode": "19850"}}},
{"geometry": {"type": "Point", "coordinates": [-75.5466576569, 39.7456629118]}, "type": "Feature", "properties": {"collection_times": [{"days": "Mon-Fri", "time": "8:00pm"}, {"days": "Sat", "time": "6:00pm"}, {"days": "Sun", "time": "Closed"}], "id": "1985000002", "name": "USPS COLLECTION BOX - PO LOBBY", "address": {"city": "WILMINGTON", "state": "DE", "street": "147 QUIGLEY BLVD", "postcode": "19850"}}},
{"geometry": {"type": "Point", "coordinates": [-75.5466576569, 39.7456629118]}, "type": "Feature", "properties": {"collection_times": [{"days": "Mon-Fri", "time": "8:00pm"}, {"days": "Sat", "time": "6:00pm"}, {"days": "Sun", "time": "Closed"}], "id": "1985000003", "name": "USPS COLLECTION BOX - BLUE BOX", "address": {"city": "WILMINGTON", "state": "DE", "street": "147 QUIGLEY BLVD", "postcode": "19850"}}},
{"geometry": {"type": "Point", "coordinates": [-75.5466576569, 39.7456629118]}, "type": "Feature", "properties": {"collection_times": [{"days": "Mon-Fri", "time": "8:00pm"}, {"days": "Sat", "time": "6:00pm"}, {"days": "Sun", "time": "Closed"}], "id": "1985000166", "name": "USPS COLLECTION BOX - APC", "address": {"city": "WILMINGTON", "state": "DE", "street": "147 QUIGLEY BLVD", "postcode": "19850"}}}
]}
