{"type": "FeatureCollection", "features": [
{"geometry": {"type": "Point", "coordinates": [-75.5223014542, 39.1506577304]}, "type": "Feature", "properties": {"collection_times": [{"days": "Mon-Fri", "time": "2:30pm"}, {"days": "Sat", "time": "2:15pm"}, {"days": "Sun", "time": "Closed"}], "id": "1990100007", "name": "USPS COLLECTION BOX - BLUE BOX", "address": {"city": "DOVER", "state": "DE", "street": "640 S STATE ST", "postcode": "19901"}}},
{"geometry": {"type": "Point", "coordinates": [-75.5204973949, 39.1757931231]}, "type": "Feature", "properties": {"collection_times": [{"days": "Mon-Fri", "time": "10:30am"}, {"days": "Sat", "time": "12:00pm"}, {"days": "Sun", "time": "Closed"}], "id": "1990100022", "name": "USPS COLLECTION BOX - BLUE BOX", "address": {"city": "DOVER", "state": "DE", "street": "600 BUCKSON DR", "postcode": "19901"}}},
{"geometry": {"type": "Point", "coordinates": [-75.5208661953, 39.1588339513]}, "type": "Feature", "properties": {"collection_times": [{"days": "Mon-Fri", "time": "5:45pm"}, {"days": "Sat", "time": "2:29pm"}, {"days": "Sun", "time": "Closed"}], "id": "1990100024", "name": "USPS COLLECTION BOX - BLUE BOX", "address": {"city": "DOVER", "state": "DE", "street": "10 E LOOCKERMAN ST", "postcode": "19901"}}},
{"geometry": {"type": "Point", "coordinates": [-75.5267292696, 39.1642073424]}, "type": "Feature", "properties": {"collection_times": [{"days": "Mon-Fri", "time": "5:45pm"}, {"days": "Sat", "time": "2:15pm"}, {"days": "Sun", "time": "Closed"}], "id": "1990100026", "name": "USPS COLLECTION BOX - BLUE BOX", "address": {"city": "DOVER", "state": "DE", "street": "200 S STATE ST", "postcode": "19901"}}},
{"geometry": {"type": "Point", "coordinates": [-75.5053006118, 39.151445037]}, "type": "Feature", "properties": {"collection_times": [{"days": "Mon-Fri", "time": "4:30pm"}, {"days": "Sat", "time": "2:30pm"}, {"days": "Sun", "time": "Closed"}], "id": "1990100031", "name": "USPS COLLECTION BOX - BLUE BOX", "address": {"city": "DOVER", "state": "DE", "street": "700 BAY RD", "postcode": "19901"}}},
{"geometry": {"type": "Point", "coordinates": [-75.522795931, 39.1417867211]}, "type": "Feature", "properties": {"collection_times": [{"days": "Mon-Fri", "time": "2:30pm"}, {"days": "Sat", "time": "2:15pm"}, {"days": "Sun", "time": "Closed"}], "id": "1990100037", "name": "USPS COLLECTION BOX - BLUE BOX", "address": {"city": "DOVER", "state": "DE", "street": "1255 S STATE ST", "postcode": "19901"}}},
{"geometry": {"type": "Point", "coordinates": [-75.52530617, 39.1604242396]}, "type": "Feature", "properties": {"collection_times": [{"days": "Mon-Fri", "time": "10:15am"}, {"days": "Sat", "time": "11:45am"}, {"days": "Sun", "time": "Closed"}], "id": "1990100048", "name": "USPS COLLECTION BOX - BLUE BOX", "address": {"city": "DOVER", "state": "DE", "street": "45 S STATE ST", "postcode": "19901"}}},
{"geometry": {"type": "Point", "coordinates": [-75.5166965946, 39.1177880326]}, "type": "Feature", "properties": {"collection_times": [{"days": "Mon-Fri", "time": "2:00pm"}, {"days": "Sat", "time": "1:45pm"}, {"days": "Sun", "time": "Closed"}], "id": "1990100056", "name": "USPS COLLECTION BOX - BLUE BOX", "address": {"city": "DOVER", "state": "DE", "street": "10 LEBANON RD", "postcode": "19901"}}},
{"geometry": {"type": "Point", "coordinates": [-75.5032617296, 39.1494783203]}, "type": "Feature", "properties": {"collection_times": [{"days": "Mon-Fri", "time": "5:15pm"}, {"days": "Sat", "time": "2:30pm"}, {"days": "Sun", "time": "Closed"}], "id": "1990100062", "name": "USPS COLLECTION BOX - BLUE BOX", "address": {"city": "DOVER", "state": "DE", "street": "655 S BAY RD", "postcode": "19901"}}},
{"geometry": {"type": "Point", "coordinates": [-75.5367329801, 39.1866837841]}, "type": "Feature", "properties": {"collection_times": [{"days": "Mon-Fri", "time": "10:30am"}, {"days": "Sat", "time": "12:15pm"}, {"days": "Sun", "time": "Closed"}], "id": "1990100066", "name": "USPS COLLECTION BOX - BLUE BOX", "address": {"city": "DOVER", "state": "DE", "street": "1051 N DUPONT HWY", "postcode": "19901"}}},
{"geometry": {"type": "Point", "coordinates": [-75.5445772577, 39.1922486765]}, "type": "Feature", "properties": {"collection_times": [{"days": "Mon-Fri", "time": "10:45am"}, {"days": "Sat", "time": "12:15pm"}, {"days": "Sun", "time": "Closed"}], "id": "1990100067", "name": "USPS COLLECTION BOX - BLUE BOX", "address": {"city": "DOVER", "state": "DE", "street": "1699 N DUPONT HWY", "postcode": "19901"}}},
{"geometry": {"type": "Point", "coordinates": [-75.5078009912, 39.165370306]}, "type": "Feature", "properties": {"collection_times": [{"days": "Mon-Fri", "time": "6:00pm"}, {"days": "Sat", "time": "2:45pm"}, {"days": "Sun", "time": "Closed"}], "id": "1990100071", "name": "USPS COLLECTION BOX - BLUE BOX", "address": {"city": "DOVER", "state": "DE", "street": "55 LOOCKERMAN PLZ", "postcode": "19901"}}},
{"geometry": {"type": "Point", "coordinates": [-75.5078009912, 39.165370306]}, "type": "Feature", "properties": {"collection_times": [{"days": "Mon-Fri", "time": "6:00pm"}, {"days": "Sat", "time": "2:45pm"}, {"days": "Sun", "time": "Closed"}], "id": "1990100084", "name": "USPS COLLECTION BOX - BLUE BOX", "address": {"city": "DOVER", "state": "DE", "street": "55 LOOCKERMAN PLZ", "postcode": "19901"}}},
{"geometry": {"type": "Point", "coordinates": [-75.5150366809, 39.1608517847]}, "type": "Feature", "properties": {"collection_times": [{"days": "Mon-Fri", "time": "6:00pm"}, {"days": "Sat", "time": "2:45pm"}, {"days": "Sun", "time": "Closed"}], "id": "1990100085", "name": "USPS COLLECTION BOX - BLUE BOX", "address": {"city": "DOVER", "state": "DE", "street": "55 LOOCKERMAN PLZ", "postcode": "19901"}}},
{"geometry": {"type": "Point", "coordinates": [-75.5078009912, 39.165370306]}, "type": "Feature", "properties": {"collection_times": [{"days": "Mon-Fri", "time": "6:00pm"}, {"days": "Sat", "time": "2:45pm"}, {"days": "Sun", "time": "Closed"}], "id": "1990100090", "name": "USPS COLLECTION BOX - APC", "address": {"city": "DOVER", "state": "DE", "street": "55 LOOCKERMAN PLZ", "postcode": "19901"}}},
{"geometry": {"type": "Point", "coordinates": [-75.5078009912, 39.165370306]}, "type": "Feature", "properties": {"collection_times": [{"days": "Mon-Fri", "time": "6:00pm"}, {"days": "Sat", "time": "2:45pm"}, {"days": "Sun", "time": "Closed"}], "id": "1990100092", "name": "USPS COLLECTION BOX - PO LOBBY", "address": {"city": "DOVER", "state": "DE", "street": "55 LOOCKERMAN PLZ", "postcode": "19901"}}},
{"geometry": {"type": "Point", "coordinates": [-75.5270500077, 39.1580767248]}, "type": "Feature", "properties": {"collection_times": [{"days": "Mon-Fri", "time": "10:00am"}, {"days": "Sat", "time": "2:15pm"}, {"days": "Sun", "time": "Closed"}], "id": "1990100095", "name": "USPS COLLECTION BOX - BLUE BOX", "address": {"city": "DOVER", "state": "DE", "street": "155 S GOVERNOR'S AVE", "postcode": "19901"}}},
{"geometry": {"type": "Point", "coordinates": [-75.4659002368, 39.121001994]}, "type": "Feature", "properties": {"collection_times": [{"days": "Mon-Fri", "time": "5:00pm"}, {"days": "Sat", "time": "2:00pm"}, {"days": "Sun", "time": "Closed"}], "id": "1990200001", "name": "USPS COLLECTION BOX - BLUE BOX", "address": {"city": "DOVER", "state": "DE", "street": "442 13TH ST", "postcode": "19902"}}},
{"geometry": {"type": "Point", "coordinates": [-75.4659002368, 39.121001994]}, "type": "Feature", "properties": {"collection_times": [{"days": "Mon-Fri", "time": "5:00pm"}, {"days": "Sat-Sun", "time": "Closed"}], "id": "1990200004", "name": "USPS COLLECTION BOX - PO LOBBY", "address": {"city": "DOVER", "state": "DE", "street": "442 13TH ST", "postcode": "19902"}}},
{"geometry": {"type": "Point", "coordinates": [-75.546860867, 39.1693514671]}, "type": "Feature", "properties": {"collection_times": [{"days": "Mon-Fri", "time": "12:00pm"}, {"days": "Sat", "time": "12:30pm"}, {"days": "Sun", "time": "Closed"}], "id": "1990400001", "name": "USPS COLLECTION BOX - BLUE BOX", "address": {"city": "DOVER", "state": "DE", "street": "1000 WALKER RD", "postcode": "19904"}}},
{"geometry": {"type": "Point", "coordinates": [-75.5276235866, 39.1558828602]}, "type": "Feature", "properties": {"collection_times": [{"days": "Mon-Fri", "time": "1:30pm"}, {"days": "Sat", "time": "1:15pm"}, {"days": "Sun", "time": "Closed"}], "id": "1990400002", "name": "USPS COLLECTION BOX - BLUE BOX", "address": {"city": "DOVER", "state": "DE", "street": "300 S NEW ST", "postcode": "19904"}}},
{"geometry": {"type": "Point", "coordinates": [-75.5252233628, 39.1467870887]}, "type": "Feature", "properties": {"collection_times": [{"days": "Mon-Fri", "time": "1:30pm"}, {"days": "Sat", "time": "1:15pm"}, {"days": "Sun", "time": "Closed"}], "id": "1990400003", "name": "USPS COLLECTION BOX - BLUE BOX", "address": {"city": "DOVER", "state": "DE", "street": "870 S GOVERNORS AVE", "postcode": "19904"}}},
{"geometry": {"type": "Point", "coordinates": [-75.524007281, 39.1469278608]}, "type": "Feature", "properties": {"collection_times": [{"days": "Mon-Fri", "time": "2:30pm"}, {"days": "Sat", "time": "1:15pm"}, {"days": "Sun", "time": "Closed"}], "id": "1990400004", "name": "USPS COLLECTION BOX - BLUE BOX", "address": {"city": "DOVER", "state": "DE", "street": "1001 S BRADFORD ST", "postcode": "19904"}}},
{"geometry": {"type": "Point", "coordinates": [-75.5957386752, 39.1776288015]}, "type": "Feature", "properties": {"collection_times": [{"days": "Mon-Fri", "time": "1:45pm"}, {"days": "Sat", "time": "1:30pm"}, {"days": "Sun", "time": "Closed"}], "id": "1990400005", "name": "USPS COLLECTION BOX - BLUE BOX", "address": {"city": "DOVER", "state": "DE", "street": "564 FIDDLERS GRN", "postcode": "19904"}}},
{"geometry": {"type": "Point", "coordinates": [-75.5549566265, 39.1602557715]}, "type": "Feature", "properties": {"collection_times": [{"days": "Mon-Fri", "time": "5:30pm"}, {"days": "Sat", "time": "12:45pm"}, {"days": "Sun", "time": "Closed"}], "id": "1990400006", "name": "USPS COLLECTION BOX - BLUE BOX", "address": {"city": "DOVER", "state": "DE", "street": "55 GREENTREE DR", "postcode": "19904"}}},
{"geometry": {"type": "Point", "coordinates": [-75.5353766996, 39.1327642931]}, "type": "Feature", "properties": {"collection_times": [{"days": "Mon-Fri", "time": "1:45pm"}, {"days": "Sat", "time": "1:30pm"}, {"days": "Sun", "time": "Closed"}], "id": "1990400009", "name": "USPS COLLECTION BOX - BLUE BOX", "address": {"city": "DOVER", "state": "DE", "street": "255 WEBBS LN", "postcode": "19904"}}},
{"geometry": {"type": "Point", "coordinates": [-75.5534440319, 39.156290981]}, "type": "Feature", "properties": {"collection_times": [{"days": "Mon-Fri", "time": "1:15pm"}, {"days": "Sat", "time": "12:45pm"}, {"days": "Sun", "time": "Closed"}], "id": "1990400010", "name": "USPS COLLECTION BOX - BLUE BOX", "address": {"city": "DOVER", "state": "DE", "street": "1300 S FARMVIEW DR", "postcode": "19904"}}},
{"geometry": {"type": "Point", "coordinates": [-75.5364236183, 39.1723319046]}, "type": "Feature", "properties": {"collection_times": [{"days": "Mon-Fri", "time": "5:30pm"}, {"days": "Sat", "time": "12:30pm"}, {"days": "Sun", "time": "Closed"}], "id": "1990400014", "name": "USPS COLLECTION BOX - BLUE BOX", "address": {"city": "DOVER", "state": "DE", "street": "801 SILVER LAKE BLVD", "postcode": "19904"}}},
{"geometry": {"type": "Point", "coordinates": [-75.5627030517, 39.1507298909]}, "type": "Feature", "properties": {"collection_times": [{"days": "Mon-Fri", "time": "1:15pm"}, {"days": "Sat", "time": "1:00pm"}, {"days": "Sun", "time": "Closed"}], "id": "1990400015", "name": "USPS COLLECTION BOX - BLUE BOX", "address": {"city": "DOVER", "state": "DE", "street": "2 WESTOVER DR", "postcode": "19904"}}},
{"geometry": {"type": "Point", "coordinates": [-75.543437382, 39.1700854655]}, "type": "Feature", "properties": {"collection_times": [{"days": "Mon-Fri", "time": "12:00pm"}, {"days": "Sat", "time": "12:30pm"}, {"days": "Sun", "time": "Closed"}], "id": "1990400016", "name": "USPS COLLECTION BOX - BLUE BOX", "address": {"city": "DOVER", "state": "DE", "street": "830 WALKER RD", "postcode": "19904"}}},
{"geometry": {"type": "Point", "coordinates": [-75.5571076558, 39.1590425435]}, "type": "Feature", "properties": {"collection_times": [{"days": "Mon-Fri", "time": "1:15pm"}, {"days": "Sat", "time": "1:00pm"}, {"days": "Sun", "time": "Closed"}], "id": "1990400018", "name": "USPS COLLECTION BOX - BLUE BOX", "address": {"city": "DOVER", "state": "DE", "street": "1404 FORREST AVE", "postcode": "19904"}}},
{"geometry": {"type": "Point", "coordinates": [-75.5473139385, 39.1523481788]}, "type": "Feature", "properties": {"collection_times": [{"days": "Mon-Fri", "time": "1:30pm"}, {"days": "Sat", "time": "1:00pm"}, {"days": "Sun", "time": "Closed"}], "id": "1990400019", "name": "USPS COLLECTION BOX - BLUE BOX", "address": {"city": "DOVER", "state": "DE", "street": "100 ENTERPRISE PL", "postcode": "19904"}}},
{"geometry": {"type": "Point", "coordinates": [-75.5957386752, 39.1776288015]}, "type": "Feature", "properties": {"collection_times": [{"days": "Mon-Fri", "time": "5:45pm"}, {"days": "Sat", "time": "1:00pm"}, {"days": "Sun", "time": "Closed"}], "id": "1990400020", "name": "USPS COLLECTION BOX - BLUE BOX", "address": {"city": "DOVER", "state": "DE", "street": "200 BANNING ST", "postcode": "19904"}}},
{"geometry": {"type": "Point", "coordinates": [-75.0691289727, 38.5454036243]}, "type": "Feature", "properties": {"collection_times": [{"days": "Mon-Sat", "time": "11:00am"}, {"days": "Sun", "time": "Closed"}], "id": "1993000002", "name": "USPS COLLECTION BOX - BLUE BOX", "address": {"city": "BETHANY BEACH", "state": "DE", "street": "34444 COASTAL HWY UNIT 1", "postcode": "19930"}}},
{"geometry": {"type": "Point", "coordinates": [-75.0691289727, 38.5454036243]}, "type": "Feature", "properties": {"collection_times": [{"days": "Mon-Sat", "time": "10:00am"}, {"days": "Sun", "time": "Closed"}], "id": "1993000004", "name": "USPS COLLECTION BOX - BLUE BOX", "address": {"city": "BETHANY BEACH", "state": "DE", "street": "2 S PENNSYLVANIA AVE", "postcode": "19930"}}},
{"geometry": {"type": "Point", "coordinates": [-75.0571129963, 38.535691573]}, "type": "Feature", "properties": {"collection_times": [{"days": "Mon-Fri", "time": "4:15pm"}, {"days": "Sat", "time": "1:00pm"}, {"days": "Sun", "time": "Closed"}], "id": "1993000006", "name": "USPS COLLECTION BOX - BLUE BOX", "address": {"city": "BETHANY BEACH", "state": "DE", "street": "14 PENNSYLVANIA AVE", "postcode": "19930"}}},
{"geometry": {"type": "Point", "coordinates": [-75.0571129963, 38.535691573]}, "type": "Feature", "properties": {"collection_times": [{"days": "Mon-Fri", "time": "4:15pm"}, {"days": "Sat", "time": "1:00pm"}, {"days": "Sun", "time": "Closed"}], "id": "1993000007", "name": "USPS COLLECTION BOX - BLUE BOX", "address": {"city": "BETHANY BEACH", "state": "DE", "street": "14 PENNSYLVANIA AVE", "postcode": "19930"}}},
{"geometry": {"type": "Point", "coordinates": [-75.0571129963, 38.535691573]}, "type": "Feature", "properties": {"collection_times": [{"days": "Mon-Fri", "time": "4:30pm"}, {"days": "Sat", "time": "12:00pm"}, {"days": "Sun", "time": "Closed"}], "id": "1993000009", "name": "USPS COLLECTION BOX - PO LOBBY", "address": {"city": "BETHANY BEACH", "state": "DE", "street": "14 PENNSYLVANIA AVE", "postcode": "19930"}}},
{"geometry": {"type": "Point", "coordinates": [-75.6197505818, 38.5701419142]}, "type": "Feature", "properties": {"collection_times": [{"days": "Mon-Fri", "time": "4:45pm"}, {"days": "Sat", "time": "12:00pm"}, {"days": "Sun", "time": "Closed"}], "id": "1993100000", "name": "USPS COLLECTION BOX - BLUE BOX", "address": {"city": "BETHEL", "state": "DE", "street": "7748 MAIN ST", "postcode": "19931"}}},
{"geometry": {"type": "Point", "coordinates": [-75.6197505818, 38.5701419142]}, "type": "Feature", "properties": {"collection_times": [{"days": "Mon-Fri", "time": "4:45pm"}, {"days": "Sat", "time": "12:00pm"}, {"days": "Sun", "time": "Closed"}], "id": "1993100001", "name": "USPS COLLECTION BOX - PO LOBBY", "address": {"city": "BETHEL", "state": "DE", "street": "7748 MAIN ST", "postcode": "19931"}}},
{"geometry": {"type": "Point", "coordinates": [-75.6019978132, 38.7410758296]}, "type": "Feature", "properties": {"collection_times": [{"days": "Mon-Fri", "time": "5:00pm"}, {"days": "Sat", "time": "1:00pm"}, {"days": "Sun", "time": "Closed"}], "id": "1993300000", "name": "USPS COLLECTION BOX - BLUE BOX", "address": {"city": "BRIDGEVILLE", "state": "DE", "street": "300 WALNUT ST", "postcode": "19933"}}},
{"geometry": {"type": "Point", "coordinates": [-75.6019978132, 38.7410758296]}, "type": "Feature", "properties": {"collection_times": [{"days": "Mon-Fri", "time": "5:00pm"}, {"days": "Sat", "time": "1:00pm"}, {"days": "Sun", "time": "Closed"}], "id": "1993300018", "name": "USPS COLLECTION BOX - PO LOBBY", "address": {"city": "BRIDGEVILLE", "state": "DE", "street": "300 WALNUT ST", "postcode": "19933"}}},
{"geometry": {"type": "Point", "coordinates": [-75.5521432973, 39.1191830846]}, "type": "Feature", "properties": {"collection_times": [{"days": "Mon-Fri", "time": "5:00pm"}, {"days": "Sat", "time": "2:45pm"}, {"days": "Sun", "time": "Closed"}], "id": "1993400004", "name": "USPS COLLECTION BOX - BLUE BOX", "address": {"city": "CAMDEN WYOMING", "state": "DE", "street": "2 OLD NORTH RD", "postcode": "19934"}}},
{"geometry": {"type": "Point", "coordinates": [-75.5521432973, 39.1191830846]}, "type": "Feature", "properties": {"collection_times": [{"days": "Mon-Fri", "time": "5:00pm"}, {"days": "Sat", "time": "12:00pm"}, {"days": "Sun", "time": "Closed"}], "id": "1993400006", "name": "USPS COLLECTION BOX - PO LOBBY", "address": {"city": "CAMDEN WYOMING", "state": "DE", "street": "2 OLD NORTH RD", "postcode": "19934"}}},
{"geometry": {"type": "Point", "coordinates": [-75.5576352524, 39.1175880118]}, "type": "Feature", "properties": {"collection_times": [{"days": "Mon-Sat", "time": "2:30pm"}, {"days": "Sun", "time": "Closed"}], "id": "1993400008", "name": "USPS COLLECTION BOX - BLUE BOX", "address": {"city": "CAMDEN WYOMING", "state": "DE", "street": "120 W CAMDEN-WYOMING AVE  (CR02)", "postcode": "19934"}}},
{"geometry": {"type": "Point", "coordinates": [-75.5858052663, 39.2194519253]}, "type": "Feature", "properties": {"collection_times": [{"days": "Mon-Fri", "time": "4:30pm"}, {"days": "Sat", "time": "12:00pm"}, {"days": "Sun", "time": "Closed"}], "id": "1993600000", "name": "USPS COLLECTION BOX - BLUE BOX", "address": {"city": "CHESWOLD", "state": "DE", "street": "262 E MAIN ST", "postcode": "19936"}}},
{"geometry": {"type": "Point", "coordinates": [-75.5858052663, 39.2194519253]}, "type": "Feature", "properties": {"collection_times": [{"days": "Mon-Fri", "time": "4:45pm"}, {"days": "Sat", "time": "12:00pm"}, {"days": "Sun", "time": "Closed"}], "id": "1993600001", "name": "USPS COLLECTION BOX - PO LOBBY", "address": {"city": "CHESWOLD", "state": "DE", "street": "262 E MAIN ST", "postcode": "19936"}}},
{"geometry": {"type": "Point", "coordinates": [-75.6336285563, 39.2912795761]}, "type": "Feature", "properties": {"collection_times": [{"days": "Mon-Fri", "time": "5:00pm"}, {"days": "Sat", "time": "12:30pm"}, {"days": "Sun", "time": "Closed"}], "id": "1993800000", "name": "USPS COLLECTION BOX - PO LOBBY", "address": {"city": "CLAYTON", "state": "DE", "street": "12 RAILROAD AVE", "postcode": "19938"}}},
{"geometry": {"type": "Point", "coordinates": [-75.6336285563, 39.2912795761]}, "type": "Feature", "properties": {"collection_times": [{"days": "Mon-Fri", "time": "4:30pm"}, {"days": "Sat", "time": "12:00pm"}, {"days": "Sun", "time": "Closed"}], "id": "1993800001", "name": "USPS COLLECTION BOX - BLUE BOX", "address": {"city": "CLAYTON", "state": "DE", "street": "12 RAILROAD AVE", "postcode": "19938"}}},
{"geometry": {"type": "Point", "coordinates": [-75.2461964658, 38.5488521991]}, "type": "Feature", "properties": {"collection_times": [{"days": "Mon-Fri", "time": "4:45pm"}, {"days": "Sat", "time": "12:00pm"}, {"days": "Sun", "time": "Closed"}], "id": "1993900000", "name": "USPS COLLECTION BOX - BLUE BOX", "address": {"city": "DAGSBORO", "state": "DE", "street": "28290 CLAYTON ST", "postcode": "19939"}}},
{"geometry": {"type": "Point", "coordinates": [-75.2461964658, 38.5488521991]}, "type": "Feature", "properties": {"collection_times": [{"days": "Mon-Fri", "time": "4:45pm"}, {"days": "Sat", "time": "12:00pm"}, {"days": "Sun", "time": "Closed"}], "id": "1993900004", "name": "USPS COLLECTION BOX - PO LOBBY", "address": {"city": "DAGSBORO", "state": "DE", "street": "28290 CLAYTON ST", "postcode": "19939"}}},
{"geometry": {"type": "Point", "coordinates": [-75.5766851966, 38.4570250394]}, "type": "Feature", "properties": {"collection_times": [{"days": "Mon-Fri", "time": "5:00pm"}, {"days": "Sat", "time": "1:00pm"}, {"days": "Sun", "time": "Closed"}], "id": "1994000000", "name": "USPS COLLECTION BOX - BLUE BOX", "address": {"city": "DELMAR", "state": "DE", "street": "101 E GROVE ST", "postcode": "19940"}}},
{"geometry": {"type": "Point", "coordinates": [-75.5749057045, 38.4777415796]}, "type": "Feature", "properties": {"collection_times": [{"days": "Mon-Sat", "time": "12:00pm"}, {"days": "Sun", "time": "Closed"}], "id": "1994000007", "name": "USPS COLLECTION BOX - BLUE BOX", "address": {"city": "DELMAR", "state": "DE", "street": "38660 SUSSEX HWY", "postcode": "19940"}}},
{"geometry": {"type": "Point", "coordinates": [-75.5766851966, 38.4570250394]}, "type": "Feature", "properties": {"collection_times": [{"days": "Mon-Fri", "time": "5:00pm"}, {"days": "Sat", "time": "1:00pm"}, {"days": "Sun", "time": "Closed"}], "id": "1994000013", "name": "USPS COLLECTION BOX - PO LOBBY", "address": {"city": "DELMAR", "state": "DE", "street": "101 E GROVE ST", "postcode": "19940"}}},
{"geometry": {"type": "Point", "coordinates": [-75.4254862745, 38.807080374]}, "type": "Feature", "properties": {"collection_times": [{"days": "Mon-Fri", "time": "4:00pm"}, {"days": "Sat", "time": "11:00am"}, {"days": "Sun", "time": "Closed"}], "id": "1994100000", "name": "USPS COLLECTION BOX - BLUE BOX", "address": {"city": "ELLENDALE", "state": "DE", "street": "508 MAIN ST", "postcode": "19941"}}},
{"geometry": {"type": "Point", "coordinates": [-75.4254862745, 38.807080374]}, "type": "Feature", "properties": {"collection_times": [{"days": "Mon-Fri", "time": "4:00pm"}, {"days": "Sat", "time": "11:00am"}, {"days": "Sun", "time": "Closed"}], "id": "1994100001", "name": "USPS COLLECTION BOX - PO LOBBY", "address": {"city": "ELLENDALE", "state": "DE", "street": "508 MAIN ST", "postcode": "19941"}}},
{"geometry": {"type": "Point", "coordinates": [-75.5878285579, 39.011683355]}, "type": "Feature", "properties": {"collection_times": [{"days": "Mon-Fri", "time": "4:30pm"}, {"days": "Sat", "time": "11:45am"}, {"days": "Sun", "time": "Closed"}], "id": "1994300000", "name": "USPS COLLECTION BOX - BLUE BOX", "address": {"city": "FELTON", "state": "DE", "street": "1 W SEWELL ST", "postcode": "19943"}}},
{"geometry": {"type": "Point", "coordinates": [-75.5878285579, 39.011683355]}, "type": "Feature", "properties": {"collection_times": [{"days": "Mon-Fri", "time": "4:30pm"}, {"days": "Sat", "time": "11:45am"}, {"days": "Sun", "time": "Closed"}], "id": "1994300003", "name": "USPS COLLECTION BOX - PO LOBBY", "address": {"city": "FELTON", "state": "DE", "street": "1 W SEWELL ST", "postcode": "19943"}}},
{"geometry": {"type": "Point", "coordinates": [-75.5878285579, 39.011683355]}, "type": "Feature", "properties": {"collection_times": [{"days": "Mon-Fri", "time": "4:30pm"}, {"days": "Sat", "time": "11:45am"}, {"days": "Sun", "time": "Closed"}], "id": "1994300005", "name": "USPS COLLECTION BOX - PO LOBBY", "address": {"city": "FELTON", "state": "DE", "street": "1 W SEWELL ST", "postcode": "19943"}}},
{"geometry": {"type": "Point", "coordinates": [-75.0530485279, 38.45271161]}, "type": "Feature", "properties": {"collection_times": [{"days": "Mon-Sat", "time": "10:30am"}, {"days": "Sun", "time": "Closed"}], "id": "1994400001", "name": "USPS COLLECTION BOX - BLUE BOX", "address": {"city": "SELBYVILLE", "state": "DE", "street": "1300 COASTAL HWY", "postcode": "19944"}}},
{"geometry": {"type": "Point", "coordinates": [-75.0530485279, 38.45271161]}, "type": "Feature", "properties": {"collection_times": [{"days": "Mon-Sat", "time": "9:30am"}, {"days": "Sun", "time": "Closed"}], "id": "1994400002", "name": "USPS COLLECTION BOX - BLUE BOX", "address": {"city": "SELBYVILLE", "state": "DE", "street": "101 COASTAL HWY", "postcode": "19944"}}},
{"geometry": {"type": "Point", "coordinates": [-75.2354973033, 38.5179730842]}, "type": "Feature", "properties": {"collection_times": [{"days": "Mon-Fri", "time": "4:30pm"}, {"days": "Sat", "time": "12:00pm"}, {"days": "Sun", "time": "Closed"}], "id": "1994500000", "name": "USPS COLLECTION BOX - BLUE BOX", "address": {"city": "FRANKFORD", "state": "DE", "street": "1 MAIN ST", "postcode": "19945"}}},
{"geometry": {"type": "Point", "coordinates": [-75.2354973033, 38.5179730842]}, "type": "Feature", "properties": {"collection_times": [{"days": "Mon-Fri", "time": "4:30pm"}, {"days": "Sat", "time": "12:00pm"}, {"days": "Sun", "time": "Closed"}], "id": "1994500001", "name": "USPS COLLECTION BOX - PO LOBBY", "address": {"city": "FRANKFORD", "state": "DE", "street": "1 MAIN ST", "postcode": "19945"}}},
{"geometry": {"type": "Point", "coordinates": [-75.4595832717, 39.0492663606]}, "type": "Feature", "properties": {"collection_times": [{"days": "Mon-Fri", "time": "4:45pm"}, {"days": "Sat", "time": "10:45am"}, {"days": "Sun", "time": "Closed"}], "id": "1994600000", "name": "USPS COLLECTION BOX - BLUE BOX", "address": {"city": "FREDERICA", "state": "DE", "street": "128 W FRONT ST", "postcode": "19946"}}},
{"geometry": {"type": "Point", "coordinates": [-75.4595832717, 39.0492663606]}, "type": "Feature", "properties": {"collection_times": [{"days": "Mon-Fri", "time": "4:45pm"}, {"days": "Sat", "time": "11:00am"}, {"days": "Sun", "time": "Closed"}], "id": "1994600003", "name": "USPS COLLECTION BOX - PO LOBBY", "address": {"city": "FREDERICA", "state": "DE", "street": "128 W FRONT ST", "postcode": "19946"}}},
{"geometry": {"type": "Point", "coordinates": [-75.4595832717, 39.0492663606]}, "type": "Feature", "properties": {"collection_times": [{"days": "Mon-Fri", "time": "4:45pm"}, {"days": "Sat", "time": "11:00am"}, {"days": "Sun", "time": "Closed"}], "id": "1994600005", "name": "USPS COLLECTION BOX - PO LOBBY", "address": {"city": "FREDERICA", "state": "DE", "street": "128 W FRONT ST", "postcode": "19946"}}},
{"geometry": {"type": "Point", "coordinates": [-75.3953166009, 38.679376184]}, "type": "Feature", "properties": {"collection_times": [{"days": "Mon-Sat", "time": "9:30am"}, {"days": "Sun", "time": "Closed"}], "id": "1994700013", "name": "USPS COLLECTION BOX - BLUE BOX", "address": {"city": "GEORGETOWN", "state": "DE", "street": "8 GEORGETOWN PLZ", "postcode": "19947"}}},
{"geometry": {"type": "Point", "coordinates": [-75.3804507459, 38.6920789878]}, "type": "Feature", "properties": {"collection_times": [{"days": "Mon-Fri", "time": "5:00pm"}, {"days": "Sat", "time": "4:00pm"}, {"days": "Sun", "time": "Closed"}], "id": "1994700015", "name": "USPS COLLECTION BOX - BLUE BOX", "address": {"city": "GEORGETOWN", "state": "DE", "street": "115 S KING ST", "postcode": "19947"}}},
{"geometry": {"type": "Point", "coordinates": [-75.38567987, 38.6896675207]}, "type": "Feature", "properties": {"collection_times": [{"days": "Mon-Fri", "time": "3:00pm"}, {"days": "Sat", "time": "2:00pm"}, {"days": "Sun", "time": "Closed"}], "id": "1994700016", "name": "USPS COLLECTION BOX - BLUE BOX", "address": {"city": "GEORGETOWN", "state": "DE", "street": "13A THE CIR", "postcode": "19947"}}},
{"geometry": {"type": "Point", "coordinates": [-75.3804507459, 38.6920789878]}, "type": "Feature", "properties": {"collection_times": [{"days": "Mon-Fri", "time": "5:00pm"}, {"days": "Sat", "time": "4:00pm"}, {"days": "Sun", "time": "Closed"}], "id": "1994700018", "name": "USPS COLLECTION BOX - PO LOBBY", "address": {"city": "GEORGETOWN", "state": "DE", "street": "115 S KING ST", "postcode": "19947"}}},
{"geometry": {"type": "Point", "coordinates": [-75.5923781441, 38.8070666997]}, "type": "Feature", "properties": {"collection_times": [{"days": "Mon-Fri", "time": "5:00pm"}, {"days": "Sat", "time": "12:30pm"}, {"days": "Sun", "time": "Closed"}], "id": "1995000000", "name": "USPS COLLECTION BOX - BLUE BOX", "address": {"city": "GREENWOOD", "state": "DE", "street": "2 E MARKET ST", "postcode": "19950"}}},
{"geometry": {"type": "Point", "coordinates": [-75.5923781441, 38.8070666997]}, "type": "Feature", "properties": {"collection_times": [{"days": "Mon-Fri", "time": "5:00pm"}, {"days": "Sat", "time": "12:30pm"}, {"days": "Sun", "time": "Closed"}], "id": "1995000002", "name": "USPS COLLECTION BOX - PO LOBBY", "address": {"city": "GREENWOOD", "state": "DE", "street": "2 E MARKET ST", "postcode": "19950"}}},
{"geometry": {"type": "Point", "coordinates": [-75.2399968406, 38.6714144678]}, "type": "Feature", "properties": {"collection_times": [{"days": "Mon-Fri", "time": "4:00pm"}, {"days": "Sat", "time": "12:30pm"}, {"days": "Sun", "time": "Closed"}], "id": "1995100000", "name": "USPS COLLECTION BOX - BLUE BOX", "address": {"city": "HARBESON", "state": "DE", "street": "26454 LEWES GEORGETOWN HWY UNIT 3", "postcode": "19951"}}},
{"geometry": {"type": "Point", "coordinates": [-75.2399968406, 38.6714144678]}, "type": "Feature", "properties": {"collection_times": [{"days": "Mon-Fri", "time": "4:00pm"}, {"days": "Sat", "time": "12:30pm"}, {"days": "Sun", "time": "Closed"}], "id": "1995100001", "name": "USPS COLLECTION BOX - PO LOBBY", "address": {"city": "HARBESON", "state": "DE", "street": "26454 LEWES GEORGETOWN HWY #3", "postcode": "19951"}}},
{"geometry": {"type": "Point", "coordinates": [-75.5776013129, 38.9241721546]}, "type": "Feature", "properties": {"collection_times": [{"days": "Mon-Fri", "time": "5:00pm"}, {"days": "Sat", "time": "1:00pm"}, {"days": "Sun", "time": "Closed"}], "id": "1995200007", "name": "USPS COLLECTION BOX - BLUE BOX", "address": {"city": "HARRINGTON", "state": "DE", "street": "2 COMMERCE ST", "postcode": "19952"}}},
{"geometry": {"type": "Point", "coordinates": [-75.5776013129, 38.9241721546]}, "type": "Feature", "properties": {"collection_times": [{"days": "Mon-Fri", "time": "5:00pm"}, {"days": "Sat", "time": "1:00pm"}, {"days": "Sun", "time": "Closed"}], "id": "1995200010", "name": "USPS COLLECTION BOX - PO LOBBY", "address": {"city": "HARRINGTON", "state": "DE", "street": "2 COMMERCE ST", "postcode": "19952"}}},
{"geometry": {"type": "Point", "coordinates": [-75.710813063, 39.1669044888]}, "type": "Feature", "properties": {"collection_times": [{"days": "Mon-Fri", "time": "4:30pm"}, {"days": "Sat", "time": "11:30am"}, {"days": "Sun", "time": "Closed"}], "id": "1995300000", "name": "USPS COLLECTION BOX - BLUE BOX", "address": {"city": "HARTLY", "state": "DE", "street": "223 MAIN ST", "postcode": "19953"}}},
{"geometry": {"type": "Point", "coordinates": [-75.710813063, 39.1669044888]}, "type": "Feature", "properties": {"collection_times": [{"days": "Mon-Fri", "time": "5:00pm"}, {"days": "Sat", "time": "11:30am"}, {"days": "Sun", "time": "Closed"}], "id": "1995300001", "name": "USPS COLLECTION BOX - PO LOBBY", "address": {"city": "HARTLY", "state": "DE", "street": "223 MAIN ST", "postcode": "19953"}}},
{"geometry": {"type": "Point", "coordinates": [-75.5050160578, 38.9177189147]}, "type": "Feature", "properties": {"collection_times": [{"days": "Mon-Fri", "time": "4:30pm"}, {"days": "Sat", "time": "10:00am"}, {"days": "Sun", "time": "Closed"}], "id": "1995400000", "name": "USPS COLLECTION BOX - BLUE BOX", "address": {"city": "HOUSTON", "state": "DE", "street": "156 BROAD ST", "postcode": "19954"}}},
{"geometry": {"type": "Point", "coordinates": [-75.5050160578, 38.9177189147]}, "type": "Feature", "properties": {"collection_times": [{"days": "Mon-Fri", "time": "4:45pm"}, {"days": "Sat", "time": "10:00am"}, {"days": "Sun", "time": "Closed"}], "id": "1995400001", "name": "USPS COLLECTION BOX - PO LOBBY", "address": {"city": "HOUSTON", "state": "DE", "street": "156 BROAD ST", "postcode": "19954"}}},
{"geometry": {"type": "Point", "coordinates": [-75.6644174124, 39.2267539317]}, "type": "Feature", "properties": {"collection_times": [{"days": "Mon-Fri", "time": "4:30pm"}, {"days": "Sat", "time": "11:30am"}, {"days": "Sun", "time": "Closed"}], "id": "1995500000", "name": "USPS COLLECTION BOX - BLUE BOX", "address": {"city": "KENTON", "state": "DE", "street": "24 FRAZIER ST", "postcode": "19955"}}},
{"geometry": {"type": "Point", "coordinates": [-75.6644174124, 39.2267539317]}, "type": "Feature", "properties": {"collection_times": [{"days": "Mon-Fri", "time": "4:30pm"}, {"days": "Sat", "time": "11:30am"}, {"days": "Sun", "time": "Closed"}], "id": "1995500001", "name": "USPS COLLECTION BOX - PO LOBBY", "address": {"city": "KENTON", "state": "DE", "street": "24 FRAZIER ST", "postcode": "19955"}}},
{"geometry": {"type": "Point", "coordinates": [-75.5564967233, 38.5538023304]}, "type": "Feature", "properties": {"collection_times": [{"days": "Mon-Sat", "time": "10:00am"}, {"days": "Sun", "time": "Closed"}], "id": "1995600011", "name": "USPS COLLECTION BOX - BLUE BOX", "address": {"city": "LAUREL", "state": "DE", "street": "10159 PALMETTO ST UNIT 1", "postcode": "19956"}}},
{"geometry": {"type": "Point", "coordinates": [-75.5694046469, 38.5496509709]}, "type": "Feature", "properties": {"collection_times": [{"days": "Mon-Fri", "time": "5:00pm"}, {"days": "Sat", "time": "3:15pm"}, {"days": "Sun", "time": "Closed"}], "id": "1995600014", "name": "USPS COLLECTION BOX - BLUE BOX", "address": {"city": "LAUREL", "state": "DE", "street": "1121 S CENTRAL AVE", "postcode": "19956"}}},
{"geometry": {"type": "Point", "coordinates": [-75.5694046469, 38.5496509709]}, "type": "Feature", "properties": {"collection_times": [{"days": "Mon-Fri", "time": "5:00pm"}, {"days": "Sat", "time": "3:15pm"}, {"days": "Sun", "time": "Closed"}], "id": "1995600015", "name": "USPS COLLECTION BOX - PO LOBBY", "address": {"city": "LAUREL", "state": "DE", "street": "1121 S CENTRAL AVE", "postcode": "19956"}}},
{"geometry": {"type": "Point", "coordinates": [-75.5694046469, 38.5496509709]}, "type": "Feature", "properties": {"collection_times": [{"days": "Mon-Fri", "time": "5:00pm"}, {"days": "Sat", "time": "3:15pm"}, {"days": "Sun", "time": "Closed"}], "id": "1995600016", "name": "USPS COLLECTION BOX - PO LOBBY", "address": {"city": "LAUREL", "state": "DE", "street": "1121 S CENTRAL AVE", "postcode": "19956"}}},
{"geometry": {"type": "Point", "coordinates": [-75.1489174306, 38.7651824534]}, "type": "Feature", "properties": {"collection_times": [{"days": "Mon-Sat", "time": "1:30pm"}, {"days": "Sun", "time": "Closed"}], "id": "1995800004", "name": "USPS COLLECTION BOX - BLUE BOX", "address": {"city": "LEWES", "state": "DE", "street": "1140 SAVANNAH RD", "postcode": "19958"}}},
{"geometry": {"type": "Point", "coordinates": [-75.203461354, 38.7381757347]}, "type": "Feature", "properties": {"collection_times": [{"days": "Mon-Sat", "time": "1:30pm"}, {"days": "Sun", "time": "Closed"}], "id": "1995800008", "name": "USPS COLLECTION BOX - BLUE BOX", "address": {"city": "LEWES", "state": "DE", "street": "32045 JANICE RD", "postcode": "19958"}}},
{"geometry": {"type": "Point", "coordinates": [-75.1343947779, 38.7788891061]}, "type": "Feature", "properties": {"collection_times": [{"days": "Mon-Sat", "time": "2:00pm"}, {"days": "Sun", "time": "Closed"}], "id": "1995800009", "name": "USPS COLLECTION BOX - BLUE BOX", "address": {"city": "LEWES", "state": "DE", "street": "420 E SAVANNAH RD", "postcode": "19958"}}},
{"geometry": {"type": "Point", "coordinates": [-75.1424605955, 38.7711259946]}, "type": "Feature", "properties": {"collection_times": [{"days": "Mon-Sat", "time": "1:45pm"}, {"days": "Sun", "time": "Closed"}], "id": "1995800010", "name": "USPS COLLECTION BOX - BLUE BOX", "address": {"city": "LEWES", "state": "DE", "street": "441 SAVANNAH RD", "postcode": "19958"}}},
{"geometry": {"type": "Point", "coordinates": [-75.203461354, 38.7381757347]}, "type": "Feature", "properties": {"collection_times": [{"days": "Mon-Sat", "time": "11:00am"}, {"days": "Sun", "time": "Closed"}], "id": "1995800013", "name": "USPS COLLECTION BOX - BLUE BOX", "address": {"city": "LEWES", "state": "DE", "street": "20750 JOHN J WILLIAMS HWY", "postcode": "19958"}}},
{"geometry": {"type": "Point", "coordinates": [-75.1390765494, 38.7758212046]}, "type": "Feature", "properties": {"collection_times": [{"days": "Mon-Fri", "time": "5:00pm"}, {"days": "Sat", "time": "2:00pm"}, {"days": "Sun", "time": "Closed"}], "id": "1995800015", "name": "USPS COLLECTION BOX - BLUE BOX", "address": {"city": "LEWES", "state": "DE", "street": "116 FRONT ST", "postcode": "19958"}}},
{"geometry": {"type": "Point", "coordinates": [-75.1390765492, 38.7758212042]}, "type": "Feature", "properties": {"collection_times": [{"days": "Mon-Fri", "time": "5:00pm"}, {"days": "Sat", "time": "2:00pm"}, {"days": "Sun", "time": "Closed"}], "id": "1995800016", "name": "USPS COLLECTION BOX - BLUE BOX", "address": {"city": "LEWES", "state": "DE", "street": "116 FRONT ST", "postcode": "19958"}}},
{"geometry": {"type": "Point", "coordinates": [-75.203461354, 38.7381757347]}, "type": "Feature", "properties": {"collection_times": [{"days": "Mon-Sat", "time": "10:00am"}, {"days": "Sun", "time": "Closed"}], "id": "1995800017", "name": "USPS COLLECTION BOX - BLUE BOX", "address": {"city": "LEWES", "state": "DE", "street": "22971 SUBURBAN BLVD", "postcode": "19958"}}},
{"geometry": {"type": "Point", "coordinates": [-75.1390765494, 38.7758212046]}, "type": "Feature", "properties": {"collection_times": [{"days": "Mon-Fri", "time": "5:00pm"}, {"days": "Sat", "time": "12:15pm"}, {"days": "Sun", "time": "Closed"}], "id": "1995800019", "name": "USPS COLLECTION BOX - PO LOBBY", "address": {"city": "LEWES", "state": "DE", "street": "116 FRONT ST", "postcode": "19958"}}},
{"geometry": {"type": "Point", "coordinates": [-75.1390765494, 38.7758212046]}, "type": "Feature", "properties": {"collection_times": [{"days": "Mon-Fri", "time": "5:00pm"}, {"days": "Sat", "time": "12:15pm"}, {"days": "Sun", "time": "Closed"}], "id": "1995800021", "name": "USPS COLLECTION BOX - PO LOBBY", "address": {"city": "LEWES", "state": "DE", "street": "116 FRONT ST", "postcode": "19958"}}},
{"geometry": {"type": "Point", "coordinates": [-75.1390765494, 38.7758212046]}, "type": "Feature", "properties": {"collection_times": [{"days": "Mon-Fri", "time": "5:00pm"}, {"days": "Sat", "time": "12:15pm"}, {"days": "Sun", "time": "Closed"}], "id": "1995800022", "name": "USPS COLLECTION BOX - PO LOBBY", "address": {"city": "LEWES", "state": "DE", "street": "116 FRONT ST", "postcode": "19958"}}},
{"geometry": {"type": "Point", "coordinates": [-75.203461354, 38.7381757347]}, "type": "Feature", "properties": {"collection_times": [{"days": "Mon-Sat", "time": "11:00am"}, {"days": "Sun", "time": "Closed"}], "id": "1995800023", "name": "USPS COLLECTION BOX - BLUE BOX", "address": {"city": "LEWES", "state": "DE", "street": "1600 PENNSYLVANIA AVE", "postcode": "19958"}}},
{"geometry": {"type": "Point", "coordinates": [-75.4236071877, 38.87054606]}, "type": "Feature", "properties": {"collection_times": [{"days": "Mon-Fri", "time": "4:30pm"}, {"days": "Sat", "time": "12:00pm"}, {"days": "Sun", "time": "Closed"}], "id": "1996000000", "name": "USPS COLLECTION BOX - BLUE BOX", "address": {"city": "LINCOLN", "state": "DE", "street": "8419 FRONT ST", "postcode": "19960"}}},
{"geometry": {"type": "Point", "coordinates": [-75.4236071877, 38.87054606]}, "type": "Feature", "properties": {"collection_times": [{"days": "Mon-Fri", "time": "5:00pm"}, {"days": "Sat", "time": "12:30pm"}, {"days": "Sun", "time": "Closed"}], "id": "1996000002", "name": "USPS COLLECTION BOX - PO LOBBY", "address": {"city": "LINCOLN", "state": "DE", "street": "8419 FRONT ST", "postcode": "19960"}}},
{"geometry": {"type": "Point", "coordinates": [-75.4236071877, 38.87054606]}, "type": "Feature", "properties": {"collection_times": [{"days": "Mon-Fri", "time": "5:00pm"}, {"days": "Sat", "time": "12:30pm"}, {"days": "Sun", "time": "Closed"}], "id": "1996000003", "name": "USPS COLLECTION BOX - PO LOBBY", "address": {"city": "LINCOLN", "state": "DE", "street": "8419 FRONT ST", "postcode": "19960"}}},
{"geometry": {"type": "Point", "coordinates": [-75.4482334119, 39.1669544909]}, "type": "Feature", "properties": {"collection_times": [{"days": "Mon-Fri", "time": "3:45pm"}, {"days": "Sat", "time": "11:00am"}, {"days": "Sun", "time": "Closed"}], "id": "1996100000", "name": "USPS COLLECTION BOX - BLUE BOX", "address": {"city": "LITTLE CREEK", "state": "DE", "street": "458 MAIN ST", "postcode": "19961"}}},
{"geometry": {"type": "Point", "coordinates": [-75.4482334119, 39.1669544909]}, "type": "Feature", "properties": {"collection_times": [{"days": "Mon-Fri", "time": "4:15pm"}, {"days": "Sat", "time": "11:45am"}, {"days": "Sun", "time": "Closed"}], "id": "1996100001", "name": "USPS COLLECTION BOX - PO LOBBY", "address": {"city": "LITTLE CREEK", "state": "DE", "street": "458 MAIN ST", "postcode": "19961"}}},
{"geometry": {"type": "Point", "coordinates": [-75.4756739436, 39.0708245617]}, "type": "Feature", "properties": {"collection_times": [{"days": "Mon-Fri", "time": "4:30pm"}, {"days": "Sat", "time": "12:30pm"}, {"days": "Sun", "time": "Closed"}], "id": "1996200000", "name": "USPS COLLECTION BOX - BLUE BOX", "address": {"city": "MAGNOLIA", "state": "DE", "street": "8 N MAIN ST", "postcode": "19962"}}},
{"geometry": {"type": "Point", "coordinates": [-75.4756739436, 39.0708245617]}, "type": "Feature", "properties": {"collection_times": [{"days": "Mon-Fri", "time": "4:30pm"}, {"days": "Sat", "time": "12:30pm"}, {"days": "Sun", "time": "Closed"}], "id": "1996200001", "name": "USPS COLLECTION BOX - PO LOBBY", "address": {"city": "MAGNOLIA", "state": "DE", "street": "8 N MAIN ST", "postcode": "19962"}}},
{"geometry": {"type": "Point", "coordinates": [-75.4310347956, 38.9115149656]}, "type": "Feature", "properties": {"collection_times": [{"days": "Mon-Fri", "time": "5:00pm"}, {"days": "Sat", "time": "3:30pm"}, {"days": "Sun", "time": "Closed"}], "id": "1996300000", "name": "USPS COLLECTION BOX - BLUE BOX", "address": {"city": "MILFORD", "state": "DE", "street": "110 CAUSEY AVE", "postcode": "19963"}}},
{"geometry": {"type": "Point", "coordinates": [-75.4283686154, 38.9114705525]}, "type": "Feature", "properties": {"collection_times": [{"days": "Mon-Sat", "time": "10:00am"}, {"days": "Sun", "time": "Closed"}], "id": "1996300001", "name": "USPS COLLECTION BOX - BLUE BOX", "address": {"city": "MILFORD", "state": "DE", "street": "201 S WALNUT ST", "postcode": "19963"}}},
{"geometry": {"type": "Point", "coordinates": [-75.4282733819, 38.9145858306]}, "type": "Feature", "properties": {"collection_times": [{"days": "Mon-Sat", "time": "1:00pm"}, {"days": "Sun", "time": "Closed"}], "id": "1996300004", "name": "USPS COLLECTION BOX - BLUE BOX", "address": {"city": "MILFORD", "state": "DE", "street": "1 NW FRONT ST", "postcode": "19963"}}},
{"geometry": {"type": "Point", "coordinates": [-75.4300363307, 38.8953395131]}, "type": "Feature", "properties": {"collection_times": [{"days": "Mon-Sat", "time": "12:00pm"}, {"days": "Sun", "time": "Closed"}], "id": "1996300007", "name": "USPS COLLECTION BOX - BLUE BOX", "address": {"city": "MILFORD", "state": "DE", "street": "1029 S WALNUT ST", "postcode": "19963"}}},
{"geometry": {"type": "Point", "coordinates": [-75.4282329922, 38.9263970197]}, "type": "Feature", "properties": {"collection_times": [{"days": "Mon-Sat", "time": "12:30pm"}, {"days": "Sun", "time": "Closed"}], "id": "1996300008", "name": "USPS COLLECTION BOX - BLUE BOX", "address": {"city": "MILFORD", "state": "DE", "street": "915 N WALNUT ST", "postcode": "19963"}}},
{"geometry": {"type": "Point", "coordinates": [-75.4422531148, 38.9165245589]}, "type": "Feature", "properties": {"collection_times": [{"days": "Mon-Sat", "time": "11:00am"}, {"days": "Sun", "time": "Closed"}], "id": "1996300009", "name": "USPS COLLECTION BOX - BLUE BOX", "address": {"city": "MILFORD", "state": "DE", "street": "615 N DUPONT BLVD", "postcode": "19963"}}},
{"geometry": {"type": "Point", "coordinates": [-75.4409092898, 38.9175736344]}, "type": "Feature", "properties": {"collection_times": [{"days": "Mon-Fri", "time": "11:00am"}, {"days": "Sat", "time": "1:00pm"}, {"days": "Sun", "time": "Closed"}], "id": "1996300010", "name": "USPS COLLECTION BOX - BLUE BOX", "address": {"city": "MILFORD", "state": "DE", "street": "658 N DUPONT BLVD", "postcode": "19963"}}},
{"geometry": {"type": "Point", "coordinates": [-75.4317660725, 38.929692579]}, "type": "Feature", "properties": {"collection_times": [{"days": "Mon-Sat", "time": "12:00pm"}, {"days": "Sun", "time": "Closed"}], "id": "1996300012", "name": "USPS COLLECTION BOX - BLUE BOX", "address": {"city": "MILFORD", "state": "DE", "street": "939 N DUPONT BLVD", "postcode": "19963"}}},
{"geometry": {"type": "Point", "coordinates": [-75.43171, 38.910538]}, "type": "Feature", "properties": {"collection_times": [{"days": "Mon-Fri", "time": "4:30pm"}, {"days": "Sat", "time": "3:30pm"}, {"days": "Sun", "time": "Closed"}], "id": "1996300014", "name": "USPS COLLECTION BOX - BLUE BOX", "address": {"city": "MILFORD", "state": "DE", "street": "40 S MAPLE AVE", "postcode": "19963"}}},
{"geometry": {"type": "Point", "coordinates": [-75.4310347956, 38.9115149656]}, "type": "Feature", "properties": {"collection_times": [{"days": "Mon-Fri", "time": "5:00pm"}, {"days": "Sat", "time": "3:30pm"}, {"days": "Sun", "time": "Closed"}], "id": "1996300017", "name": "USPS COLLECTION BOX - PO LOBBY", "address": {"city": "MILFORD", "state": "DE", "street": "110 CAUSEY AVE", "postcode": "19963"}}},
{"geometry": {"type": "Point", "coordinates": [-75.4310347956, 38.9115149656]}, "type": "Feature", "properties": {"collection_times": [{"days": "Mon-Fri", "time": "5:00pm"}, {"days": "Sat", "time": "3:30pm"}, {"days": "Sun", "time": "Closed"}], "id": "1996300018", "name": "USPS COLLECTION BOX - PO LOBBY", "address": {"city": "MILFORD", "state": "DE", "street": "110 CAUSEY AVE", "postcode": "19963"}}},
{"geometry": {"type": "Point", "coordinates": [-75.2304170958, 38.6027836233]}, "type": "Feature", "properties": {"collection_times": [{"days": "Mon-Fri", "time": "11:00am"}, {"days": "Sat", "time": "12:00pm"}, {"days": "Sun", "time": "Closed"}], "id": "1996600001", "name": "USPS COLLECTION BOX - BLUE BOX", "address": {"city": "MILLSBORO", "state": "DE", "street": "34792 LONG NECK RD UNIT 3", "postcode": "19966"}}},
{"geometry": {"type": "Point", "coordinates": [-75.2304170958, 38.6027836233]}, "type": "Feature", "properties": {"collection_times": [{"days": "Mon-Sat", "time": "11:30am"}, {"days": "Sun", "time": "Closed"}], "id": "1996600002", "name": "USPS COLLECTION BOX - BLUE BOX", "address": {"city": "MILLSBORO", "state": "DE", "street": "32369 LONG NECK RD UNIT 15", "postcode": "19966"}}},
{"geometry": {"type": "Point", "coordinates": [-75.2929485253, 38.5889869214]}, "type": "Feature", "properties": {"collection_times": [{"days": "Mon-Fri", "time": "4:45pm"}, {"days": "Sat", "time": "3:15pm"}, {"days": "Sun", "time": "Closed"}], "id": "1996600005", "name": "USPS COLLECTION BOX - BLUE BOX", "address": {"city": "MILLSBORO", "state": "DE", "street": "100 MAIN ST", "postcode": "19966"}}},
{"geometry": {"type": "Point", "coordinates": [-75.2929485253, 38.5889869214]}, "type": "Feature", "properties": {"collection_times": [{"days": "Mon-Fri", "time": "4:45pm"}, {"days": "Sat", "time": "3:15pm"}, {"days": "Sun", "time": "Closed"}], "id": "1996600006", "name": "USPS COLLECTION BOX - PO LOBBY", "address": {"city": "MILLSBORO", "state": "DE", "street": "100 MAIN ST", "postcode": "19966"}}},
{"geometry": {"type": "Point", "coordinates": [-75.1129601903, 38.5471071455]}, "type": "Feature", "properties": {"collection_times": [{"days": "Mon-Sat", "time": "11:00am"}, {"days": "Sun", "time": "Closed"}], "id": "1996700001", "name": "USPS COLLECTION BOX - BLUE BOX", "address": {"city": "OCEAN VIEW", "state": "DE", "street": "32782 CEDAR DR", "postcode": "19967"}}},
{"geometry": {"type": "Point", "coordinates": [-75.1129601903, 38.5471071455]}, "type": "Feature", "properties": {"collection_times": [{"days": "Mon-Sat", "time": "11:00am"}, {"days": "Sun", "time": "Closed"}], "id": "1996700002", "name": "USPS COLLECTION BOX - BLUE BOX", "address": {"city": "OCEAN VIEW", "state": "DE", "street": "220 ATLANTIC AVE", "postcode": "19967"}}},
{"geometry": {"type": "Point", "coordinates": [-75.3191588552, 38.7877218721]}, "type": "Feature", "properties": {"collection_times": [{"days": "Mon-Fri", "time": "5:00pm"}, {"days": "Sat", "time": "12:00pm"}, {"days": "Sun", "time": "Closed"}], "id": "1996800000", "name": "USPS COLLECTION BOX - BLUE BOX", "address": {"city": "MILTON", "state": "DE", "street": "219 MILTON ELLENDALE HWY", "postcode": "19968"}}},
{"geometry": {"type": "Point", "coordinates": [-75.3191588552, 38.7877218721]}, "type": "Feature", "properties": {"collection_times": [{"days": "Mon-Fri", "time": "5:00pm"}, {"days": "Sat", "time": "12:00pm"}, {"days": "Sun", "time": "Closed"}], "id": "1996800007", "name": "USPS COLLECTION BOX - PO LOBBY", "address": {"city": "MILTON", "state": "DE", "street": "219 MILTON ELLENDALE HWY", "postcode": "19968"}}},
{"geometry": {"type": "Point", "coordinates": [-75.1930825195, 38.7547477711]}, "type": "Feature", "properties": {"collection_times": [{"days": "Mon-Fri", "time": "4:00pm"}, {"days": "Sat", "time": "11:30am"}, {"days": "Sun", "time": "Closed"}], "id": "1996900000", "name": "USPS COLLECTION BOX - BLUE BOX", "address": {"city": "NASSAU", "state": "DE", "street": "17601 COASTAL HWY UNIT 11", "postcode": "19969"}}},
{"geometry": {"type": "Point", "coordinates": [-75.1930825195, 38.7547477711]}, "type": "Feature", "properties": {"collection_times": [{"days": "Mon-Fri", "time": "4:15pm"}, {"days": "Sat", "time": "12:15pm"}, {"days": "Sun", "time": "Closed"}], "id": "1996900001", "name": "USPS COLLECTION BOX - PO LOBBY", "address": {"city": "NASSAU", "state": "DE", "street": "17601 COASTAL HWY UNIT 11", "postcode": "19969"}}},
{"geometry": {"type": "Point", "coordinates": [-75.100929769, 38.545854042]}, "type": "Feature", "properties": {"collection_times": [{"days": "Mon-Fri", "time": "4:30pm"}, {"days": "Sat", "time": "12:00pm"}, {"days": "Sun", "time": "Closed"}], "id": "1997000000", "name": "USPS COLLECTION BOX - BLUE BOX", "address": {"city": "OCEAN VIEW", "state": "DE", "street": "35764 ATLANTIC AVE", "postcode": "19970"}}},
{"geometry": {"type": "Point", "coordinates": [-75.1144278612, 38.5396750191]}, "type": "Feature", "properties": {"collection_times": [{"days": "Mon-Sat", "time": "11:00am"}, {"days": "Sun", "time": "Closed"}], "id": "1997000001", "name": "USPS COLLECTION BOX - BLUE BOX", "address": {"city": "OCEAN VIEW", "state": "DE", "street": "30244 CEDAR NECK RD", "postcode": "19970"}}},
{"geometry": {"type": "Point", "coordinates": [-75.1144278612, 38.5396750191]}, "type": "Feature", "properties": {"collection_times": [{"days": "Mon-Sat", "time": "11:00am"}, {"days": "Sun", "time": "Closed"}], "id": "1997000002", "name": "USPS COLLECTION BOX - BLUE BOX", "address": {"city": "OCEAN VIEW", "state": "DE", "street": "34960 ATLANTIC AVE", "postcode": "19970"}}},
{"geometry": {"type": "Point", "coordinates": [-75.1144278612, 38.5396750191]}, "type": "Feature", "properties": {"collection_times": [{"days": "Mon-Fri", "time": "4:30pm"}, {"days": "Sat", "time": "12:30pm"}, {"days": "Sun", "time": "Closed"}], "id": "1997000003", "name": "USPS COLLECTION BOX - PO LOBBY", "address": {"city": "OCEAN VIEW", "state": "DE", "street": "35764 ATLANTIC AVE", "postcode": "19970"}}},
{"geometry": {"type": "Point", "coordinates": [-75.08166935, 38.7162219653]}, "type": "Feature", "properties": {"collection_times": [{"days": "Mon-Fri", "time": "5:00pm"}, {"days": "Sat", "time": "1:00pm"}, {"days": "Sun", "time": "Closed"}], "id": "1997100001", "name": "USPS COLLECTION BOX - BLUE BOX", "address": {"city": "REHOBOTH BEACH", "state": "DE", "street": "179 REHOBOTH AVE", "postcode": "19971"}}},
{"geometry": {"type": "Point", "coordinates": [-75.0827836974, 38.716087108]}, "type": "Feature", "properties": {"collection_times": [{"days": "Mon-Fri", "time": "2:30pm"}, {"days": "Sat", "time": "1:00pm"}, {"days": "Sun", "time": "Closed"}], "id": "1997100007", "name": "USPS COLLECTION BOX - BLUE BOX", "address": {"city": "REHOBOTH BEACH", "state": "DE", "street": "229 REHOBOTH AVE", "postcode": "19971"}}},
{"geometry": {"type": "Point", "coordinates": [-75.0829800686, 38.7027776367]}, "type": "Feature", "properties": {"collection_times": [{"days": "Mon-Fri", "time": "2:15pm"}, {"days": "Sat", "time": "12:45pm"}, {"days": "Sun", "time": "Closed"}], "id": "1997100012", "name": "USPS COLLECTION BOX - BLUE BOX", "address": {"city": "REHOBOTH BEACH", "state": "DE", "street": "20853 COASTAL HWY", "postcode": "19971"}}},
{"geometry": {"type": "Point", "coordinates": [-75.1423350346, 38.7375708257]}, "type": "Feature", "properties": {"collection_times": [{"days": "Mon-Sat", "time": "10:30am"}, {"days": "Sun", "time": "Closed"}], "id": "1997100013", "name": "USPS COLLECTION BOX - BLUE BOX", "address": {"city": "REHOBOTH BEACH", "state": "DE", "street": "18585 COASTAL HWY", "postcode": "19971"}}},
{"geometry": {"type": "Point", "coordinates": [-75.0875395126, 38.7059839468]}, "type": "Feature", "properties": {"collection_times": [{"days": "Mon-Fri", "time": "3:15pm"}, {"days": "Sat", "time": "1:30pm"}, {"days": "Sun", "time": "Closed"}], "id": "1997100018", "name": "USPS COLLECTION BOX - BLUE BOX", "address": {"city": "REHOBOTH BEACH", "state": "DE", "street": "20673 COASTAL HWY", "postcode": "19971"}}},
{"geometry": {"type": "Point", "coordinates": [-75.08166935, 38.7162219653]}, "type": "Feature", "properties": {"collection_times": [{"days": "Mon-Fri", "time": "5:00pm"}, {"days": "Sat", "time": "1:30pm"}, {"days": "Sun", "time": "Closed"}], "id": "1997100022", "name": "USPS COLLECTION BOX - PO LOBBY", "address": {"city": "REHOBOTH BEACH", "state": "DE", "street": "179 REHOBOTH AVE", "postcode": "19971"}}},
{"geometry": {"type": "Point", "coordinates": [-75.0814043672, 38.7115741195]}, "type": "Feature", "properties": {"collection_times": [{"days": "Mon-Fri", "time": "2:15pm"}, {"days": "Sat", "time": "12:45pm"}, {"days": "Sun", "time": "Closed"}], "id": "1997100023", "name": "USPS COLLECTION BOX - BLUE BOX", "address": {"city": "REHOBOTH BEACH", "state": "DE", "street": "507 BAYARD AVE", "postcode": "19971"}}},
{"geometry": {"type": "Point", "coordinates": [-75.1037558402, 38.7135508027]}, "type": "Feature", "properties": {"collection_times": [{"days": "Mon-Sat", "time": "9:30am"}, {"days": "Sun", "time": "Closed"}], "id": "1997100024", "name": "USPS COLLECTION BOX - BLUE BOX", "address": {"city": "REHOBOTH BEACH", "state": "DE", "street": "19312 LIGHTHOUSE PLAZA BLVD", "postcode": "19971"}}},
{"geometry": {"type": "Point", "coordinates": [-75.1427372407, 38.7375542643]}, "type": "Feature", "properties": {"collection_times": [{"days": "Mon-Sat", "time": "10:30am"}, {"days": "Sun", "time": "Closed"}], "id": "1997100025", "name": "USPS COLLECTION BOX - BLUE BOX", "address": {"city": "REHOBOTH BEACH", "state": "DE", "street": "18578 COASTAL HWY", "postcode": "19971"}}},
{"geometry": {"type": "Point", "coordinates": [-75.6133250827, 38.6404355972]}, "type": "Feature", "properties": {"collection_times": [{"days": "Mon-Fri", "time": "1:45pm"}, {"days": "Sat", "time": "12:15pm"}, {"days": "Sun", "time": "Closed"}], "id": "1997300000", "name": "USPS COLLECTION BOX - BLUE BOX", "address": {"city": "SEAFORD", "state": "DE", "street": "203 HIGH ST", "postcode": "19973"}}},
{"geometry": {"type": "Point", "coordinates": [-75.6005161046, 38.6441241105]}, "type": "Feature", "properties": {"collection_times": [{"days": "Mon-Fri", "time": "1:00pm"}, {"days": "Sat", "time": "12:00pm"}, {"days": "Sun", "time": "Closed"}], "id": "1997300001", "name": "USPS COLLECTION BOX - BLUE BOX", "address": {"city": "SEAFORD", "state": "DE", "street": "1000 MIDDLEFORD RD", "postcode": "19973"}}},
{"geometry": {"type": "Point", "coordinates": [-75.6194592573, 38.6425553248]}, "type": "Feature", "properties": {"collection_times": [{"days": "Mon-Fri", "time": "1:15pm"}, {"days": "Sat", "time": "12:00pm"}, {"days": "Sun", "time": "Closed"}], "id": "1997300002", "name": "USPS COLLECTION BOX - BLUE BOX", "address": {"city": "SEAFORD", "state": "DE", "street": "402 N PORTER ST", "postcode": "19973"}}},
{"geometry": {"type": "Point", "coordinates": [-75.6203417824, 38.6384371166]}, "type": "Feature", "properties": {"collection_times": [{"days": "Mon-Fri", "time": "1:30pm"}, {"days": "Sat", "time": "12:15pm"}, {"days": "Sun", "time": "Closed"}], "id": "1997300004", "name": "USPS COLLECTION BOX - BLUE BOX", "address": {"city": "SEAFORD", "state": "DE", "street": "104 N SHIPLEY ST", "postcode": "19973"}}},
{"geometry": {"type": "Point", "coordinates": [-75.6236051268, 38.646952941]}, "type": "Feature", "properties": {"collection_times": [{"days": "Mon-Fri", "time": "1:30pm"}, {"days": "Sat", "time": "12:00pm"}, {"days": "Sun", "time": "Closed"}], "id": "1997300006", "name": "USPS COLLECTION BOX - BLUE BOX", "address": {"city": "SEAFORD", "state": "DE", "street": "700 W IVY DR", "postcode": "19973"}}},
{"geometry": {"type": "Point", "coordinates": [-75.6272008038, 38.6465802113]}, "type": "Feature", "properties": {"collection_times": [{"days": "Mon-Fri", "time": "1:30pm"}, {"days": "Sat", "time": "12:00pm"}, {"days": "Sun", "time": "Closed"}], "id": "1997300007", "name": "USPS COLLECTION BOX - BLUE BOX", "address": {"city": "SEAFORD", "state": "DE", "street": "715 NYLON BLVD", "postcode": "19973"}}},
{"geometry": {"type": "Point", "coordinates": [-75.6283330952, 38.6457191224]}, "type": "Feature", "properties": {"collection_times": [{"days": "Mon-Fri", "time": "1:30pm"}, {"days": "Sat", "time": "12:00pm"}, {"days": "Sun", "time": "Closed"}], "id": "1997300008", "name": "USPS COLLECTION BOX - BLUE BOX", "address": {"city": "SEAFORD", "state": "DE", "street": "1000 W STEIN HWY", "postcode": "19973"}}},
{"geometry": {"type": "Point", "coordinates": [-75.622474196, 38.6432792792]}, "type": "Feature", "properties": {"collection_times": [{"days": "Mon-Fri", "time": "1:15pm"}, {"days": "Sat", "time": "12:00pm"}, {"days": "Sun", "time": "Closed"}], "id": "1997300011", "name": "USPS COLLECTION BOX - BLUE BOX", "address": {"city": "SEAFORD", "state": "DE", "street": "501 N SHIPLEY ST", "postcode": "19973"}}},
{"geometry": {"type": "Point", "coordinates": [-75.6101738806, 38.6358543383]}, "type": "Feature", "properties": {"collection_times": [{"days": "Mon-Fri", "time": "1:45pm"}, {"days": "Sat", "time": "12:15pm"}, {"days": "Sun", "time": "Closed"}], "id": "1997300013", "name": "USPS COLLECTION BOX - BLUE BOX", "address": {"city": "SEAFORD", "state": "DE", "street": "35 S MARKET ST", "postcode": "19973"}}},
{"geometry": {"type": "Point", "coordinates": [-75.6102144419, 38.6417947016]}, "type": "Feature", "properties": {"collection_times": [{"days": "Mon-Fri", "time": "1:45pm"}, {"days": "Sat", "time": "12:30pm"}, {"days": "Sun", "time": "Closed"}], "id": "1997300014", "name": "USPS COLLECTION BOX - BLUE BOX", "address": {"city": "SEAFORD", "state": "DE", "street": "414 HIGH ST", "postcode": "19973"}}},
{"geometry": {"type": "Point", "coordinates": [-75.6052501561, 38.6422818623]}, "type": "Feature", "properties": {"collection_times": [{"days": "Mon-Fri", "time": "1:00pm"}, {"days": "Sat", "time": "12:00pm"}, {"days": "Sun", "time": "Closed"}], "id": "1997300015", "name": "USPS COLLECTION BOX - BLUE BOX", "address": {"city": "SEAFORD", "state": "DE", "street": "801 MIDDLEFORD RD", "postcode": "19973"}}},
{"geometry": {"type": "Point", "coordinates": [-75.5940276562, 38.6617867571]}, "type": "Feature", "properties": {"collection_times": [{"days": "Mon-Fri", "time": "1:00pm"}, {"days": "Sat", "time": "12:00pm"}, {"days": "Sun", "time": "Closed"}], "id": "1997300018", "name": "USPS COLLECTION BOX - BLUE BOX", "address": {"city": "SEAFORD", "state": "DE", "street": "22954 SUSSEX HWY", "postcode": "19973"}}},
{"geometry": {"type": "Point", "coordinates": [-75.6000669816, 38.6610960717]}, "type": "Feature", "properties": {"collection_times": [{"days": "Mon-Fri", "time": "5:00pm"}, {"days": "Sat", "time": "3:45pm"}, {"days": "Sun", "time": "Closed"}], "id": "1997300021", "name": "USPS COLLECTION BOX - BLUE BOX", "address": {"city": "SEAFORD", "state": "DE", "street": "2001 BRIDGEVILLE HWY", "postcode": "19973"}}},
{"geometry": {"type": "Point", "coordinates": [-75.6000669816, 38.6610960717]}, "type": "Feature", "properties": {"collection_times": [{"days": "Mon-Fri", "time": "5:15pm"}, {"days": "Sat", "time": "4:00pm"}, {"days": "Sun", "time": "Closed"}], "id": "1997300022", "name": "USPS COLLECTION BOX - PO LOBBY", "address": {"city": "SEAFORD", "state": "DE", "street": "2001 BRIDGEVILLE HWY", "postcode": "19973"}}},
{"geometry": {"type": "Point", "coordinates": [-75.5934880116, 38.6630021356]}, "type": "Feature", "properties": {"collection_times": [{"days": "Mon-Fri", "time": "1:00pm"}, {"days": "Sat", "time": "12:00pm"}, {"days": "Sun", "time": "Closed"}], "id": "1997300023", "name": "USPS COLLECTION BOX - BLUE BOX", "address": {"city": "SEAFORD", "state": "DE", "street": "22899 SUSSEX HWY", "postcode": "19973"}}},
{"geometry": {"type": "Point", "coordinates": [-75.6118262239, 38.6404669287]}, "type": "Feature", "properties": {"collection_times": [{"days": "Mon-Sat", "time": "9:00am"}, {"days": "Sun", "time": "Closed"}], "id": "1997300024", "name": "USPS COLLECTION BOX - BLUE BOX", "address": {"city": "SEAFORD", "state": "DE", "street": "280 COOL BRANCH BLVD ((RR#09))", "postcode": "19973"}}},
{"geometry": {"type": "Point", "coordinates": [-75.6118262239, 38.6404669287]}, "type": "Feature", "properties": {"collection_times": [{"days": "Mon-Sat", "time": "9:00am"}, {"days": "Sun", "time": "Closed"}], "id": "1997300025", "name": "USPS COLLECTION BOX - BLUE BOX", "address": {"city": "SEAFORD", "state": "DE", "street": "1 RIVERS END DR ((RR#06))", "postcode": "19973"}}},
{"geometry": {"type": "Point", "coordinates": [-75.1646994973, 38.4681754341]}, "type": "Feature", "properties": {"collection_times": [{"days": "Mon-Sat", "time": "10:00am"}, {"days": "Sun", "time": "Closed"}], "id": "1997500002", "name": "USPS COLLECTION BOX - BLUE BOX", "address": {"city": "SELBYVILLE", "state": "DE", "street": "37598 SHADY CIR", "postcode": "19975"}}},
{"geometry": {"type": "Point", "coordinates": [-75.2290922046, 38.4513579177]}, "type": "Feature", "properties": {"collection_times": [{"days": "Mon-Sat", "time": "10:30am"}, {"days": "Sun", "time": "Closed"}], "id": "1997500007", "name": "USPS COLLECTION BOX - BLUE BOX", "address": {"city": "SELBYVILLE", "state": "DE", "street": "7 MASON DIXON SHOPPING CTR", "postcode": "19975"}}},
{"geometry": {"type": "Point", "coordinates": [-75.0858735862, 38.4653435769]}, "type": "Feature", "properties": {"collection_times": [{"days": "Mon-Sat", "time": "9:00am"}, {"days": "Sun", "time": "Closed"}], "id": "1997500008", "name": "USPS COLLECTION BOX - BLUE BOX", "address": {"city": "SELBYVILLE", "state": "DE", "street": "37232 LIGHT HOUSE RD", "postcode": "19975"}}},
{"geometry": {"type": "Point", "coordinates": [-75.2234632455, 38.459403757]}, "type": "Feature", "properties": {"collection_times": [{"days": "Mon-Fri", "time": "4:00pm"}, {"days": "Sat", "time": "11:30am"}, {"days": "Sun", "time": "Closed"}], "id": "1997500009", "name": "USPS COLLECTION BOX - BLUE BOX", "address": {"city": "SELBYVILLE", "state": "DE", "street": "23 W CHURCH ST", "postcode": "19975"}}},
{"geometry": {"type": "Point", "coordinates": [-75.2234632455, 38.459403757]}, "type": "Feature", "properties": {"collection_times": [{"days": "Mon-Fri", "time": "4:30pm"}, {"days": "Sat", "time": "12:00pm"}, {"days": "Sun", "time": "Closed"}], "id": "1997500010", "name": "USPS COLLECTION BOX - PO LOBBY", "address": {"city": "SELBYVILLE", "state": "DE", "street": "23 W CHURCH ST", "postcode": "19975"}}},
{"geometry": {"type": "Point", "coordinates": [-75.6071203937, 39.2996624921]}, "type": "Feature", "properties": {"collection_times": [{"days": "Mon-Fri", "time": "5:00pm"}, {"days": "Sat", "time": "3:00pm"}, {"days": "Sun", "time": "Closed"}], "id": "1997700000", "name": "USPS COLLECTION BOX - BLUE BOX", "address": {"city": "SMYRNA", "state": "DE", "street": "13 S MARKET ST", "postcode": "19977"}}},
{"geometry": {"type": "Point", "coordinates": [-75.6071203937, 39.2996624921]}, "type": "Feature", "properties": {"collection_times": [{"days": "Mon-Fri", "time": "5:00pm"}, {"days": "Sat", "time": "3:00pm"}, {"days": "Sun", "time": "Closed"}], "id": "1997700008", "name": "USPS COLLECTION BOX - BLUE BOX", "address": {"city": "SMYRNA", "state": "DE", "street": "13 S MARKET ST", "postcode": "19977"}}},
{"geometry": {"type": "Point", "coordinates": [-75.6071203937, 39.2996624921]}, "type": "Feature", "properties": {"collection_times": [{"days": "Mon-Fri", "time": "5:00pm"}, {"days": "Sat", "time": "3:00pm"}, {"days": "Sun", "time": "Closed"}], "id": "1997700009", "name": "USPS COLLECTION BOX - PO LOBBY", "address": {"city": "SMYRNA", "state": "DE", "street": "13 S MARKET ST", "postcode": "19977"}}},
{"geometry": {"type": "Point", "coordinates": [-75.5719999262, 39.0430344897]}, "type": "Feature", "properties": {"collection_times": [{"days": "Mon-Fri", "time": "4:00pm"}, {"days": "Sat", "time": "11:00am"}, {"days": "Sun", "time": "Closed"}], "id": "1997900000", "name": "USPS COLLECTION BOX - BLUE BOX", "address": {"city": "VIOLA", "state": "DE", "street": "3 S MAIN ST", "postcode": "19979"}}},
{"geometry": {"type": "Point", "coordinates": [-75.5719999262, 39.0430344897]}, "type": "Feature", "properties": {"collection_times": [{"days": "Mon-Fri", "time": "4:30pm"}, {"days": "Sat", "time": "11:30am"}, {"days": "Sun", "time": "Closed"}], "id": "1997900001", "name": "USPS COLLECTION BOX - PO LOBBY", "address": {"city": "VIOLA", "state": "DE", "street": "3 S MAIN ST", "postcode": "19979"}}},
{"geometry": {"type": "Point", "coordinates": [-75.5684600785, 39.071228102]}, "type": "Feature", "properties": {"collection_times": [{"days": "Mon-Fri", "time": "4:45pm"}, {"days": "Sat", "time": "11:15am"}, {"days": "Sun", "time": "Closed"}], "id": "1998000000", "name": "USPS COLLECTION BOX - BLUE BOX", "address": {"city": "WOODSIDE", "state": "DE", "street": "4568 TURKEY POINT RD", "postcode": "19980"}}},
{"geometry": {"type": "Point", "coordinates": [-75.5684600785, 39.071228102]}, "type": "Feature", "properties": {"collection_times": [{"days": "Mon-Fri", "time": "4:45pm"}, {"days": "Sat", "time": "11:30am"}, {"days": "Sun", "time": "Closed"}], "id": "1998000001", "name": "USPS COLLECTION BOX - PO LOBBY", "address": {"city": "WOODSIDE", "state": "DE", "street": "4568 TURKEY POINT RD", "postcode": "19980"}}}
]}
