{"type": "FeatureCollection", "features": [
{"geometry": {"type": "Point", "coordinates": [-86.5120725368, 33.5784590428]}, "type": "Feature", "properties": {"collection_times": [{"days": "Mon-Fri", "time": "4:30pm"}, {"days": "Sat", "time": "11:30am"}, {"days": "Sun", "time": "Closed"}], "id": "3500400001", "name": "USPS COLLECTION BOX - BLUE BOX", "address": {"city": "MOODY", "state": "AL", "street": "2455 MOODY PKWY", "postcode": "35004"}}},
{"geometry": {"type": "Point", "coordinates": [-86.5120725368, 33.5784590428]}, "type": "Feature", "properties": {"collection_times": [{"days": "Mon-Fri", "time": "4:30pm"}, {"days": "Sat", "time": "11:30am"}, {"days": "Sun", "time": "Closed"}], "id": "3500400003", "name": "USPS COLLECTION BOX - BLUE BOX", "address": {"city": "MOODY", "state": "AL", "street": "2455 MOODY PKWY", "postcode": "35004"}}},
{"geometry": {"type": "Point", "coordinates": [-86.5120725368, 33.5784590428]}, "type": "Feature", "properties": {"collection_times": [{"days": "Mon-Fri", "time": "4:30pm"}, {"days": "Sat", "time": "11:30am"}, {"days": "Sun", "time": "Closed"}], "id": "3500400004", "name": "USPS COLLECTION BOX - PO LOBBY", "address": {"city": "MOODY", "state": "AL", "street": "2455 MOODY PKWY", "postcode": "35004"}}},
{"geometry": {"type": "Point", "coordinates": [-86.9359726575, 33.5884489386]}, "type": "Feature", "properties": {"collection_times": [{"days": "Mon-Fri", "time": "4:00pm"}, {"days": "Sat", "time": "11:00am"}, {"days": "Sun", "time": "Closed"}], "id": "3500500000", "name": "USPS COLLECTION BOX - BLUE BOX", "address": {"city": "ADAMSVILLE", "state": "AL", "street": "3609 GRAY AVE", "postcode": "35005"}}},
{"geometry": {"type": "Point", "coordinates": [-86.9359726575, 33.5884489386]}, "type": "Feature", "properties": {"collection_times": [{"days": "Mon-Fri", "time": "4:00pm"}, {"days": "Sat", "time": "11:00am"}, {"days": "Sun", "time": "Closed"}], "id": "3500500001", "name": "USPS COLLECTION BOX - PO LOBBY", "address": {"city": "ADAMSVILLE", "state": "AL", "street": "3609 GRAY AVE", "postcode": "35005"}}},
{"geometry": {"type": "Point", "coordinates": [-87.0884780323, 33.3785440533]}, "type": "Feature", "properties": {"collection_times": [{"days": "Mon-Fri", "time": "4:00pm"}, {"days": "Sat", "time": "10:00am"}, {"days": "Sun", "time": "Closed"}], "id": "3500600000", "name": "USPS COLLECTION BOX - BLUE BOX", "address": {"city": "ADGER", "state": "AL", "street": "7313 JOHNS RD", "postcode": "35006"}}},
{"geometry": {"type": "Point", "coordinates": [-87.0884780323, 33.3785440533]}, "type": "Feature", "properties": {"collection_times": [{"days": "Mon-Fri", "time": "4:00pm"}, {"days": "Sat", "time": "10:00am"}, {"days": "Sun", "time": "Closed"}], "id": "3500600001", "name": "USPS COLLECTION BOX - PO LOBBY", "address": {"city": "ADGER", "state": "AL", "street": "7313 JOHNS RD", "postcode": "35006"}}},
{"geometry": {"type": "Point", "coordinates": [-87.148699737, 33.4506311035]}, "type": "Feature", "properties": {"collection_times": [{"days": "Mon-Sat", "time": "1:00pm"}, {"days": "Sun", "time": "Closed"}], "id": "3500600003", "name": "USPS COLLECTION BOX - BLUE BOX", "address": {"city": "ADGER", "state": "AL", "street": "9101 LOCK 17 RD", "postcode": "35006"}}},
{"geometry": {"type": "Point", "coordinates": [-86.8250938531, 33.2165366132]}, "type": "Feature", "properties": {"collection_times": [{"days": "Mon-Fri", "time": "4:30pm"}, {"days": "Sat", "time": "12:00pm"}, {"days": "Sun", "time": "Closed"}], "id": "3500700000", "name": "USPS COLLECTION BOX - BLUE BOX", "address": {"city": "ALABASTER", "state": "AL", "street": "50 KENT STONE WAY", "postcode": "35007"}}},
{"geometry": {"type": "Point", "coordinates": [-86.8250938531, 33.2165366132]}, "type": "Feature", "properties": {"collection_times": [{"days": "Mon-Fri", "time": "4:30pm"}, {"days": "Sat", "time": "12:00pm"}, {"days": "Sun", "time": "Closed"}], "id": "3500700001", "name": "USPS COLLECTION BOX - BLUE BOX", "address": {"city": "ALABASTER", "state": "AL", "street": "50 KENT STONE WAY", "postcode": "35007"}}},
{"geometry": {"type": "Point", "coordinates": [-86.8250938531, 33.2165366132]}, "type": "Feature", "properties": {"collection_times": [{"days": "Mon-Fri", "time": "4:30pm"}, {"days": "Sat", "time": "12:00pm"}, {"days": "Sun", "time": "Closed"}], "id": "3500700002", "name": "USPS COLLECTION BOX - BLUE BOX", "address": {"city": "ALABASTER", "state": "AL", "street": "50 KENT STONE WAY", "postcode": "35007"}}},
{"geometry": {"type": "Point", "coordinates": [-86.8250938531, 33.2165366132]}, "type": "Feature", "properties": {"collection_times": [{"days": "Mon-Fri", "time": "4:30pm"}, {"days": "Sat", "time": "12:00pm"}, {"days": "Sun", "time": "Closed"}], "id": "3500700003", "name": "USPS COLLECTION BOX - BLUE BOX", "address": {"city": "ALABASTER", "state": "AL", "street": "50 KENT STONE WAY", "postcode": "35007"}}},
{"geometry": {"type": "Point", "coordinates": [-86.8250938531, 33.2165366132]}, "type": "Feature", "properties": {"collection_times": [{"days": "Mon-Fri", "time": "4:30pm"}, {"days": "Sat", "time": "12:00pm"}, {"days": "Sun", "time": "Closed"}], "id": "3500700011", "name": "USPS COLLECTION BOX - PO LOBBY", "address": {"city": "ALABASTER", "state": "AL", "street": "50 KENT STONE WAY", "postcode": "35007"}}},
{"geometry": {"type": "Point", "coordinates": [-85.9575706326, 32.94203842]}, "type": "Feature", "properties": {"collection_times": [{"days": "Mon-Fri", "time": "4:30pm"}, {"days": "Sat", "time": "12:00pm"}, {"days": "Sun", "time": "Closed"}], "id": "3501000001", "name": "USPS COLLECTION BOX - BLUE BOX", "address": {"city": "ALEXANDER CITY", "state": "AL", "street": "233 LEE ST", "postcode": "35010"}}},
{"geometry": {"type": "Point", "coordinates": [-85.9533414505, 32.9452497116]}, "type": "Feature", "properties": {"collection_times": [{"days": "Mon-Fri", "time": "10:00am"}, {"days": "Sat-Sun", "time": "Closed"}], "id": "3501000002", "name": "USPS COLLECTION BOX - BLUE BOX", "address": {"city": "ALEXANDER CITY", "state": "AL", "street": "8 BROAD ST", "postcode": "35010"}}},
{"geometry": {"type": "Point", "coordinates": [-85.9533414505, 32.9452497116]}, "type": "Feature", "properties": {"collection_times": [{"days": "Mon-Fri", "time": "10:00am"}, {"days": "Sat-Sun", "time": "Closed"}], "id": "3501000003", "name": "USPS COLLECTION BOX - BLUE BOX", "address": {"city": "ALEXANDER CITY", "state": "AL", "street": "8 BROAD ST", "postcode": "35010"}}},
{"geometry": {"type": "Point", "coordinates": [-85.9528799919, 32.9396568239]}, "type": "Feature", "properties": {"collection_times": [{"days": "Mon-Fri", "time": "9:00am"}, {"days": "Sat-Sun", "time": "Closed"}], "id": "3501000006", "name": "USPS COLLECTION BOX - BLUE BOX", "address": {"city": "ALEXANDER CITY", "state": "AL", "street": "428 MADISON ST", "postcode": "35010"}}},
{"geometry": {"type": "Point", "coordinates": [-85.9522081316, 32.9359367351]}, "type": "Feature", "properties": {"collection_times": [{"days": "Mon-Fri", "time": "10:00am"}, {"days": "Sat-Sun", "time": "Closed"}], "id": "3501000007", "name": "USPS COLLECTION BOX - BLUE BOX", "address": {"city": "ALEXANDER CITY", "state": "AL", "street": "823 CHEROKEE RD", "postcode": "35010"}}},
{"geometry": {"type": "Point", "coordinates": [-85.9367192078, 32.933350881]}, "type": "Feature", "properties": {"collection_times": [{"days": "Mon-Fri", "time": "9:00am"}, {"days": "Sat-Sun", "time": "Closed"}], "id": "3501000008", "name": "USPS COLLECTION BOX - BLUE BOX", "address": {"city": "ALEXANDER CITY", "state": "AL", "street": "3146 HIGHWAY 280", "postcode": "35010"}}},
{"geometry": {"type": "Point", "coordinates": [-85.9471752566, 32.9299191764]}, "type": "Feature", "properties": {"collection_times": [{"days": "Mon-Fri", "time": "9:00am"}, {"days": "Sat-Sun", "time": "Closed"}], "id": "3501000010", "name": "USPS COLLECTION BOX - BLUE BOX", "address": {"city": "ALEXANDER CITY", "state": "AL", "street": "1397 DADEVILLE RD", "postcode": "35010"}}},
{"geometry": {"type": "Point", "coordinates": [-85.9687073064, 32.9363327366]}, "type": "Feature", "properties": {"collection_times": [{"days": "Mon-Fri", "time": "9:00am"}, {"days": "Sat-Sun", "time": "Closed"}], "id": "3501000011", "name": "USPS COLLECTION BOX - BLUE BOX", "address": {"city": "ALEXANDER CITY", "state": "AL", "street": "1154 LEE ST", "postcode": "35010"}}},
{"geometry": {"type": "Point", "coordinates": [-85.9523921716, 32.9457990638]}, "type": "Feature", "properties": {"collection_times": [{"days": "Mon-Fri", "time": "10:00am"}, {"days": "Sat-Sun", "time": "Closed"}], "id": "3501000012", "name": "USPS COLLECTION BOX - BLUE BOX", "address": {"city": "ALEXANDER CITY", "state": "AL", "street": "61 JEFFERSON ST", "postcode": "35010"}}},
{"geometry": {"type": "Point", "coordinates": [-85.9596801237, 32.9205781344]}, "type": "Feature", "properties": {"collection_times": [{"days": "Mon-Fri", "time": "10:00am"}, {"days": "Sat-Sun", "time": "Closed"}], "id": "3501000013", "name": "USPS COLLECTION BOX - BLUE BOX", "address": {"city": "ALEXANDER CITY", "state": "AL", "street": "981 MARKET PL", "postcode": "35010"}}},
{"geometry": {"type": "Point", "coordinates": [-85.9835660112, 32.9368733622]}, "type": "Feature", "properties": {"collection_times": [{"days": "Mon-Fri", "time": "12:00pm"}, {"days": "Sat-Sun", "time": "Closed"}], "id": "3501000014", "name": "USPS COLLECTION BOX - BLUE BOX", "address": {"city": "ALEXANDER CITY", "state": "AL", "street": "2110 COUNTY RD", "postcode": "35010"}}},
{"geometry": {"type": "Point", "coordinates": [-85.9720357271, 32.9307110024]}, "type": "Feature", "properties": {"collection_times": [{"days": "Mon-Fri", "time": "9:00am"}, {"days": "Sat-Sun", "time": "Closed"}], "id": "3501000015", "name": "USPS COLLECTION BOX - BLUE BOX", "address": {"city": "ALEXANDER CITY", "state": "AL", "street": "115 ALISON DR", "postcode": "35010"}}},
{"geometry": {"type": "Point", "coordinates": [-85.9717576218, 32.9355703127]}, "type": "Feature", "properties": {"collection_times": [{"days": "Mon-Fri", "time": "10:00am"}, {"days": "Sat-Sun", "time": "Closed"}], "id": "3501000016", "name": "USPS COLLECTION BOX - BLUE BOX", "address": {"city": "ALEXANDER CITY", "state": "AL", "street": "1612 MILL SQ", "postcode": "35010"}}},
{"geometry": {"type": "Point", "coordinates": [-85.9575706326, 32.94203842]}, "type": "Feature", "properties": {"collection_times": [{"days": "Mon-Fri", "time": "4:30pm"}, {"days": "Sat", "time": "12:00pm"}, {"days": "Sun", "time": "Closed"}], "id": "3501000017", "name": "USPS COLLECTION BOX - BLUE BOX", "address": {"city": "ALEXANDER CITY", "state": "AL", "street": "233 LEE ST", "postcode": "35010"}}},
{"geometry": {"type": "Point", "coordinates": [-85.9834304671, 32.9439526317]}, "type": "Feature", "properties": {"collection_times": [{"days": "Mon-Fri", "time": "11:00am"}, {"days": "Sat-Sun", "time": "Closed"}], "id": "3501000018", "name": "USPS COLLECTION BOX - BLUE BOX", "address": {"city": "ALEXANDER CITY", "state": "AL", "street": "2643 HIGHWAY 280", "postcode": "35010"}}},
{"geometry": {"type": "Point", "coordinates": [-86.003714443, 32.9622564027]}, "type": "Feature", "properties": {"collection_times": [{"days": "Mon-Fri", "time": "10:00am"}, {"days": "Sat-Sun", "time": "Closed"}], "id": "3501000019", "name": "USPS COLLECTION BOX - BLUE BOX", "address": {"city": "ALEXANDER CITY", "state": "AL", "street": "1061 HIGHWAY 280", "postcode": "35010"}}},
{"geometry": {"type": "Point", "coordinates": [-85.9575706326, 32.94203842]}, "type": "Feature", "properties": {"collection_times": [{"days": "Mon-Fri", "time": "4:30pm"}, {"days": "Sat", "time": "12:00pm"}, {"days": "Sun", "time": "Closed"}], "id": "3501000020", "name": "USPS COLLECTION BOX - PO LOBBY", "address": {"city": "ALEXANDER CITY", "state": "AL", "street": "233 LEE ST", "postcode": "35010"}}},
{"geometry": {"type": "Point", "coordinates": [-85.9502016479, 32.9183376369]}, "type": "Feature", "properties": {"collection_times": [{"days": "Mon-Fri", "time": "10:00am"}, {"days": "Sat-Sun", "time": "Closed"}], "id": "3501000021", "name": "USPS COLLECTION BOX - BLUE BOX", "address": {"city": "ALEXANDER CITY", "state": "AL", "street": "2020 CHEROKEE RD", "postcode": "35010"}}},
{"geometry": {"type": "Point", "coordinates": [-86.5141191416, 33.9058912597]}, "type": "Feature", "properties": {"collection_times": [{"days": "Mon-Fri", "time": "10:00am"}, {"days": "Sat", "time": "10:45am"}, {"days": "Sun", "time": "Closed"}], "id": "3501300000", "name": "USPS COLLECTION BOX - BLUE BOX", "address": {"city": "ALLGOOD", "state": "AL", "street": "26038 HIGHWAY 75 N", "postcode": "35013"}}},
{"geometry": {"type": "Point", "coordinates": [-86.5141191416, 33.9058912597]}, "type": "Feature", "properties": {"collection_times": [{"days": "Mon-Fri", "time": "9:50am"}, {"days": "Sat", "time": "10:45am"}, {"days": "Sun", "time": "Closed"}], "id": "3501300001", "name": "USPS COLLECTION BOX - PO LOBBY", "address": {"city": "ALLGOOD", "state": "AL", "street": "26038 HIGHWAY 75 N", "postcode": "35013"}}},
{"geometry": {"type": "Point", "coordinates": [-86.2348748761, 33.3499312793]}, "type": "Feature", "properties": {"collection_times": [{"days": "Mon-Fri", "time": "4:00pm"}, {"days": "Sat", "time": "10:00am"}, {"days": "Sun", "time": "Closed"}], "id": "3501400000", "name": "USPS COLLECTION BOX - BLUE BOX", "address": {"city": "ALPINE", "state": "AL", "street": "3585 GRIST MILL RD", "postcode": "35014"}}},
{"geometry": {"type": "Point", "coordinates": [-86.2348748761, 33.3499312793]}, "type": "Feature", "properties": {"collection_times": [{"days": "Mon-Fri", "time": "4:00pm"}, {"days": "Sat", "time": "10:00am"}, {"days": "Sun", "time": "Closed"}], "id": "3501400001", "name": "USPS COLLECTION BOX - PO LOBBY", "address": {"city": "ALPINE", "state": "AL", "street": "3585 GRIST MILL RD", "postcode": "35014"}}},
{"geometry": {"type": "Point", "coordinates": [-86.6374688548, 33.5794445913]}, "type": "Feature", "properties": {"collection_times": [{"days": "Mon-Fri", "time": "12:00pm"}, {"days": "Sat-Sun", "time": "Closed"}], "id": "3501500000", "name": "USPS COLLECTION BOX - BLUE BOX", "address": {"city": "ALTON", "state": "AL", "street": "5555 JOHNSON ST", "postcode": "35015"}}},
{"geometry": {"type": "Point", "coordinates": [-86.6374688548, 33.5794445913]}, "type": "Feature", "properties": {"collection_times": [{"days": "Mon-Fri", "time": "12:00pm"}, {"days": "Sat-Sun", "time": "Closed"}], "id": "3501500001", "name": "USPS COLLECTION BOX - PO LOBBY", "address": {"city": "ALTON", "state": "AL", "street": "5555 JOHNSON ST", "postcode": "35015"}}},
{"geometry": {"type": "Point", "coordinates": [-86.5029534015, 34.3404484373]}, "type": "Feature", "properties": {"collection_times": [{"days": "Mon-Fri", "time": "4:30pm"}, {"days": "Sat", "time": "3:30pm"}, {"days": "Sun", "time": "Closed"}], "id": "3501600000", "name": "USPS COLLECTION BOX - BLUE BOX", "address": {"city": "ARAB", "state": "AL", "street": "819 N MAIN ST", "postcode": "35016"}}},
{"geometry": {"type": "Point", "coordinates": [-86.5029534015, 34.3404484373]}, "type": "Feature", "properties": {"collection_times": [{"days": "Mon-Fri", "time": "4:30pm"}, {"days": "Sat", "time": "3:30pm"}, {"days": "Sun", "time": "Closed"}], "id": "3501600001", "name": "USPS COLLECTION BOX - BLUE BOX", "address": {"city": "ARAB", "state": "AL", "street": "819 N MAIN ST", "postcode": "35016"}}},
{"geometry": {"type": "Point", "coordinates": [-86.4959686705, 34.3150143516]}, "type": "Feature", "properties": {"collection_times": [{"days": "Mon-Sat", "time": "12:00pm"}, {"days": "Sun", "time": "Closed"}], "id": "3501600003", "name": "USPS COLLECTION BOX - BLUE BOX", "address": {"city": "ARAB", "state": "AL", "street": "100 S MAIN ST", "postcode": "35016"}}},
{"geometry": {"type": "Point", "coordinates": [-86.5032107651, 34.3343023799]}, "type": "Feature", "properties": {"collection_times": [{"days": "Mon-Sat", "time": "10:30am"}, {"days": "Sun", "time": "Closed"}], "id": "3501600005", "name": "USPS COLLECTION BOX - BLUE BOX", "address": {"city": "ARAB", "state": "AL", "street": "1070 N BRINDLEE MOUNTAIN PKWY", "postcode": "35016"}}},
{"geometry": {"type": "Point", "coordinates": [-86.5029534015, 34.3404484373]}, "type": "Feature", "properties": {"collection_times": [{"days": "Mon-Fri", "time": "4:30pm"}, {"days": "Sat", "time": "3:30pm"}, {"days": "Sun", "time": "Closed"}], "id": "3501600007", "name": "USPS COLLECTION BOX - PO LOBBY", "address": {"city": "ARAB", "state": "AL", "street": "819 N MAIN ST", "postcode": "35016"}}},
{"geometry": {"type": "Point", "coordinates": [-86.6120875991, 34.2635413679]}, "type": "Feature", "properties": {"collection_times": [{"days": "Mon-Fri", "time": "3:30pm"}, {"days": "Sat", "time": "10:30am"}, {"days": "Sun", "time": "Closed"}], "id": "3501900000", "name": "USPS COLLECTION BOX - BLUE BOX", "address": {"city": "BAILEYTON", "state": "AL", "street": "12125 AL HIGHWAY 69 N", "postcode": "35019"}}},
{"geometry": {"type": "Point", "coordinates": [-86.612653013, 34.262722298]}, "type": "Feature", "properties": {"collection_times": [{"days": "Mon-Fri", "time": "3:30pm"}, {"days": "Sat", "time": "10:30am"}, {"days": "Sun", "time": "Closed"}], "id": "3501900001", "name": "USPS COLLECTION BOX - PO LOBBY", "address": {"city": "BAILEYTON", "state": "AL", "street": "12125 AL HIGHWAY 69 N", "postcode": "35019"}}},
{"geometry": {"type": "Point", "coordinates": [-86.9616117075, 33.3945945745]}, "type": "Feature", "properties": {"collection_times": [{"days": "Mon-Sat", "time": "4:00pm"}, {"days": "Sun", "time": "Closed"}], "id": "3502000000", "name": "USPS COLLECTION BOX - BLUE BOX", "address": {"city": "BESSEMER", "state": "AL", "street": "1112 4TH AVE N", "postcode": "35020"}}},
{"geometry": {"type": "Point", "coordinates": [-86.9616117075, 33.3945945745]}, "type": "Feature", "properties": {"collection_times": [{"days": "Mon-Sat", "time": "4:00pm"}, {"days": "Sun", "time": "Closed"}], "id": "3502000001", "name": "USPS COLLECTION BOX - BLUE BOX", "address": {"city": "BESSEMER", "state": "AL", "street": "1112 4TH AVE N", "postcode": "35020"}}},
{"geometry": {"type": "Point", "coordinates": [-86.9557250944, 33.4037600598]}, "type": "Feature", "properties": {"collection_times": [{"days": "Mon-Fri", "time": "4:00pm"}, {"days": "Sat-Sun", "time": "Closed"}], "id": "3502000002", "name": "USPS COLLECTION BOX - BLUE BOX", "address": {"city": "BESSEMER", "state": "AL", "street": "500 19TH ST N", "postcode": "35020"}}},
{"geometry": {"type": "Point", "coordinates": [-86.9544991535, 33.401559088]}, "type": "Feature", "properties": {"collection_times": [{"days": "Mon-Fri", "time": "4:00pm"}, {"days": "Sat-Sun", "time": "Closed"}], "id": "3502000004", "name": "USPS COLLECTION BOX - BLUE BOX", "address": {"city": "BESSEMER", "state": "AL", "street": "1800 3RD AVE N", "postcode": "35020"}}},
{"geometry": {"type": "Point", "coordinates": [-86.953630361, 33.4025815865]}, "type": "Feature", "properties": {"collection_times": [{"days": "Mon-Fri", "time": "4:00pm"}, {"days": "Sat-Sun", "time": "Closed"}], "id": "3502000005", "name": "USPS COLLECTION BOX - BLUE BOX", "address": {"city": "BESSEMER", "state": "AL", "street": "300 19TH ST N", "postcode": "35020"}}},
{"geometry": {"type": "Point", "coordinates": [-86.9532288995, 33.4047405277]}, "type": "Feature", "properties": {"collection_times": [{"days": "Mon-Fri", "time": "4:00pm"}, {"days": "Sat-Sun", "time": "Closed"}], "id": "3502000006", "name": "USPS COLLECTION BOX - EXPRESS", "address": {"city": "BESSEMER", "state": "AL", "street": "300 19TH ST N", "postcode": "35020"}}},
{"geometry": {"type": "Point", "coordinates": [-86.9532068032, 33.4029395594]}, "type": "Feature", "properties": {"collection_times": [{"days": "Mon-Fri", "time": "4:00pm"}, {"days": "Sat-Sun", "time": "Closed"}], "id": "3502000009", "name": "USPS COLLECTION BOX - BLUE BOX", "address": {"city": "BESSEMER", "state": "AL", "street": "1931 3RD AVE N", "postcode": "35020"}}},
{"geometry": {"type": "Point", "coordinates": [-86.9525718707, 33.4021037783]}, "type": "Feature", "properties": {"collection_times": [{"days": "Mon-Fri", "time": "4:00pm"}, {"days": "Sat-Sun", "time": "Closed"}], "id": "3502000011", "name": "USPS COLLECTION BOX - BLUE BOX", "address": {"city": "BESSEMER", "state": "AL", "street": "1900 2ND AVE N", "postcode": "35020"}}},
{"geometry": {"type": "Point", "coordinates": [-86.9540490792, 33.4002055646]}, "type": "Feature", "properties": {"collection_times": [{"days": "Mon-Fri", "time": "4:00pm"}, {"days": "Sat-Sun", "time": "Closed"}], "id": "3502000013", "name": "USPS COLLECTION BOX - BLUE BOX", "address": {"city": "BESSEMER", "state": "AL", "street": "1730 2ND AVE N", "postcode": "35020"}}},
{"geometry": {"type": "Point", "coordinates": [-86.9583789724, 33.4025927416]}, "type": "Feature", "properties": {"collection_times": [{"days": "Mon-Fri", "time": "4:00pm"}, {"days": "Sat-Sun", "time": "Closed"}], "id": "3502000014", "name": "USPS COLLECTION BOX - BLUE BOX", "address": {"city": "BESSEMER", "state": "AL", "street": "1729 6TH AVE N", "postcode": "35020"}}},
{"geometry": {"type": "Point", "coordinates": [-86.9752734509, 33.3909538104]}, "type": "Feature", "properties": {"collection_times": [{"days": "Mon-Fri", "time": "10:00am"}, {"days": "Sat-Sun", "time": "Closed"}], "id": "3502000015", "name": "USPS COLLECTION BOX - BLUE BOX", "address": {"city": "BESSEMER", "state": "AL", "street": "600 9TH AVE SW", "postcode": "35020"}}},
{"geometry": {"type": "Point", "coordinates": [-86.9422403934, 33.4299240582]}, "type": "Feature", "properties": {"collection_times": [{"days": "Mon-Fri", "time": "12:00pm"}, {"days": "Sat-Sun", "time": "Closed"}], "id": "3502000019", "name": "USPS COLLECTION BOX - BLUE BOX", "address": {"city": "BESSEMER", "state": "AL", "street": "4200 BESSEMER SUPER HWY", "postcode": "35020"}}},
{"geometry": {"type": "Point", "coordinates": [-86.8402850888, 32.7665445132]}, "type": "Feature", "properties": {"collection_times": [{"days": "Mon-Fri", "time": "10:00am"}, {"days": "Sat-Sun", "time": "Closed"}], "id": "3502000021", "name": "USPS COLLECTION BOX - BLUE BOX", "address": {"city": "BESSEMER", "state": "AL", "street": "91 TIMBERLINE W", "postcode": "35020"}}},
{"geometry": {"type": "Point", "coordinates": [-86.9688386437, 33.3966474331]}, "type": "Feature", "properties": {"collection_times": [{"days": "Mon-Fri", "time": "3:30pm"}, {"days": "Sat-Sun", "time": "Closed"}], "id": "3502000022", "name": "USPS COLLECTION BOX - BLUE BOX", "address": {"city": "BESSEMER", "state": "AL", "street": "985 9TH AVE SW", "postcode": "35020"}}},
{"geometry": {"type": "Point", "coordinates": [-86.9260107147, 33.4235942509]}, "type": "Feature", "properties": {"collection_times": [{"days": "Mon-Fri", "time": "10:00am"}, {"days": "Sat-Sun", "time": "Closed"}], "id": "3502000023", "name": "USPS COLLECTION BOX - BLUE BOX", "address": {"city": "BESSEMER", "state": "AL", "street": "5512 AVENUE H", "postcode": "35020"}}},
{"geometry": {"type": "Point", "coordinates": [-86.949914849, 33.4293206993]}, "type": "Feature", "properties": {"collection_times": [{"days": "Mon-Fri", "time": "11:00am"}, {"days": "Sat-Sun", "time": "Closed"}], "id": "3502000026", "name": "USPS COLLECTION BOX - BLUE BOX", "address": {"city": "BESSEMER", "state": "AL", "street": "3700 MAIN ST", "postcode": "35020"}}},
{"geometry": {"type": "Point", "coordinates": [-86.9174864416, 33.3365080875]}, "type": "Feature", "properties": {"collection_times": [{"days": "Mon-Fri", "time": "1:00pm"}, {"days": "Sat-Sun", "time": "Closed"}], "id": "3502000028", "name": "USPS COLLECTION BOX - BLUE BOX", "address": {"city": "BESSEMER", "state": "AL", "street": "2910 MORGAN RD", "postcode": "35020"}}},
{"geometry": {"type": "Point", "coordinates": [-86.9616117075, 33.3945945745]}, "type": "Feature", "properties": {"collection_times": [{"days": "Mon-Sat", "time": "4:00pm"}, {"days": "Sun", "time": "Closed"}], "id": "3502000029", "name": "USPS COLLECTION BOX - PO LOBBY", "address": {"city": "BESSEMER", "state": "AL", "street": "1112 4TH AVE N", "postcode": "35020"}}},
{"geometry": {"type": "Point", "coordinates": [-87.0036106527, 33.3677742195]}, "type": "Feature", "properties": {"collection_times": [{"days": "Mon-Fri", "time": "3:30pm"}, {"days": "Sat-Sun", "time": "Closed"}], "id": "3502000031", "name": "USPS COLLECTION BOX - BLUE BOX", "address": {"city": "BESSEMER", "state": "AL", "street": "750 ACADEMY DR", "postcode": "35020"}}},
{"geometry": {"type": "Point", "coordinates": [-86.9512705366, 33.4040032164]}, "type": "Feature", "properties": {"collection_times": [{"days": "Mon-Fri", "time": "11:00am"}, {"days": "Sat-Sun", "time": "Closed"}], "id": "3502000032", "name": "USPS COLLECTION BOX - BLUE BOX", "address": {"city": "BESSEMER", "state": "AL", "street": "4500 KATIES WAY", "postcode": "35020"}}},
{"geometry": {"type": "Point", "coordinates": [-86.9171654854, 33.333258564]}, "type": "Feature", "properties": {"collection_times": [{"days": "Mon-Fri", "time": "11:00am"}, {"days": "Sat-Sun", "time": "Closed"}], "id": "3502000033", "name": "USPS COLLECTION BOX - BLUE BOX", "address": {"city": "BESSEMER", "state": "AL", "street": "1209 LAKE DR SE", "postcode": "35020"}}},
{"geometry": {"type": "Point", "coordinates": [-86.9789279597, 33.4409222153]}, "type": "Feature", "properties": {"collection_times": [{"days": "Mon-Fri", "time": "4:30pm"}, {"days": "Sat", "time": "4:00pm"}, {"days": "Sun", "time": "Closed"}], "id": "3502300000", "name": "USPS COLLECTION BOX - BLUE BOX", "address": {"city": "HUEYTOWN", "state": "AL", "street": "615 BROOKLANE DR", "postcode": "35023"}}},
{"geometry": {"type": "Point", "coordinates": [-86.9789279597, 33.4409222153]}, "type": "Feature", "properties": {"collection_times": [{"days": "Mon-Fri", "time": "4:30pm"}, {"days": "Sat", "time": "4:00pm"}, {"days": "Sun", "time": "Closed"}], "id": "3502300001", "name": "USPS COLLECTION BOX - BLUE BOX", "address": {"city": "HUEYTOWN", "state": "AL", "street": "615 BROOKLANE DR", "postcode": "35023"}}},
{"geometry": {"type": "Point", "coordinates": [-87.0076667172, 33.452459182]}, "type": "Feature", "properties": {"collection_times": [{"days": "Mon-Sat", "time": "3:00pm"}, {"days": "Sun", "time": "Closed"}], "id": "3502300004", "name": "USPS COLLECTION BOX - BLUE BOX", "address": {"city": "HUEYTOWN", "state": "AL", "street": "109 HUEYTOWN PLZ", "postcode": "35023"}}},
{"geometry": {"type": "Point", "coordinates": [-86.9789279597, 33.4409222153]}, "type": "Feature", "properties": {"collection_times": [{"days": "Mon-Fri", "time": "4:30pm"}, {"days": "Sat", "time": "4:00pm"}, {"days": "Sun", "time": "Closed"}], "id": "3502300006", "name": "USPS COLLECTION BOX - PO LOBBY", "address": {"city": "HUEYTOWN", "state": "AL", "street": "615 BROOKLANE DR", "postcode": "35023"}}},
{"geometry": {"type": "Point", "coordinates": [-86.5906499991, 34.0852108112]}, "type": "Feature", "properties": {"collection_times": [{"days": "Mon-Fri", "time": "12:00pm"}, {"days": "Sat", "time": "11:00am"}, {"days": "Sun", "time": "Closed"}], "id": "3503100000", "name": "USPS COLLECTION BOX - BLUE BOX", "address": {"city": "BLOUNTSVILLE", "state": "AL", "street": "69210 MAIN ST", "postcode": "35031"}}},
{"geometry": {"type": "Point", "coordinates": [-86.5906499991, 34.0852108112]}, "type": "Feature", "properties": {"collection_times": [{"days": "Mon-Fri", "time": "12:00pm"}, {"days": "Sat", "time": "11:00am"}, {"days": "Sun", "time": "Closed"}], "id": "3503100001", "name": "USPS COLLECTION BOX - BLUE BOX", "address": {"city": "BLOUNTSVILLE", "state": "AL", "street": "69210 MAIN ST", "postcode": "35031"}}},
{"geometry": {"type": "Point", "coordinates": [-86.5906499991, 34.0852108112]}, "type": "Feature", "properties": {"collection_times": [{"days": "Mon-Fri", "time": "12:00pm"}, {"days": "Sat", "time": "11:00am"}, {"days": "Sun", "time": "Closed"}], "id": "3503100003", "name": "USPS COLLECTION BOX - PO LOBBY", "address": {"city": "BLOUNTSVILLE", "state": "AL", "street": "69210 MAIN ST", "postcode": "35031"}}},
{"geometry": {"type": "Point", "coordinates": [-86.335342124, 33.263737805]}, "type": "Feature", "properties": {"collection_times": [{"days": "Mon-Fri", "time": "10:00am"}, {"days": "Sat", "time": "10:15am"}, {"days": "Sun", "time": "Closed"}], "id": "3503200000", "name": "USPS COLLECTION BOX - BLUE BOX", "address": {"city": "BON AIR", "state": "AL", "street": "200 FRONT ST", "postcode": "35032"}}},
{"geometry": {"type": "Point", "coordinates": [-86.335342124, 33.263737805]}, "type": "Feature", "properties": {"collection_times": [{"days": "Mon-Fri", "time": "10:00am"}, {"days": "Sat", "time": "10:15am"}, {"days": "Sun", "time": "Closed"}], "id": "3503200001", "name": "USPS COLLECTION BOX - PO LOBBY", "address": {"city": "BON AIR", "state": "AL", "street": "200 FRONT ST", "postcode": "35032"}}},
{"geometry": {"type": "Point", "coordinates": [-87.0330364412, 33.9823488987]}, "type": "Feature", "properties": {"collection_times": [{"days": "Mon-Fri", "time": "3:45pm"}, {"days": "Sat", "time": "10:45am"}, {"days": "Sun", "time": "Closed"}], "id": "3503300000", "name": "USPS COLLECTION BOX - BLUE BOX", "address": {"city": "BREMEN", "state": "AL", "street": "2313 COUNTY ROAD 54", "postcode": "35033"}}},
{"geometry": {"type": "Point", "coordinates": [-87.0330364412, 33.9823488987]}, "type": "Feature", "properties": {"collection_times": [{"days": "Mon-Fri", "time": "3:45pm"}, {"days": "Sat", "time": "10:45am"}, {"days": "Sun", "time": "Closed"}], "id": "3503300001", "name": "USPS COLLECTION BOX - PO LOBBY", "address": {"city": "BREMEN", "state": "AL", "street": "2313 COUNTY ROAD 54", "postcode": "35033"}}},
{"geometry": {"type": "Point", "coordinates": [-87.1648442176, 32.936773203]}, "type": "Feature", "properties": {"collection_times": [{"days": "Mon-Fri", "time": "12:30pm"}, {"days": "Sat", "time": "10:30am"}, {"days": "Sun", "time": "Closed"}], "id": "3503400000", "name": "USPS COLLECTION BOX - BLUE BOX", "address": {"city": "BRENT", "state": "AL", "street": "2150 MAIN ST", "postcode": "35034"}}},
{"geometry": {"type": "Point", "coordinates": [-87.1648442176, 32.936773203]}, "type": "Feature", "properties": {"collection_times": [{"days": "Mon-Fri", "time": "12:30pm"}, {"days": "Sat", "time": "10:30am"}, {"days": "Sun", "time": "Closed"}], "id": "3503400001", "name": "USPS COLLECTION BOX - PO LOBBY", "address": {"city": "BRENT", "state": "AL", "street": "2150 MAIN ST", "postcode": "35034"}}},
{"geometry": {"type": "Point", "coordinates": [-86.9135361753, 33.0306288434]}, "type": "Feature", "properties": {"collection_times": [{"days": "Mon-Fri", "time": "2:00pm"}, {"days": "Sat", "time": "9:15am"}, {"days": "Sun", "time": "Closed"}], "id": "3503500000", "name": "USPS COLLECTION BOX - BLUE BOX", "address": {"city": "BRIERFIELD", "state": "AL", "street": "18323 HIGHWAY 139", "postcode": "35035"}}},
{"geometry": {"type": "Point", "coordinates": [-86.9135361753, 33.0306288434]}, "type": "Feature", "properties": {"collection_times": [{"days": "Mon-Fri", "time": "2:00pm"}, {"days": "Sat", "time": "9:15am"}, {"days": "Sun", "time": "Closed"}], "id": "3503500001", "name": "USPS COLLECTION BOX - PO LOBBY", "address": {"city": "BRIERFIELD", "state": "AL", "street": "18323 HIGHWAY 139", "postcode": "35035"}}},
{"geometry": {"type": "Point", "coordinates": [-86.7557196962, 33.1650199167]}, "type": "Feature", "properties": {"collection_times": [{"days": "Mon-Fri", "time": "4:00pm"}, {"days": "Sat", "time": "11:00am"}, {"days": "Sun", "time": "Closed"}], "id": "3504000000", "name": "USPS COLLECTION BOX - BLUE BOX", "address": {"city": "CALERA", "state": "AL", "street": "8088 HIGHWAY 31", "postcode": "35040"}}},
{"geometry": {"type": "Point", "coordinates": [-86.7557196962, 33.1650199167]}, "type": "Feature", "properties": {"collection_times": [{"days": "Mon-Fri", "time": "4:00pm"}, {"days": "Sat", "time": "11:00am"}, {"days": "Sun", "time": "Closed"}], "id": "3504000001", "name": "USPS COLLECTION BOX - PO LOBBY", "address": {"city": "CALERA", "state": "AL", "street": "8088 HIGHWAY 31", "postcode": "35040"}}},
{"geometry": {"type": "Point", "coordinates": [-86.7557196962, 33.1650199167]}, "type": "Feature", "properties": {"collection_times": [{"days": "Mon-Fri", "time": "4:00pm"}, {"days": "Sat", "time": "11:00am"}, {"days": "Sun", "time": "Closed"}], "id": "3504000002", "name": "USPS COLLECTION BOX - BLUE BOX", "address": {"city": "CALERA", "state": "AL", "street": "8088 HIGHWAY 31", "postcode": "35040"}}},
{"geometry": {"type": "Point", "coordinates": [-86.7557196962, 33.1650199167]}, "type": "Feature", "properties": {"collection_times": [{"days": "Mon-Fri", "time": "4:00pm"}, {"days": "Sat", "time": "11:00am"}, {"days": "Sun", "time": "Closed"}], "id": "3504000003", "name": "USPS COLLECTION BOX - PO LOBBY", "address": {"city": "CALERA", "state": "AL", "street": "8088 HIGHWAY 31", "postcode": "35040"}}},
{"geometry": {"type": "Point", "coordinates": [-87.1443014925, 32.9479495448]}, "type": "Feature", "properties": {"collection_times": [{"days": "Mon-Fri", "time": "3:00pm"}, {"days": "Sat", "time": "11:30am"}, {"days": "Sun", "time": "Closed"}], "id": "3504200000", "name": "USPS COLLECTION BOX - BLUE BOX", "address": {"city": "CENTREVILLE", "state": "AL", "street": "155 BIRMINGHAM RD STE 100", "postcode": "35042"}}},
{"geometry": {"type": "Point", "coordinates": [-87.1443014925, 32.9479495448]}, "type": "Feature", "properties": {"collection_times": [{"days": "Mon-Fri", "time": "3:00pm"}, {"days": "Sat", "time": "11:30am"}, {"days": "Sun", "time": "Closed"}], "id": "3504200001", "name": "USPS COLLECTION BOX - BLUE BOX", "address": {"city": "CENTREVILLE", "state": "AL", "street": "155 BIRMINGHAM RD STE 100", "postcode": "35042"}}},
{"geometry": {"type": "Point", "coordinates": [-87.141022367, 32.94474095]}, "type": "Feature", "properties": {"collection_times": [{"days": "Mon-Sat", "time": "1:00pm"}, {"days": "Sun", "time": "Closed"}], "id": "3504200002", "name": "USPS COLLECTION BOX - BLUE BOX", "address": {"city": "CENTREVILLE", "state": "AL", "street": "1 WALNUT ST", "postcode": "35042"}}},
{"geometry": {"type": "Point", "coordinates": [-87.1443014925, 32.9479495448]}, "type": "Feature", "properties": {"collection_times": [{"days": "Mon-Fri", "time": "3:00pm"}, {"days": "Sat", "time": "11:30am"}, {"days": "Sun", "time": "Closed"}], "id": "3504200004", "name": "USPS COLLECTION BOX - PO LOBBY", "address": {"city": "CENTREVILLE", "state": "AL", "street": "155 BIRMINGHAM RD STE 100", "postcode": "35042"}}},
{"geometry": {"type": "Point", "coordinates": [-86.5963189431, 33.3508203113]}, "type": "Feature", "properties": {"collection_times": [{"days": "Mon-Fri", "time": "4:00pm"}, {"days": "Sat", "time": "11:30am"}, {"days": "Sun", "time": "Closed"}], "id": "3504300000", "name": "USPS COLLECTION BOX - BLUE BOX", "address": {"city": "CHELSEA", "state": "AL", "street": "16738 HIGHWAY 280", "postcode": "35043"}}},
{"geometry": {"type": "Point", "coordinates": [-86.5963189431, 33.3508203113]}, "type": "Feature", "properties": {"collection_times": [{"days": "Mon-Fri", "time": "4:00pm"}, {"days": "Sat", "time": "11:30am"}, {"days": "Sun", "time": "Closed"}], "id": "3504300001", "name": "USPS COLLECTION BOX - PO LOBBY", "address": {"city": "CHELSEA", "state": "AL", "street": "16738 HIGHWAY 280", "postcode": "35043"}}},
{"geometry": {"type": "Point", "coordinates": [-86.355591529, 33.2775705768]}, "type": "Feature", "properties": {"collection_times": [{"days": "Mon-Fri", "time": "4:00pm"}, {"days": "Sat", "time": "1:00pm"}, {"days": "Sun", "time": "Closed"}], "id": "3504400000", "name": "USPS COLLECTION BOX - BLUE BOX", "address": {"city": "CHILDERSBURG", "state": "AL", "street": "125 9TH AVE SW", "postcode": "35044"}}},
{"geometry": {"type": "Point", "coordinates": [-86.355591529, 33.2775705768]}, "type": "Feature", "properties": {"collection_times": [{"days": "Mon-Fri", "time": "4:00pm"}, {"days": "Sat", "time": "1:00pm"}, {"days": "Sun", "time": "Closed"}], "id": "3504400001", "name": "USPS COLLECTION BOX - BLUE BOX", "address": {"city": "CHILDERSBURG", "state": "AL", "street": "125 9TH AVE SW", "postcode": "35044"}}},
{"geometry": {"type": "Point", "coordinates": [-86.355591529, 33.2775705768]}, "type": "Feature", "properties": {"collection_times": [{"days": "Mon-Fri", "time": "4:00pm"}, {"days": "Sat", "time": "1:00pm"}, {"days": "Sun", "time": "Closed"}], "id": "3504400002", "name": "USPS COLLECTION BOX - BLUE BOX", "address": {"city": "CHILDERSBURG", "state": "AL", "street": "125 9TH AVE SW", "postcode": "35044"}}},
{"geometry": {"type": "Point", "coordinates": [-86.355591529, 33.2775705768]}, "type": "Feature", "properties": {"collection_times": [{"days": "Mon-Fri", "time": "4:30pm"}, {"days": "Sat-Sun", "time": "Closed"}], "id": "3504400003", "name": "USPS COLLECTION BOX - PO LOBBY", "address": {"city": "CHILDERSBURG", "state": "AL", "street": "125 9TH AVE SW", "postcode": "35044"}}},
{"geometry": {"type": "Point", "coordinates": [-86.6275105458, 32.8329042511]}, "type": "Feature", "properties": {"collection_times": [{"days": "Mon-Fri", "time": "4:00pm"}, {"days": "Sat", "time": "12:00pm"}, {"days": "Sun", "time": "Closed"}], "id": "3504500000", "name": "USPS COLLECTION BOX - BLUE BOX", "address": {"city": "CLANTON", "state": "AL", "street": "608 6TH ST S", "postcode": "35045"}}},
{"geometry": {"type": "Point", "coordinates": [-86.6275105458, 32.8329042511]}, "type": "Feature", "properties": {"collection_times": [{"days": "Mon-Fri", "time": "4:00pm"}, {"days": "Sat", "time": "12:00pm"}, {"days": "Sun", "time": "Closed"}], "id": "3504500001", "name": "USPS COLLECTION BOX - BLUE BOX", "address": {"city": "CLANTON", "state": "AL", "street": "608 6TH ST S", "postcode": "35045"}}},
{"geometry": {"type": "Point", "coordinates": [-86.6291096031, 32.839981138]}, "type": "Feature", "properties": {"collection_times": [{"days": "Mon-Fri", "time": "3:00pm"}, {"days": "Sat", "time": "9:00am"}, {"days": "Sun", "time": "Closed"}], "id": "3504500005", "name": "USPS COLLECTION BOX - BLUE BOX", "address": {"city": "CLANTON", "state": "AL", "street": "500 2ND AVE N", "postcode": "35045"}}},
{"geometry": {"type": "Point", "coordinates": [-86.6275105458, 32.8329042511]}, "type": "Feature", "properties": {"collection_times": [{"days": "Mon-Fri", "time": "4:00pm"}, {"days": "Sat", "time": "12:00pm"}, {"days": "Sun", "time": "Closed"}], "id": "3504500024", "name": "USPS COLLECTION BOX - PO LOBBY", "address": {"city": "CLANTON", "state": "AL", "street": "608 6TH ST S", "postcode": "35045"}}},
{"geometry": {"type": "Point", "coordinates": [-86.6056304835, 33.6995705433]}, "type": "Feature", "properties": {"collection_times": [{"days": "Mon-Fri", "time": "4:00pm"}, {"days": "Sat", "time": "10:30am"}, {"days": "Sun", "time": "Closed"}], "id": "3504800000", "name": "USPS COLLECTION BOX - BLUE BOX", "address": {"city": "CLAY", "state": "AL", "street": "6721 OLD SPRINGVILLE RD", "postcode": "35048"}}},
{"geometry": {"type": "Point", "coordinates": [-86.6056304835, 33.6995705433]}, "type": "Feature", "properties": {"collection_times": [{"days": "Mon-Fri", "time": "4:00pm"}, {"days": "Sat", "time": "10:30am"}, {"days": "Sun", "time": "Closed"}], "id": "3504800001", "name": "USPS COLLECTION BOX - PO LOBBY", "address": {"city": "CLAY", "state": "AL", "street": "6721 OLD SPRINGVILLE RD", "postcode": "35048"}}},
{"geometry": {"type": "Point", "coordinates": [-86.5830845734, 33.9865691343]}, "type": "Feature", "properties": {"collection_times": [{"days": "Mon-Fri", "time": "4:00pm"}, {"days": "Sat", "time": "11:00am"}, {"days": "Sun", "time": "Closed"}], "id": "3504900000", "name": "USPS COLLECTION BOX - BLUE BOX", "address": {"city": "CLEVELAND", "state": "AL", "street": "18095 STATE HIGHWAY 160", "postcode": "35049"}}},
{"geometry": {"type": "Point", "coordinates": [-86.5830845734, 33.9865691343]}, "type": "Feature", "properties": {"collection_times": [{"days": "Mon-Fri", "time": "4:00pm"}, {"days": "Sat", "time": "11:00am"}, {"days": "Sun", "time": "Closed"}], "id": "3504900001", "name": "USPS COLLECTION BOX - PO LOBBY", "address": {"city": "CLEVELAND", "state": "AL", "street": "18095 STATE HIGHWAY 160", "postcode": "35049"}}},
{"geometry": {"type": "Point", "coordinates": [-86.6094541984, 33.1788628764]}, "type": "Feature", "properties": {"collection_times": [{"days": "Mon-Fri", "time": "4:30pm"}, {"days": "Sat", "time": "1:00pm"}, {"days": "Sun", "time": "Closed"}], "id": "3505100000", "name": "USPS COLLECTION BOX - BLUE BOX", "address": {"city": "COLUMBIANA", "state": "AL", "street": "210 W COLLEGE ST", "postcode": "35051"}}},
{"geometry": {"type": "Point", "coordinates": [-86.6094541984, 33.1788628764]}, "type": "Feature", "properties": {"collection_times": [{"days": "Mon-Fri", "time": "4:30pm"}, {"days": "Sat", "time": "1:00pm"}, {"days": "Sun", "time": "Closed"}], "id": "3505100001", "name": "USPS COLLECTION BOX - BLUE BOX", "address": {"city": "COLUMBIANA", "state": "AL", "street": "210 W COLLEGE ST", "postcode": "35051"}}},
{"geometry": {"type": "Point", "coordinates": [-86.6070560006, 33.1783662196]}, "type": "Feature", "properties": {"collection_times": [{"days": "Mon-Fri", "time": "1:30pm"}, {"days": "Sat", "time": "12:30pm"}, {"days": "Sun", "time": "Closed"}], "id": "3505100002", "name": "USPS COLLECTION BOX - BLUE BOX", "address": {"city": "COLUMBIANA", "state": "AL", "street": "108 N MAIN ST", "postcode": "35051"}}},
{"geometry": {"type": "Point", "coordinates": [-86.6070560006, 33.1783662196]}, "type": "Feature", "properties": {"collection_times": [{"days": "Mon-Fri", "time": "1:30pm"}, {"days": "Sat", "time": "12:30pm"}, {"days": "Sun", "time": "Closed"}], "id": "3505100003", "name": "USPS COLLECTION BOX - BLUE BOX", "address": {"city": "COLUMBIANA", "state": "AL", "street": "108 N MAIN ST", "postcode": "35051"}}},
{"geometry": {"type": "Point", "coordinates": [-86.6094541984, 33.1788628764]}, "type": "Feature", "properties": {"collection_times": [{"days": "Mon-Fri", "time": "4:30pm"}, {"days": "Sat", "time": "12:00pm"}, {"days": "Sun", "time": "Closed"}], "id": "3505100004", "name": "USPS COLLECTION BOX - PO LOBBY", "address": {"city": "COLUMBIANA", "state": "AL", "street": "210 W COLLEGE ST", "postcode": "35051"}}},
{"geometry": {"type": "Point", "coordinates": [-87.0617034164, 34.0941251712]}, "type": "Feature", "properties": {"collection_times": [{"days": "Mon-Fri", "time": "3:30pm"}, {"days": "Sat", "time": "10:30am"}, {"days": "Sun", "time": "Closed"}], "id": "3505300000", "name": "USPS COLLECTION BOX - BLUE BOX", "address": {"city": "CRANE HILL", "state": "AL", "street": "15051 COUNTY ROAD 222", "postcode": "35053"}}},
{"geometry": {"type": "Point", "coordinates": [-87.0617034164, 34.0941251712]}, "type": "Feature", "properties": {"collection_times": [{"days": "Mon-Fri", "time": "3:30pm"}, {"days": "Sat", "time": "10:30am"}, {"days": "Sun", "time": "Closed"}], "id": "3505300001", "name": "USPS COLLECTION BOX - PO LOBBY", "address": {"city": "CRANE HILL", "state": "AL", "street": "15051 COUNTY ROAD 222", "postcode": "35053"}}},
{"geometry": {"type": "Point", "coordinates": [-86.3274777184, 33.5010272041]}, "type": "Feature", "properties": {"collection_times": [{"days": "Mon-Fri", "time": "4:00pm"}, {"days": "Sat", "time": "11:00am"}, {"days": "Sun", "time": "Closed"}], "id": "3505400000", "name": "USPS COLLECTION BOX - BLUE BOX", "address": {"city": "CROPWELL", "state": "AL", "street": "2600 STEMLEY BRIDGE RD", "postcode": "35054"}}},
{"geometry": {"type": "Point", "coordinates": [-86.3274777184, 33.5010272041]}, "type": "Feature", "properties": {"collection_times": [{"days": "Mon-Fri", "time": "4:30pm"}, {"days": "Sat", "time": "11:00am"}, {"days": "Sun", "time": "Closed"}], "id": "3505400001", "name": "USPS COLLECTION BOX - PO LOBBY", "address": {"city": "CROPWELL", "state": "AL", "street": "2600 STEMLEY BRIDGE RD", "postcode": "35054"}}},
{"geometry": {"type": "Point", "coordinates": [-86.8410297536, 34.1786017047]}, "type": "Feature", "properties": {"collection_times": [{"days": "Mon-Fri", "time": "2:30pm"}, {"days": "Sat", "time": "9:30am"}, {"days": "Sun", "time": "Closed"}], "id": "3505500001", "name": "USPS COLLECTION BOX - BLUE BOX", "address": {"city": "CULLMAN", "state": "AL", "street": "301 1ST ST NE", "postcode": "35055"}}},
{"geometry": {"type": "Point", "coordinates": [-86.8410297536, 34.1786017047]}, "type": "Feature", "properties": {"collection_times": [{"days": "Mon-Fri", "time": "2:30pm"}, {"days": "Sat", "time": "9:30am"}, {"days": "Sun", "time": "Closed"}], "id": "3505500002", "name": "USPS COLLECTION BOX - BLUE BOX", "address": {"city": "CULLMAN", "state": "AL", "street": "301 1ST ST NE", "postcode": "35055"}}},
{"geometry": {"type": "Point", "coordinates": [-86.8424086359, 34.1727525168]}, "type": "Feature", "properties": {"collection_times": [{"days": "Mon-Fri", "time": "2:30pm"}, {"days": "Sat", "time": "9:00am"}, {"days": "Sun", "time": "Closed"}], "id": "3505500010", "name": "USPS COLLECTION BOX - BLUE BOX", "address": {"city": "CULLMAN", "state": "AL", "street": "500 2ND AVE SW", "postcode": "35055"}}},
{"geometry": {"type": "Point", "coordinates": [-86.8514061294, 34.1887165543]}, "type": "Feature", "properties": {"collection_times": [{"days": "Mon-Fri", "time": "2:30pm"}, {"days": "Sat", "time": "9:30am"}, {"days": "Sun", "time": "Closed"}], "id": "3505500014", "name": "USPS COLLECTION BOX - BLUE BOX", "address": {"city": "CULLMAN", "state": "AL", "street": "1200 2ND AVE NW", "postcode": "35055"}}},
{"geometry": {"type": "Point", "coordinates": [-86.85741, 34.206196]}, "type": "Feature", "properties": {"collection_times": [{"days": "Mon-Sat", "time": "1:00pm"}, {"days": "Sun", "time": "Closed"}], "id": "3505500028", "name": "USPS COLLECTION BOX - BLUE BOX", "address": {"city": "CULLMAN", "state": "AL", "street": "4933 AL HIGHWAY 157", "postcode": "35055"}}},
{"geometry": {"type": "Point", "coordinates": [-86.8634937545, 34.1159490854]}, "type": "Feature", "properties": {"collection_times": [{"days": "Mon-Sat", "time": "12:00pm"}, {"days": "Sun", "time": "Closed"}], "id": "3505500029", "name": "USPS COLLECTION BOX - BLUE BOX", "address": {"city": "CULLMAN", "state": "AL", "street": "1495 COUNTY ROAD 437", "postcode": "35055"}}},
{"geometry": {"type": "Point", "coordinates": [-86.805916, 34.19856]}, "type": "Feature", "properties": {"collection_times": [{"days": "Mon-Sat", "time": "10:00am"}, {"days": "Sun", "time": "Closed"}], "id": "3505500030", "name": "USPS COLLECTION BOX - BLUE BOX", "address": {"city": "CULLMAN", "state": "AL", "street": "1948 AL HIGHWAY 157", "postcode": "35055"}}},
{"geometry": {"type": "Point", "coordinates": [-86.8479903346, 34.170450183]}, "type": "Feature", "properties": {"collection_times": [{"days": "Mon-Fri", "time": "5:00pm"}, {"days": "Sat", "time": "3:00pm"}, {"days": "Sun", "time": "Closed"}], "id": "3505500032", "name": "USPS COLLECTION BOX - PO LOBBY", "address": {"city": "CULLMAN", "state": "AL", "street": "500 MAIN AVE SW", "postcode": "35055"}}},
{"geometry": {"type": "Point", "coordinates": [-86.8479903346, 34.170450183]}, "type": "Feature", "properties": {"collection_times": [{"days": "Mon-Fri", "time": "5:00pm"}, {"days": "Sat", "time": "3:00pm"}, {"days": "Sun", "time": "Closed"}], "id": "3505500033", "name": "USPS COLLECTION BOX - BLUE BOX", "address": {"city": "CULLMAN", "state": "AL", "street": "500 MAIN AVE SW", "postcode": "35055"}}},
{"geometry": {"type": "Point", "coordinates": [-86.8479903346, 34.170450183]}, "type": "Feature", "properties": {"collection_times": [{"days": "Mon-Fri", "time": "5:00pm"}, {"days": "Sat", "time": "3:00pm"}, {"days": "Sun", "time": "Closed"}], "id": "3505500034", "name": "USPS COLLECTION BOX - BLUE BOX", "address": {"city": "CULLMAN", "state": "AL", "street": "500 MAIN AVE SW", "postcode": "35055"}}},
{"geometry": {"type": "Point", "coordinates": [-86.8424086359, 34.1727525168]}, "type": "Feature", "properties": {"collection_times": [{"days": "Mon-Fri", "time": "2:30pm"}, {"days": "Sat", "time": "9:00am"}, {"days": "Sun", "time": "Closed"}], "id": "3505500037", "name": "USPS COLLECTION BOX - BLUE BOX", "address": {"city": "CULLMAN", "state": "AL", "street": "500 2ND AVE SW", "postcode": "35055"}}},
{"geometry": {"type": "Point", "coordinates": [-86.8115165451, 34.1619707062]}, "type": "Feature", "properties": {"collection_times": [{"days": "Mon-Fri", "time": "12:00pm"}, {"days": "Sat-Sun", "time": "Closed"}], "id": "3505500039", "name": "USPS COLLECTION BOX - BLUE BOX", "address": {"city": "CULLMAN", "state": "AL", "street": "7467 AL HIGHWAY 69 N", "postcode": "35055"}}},
{"geometry": {"type": "Point", "coordinates": [-86.8434464441, 34.1743716276]}, "type": "Feature", "properties": {"collection_times": [{"days": "Mon-Fri", "time": "11:30am"}, {"days": "Sat", "time": "10:00am"}, {"days": "Sun", "time": "Closed"}], "id": "3505500040", "name": "USPS COLLECTION BOX - BLUE BOX", "address": {"city": "CULLMAN", "state": "AL", "street": "11 COUNTY ROAD 1242", "postcode": "35055"}}},
{"geometry": {"type": "Point", "coordinates": [-86.9468575841, 34.0938838981]}, "type": "Feature", "properties": {"collection_times": [{"days": "Mon-Sat", "time": "2:00pm"}, {"days": "Sun", "time": "Closed"}], "id": "3505500041", "name": "USPS COLLECTION BOX - BLUE BOX", "address": {"city": "CULLMAN", "state": "AL", "street": "6446 COUNTY ROAD 222", "postcode": "35055"}}},
{"geometry": {"type": "Point", "coordinates": [-86.9308382273, 33.5591529397]}, "type": "Feature", "properties": {"collection_times": [{"days": "Mon-Fri", "time": "12:00pm"}, {"days": "Sat", "time": "10:00am"}, {"days": "Sun", "time": "Closed"}], "id": "3506000000", "name": "USPS COLLECTION BOX - BLUE BOX", "address": {"city": "DOCENA", "state": "AL", "street": "305 CIRCLE DR", "postcode": "35060"}}},
{"geometry": {"type": "Point", "coordinates": [-86.9308382273, 33.5591529397]}, "type": "Feature", "properties": {"collection_times": [{"days": "Mon-Fri", "time": "12:00pm"}, {"days": "Sat", "time": "10:00am"}, {"days": "Sun", "time": "Closed"}], "id": "3506000001", "name": "USPS COLLECTION BOX - PO LOBBY", "address": {"city": "DOCENA", "state": "AL", "street": "305 CIRCLE DR", "postcode": "35060"}}},
{"geometry": {"type": "Point", "coordinates": [-86.9597384153, 33.468407401]}, "type": "Feature", "properties": {"collection_times": [{"days": "Mon-Fri", "time": "4:00pm"}, {"days": "Sat", "time": "10:00am"}, {"days": "Sun", "time": "Closed"}], "id": "3506100000", "name": "USPS COLLECTION BOX - BLUE BOX", "address": {"city": "DOLOMITE", "state": "AL", "street": "827 ALLISON BONNETT MEMORIAL DR", "postcode": "35061"}}},
{"geometry": {"type": "Point", "coordinates": [-86.9597384153, 33.468407401]}, "type": "Feature", "properties": {"collection_times": [{"days": "Mon-Fri", "time": "4:00pm"}, {"days": "Sat", "time": "10:00am"}, {"days": "Sun", "time": "Closed"}], "id": "3506100001", "name": "USPS COLLECTION BOX - BLUE BOX", "address": {"city": "DOLOMITE", "state": "AL", "street": "827 ALLISON BONNETT MEMORIAL DR", "postcode": "35061"}}},
{"geometry": {"type": "Point", "coordinates": [-86.9597384153, 33.468407401]}, "type": "Feature", "properties": {"collection_times": [{"days": "Mon-Fri", "time": "4:00pm"}, {"days": "Sat", "time": "10:00am"}, {"days": "Sun", "time": "Closed"}], "id": "3506100002", "name": "USPS COLLECTION BOX - PO LOBBY", "address": {"city": "DOLOMITE", "state": "AL", "street": "827 ALLISON BONNETT MEMORIAL DR", "postcode": "35061"}}},
{"geometry": {"type": "Point", "coordinates": [-87.0812591715, 33.73785223]}, "type": "Feature", "properties": {"collection_times": [{"days": "Mon-Fri", "time": "2:00pm"}, {"days": "Sat", "time": "10:00am"}, {"days": "Sun", "time": "Closed"}], "id": "3506200000", "name": "USPS COLLECTION BOX - BLUE BOX", "address": {"city": "DORA", "state": "AL", "street": "975 SHARON BLVD", "postcode": "35062"}}},
{"geometry": {"type": "Point", "coordinates": [-87.045487339, 33.685438728]}, "type": "Feature", "properties": {"collection_times": [{"days": "Mon-Sat", "time": "9:00am"}, {"days": "Sun", "time": "Closed"}], "id": "3506200002", "name": "USPS COLLECTION BOX - BLUE BOX", "address": {"city": "DORA", "state": "AL", "street": "1 MIDWAY PLZ", "postcode": "35062"}}},
{"geometry": {"type": "Point", "coordinates": [-87.0812591715, 33.73785223]}, "type": "Feature", "properties": {"collection_times": [{"days": "Mon-Fri", "time": "2:00pm"}, {"days": "Sat", "time": "10:00am"}, {"days": "Sun", "time": "Closed"}], "id": "3506200003", "name": "USPS COLLECTION BOX - PO LOBBY", "address": {"city": "DORA", "state": "AL", "street": "975 SHARON BLVD", "postcode": "35062"}}},
{"geometry": {"type": "Point", "coordinates": [-86.9885502698, 33.8073932418]}, "type": "Feature", "properties": {"collection_times": [{"days": "Mon-Fri", "time": "12:00pm"}, {"days": "Sat", "time": "10:30am"}, {"days": "Sun", "time": "Closed"}], "id": "3506300000", "name": "USPS COLLECTION BOX - BLUE BOX", "address": {"city": "EMPIRE", "state": "AL", "street": "5323 EMPIRE RD", "postcode": "35063"}}},
{"geometry": {"type": "Point", "coordinates": [-86.9885502698, 33.8073932418]}, "type": "Feature", "properties": {"collection_times": [{"days": "Mon-Fri", "time": "12:00pm"}, {"days": "Sat", "time": "10:30am"}, {"days": "Sun", "time": "Closed"}], "id": "3506300001", "name": "USPS COLLECTION BOX - PO LOBBY", "address": {"city": "EMPIRE", "state": "AL", "street": "5323 EMPIRE RD", "postcode": "35063"}}},
{"geometry": {"type": "Point", "coordinates": [-86.9136021733, 33.4651500006]}, "type": "Feature", "properties": {"collection_times": [{"days": "Mon-Sat", "time": "9:00am"}, {"days": "Sun", "time": "Closed"}], "id": "3506400015", "name": "USPS COLLECTION BOX - BLUE BOX", "address": {"city": "FAIRFIELD", "state": "AL", "street": "7201 AARON ARONOV DR", "postcode": "35064"}}},
{"geometry": {"type": "Point", "coordinates": [-86.9173391541, 33.4767503038]}, "type": "Feature", "properties": {"collection_times": [{"days": "Mon-Fri", "time": "5:00pm"}, {"days": "Sat", "time": "11:00am"}, {"days": "Sun", "time": "Closed"}], "id": "3506400019", "name": "USPS COLLECTION BOX - PO LOBBY", "address": {"city": "FAIRFIELD", "state": "AL", "street": "420 45TH ST", "postcode": "35064"}}},
{"geometry": {"type": "Point", "coordinates": [-86.9173391541, 33.4767503038]}, "type": "Feature", "properties": {"collection_times": [{"days": "Mon-Fri", "time": "4:45pm"}, {"days": "Sat", "time": "10:45am"}, {"days": "Sun", "time": "Closed"}], "id": "3506400021", "name": "USPS COLLECTION BOX - BLUE BOX", "address": {"city": "FAIRFIELD", "state": "AL", "street": "420 45TH ST", "postcode": "35064"}}},
{"geometry": {"type": "Point", "coordinates": [-86.7981004164, 33.6090924811]}, "type": "Feature", "properties": {"collection_times": [{"days": "Mon-Fri", "time": "2:00pm"}, {"days": "Sat", "time": "9:30am"}, {"days": "Sun", "time": "Closed"}], "id": "3506800000", "name": "USPS COLLECTION BOX - BLUE BOX", "address": {"city": "FULTONDALE", "state": "AL", "street": "1515 STOUTS RD", "postcode": "35068"}}},
{"geometry": {"type": "Point", "coordinates": [-86.7981004164, 33.6090924811]}, "type": "Feature", "properties": {"collection_times": [{"days": "Mon-Fri", "time": "2:00pm"}, {"days": "Sat", "time": "9:30am"}, {"days": "Sun", "time": "Closed"}], "id": "3506800001", "name": "USPS COLLECTION BOX - BLUE BOX", "address": {"city": "FULTONDALE", "state": "AL", "street": "1515 STOUTS RD", "postcode": "35068"}}},
{"geometry": {"type": "Point", "coordinates": [-86.7981004164, 33.6090924811]}, "type": "Feature", "properties": {"collection_times": [{"days": "Mon-Fri", "time": "2:00pm"}, {"days": "Sat", "time": "9:30am"}, {"days": "Sun", "time": "Closed"}], "id": "3506800003", "name": "USPS COLLECTION BOX - PO LOBBY", "address": {"city": "FULTONDALE", "state": "AL", "street": "1515 STOUTS RD", "postcode": "35068"}}},
{"geometry": {"type": "Point", "coordinates": [-86.7486451072, 34.0126745038]}, "type": "Feature", "properties": {"collection_times": [{"days": "Mon-Fri", "time": "12:00pm"}, {"days": "Sat", "time": "9:30am"}, {"days": "Sun", "time": "Closed"}], "id": "3507000000", "name": "USPS COLLECTION BOX - BLUE BOX", "address": {"city": "GARDEN CITY", "state": "AL", "street": "311 1ST AVE S", "postcode": "35070"}}},
{"geometry": {"type": "Point", "coordinates": [-86.7486451072, 34.0126745038]}, "type": "Feature", "properties": {"collection_times": [{"days": "Mon-Fri", "time": "12:00pm"}, {"days": "Sat", "time": "9:30am"}, {"days": "Sun", "time": "Closed"}], "id": "3507000001", "name": "USPS COLLECTION BOX - PO LOBBY", "address": {"city": "GARDEN CITY", "state": "AL", "street": "311 1ST AVE S", "postcode": "35070"}}},
{"geometry": {"type": "Point", "coordinates": [-86.8153150086, 33.6656963223]}, "type": "Feature", "properties": {"collection_times": [{"days": "Mon-Fri", "time": "4:30pm"}, {"days": "Sat", "time": "11:00am"}, {"days": "Sun", "time": "Closed"}], "id": "3507100002", "name": "USPS COLLECTION BOX - BLUE BOX", "address": {"city": "GARDENDALE", "state": "AL", "street": "1753 DECATUR HWY", "postcode": "35071"}}},
{"geometry": {"type": "Point", "coordinates": [-86.8153150086, 33.6656963223]}, "type": "Feature", "properties": {"collection_times": [{"days": "Mon-Fri", "time": "4:30pm"}, {"days": "Sat", "time": "11:00am"}, {"days": "Sun", "time": "Closed"}], "id": "3507100003", "name": "USPS COLLECTION BOX - BLUE BOX", "address": {"city": "GARDENDALE", "state": "AL", "street": "1753 DECATUR HWY", "postcode": "35071"}}},
{"geometry": {"type": "Point", "coordinates": [-86.811878761, 33.6572801613]}, "type": "Feature", "properties": {"collection_times": [{"days": "Mon-Fri", "time": "11:00am"}, {"days": "Sat", "time": "10:00am"}, {"days": "Sun", "time": "Closed"}], "id": "3507100005", "name": "USPS COLLECTION BOX - BLUE BOX", "address": {"city": "GARDENDALE", "state": "AL", "street": "1301 DECATUR HWY", "postcode": "35071"}}},
{"geometry": {"type": "Point", "coordinates": [-86.8057750474, 33.6826589393]}, "type": "Feature", "properties": {"collection_times": [{"days": "Mon-Fri", "time": "10:00am"}, {"days": "Sat", "time": "9:45am"}, {"days": "Sun", "time": "Closed"}], "id": "3507100006", "name": "USPS COLLECTION BOX - BLUE BOX", "address": {"city": "GARDENDALE", "state": "AL", "street": "3901 LONG LEAF DR", "postcode": "35071"}}},
{"geometry": {"type": "Point", "coordinates": [-86.8153150086, 33.6656963223]}, "type": "Feature", "properties": {"collection_times": [{"days": "Mon-Fri", "time": "4:30pm"}, {"days": "Sat", "time": "11:00am"}, {"days": "Sun", "time": "Closed"}], "id": "3507100007", "name": "USPS COLLECTION BOX - PO LOBBY", "address": {"city": "GARDENDALE", "state": "AL", "street": "1753 DECATUR HWY", "postcode": "35071"}}},
{"geometry": {"type": "Point", "coordinates": [-86.8095657055, 33.6397733005]}, "type": "Feature", "properties": {"collection_times": [{"days": "Mon-Fri", "time": "11:00am"}, {"days": "Sat", "time": "10:45am"}, {"days": "Sun", "time": "Closed"}], "id": "3507100008", "name": "USPS COLLECTION BOX - BLUE BOX", "address": {"city": "GARDENDALE", "state": "AL", "street": "651 MAIN ST", "postcode": "35071"}}},
{"geometry": {"type": "Point", "coordinates": [-86.8153150086, 33.6656963223]}, "type": "Feature", "properties": {"collection_times": [{"days": "Mon-Fri", "time": "4:30pm"}, {"days": "Sat", "time": "11:00am"}, {"days": "Sun", "time": "Closed"}], "id": "3507100009", "name": "USPS COLLECTION BOX - BLUE BOX", "address": {"city": "GARDENDALE", "state": "AL", "street": "1753 DECATUR HWY", "postcode": "35071"}}},
{"geometry": {"type": "Point", "coordinates": [-86.8257817843, 33.6521419328]}, "type": "Feature", "properties": {"collection_times": [{"days": "Mon-Sat", "time": "12:00pm"}, {"days": "Sun", "time": "Closed"}], "id": "3507100010", "name": "USPS COLLECTION BOX - BLUE BOX", "address": {"city": "GARDENDALE", "state": "AL", "street": "655 FIELDSTOWN RD", "postcode": "35071"}}},
{"geometry": {"type": "Point", "coordinates": [-86.0660859542, 33.1032883853]}, "type": "Feature", "properties": {"collection_times": [{"days": "Mon-Fri", "time": "12:00pm"}, {"days": "Sat", "time": "10:30am"}, {"days": "Sun", "time": "Closed"}], "id": "3507200000", "name": "USPS COLLECTION BOX - BLUE BOX", "address": {"city": "GOODWATER", "state": "AL", "street": "64 COOSA COUNTY ROAD 66", "postcode": "35072"}}},
{"geometry": {"type": "Point", "coordinates": [-86.0660859542, 33.1032883853]}, "type": "Feature", "properties": {"collection_times": [{"days": "Mon-Fri", "time": "12:00pm"}, {"days": "Sat", "time": "10:30am"}, {"days": "Sun", "time": "Closed"}], "id": "3507200001", "name": "USPS COLLECTION BOX - PO LOBBY", "address": {"city": "GOODWATER", "state": "AL", "street": "64 COOSA COUNTY ROAD 66", "postcode": "35072"}}},
{"geometry": {"type": "Point", "coordinates": [-86.974468617, 33.6280829653]}, "type": "Feature", "properties": {"collection_times": [{"days": "Mon-Fri", "time": "3:00pm"}, {"days": "Sat", "time": "10:00am"}, {"days": "Sun", "time": "Closed"}], "id": "3507300001", "name": "USPS COLLECTION BOX - BLUE BOX", "address": {"city": "GRAYSVILLE", "state": "AL", "street": "201 2ND AVE SW", "postcode": "35073"}}},
{"geometry": {"type": "Point", "coordinates": [-86.974468617, 33.6280829653]}, "type": "Feature", "properties": {"collection_times": [{"days": "Mon-Fri", "time": "3:00pm"}, {"days": "Sat", "time": "10:00am"}, {"days": "Sun", "time": "Closed"}], "id": "3507300002", "name": "USPS COLLECTION BOX - PO LOBBY", "address": {"city": "GRAYSVILLE", "state": "AL", "street": "201 2ND AVE SW", "postcode": "35073"}}},
{"geometry": {"type": "Point", "coordinates": [-87.1251746221, 33.2243563178]}, "type": "Feature", "properties": {"collection_times": [{"days": "Mon-Fri", "time": "12:00pm"}, {"days": "Sat", "time": "9:15am"}, {"days": "Sun", "time": "Closed"}], "id": "3507400000", "name": "USPS COLLECTION BOX - BLUE BOX", "address": {"city": "GREEN POND", "state": "AL", "street": "20607 EASTERN VALLEY RD", "postcode": "35074"}}},
{"geometry": {"type": "Point", "coordinates": [-87.1251746221, 33.2243563178]}, "type": "Feature", "properties": {"collection_times": [{"days": "Mon-Fri", "time": "12:00pm"}, {"days": "Sat", "time": "9:15am"}, {"days": "Sun", "time": "Closed"}], "id": "3507400001", "name": "USPS COLLECTION BOX - PO LOBBY", "address": {"city": "GREEN POND", "state": "AL", "street": "20607 EASTERN VALLEY RD", "postcode": "35074"}}},
{"geometry": {"type": "Point", "coordinates": [-86.7745785391, 34.0678545433]}, "type": "Feature", "properties": {"collection_times": [{"days": "Mon-Sat", "time": "12:00pm"}, {"days": "Sun", "time": "Closed"}], "id": "3507700000", "name": "USPS COLLECTION BOX - BLUE BOX", "address": {"city": "HANCEVILLE", "state": "AL", "street": "630 MAIN ST NE", "postcode": "35077"}}},
{"geometry": {"type": "Point", "coordinates": [-86.7745785391, 34.0678545433]}, "type": "Feature", "properties": {"collection_times": [{"days": "Mon-Sat", "time": "12:00pm"}, {"days": "Sun", "time": "Closed"}], "id": "3507700001", "name": "USPS COLLECTION BOX - BLUE BOX", "address": {"city": "HANCEVILLE", "state": "AL", "street": "630 MAIN ST NE", "postcode": "35077"}}},
{"geometry": {"type": "Point", "coordinates": [-86.7745785391, 34.0678545433]}, "type": "Feature", "properties": {"collection_times": [{"days": "Mon-Sat", "time": "12:00pm"}, {"days": "Sun", "time": "Closed"}], "id": "3507700003", "name": "USPS COLLECTION BOX - PO LOBBY", "address": {"city": "HANCEVILLE", "state": "AL", "street": "630 MAIN ST NE", "postcode": "35077"}}},
{"geometry": {"type": "Point", "coordinates": [-86.876657423, 34.04347462]}, "type": "Feature", "properties": {"collection_times": [{"days": "Mon-Sat", "time": "1:00pm"}, {"days": "Sun", "time": "Closed"}], "id": "3507700005", "name": "USPS COLLECTION BOX - BLUE BOX", "address": {"city": "HANCEVILLE", "state": "AL", "street": "4340 COUNTY ROAD 216", "postcode": "35077"}}},
{"geometry": {"type": "Point", "coordinates": [-86.4363187964, 33.3426070468]}, "type": "Feature", "properties": {"collection_times": [{"days": "Mon-Fri", "time": "12:00pm"}, {"days": "Sat", "time": "11:00am"}, {"days": "Sun", "time": "Closed"}], "id": "3507800000", "name": "USPS COLLECTION BOX - BLUE BOX", "address": {"city": "HARPERSVILLE", "state": "AL", "street": "41 WHEAT ST", "postcode": "35078"}}},
{"geometry": {"type": "Point", "coordinates": [-86.4363187964, 33.3426070468]}, "type": "Feature", "properties": {"collection_times": [{"days": "Mon-Fri", "time": "12:00pm"}, {"days": "Sat", "time": "11:00am"}, {"days": "Sun", "time": "Closed"}], "id": "3507800001", "name": "USPS COLLECTION BOX - PO LOBBY", "address": {"city": "HARPERSVILLE", "state": "AL", "street": "41 WHEAT ST", "postcode": "35078"}}},
{"geometry": {"type": "Point", "coordinates": [-86.765573966, 33.885849079]}, "type": "Feature", "properties": {"collection_times": [{"days": "Mon-Fri", "time": "12:00pm"}, {"days": "Sat", "time": "10:00am"}, {"days": "Sun", "time": "Closed"}], "id": "3507900000", "name": "USPS COLLECTION BOX - PO LOBBY", "address": {"city": "HAYDEN", "state": "AL", "street": "4425 STATE HIGHWAY 160", "postcode": "35079"}}},
{"geometry": {"type": "Point", "coordinates": [-86.765573966, 33.885849079]}, "type": "Feature", "properties": {"collection_times": [{"days": "Mon-Fri", "time": "12:00pm"}, {"days": "Sat", "time": "10:00am"}, {"days": "Sun", "time": "Closed"}], "id": "3507900001", "name": "USPS COLLECTION BOX - BLUE BOX", "address": {"city": "HAYDEN", "state": "AL", "street": "4425 STATE HIGHWAY 160", "postcode": "35079"}}},
{"geometry": {"type": "Point", "coordinates": [-86.9008506197, 33.2977962972]}, "type": "Feature", "properties": {"collection_times": [{"days": "Mon-Fri", "time": "4:30pm"}, {"days": "Sat", "time": "12:00pm"}, {"days": "Sun", "time": "Closed"}], "id": "3508000000", "name": "USPS COLLECTION BOX - BLUE BOX", "address": {"city": "HELENA", "state": "AL", "street": "800 HIGHWAY 52", "postcode": "35080"}}},
{"geometry": {"type": "Point", "coordinates": [-86.9008506197, 33.2977962972]}, "type": "Feature", "properties": {"collection_times": [{"days": "Mon-Fri", "time": "4:30pm"}, {"days": "Sat", "time": "12:00pm"}, {"days": "Sun", "time": "Closed"}], "id": "3508000001", "name": "USPS COLLECTION BOX - BLUE BOX", "address": {"city": "HELENA", "state": "AL", "street": "800 HIGHWAY 52", "postcode": "35080"}}},
{"geometry": {"type": "Point", "coordinates": [-86.9008506197, 33.2977962972]}, "type": "Feature", "properties": {"collection_times": [{"days": "Mon-Fri", "time": "4:30pm"}, {"days": "Sat", "time": "12:00pm"}, {"days": "Sun", "time": "Closed"}], "id": "3508000002", "name": "USPS COLLECTION BOX - PO LOBBY", "address": {"city": "HELENA", "state": "AL", "street": "800 HIGHWAY 52", "postcode": "35080"}}},
{"geometry": {"type": "Point", "coordinates": [-86.6164791675, 34.1757105883]}, "type": "Feature", "properties": {"collection_times": [{"days": "Mon-Fri", "time": "3:30pm"}, {"days": "Sat", "time": "10:30am"}, {"days": "Sun", "time": "Closed"}], "id": "3508300000", "name": "USPS COLLECTION BOX - BLUE BOX", "address": {"city": "HOLLY POND", "state": "AL", "street": "77 BROOKLYN RD", "postcode": "35083"}}},
{"geometry": {"type": "Point", "coordinates": [-86.6164791675, 34.1757105883]}, "type": "Feature", "properties": {"collection_times": [{"days": "Mon-Fri", "time": "3:30pm"}, {"days": "Sat", "time": "10:30am"}, {"days": "Sun", "time": "Closed"}], "id": "3508300001", "name": "USPS COLLECTION BOX - PO LOBBY", "address": {"city": "HOLLY POND", "state": "AL", "street": "77 BROOKLYN RD", "postcode": "35083"}}},
{"geometry": {"type": "Point", "coordinates": [-86.6191934826, 34.1743717158]}, "type": "Feature", "properties": {"collection_times": [{"days": "Mon-Sat", "time": "9:30am"}, {"days": "Sun", "time": "Closed"}], "id": "3508300003", "name": "USPS COLLECTION BOX - BLUE BOX", "address": {"city": "HOLLY POND", "state": "AL", "street": "10675 US HIGHWAY 278 E", "postcode": "35083"}}},
{"geometry": {"type": "Point", "coordinates": [-86.7457355512, 32.9624917669]}, "type": "Feature", "properties": {"collection_times": [{"days": "Mon-Fri", "time": "4:00pm"}, {"days": "Sat", "time": "8:30am"}, {"days": "Sun", "time": "Closed"}], "id": "3508500000", "name": "USPS COLLECTION BOX - BLUE BOX", "address": {"city": "JEMISON", "state": "AL", "street": "24760 US HIGHWAY 31", "postcode": "35085"}}},
{"geometry": {"type": "Point", "coordinates": [-86.7457355512, 32.9624917669]}, "type": "Feature", "properties": {"collection_times": [{"days": "Mon-Fri", "time": "4:00pm"}, {"days": "Sat", "time": "8:30am"}, {"days": "Sun", "time": "Closed"}], "id": "3508500001", "name": "USPS COLLECTION BOX - PO LOBBY", "address": {"city": "JEMISON", "state": "AL", "street": "24760 US HIGHWAY 31", "postcode": "35085"}}},
{"geometry": {"type": "Point", "coordinates": [-86.5867226765, 34.3115140145]}, "type": "Feature", "properties": {"collection_times": [{"days": "Mon-Fri", "time": "4:00pm"}, {"days": "Sat", "time": "11:00am"}, {"days": "Sun", "time": "Closed"}], "id": "3508700000", "name": "USPS COLLECTION BOX - BLUE BOX", "address": {"city": "JOPPA", "state": "AL", "street": "15960 AL HIGHWAY 69 N", "postcode": "35087"}}},
{"geometry": {"type": "Point", "coordinates": [-86.5867226765, 34.3115140145]}, "type": "Feature", "properties": {"collection_times": [{"days": "Mon-Fri", "time": "4:00pm"}, {"days": "Sat", "time": "11:00am"}, {"days": "Sun", "time": "Closed"}], "id": "3508700001", "name": "USPS COLLECTION BOX - PO LOBBY", "address": {"city": "JOPPA", "state": "AL", "street": "15960 AL HIGHWAY 69 N", "postcode": "35087"}}},
{"geometry": {"type": "Point", "coordinates": [-86.0726187237, 32.9637331983]}, "type": "Feature", "properties": {"collection_times": [{"days": "Mon-Fri", "time": "11:45am"}, {"days": "Sat", "time": "10:00am"}, {"days": "Sun", "time": "Closed"}], "id": "3508900000", "name": "USPS COLLECTION BOX - BLUE BOX", "address": {"city": "KELLYTON", "state": "AL", "street": "338 FIREHOUSE RD", "postcode": "35089"}}},
{"geometry": {"type": "Point", "coordinates": [-86.0328790463, 32.9802851331]}, "type": "Feature", "properties": {"collection_times": [{"days": "Mon-Fri", "time": "11:45am"}, {"days": "Sat", "time": "10:00am"}, {"days": "Sun", "time": "Closed"}], "id": "3508900001", "name": "USPS COLLECTION BOX - PO LOBBY", "address": {"city": "KELLYTON", "state": "AL", "street": "1 HIGHWAY 115 N", "postcode": "35089"}}},
{"geometry": {"type": "Point", "coordinates": [-86.8122526807, 33.7735071703]}, "type": "Feature", "properties": {"collection_times": [{"days": "Mon-Fri", "time": "3:45pm"}, {"days": "Sat", "time": "10:30am"}, {"days": "Sun", "time": "Closed"}], "id": "3509100000", "name": "USPS COLLECTION BOX - BLUE BOX", "address": {"city": "KIMBERLY", "state": "AL", "street": "9261 STOUTS RD", "postcode": "35091"}}},
{"geometry": {"type": "Point", "coordinates": [-86.8122526807, 33.7735071703]}, "type": "Feature", "properties": {"collection_times": [{"days": "Mon-Fri", "time": "3:45pm"}, {"days": "Sat", "time": "10:30am"}, {"days": "Sun", "time": "Closed"}], "id": "3509100001", "name": "USPS COLLECTION BOX - PO LOBBY", "address": {"city": "KIMBERLY", "state": "AL", "street": "9261 STOUTS RD", "postcode": "35091"}}},
{"geometry": {"type": "Point", "coordinates": [-86.5764379687, 33.5353168234]}, "type": "Feature", "properties": {"collection_times": [{"days": "Mon-Fri", "time": "5:00pm"}, {"days": "Sat", "time": "12:00pm"}, {"days": "Sun", "time": "Closed"}], "id": "3509400000", "name": "USPS COLLECTION BOX - BLUE BOX", "address": {"city": "LEEDS", "state": "AL", "street": "1500 8TH ST", "postcode": "35094"}}},
{"geometry": {"type": "Point", "coordinates": [-86.5764379687, 33.5353168234]}, "type": "Feature", "properties": {"collection_times": [{"days": "Mon-Fri", "time": "5:00pm"}, {"days": "Sat", "time": "12:00pm"}, {"days": "Sun", "time": "Closed"}], "id": "3509400001", "name": "USPS COLLECTION BOX - BLUE BOX", "address": {"city": "LEEDS", "state": "AL", "street": "1500 8TH ST", "postcode": "35094"}}},
{"geometry": {"type": "Point", "coordinates": [-86.5764379687, 33.5353168234]}, "type": "Feature", "properties": {"collection_times": [{"days": "Mon-Fri", "time": "5:00pm"}, {"days": "Sat", "time": "12:00pm"}, {"days": "Sun", "time": "Closed"}], "id": "3509400006", "name": "USPS COLLECTION BOX - PO LOBBY", "address": {"city": "LEEDS", "state": "AL", "street": "1500 8TH ST", "postcode": "35094"}}},
{"geometry": {"type": "Point", "coordinates": [-86.1200257327, 33.6038758303]}, "type": "Feature", "properties": {"collection_times": [{"days": "Mon-Fri", "time": "4:00pm"}, {"days": "Sat", "time": "10:30am"}, {"days": "Sun", "time": "Closed"}], "id": "3509600000", "name": "USPS COLLECTION BOX - BLUE BOX", "address": {"city": "LINCOLN", "state": "AL", "street": "47645 US HIGHWAY 78", "postcode": "35096"}}},
{"geometry": {"type": "Point", "coordinates": [-86.1200257327, 33.6038758303]}, "type": "Feature", "properties": {"collection_times": [{"days": "Mon-Fri", "time": "4:00pm"}, {"days": "Sat", "time": "10:30am"}, {"days": "Sun", "time": "Closed"}], "id": "3509600001", "name": "USPS COLLECTION BOX - PO LOBBY", "address": {"city": "LINCOLN", "state": "AL", "street": "47645 US HIGHWAY 78", "postcode": "35096"}}},
{"geometry": {"type": "Point", "coordinates": [-86.6254447512, 33.8897255678]}, "type": "Feature", "properties": {"collection_times": [{"days": "Mon-Fri", "time": "3:45pm"}, {"days": "Sat", "time": "10:00am"}, {"days": "Sun", "time": "Closed"}], "id": "3509700000", "name": "USPS COLLECTION BOX - BLUE BOX", "address": {"city": "LOCUST FORK", "state": "AL", "street": "20 PARK RD", "postcode": "35097"}}},
{"geometry": {"type": "Point", "coordinates": [-86.6254447512, 33.8897255678]}, "type": "Feature", "properties": {"collection_times": [{"days": "Mon-Fri", "time": "3:45pm"}, {"days": "Sat", "time": "10:00am"}, {"days": "Sun", "time": "Closed"}], "id": "3509700001", "name": "USPS COLLECTION BOX - PO LOBBY", "address": {"city": "LOCUST FORK", "state": "AL", "street": "20 PARK RD", "postcode": "35097"}}},
{"geometry": {"type": "Point", "coordinates": [-87.0066457726, 34.139275587]}, "type": "Feature", "properties": {"collection_times": [{"days": "Mon-Fri", "time": "11:45am"}, {"days": "Sat", "time": "9:45am"}, {"days": "Sun", "time": "Closed"}], "id": "3509800000", "name": "USPS COLLECTION BOX - BLUE BOX", "address": {"city": "LOGAN", "state": "AL", "street": "4475 COUNTY ROAD 831", "postcode": "35098"}}},
{"geometry": {"type": "Point", "coordinates": [-87.0066457726, 34.139275587]}, "type": "Feature", "properties": {"collection_times": [{"days": "Mon-Fri", "time": "11:45am"}, {"days": "Sat", "time": "9:45am"}, {"days": "Sun", "time": "Closed"}], "id": "3509800001", "name": "USPS COLLECTION BOX - PO LOBBY", "address": {"city": "LOGAN", "state": "AL", "street": "4475 COUNTY ROAD 831", "postcode": "35098"}}}
]}
