{"type": "FeatureCollection", "features": [
{"geometry": {"type": "Point", "coordinates": [-87.032873666, 33.3230300265]}, "type": "Feature", "properties": {"collection_times": [{"days": "Mon-Fri", "time": "4:00pm"}, {"days": "Sat", "time": "9:00am"}, {"days": "Sun", "time": "Closed"}], "id": "3511100000", "name": "USPS COLLECTION BOX - BLUE BOX", "address": {"city": "MCCALLA", "state": "AL", "street": "6301 OLD TUSCALOOSA HWY", "postcode": "35111"}}},
{"geometry": {"type": "Point", "coordinates": [-87.032873666, 33.3230300265]}, "type": "Feature", "properties": {"collection_times": [{"days": "Mon-Fri", "time": "4:00pm"}, {"days": "Sat", "time": "9:00am"}, {"days": "Sun", "time": "Closed"}], "id": "3511100002", "name": "USPS COLLECTION BOX - PO LOBBY", "address": {"city": "MCCALLA", "state": "AL", "street": "6301 OLD TUSCALOOSA HWY", "postcode": "35111"}}},
{"geometry": {"type": "Point", "coordinates": [-86.4754930675, 33.6857050693]}, "type": "Feature", "properties": {"collection_times": [{"days": "Mon-Fri", "time": "12:00pm"}, {"days": "Sat-Sun", "time": "Closed"}], "id": "3511200000", "name": "USPS COLLECTION BOX - PO LOBBY", "address": {"city": "MARGARET", "state": "AL", "street": "25 POST OFFICE DR", "postcode": "35112"}}},
{"geometry": {"type": "Point", "coordinates": [-86.8633146082, 33.2055048973]}, "type": "Feature", "properties": {"collection_times": [{"days": "Mon-Fri", "time": "1:45pm"}, {"days": "Sat", "time": "9:30am"}, {"days": "Sun", "time": "Closed"}], "id": "3511400000", "name": "USPS COLLECTION BOX - BLUE BOX", "address": {"city": "MAYLENE", "state": "AL", "street": "10011 HIGHWAY 17", "postcode": "35114"}}},
{"geometry": {"type": "Point", "coordinates": [-86.8633146082, 33.2055048973]}, "type": "Feature", "properties": {"collection_times": [{"days": "Mon-Fri", "time": "1:45pm"}, {"days": "Sat", "time": "9:30am"}, {"days": "Sun", "time": "Closed"}], "id": "3511400001", "name": "USPS COLLECTION BOX - PO LOBBY", "address": {"city": "MAYLENE", "state": "AL", "street": "10011 HIGHWAY 17", "postcode": "35114"}}},
{"geometry": {"type": "Point", "coordinates": [-86.8622434697, 33.1011298397]}, "type": "Feature", "properties": {"collection_times": [{"days": "Mon-Fri", "time": "4:00pm"}, {"days": "Sat", "time": "12:00pm"}, {"days": "Sun", "time": "Closed"}], "id": "3511500001", "name": "USPS COLLECTION BOX - BLUE BOX", "address": {"city": "MONTEVALLO", "state": "AL", "street": "720 VINE ST", "postcode": "35115"}}},
{"geometry": {"type": "Point", "coordinates": [-86.8622434697, 33.1011298397]}, "type": "Feature", "properties": {"collection_times": [{"days": "Mon-Fri", "time": "4:00pm"}, {"days": "Sat", "time": "12:00pm"}, {"days": "Sun", "time": "Closed"}], "id": "3511500002", "name": "USPS COLLECTION BOX - BLUE BOX", "address": {"city": "MONTEVALLO", "state": "AL", "street": "720 VINE ST", "postcode": "35115"}}},
{"geometry": {"type": "Point", "coordinates": [-86.8622434697, 33.1011298397]}, "type": "Feature", "properties": {"collection_times": [{"days": "Mon-Fri", "time": "4:00pm"}, {"days": "Sat", "time": "12:00pm"}, {"days": "Sun", "time": "Closed"}], "id": "3511500007", "name": "USPS COLLECTION BOX - PO LOBBY", "address": {"city": "MONTEVALLO", "state": "AL", "street": "720 VINE ST", "postcode": "35115"}}},
{"geometry": {"type": "Point", "coordinates": [-86.8102622376, 33.7484229611]}, "type": "Feature", "properties": {"collection_times": [{"days": "Mon-Fri", "time": "4:00pm"}, {"days": "Sat", "time": "8:00am"}, {"days": "Sun", "time": "Closed"}], "id": "3511600000", "name": "USPS COLLECTION BOX - BLUE BOX", "address": {"city": "MORRIS", "state": "AL", "street": "8315 OLD HIGHWAY 31", "postcode": "35116"}}},
{"geometry": {"type": "Point", "coordinates": [-86.8102622376, 33.7484229611]}, "type": "Feature", "properties": {"collection_times": [{"days": "Mon-Fri", "time": "4:00pm"}, {"days": "Sat", "time": "8:00am"}, {"days": "Sun", "time": "Closed"}], "id": "3511600001", "name": "USPS COLLECTION BOX - PO LOBBY", "address": {"city": "MORRIS", "state": "AL", "street": "8315 OLD HIGHWAY 31", "postcode": "35116"}}},
{"geometry": {"type": "Point", "coordinates": [-86.9776944668, 33.5482360845]}, "type": "Feature", "properties": {"collection_times": [{"days": "Mon-Fri", "time": "3:45pm"}, {"days": "Sat", "time": "9:45am"}, {"days": "Sun", "time": "Closed"}], "id": "3511800000", "name": "USPS COLLECTION BOX - BLUE BOX", "address": {"city": "MULGA", "state": "AL", "street": "203 1ST AVE", "postcode": "35118"}}},
{"geometry": {"type": "Point", "coordinates": [-86.9776944668, 33.5482360845]}, "type": "Feature", "properties": {"collection_times": [{"days": "Mon-Fri", "time": "4:00pm"}, {"days": "Sat", "time": "10:00am"}, {"days": "Sun", "time": "Closed"}], "id": "3511800001", "name": "USPS COLLECTION BOX - PO LOBBY", "address": {"city": "MULGA", "state": "AL", "street": "203 1ST AVE", "postcode": "35118"}}},
{"geometry": {"type": "Point", "coordinates": [-87.0265016587, 33.5099412207]}, "type": "Feature", "properties": {"collection_times": [{"days": "Mon-Sat", "time": "2:00pm"}, {"days": "Sun", "time": "Closed"}], "id": "3511800002", "name": "USPS COLLECTION BOX - BLUE BOX", "address": {"city": "MULGA", "state": "AL", "street": "100 ROCK CREEK RD", "postcode": "35118"}}},
{"geometry": {"type": "Point", "coordinates": [-86.7686982417, 33.6488939835]}, "type": "Feature", "properties": {"collection_times": [{"days": "Mon-Fri", "time": "11:50am"}, {"days": "Sat", "time": "10:00am"}, {"days": "Sun", "time": "Closed"}], "id": "3511900000", "name": "USPS COLLECTION BOX - BLUE BOX", "address": {"city": "NEW CASTLE", "state": "AL", "street": "144 MULBERRY DR", "postcode": "35119"}}},
{"geometry": {"type": "Point", "coordinates": [-86.7686982417, 33.6488939835]}, "type": "Feature", "properties": {"collection_times": [{"days": "Mon-Fri", "time": "11:50am"}, {"days": "Sat", "time": "10:15am"}, {"days": "Sun", "time": "Closed"}], "id": "3511900001", "name": "USPS COLLECTION BOX - PO LOBBY", "address": {"city": "NEW CASTLE", "state": "AL", "street": "144 MULBERRY DR", "postcode": "35119"}}},
{"geometry": {"type": "Point", "coordinates": [-86.4026368169, 33.6789794654]}, "type": "Feature", "properties": {"collection_times": [{"days": "Mon-Fri", "time": "4:00pm"}, {"days": "Sat", "time": "10:00am"}, {"days": "Sun", "time": "Closed"}], "id": "3512000000", "name": "USPS COLLECTION BOX - BLUE BOX", "address": {"city": "ODENVILLE", "state": "AL", "street": "17 BURGESS DR", "postcode": "35120"}}},
{"geometry": {"type": "Point", "coordinates": [-86.4026368169, 33.6789794654]}, "type": "Feature", "properties": {"collection_times": [{"days": "Mon-Fri", "time": "4:00pm"}, {"days": "Sat", "time": "10:00am"}, {"days": "Sun", "time": "Closed"}], "id": "3512000001", "name": "USPS COLLECTION BOX - PO LOBBY", "address": {"city": "ODENVILLE", "state": "AL", "street": "17 BURGESS DR", "postcode": "35120"}}},
{"geometry": {"type": "Point", "coordinates": [-86.4724735629, 33.9518057964]}, "type": "Feature", "properties": {"collection_times": [{"days": "Mon-Fri", "time": "5:00pm"}, {"days": "Sat", "time": "12:00pm"}, {"days": "Sun", "time": "Closed"}], "id": "3512100000", "name": "USPS COLLECTION BOX - BLUE BOX", "address": {"city": "ONEONTA", "state": "AL", "street": "333 7TH ST N", "postcode": "35121"}}},
{"geometry": {"type": "Point", "coordinates": [-86.4724735629, 33.9518057964]}, "type": "Feature", "properties": {"collection_times": [{"days": "Mon-Fri", "time": "5:00pm"}, {"days": "Sat", "time": "12:00pm"}, {"days": "Sun", "time": "Closed"}], "id": "3512100001", "name": "USPS COLLECTION BOX - BLUE BOX", "address": {"city": "ONEONTA", "state": "AL", "street": "333 7TH ST N", "postcode": "35121"}}},
{"geometry": {"type": "Point", "coordinates": [-86.4769571176, 33.9443634912]}, "type": "Feature", "properties": {"collection_times": [{"days": "Mon-Sat", "time": "9:45am"}, {"days": "Sun", "time": "Closed"}], "id": "3512100002", "name": "USPS COLLECTION BOX - BLUE BOX", "address": {"city": "ONEONTA", "state": "AL", "street": "121 1ST AVE E", "postcode": "35121"}}},
{"geometry": {"type": "Point", "coordinates": [-86.4485398896, 33.972636262]}, "type": "Feature", "properties": {"collection_times": [{"days": "Mon-Fri", "time": "12:30pm"}, {"days": "Sat", "time": "11:30am"}, {"days": "Sun", "time": "Closed"}], "id": "3512100004", "name": "USPS COLLECTION BOX - BLUE BOX", "address": {"city": "ONEONTA", "state": "AL", "street": "2453 2ND AVE E", "postcode": "35121"}}},
{"geometry": {"type": "Point", "coordinates": [-86.451997303, 33.9700590667]}, "type": "Feature", "properties": {"collection_times": [{"days": "Mon-Fri", "time": "2:30pm"}, {"days": "Sat", "time": "1:30pm"}, {"days": "Sun", "time": "Closed"}], "id": "3512100005", "name": "USPS COLLECTION BOX - BLUE BOX", "address": {"city": "ONEONTA", "state": "AL", "street": "100 MOUNTAIN SPRINGS RD", "postcode": "35121"}}},
{"geometry": {"type": "Point", "coordinates": [-86.4764534428, 33.9490846984]}, "type": "Feature", "properties": {"collection_times": [{"days": "Mon-Fri", "time": "10:00am"}, {"days": "Sat-Sun", "time": "Closed"}], "id": "3512100007", "name": "USPS COLLECTION BOX - BLUE BOX", "address": {"city": "ONEONTA", "state": "AL", "street": "415 5TH AVE E", "postcode": "35121"}}},
{"geometry": {"type": "Point", "coordinates": [-86.4724735629, 33.9518057964]}, "type": "Feature", "properties": {"collection_times": [{"days": "Mon-Fri", "time": "5:00pm"}, {"days": "Sat", "time": "12:00pm"}, {"days": "Sun", "time": "Closed"}], "id": "3512100008", "name": "USPS COLLECTION BOX - PO LOBBY", "address": {"city": "ONEONTA", "state": "AL", "street": "333 7TH ST N", "postcode": "35121"}}},
{"geometry": {"type": "Point", "coordinates": [-86.4724735629, 33.9518057964]}, "type": "Feature", "properties": {"collection_times": [{"days": "Mon-Fri", "time": "5:00pm"}, {"days": "Sat", "time": "12:00pm"}, {"days": "Sun", "time": "Closed"}], "id": "3512100009", "name": "USPS COLLECTION BOX - PO LOBBY", "address": {"city": "ONEONTA", "state": "AL", "street": "333 7TH ST N", "postcode": "35121"}}},
{"geometry": {"type": "Point", "coordinates": [-86.6491263958, 33.738372182]}, "type": "Feature", "properties": {"collection_times": [{"days": "Mon-Fri", "time": "4:00pm"}, {"days": "Sat", "time": "10:30am"}, {"days": "Sun", "time": "Closed"}], "id": "3512300000", "name": "USPS COLLECTION BOX - BLUE BOX", "address": {"city": "PALMERDALE", "state": "AL", "street": "8079 HIGHWAY 75", "postcode": "35123"}}},
{"geometry": {"type": "Point", "coordinates": [-86.6491263958, 33.738372182]}, "type": "Feature", "properties": {"collection_times": [{"days": "Mon-Fri", "time": "4:00pm"}, {"days": "Sat", "time": "10:30am"}, {"days": "Sun", "time": "Closed"}], "id": "3512300001", "name": "USPS COLLECTION BOX - PO LOBBY", "address": {"city": "PALMERDALE", "state": "AL", "street": "8079 HIGHWAY 75", "postcode": "35123"}}},
{"geometry": {"type": "Point", "coordinates": [-86.8114545338, 33.2970069601]}, "type": "Feature", "properties": {"collection_times": [{"days": "Mon-Fri", "time": "4:30pm"}, {"days": "Sat", "time": "12:00pm"}, {"days": "Sun", "time": "Closed"}], "id": "3512400000", "name": "USPS COLLECTION BOX - BLUE BOX", "address": {"city": "PELHAM", "state": "AL", "street": "2960 HIGHWAY 31 S", "postcode": "35124"}}},
{"geometry": {"type": "Point", "coordinates": [-86.8114545338, 33.2970069601]}, "type": "Feature", "properties": {"collection_times": [{"days": "Mon-Fri", "time": "4:30pm"}, {"days": "Sat", "time": "12:00pm"}, {"days": "Sun", "time": "Closed"}], "id": "3512400001", "name": "USPS COLLECTION BOX - BLUE BOX", "address": {"city": "PELHAM", "state": "AL", "street": "2960 HIGHWAY 31 S", "postcode": "35124"}}},
{"geometry": {"type": "Point", "coordinates": [-86.8114545338, 33.2970069601]}, "type": "Feature", "properties": {"collection_times": [{"days": "Mon-Fri", "time": "4:30pm"}, {"days": "Sat", "time": "12:00pm"}, {"days": "Sun", "time": "Closed"}], "id": "3512400010", "name": "USPS COLLECTION BOX - PO LOBBY", "address": {"city": "PELHAM", "state": "AL", "street": "2960 HIGHWAY 31 S", "postcode": "35124"}}},
{"geometry": {"type": "Point", "coordinates": [-86.8114545338, 33.2970069601]}, "type": "Feature", "properties": {"collection_times": [{"days": "Mon-Fri", "time": "4:30pm"}, {"days": "Sat", "time": "12:00pm"}, {"days": "Sun", "time": "Closed"}], "id": "3512400011", "name": "USPS COLLECTION BOX - PO LOBBY", "address": {"city": "PELHAM", "state": "AL", "street": "2960 HIGHWAY 31 S", "postcode": "35124"}}},
{"geometry": {"type": "Point", "coordinates": [-86.282324948, 33.6036119848]}, "type": "Feature", "properties": {"collection_times": [{"days": "Mon-Fri", "time": "5:00pm"}, {"days": "Sat", "time": "12:00pm"}, {"days": "Sun", "time": "Closed"}], "id": "3512500000", "name": "USPS COLLECTION BOX - BLUE BOX", "address": {"city": "PELL CITY", "state": "AL", "street": "1400 MARTIN ST S", "postcode": "35125"}}},
{"geometry": {"type": "Point", "coordinates": [-86.282324948, 33.6036119848]}, "type": "Feature", "properties": {"collection_times": [{"days": "Mon-Fri", "time": "5:00pm"}, {"days": "Sat", "time": "12:00pm"}, {"days": "Sun", "time": "Closed"}], "id": "3512500001", "name": "USPS COLLECTION BOX - BLUE BOX", "address": {"city": "PELL CITY", "state": "AL", "street": "1400 MARTIN ST S", "postcode": "35125"}}},
{"geometry": {"type": "Point", "coordinates": [-86.2956861822, 33.6134311418]}, "type": "Feature", "properties": {"collection_times": [{"days": "Mon-Fri", "time": "5:00pm"}, {"days": "Sat", "time": "12:00pm"}, {"days": "Sun", "time": "Closed"}], "id": "3512500002", "name": "USPS COLLECTION BOX - EXPRESS", "address": {"city": "PELL CITY", "state": "AL", "street": "1400 MARTIN ST S", "postcode": "35125"}}},
{"geometry": {"type": "Point", "coordinates": [-86.282324948, 33.6036119848]}, "type": "Feature", "properties": {"collection_times": [{"days": "Mon-Fri", "time": "5:00pm"}, {"days": "Sat", "time": "12:00pm"}, {"days": "Sun", "time": "Closed"}], "id": "3512500010", "name": "USPS COLLECTION BOX - PO LOBBY", "address": {"city": "PELL CITY", "state": "AL", "street": "1400 MARTIN ST S", "postcode": "35125"}}},
{"geometry": {"type": "Point", "coordinates": [-86.6795181536, 33.6975049162]}, "type": "Feature", "properties": {"collection_times": [{"days": "Mon-Fri", "time": "4:30pm"}, {"days": "Sat", "time": "12:00pm"}, {"days": "Sun", "time": "Closed"}], "id": "3512600001", "name": "USPS COLLECTION BOX - BLUE BOX", "address": {"city": "PINSON", "state": "AL", "street": "6670 HIGHWAY 75", "postcode": "35126"}}},
{"geometry": {"type": "Point", "coordinates": [-86.6795181536, 33.6975049162]}, "type": "Feature", "properties": {"collection_times": [{"days": "Mon-Fri", "time": "4:30pm"}, {"days": "Sat", "time": "12:00pm"}, {"days": "Sun", "time": "Closed"}], "id": "3512600004", "name": "USPS COLLECTION BOX - PO LOBBY", "address": {"city": "PINSON", "state": "AL", "street": "6670 HIGHWAY 75", "postcode": "35126"}}},
{"geometry": {"type": "Point", "coordinates": [-86.6462266806, 33.6549864546]}, "type": "Feature", "properties": {"collection_times": [{"days": "Mon-Sat", "time": "12:30pm"}, {"days": "Sun", "time": "Closed"}], "id": "3512600006", "name": "USPS COLLECTION BOX - BLUE BOX", "address": {"city": "PINSON", "state": "AL", "street": "5100 OLD SPRINGVILLE RD", "postcode": "35126"}}},
{"geometry": {"type": "Point", "coordinates": [-86.9773430183, 33.4913651781]}, "type": "Feature", "properties": {"collection_times": [{"days": "Mon-Fri", "time": "4:00pm"}, {"days": "Sat", "time": "10:00am"}, {"days": "Sun", "time": "Closed"}], "id": "3512700000", "name": "USPS COLLECTION BOX - BLUE BOX", "address": {"city": "PLEASANT GROVE", "state": "AL", "street": "832 PARK RD", "postcode": "35127"}}},
{"geometry": {"type": "Point", "coordinates": [-86.9773430183, 33.4913651781]}, "type": "Feature", "properties": {"collection_times": [{"days": "Mon-Fri", "time": "4:00pm"}, {"days": "Sat", "time": "10:00am"}, {"days": "Sun", "time": "Closed"}], "id": "3512700001", "name": "USPS COLLECTION BOX - BLUE BOX", "address": {"city": "PLEASANT GROVE", "state": "AL", "street": "832 PARK RD", "postcode": "35127"}}},
{"geometry": {"type": "Point", "coordinates": [-86.9583002555, 33.489534094]}, "type": "Feature", "properties": {"collection_times": [{"days": "Mon-Fri", "time": "12:00pm"}, {"days": "Sat", "time": "11:00am"}, {"days": "Sun", "time": "Closed"}], "id": "3512700002", "name": "USPS COLLECTION BOX - BLUE BOX", "address": {"city": "PLEASANT GROVE", "state": "AL", "street": "705 PLEASANT GROVE RD", "postcode": "35127"}}},
{"geometry": {"type": "Point", "coordinates": [-86.9773430183, 33.4913651781]}, "type": "Feature", "properties": {"collection_times": [{"days": "Mon-Fri", "time": "4:00pm"}, {"days": "Sat", "time": "10:00am"}, {"days": "Sun", "time": "Closed"}], "id": "3512700003", "name": "USPS COLLECTION BOX - PO LOBBY", "address": {"city": "PLEASANT GROVE", "state": "AL", "street": "832 PARK RD", "postcode": "35127"}}},
{"geometry": {"type": "Point", "coordinates": [-87.0756753204, 33.6697089653]}, "type": "Feature", "properties": {"collection_times": [{"days": "Mon-Fri", "time": "3:45pm"}, {"days": "Sat", "time": "10:00am"}, {"days": "Sun", "time": "Closed"}], "id": "3513000000", "name": "USPS COLLECTION BOX - BLUE BOX", "address": {"city": "QUINTON", "state": "AL", "street": "7515 QUINTON RD", "postcode": "35130"}}},
{"geometry": {"type": "Point", "coordinates": [-87.0756753204, 33.6697089653]}, "type": "Feature", "properties": {"collection_times": [{"days": "Mon-Fri", "time": "4:00pm"}, {"days": "Sat", "time": "10:00am"}, {"days": "Sun", "time": "Closed"}], "id": "3513000001", "name": "USPS COLLECTION BOX - PO LOBBY", "address": {"city": "QUINTON", "state": "AL", "street": "7515 QUINTON RD", "postcode": "35130"}}},
{"geometry": {"type": "Point", "coordinates": [-86.1927816161, 33.7303348012]}, "type": "Feature", "properties": {"collection_times": [{"days": "Mon-Fri", "time": "4:00pm"}, {"days": "Sat", "time": "8:30am"}, {"days": "Sun", "time": "Closed"}], "id": "3513100000", "name": "USPS COLLECTION BOX - BLUE BOX", "address": {"city": "RAGLAND", "state": "AL", "street": "81 KATHRYN ST", "postcode": "35131"}}},
{"geometry": {"type": "Point", "coordinates": [-86.1927816161, 33.7303348012]}, "type": "Feature", "properties": {"collection_times": [{"days": "Mon-Fri", "time": "4:00pm"}, {"days": "Sat", "time": "8:30am"}, {"days": "Sun", "time": "Closed"}], "id": "3513100001", "name": "USPS COLLECTION BOX - PO LOBBY", "address": {"city": "RAGLAND", "state": "AL", "street": "81 KATHRYN ST", "postcode": "35131"}}},
{"geometry": {"type": "Point", "coordinates": [-86.608742823, 33.8065717158]}, "type": "Feature", "properties": {"collection_times": [{"days": "Mon-Fri", "time": "12:00pm"}, {"days": "Sat", "time": "10:30am"}, {"days": "Sun", "time": "Closed"}], "id": "3513300000", "name": "USPS COLLECTION BOX - BLUE BOX", "address": {"city": "REMLAP", "state": "AL", "street": "17198 REMLAP DR", "postcode": "35133"}}},
{"geometry": {"type": "Point", "coordinates": [-86.608742823, 33.8065717158]}, "type": "Feature", "properties": {"collection_times": [{"days": "Mon-Fri", "time": "12:00pm"}, {"days": "Sat", "time": "10:00am"}, {"days": "Sun", "time": "Closed"}], "id": "3513300001", "name": "USPS COLLECTION BOX - PO LOBBY", "address": {"city": "REMLAP", "state": "AL", "street": "17198 REMLAP DR", "postcode": "35133"}}},
{"geometry": {"type": "Point", "coordinates": [-86.202713492, 33.6011310817]}, "type": "Feature", "properties": {"collection_times": [{"days": "Mon-Fri", "time": "2:00pm"}, {"days": "Sat", "time": "9:30am"}, {"days": "Sun", "time": "Closed"}], "id": "3513500000", "name": "USPS COLLECTION BOX - BLUE BOX", "address": {"city": "RIVERSIDE", "state": "AL", "street": "419 DEPOT ST", "postcode": "35135"}}},
{"geometry": {"type": "Point", "coordinates": [-86.2029246199, 33.6046571002]}, "type": "Feature", "properties": {"collection_times": [{"days": "Mon-Fri", "time": "2:00pm"}, {"days": "Sat", "time": "10:00am"}, {"days": "Sun", "time": "Closed"}], "id": "3513500001", "name": "USPS COLLECTION BOX - PO LOBBY", "address": {"city": "RIVERSIDE", "state": "AL", "street": "50 COLEMAN AVE", "postcode": "35135"}}},
{"geometry": {"type": "Point", "coordinates": [-86.2180365889, 32.8900529012]}, "type": "Feature", "properties": {"collection_times": [{"days": "Mon-Fri", "time": "3:30pm"}, {"days": "Sat", "time": "9:30am"}, {"days": "Sun", "time": "Closed"}], "id": "3513600000", "name": "USPS COLLECTION BOX - BLUE BOX", "address": {"city": "ROCKFORD", "state": "AL", "street": "329 JACKSON ST", "postcode": "35136"}}},
{"geometry": {"type": "Point", "coordinates": [-86.2180365889, 32.8900529012]}, "type": "Feature", "properties": {"collection_times": [{"days": "Mon-Fri", "time": "3:30pm"}, {"days": "Sat", "time": "9:30am"}, {"days": "Sun", "time": "Closed"}], "id": "3513600001", "name": "USPS COLLECTION BOX - PO LOBBY", "address": {"city": "ROCKFORD", "state": "AL", "street": "329 JACKSON ST", "postcode": "35136"}}},
{"geometry": {"type": "Point", "coordinates": [-86.7795914004, 33.2041712251]}, "type": "Feature", "properties": {"collection_times": [{"days": "Mon-Fri", "time": "3:30pm"}, {"days": "Sat", "time": "8:00am"}, {"days": "Sun", "time": "Closed"}], "id": "3513700000", "name": "USPS COLLECTION BOX - BLUE BOX", "address": {"city": "SAGINAW", "state": "AL", "street": "858 HIGHWAY 31", "postcode": "35137"}}},
{"geometry": {"type": "Point", "coordinates": [-86.7795914004, 33.2041712251]}, "type": "Feature", "properties": {"collection_times": [{"days": "Mon-Fri", "time": "3:30pm"}, {"days": "Sat", "time": "8:00am"}, {"days": "Sun", "time": "Closed"}], "id": "3513700001", "name": "USPS COLLECTION BOX - PO LOBBY", "address": {"city": "SAGINAW", "state": "AL", "street": "858 HIGHWAY 31", "postcode": "35137"}}},
{"geometry": {"type": "Point", "coordinates": [-86.880852169, 33.4062693685]}, "type": "Feature", "properties": {"collection_times": [{"days": "Mon-Fri", "time": "3:30pm"}, {"days": "Sat", "time": "10:00am"}, {"days": "Sun", "time": "Closed"}], "id": "3514200000", "name": "USPS COLLECTION BOX - BLUE BOX", "address": {"city": "SHANNON", "state": "AL", "street": "2101 SHANNON OXMOOR RD", "postcode": "35142"}}},
{"geometry": {"type": "Point", "coordinates": [-86.880852169, 33.4062693685]}, "type": "Feature", "properties": {"collection_times": [{"days": "Mon-Fri", "time": "3:30pm"}, {"days": "Sat", "time": "10:00am"}, {"days": "Sun", "time": "Closed"}], "id": "3514200001", "name": "USPS COLLECTION BOX - PO LOBBY", "address": {"city": "SHANNON", "state": "AL", "street": "2101 SHANNON OXMOOR RD", "postcode": "35142"}}},
{"geometry": {"type": "Point", "coordinates": [-86.5836647883, 33.1133736093]}, "type": "Feature", "properties": {"collection_times": [{"days": "Mon-Fri", "time": "3:30pm"}, {"days": "Sat", "time": "9:00am"}, {"days": "Sun", "time": "Closed"}], "id": "3514300000", "name": "USPS COLLECTION BOX - BLUE BOX", "address": {"city": "SHELBY", "state": "AL", "street": "3788 HIGHWAY 47", "postcode": "35143"}}},
{"geometry": {"type": "Point", "coordinates": [-86.5836647883, 33.1133736093]}, "type": "Feature", "properties": {"collection_times": [{"days": "Mon-Fri", "time": "3:30pm"}, {"days": "Sat", "time": "9:00am"}, {"days": "Sun", "time": "Closed"}], "id": "3514300001", "name": "USPS COLLECTION BOX - PO LOBBY", "address": {"city": "SHELBY", "state": "AL", "street": "3788 HIGHWAY 47", "postcode": "35143"}}},
{"geometry": {"type": "Point", "coordinates": [-86.4843915462, 33.7606138671]}, "type": "Feature", "properties": {"collection_times": [{"days": "Mon-Fri", "time": "4:00pm"}, {"days": "Sat", "time": "11:00am"}, {"days": "Sun", "time": "Closed"}], "id": "3514600000", "name": "USPS COLLECTION BOX - BLUE BOX", "address": {"city": "SPRINGVILLE", "state": "AL", "street": "5926 US HIGHWAY 11", "postcode": "35146"}}},
{"geometry": {"type": "Point", "coordinates": [-86.4843915462, 33.7606138671]}, "type": "Feature", "properties": {"collection_times": [{"days": "Mon-Fri", "time": "4:00pm"}, {"days": "Sat", "time": "11:00am"}, {"days": "Sun", "time": "Closed"}], "id": "3514600001", "name": "USPS COLLECTION BOX - BLUE BOX", "address": {"city": "SPRINGVILLE", "state": "AL", "street": "5926 US HIGHWAY 11", "postcode": "35146"}}},
{"geometry": {"type": "Point", "coordinates": [-86.4843915462, 33.7606138671]}, "type": "Feature", "properties": {"collection_times": [{"days": "Mon-Fri", "time": "4:00pm"}, {"days": "Sat", "time": "11:00am"}, {"days": "Sun", "time": "Closed"}], "id": "3514600002", "name": "USPS COLLECTION BOX - PO LOBBY", "address": {"city": "SPRINGVILLE", "state": "AL", "street": "5926 US HIGHWAY 11", "postcode": "35146"}}},
{"geometry": {"type": "Point", "coordinates": [-86.489435287, 33.4543167224]}, "type": "Feature", "properties": {"collection_times": [{"days": "Mon-Fri", "time": "4:00pm"}, {"days": "Sat", "time": "10:30am"}, {"days": "Sun", "time": "Closed"}], "id": "3514700000", "name": "USPS COLLECTION BOX - BLUE BOX", "address": {"city": "STERRETT", "state": "AL", "street": "49930 HIGHWAY 25", "postcode": "35147"}}},
{"geometry": {"type": "Point", "coordinates": [-86.489435287, 33.4543167224]}, "type": "Feature", "properties": {"collection_times": [{"days": "Mon-Fri", "time": "4:00pm"}, {"days": "Sat", "time": "10:30am"}, {"days": "Sun", "time": "Closed"}], "id": "3514700001", "name": "USPS COLLECTION BOX - PO LOBBY", "address": {"city": "STERRETT", "state": "AL", "street": "49930 HIGHWAY 25", "postcode": "35147"}}},
{"geometry": {"type": "Point", "coordinates": [-87.0533920914, 33.75774427]}, "type": "Feature", "properties": {"collection_times": [{"days": "Mon-Fri", "time": "3:30pm"}, {"days": "Sat", "time": "10:00am"}, {"days": "Sun", "time": "Closed"}], "id": "3514800000", "name": "USPS COLLECTION BOX - BLUE BOX", "address": {"city": "SUMITON", "state": "AL", "street": "1675 MAIN ST", "postcode": "35148"}}},
{"geometry": {"type": "Point", "coordinates": [-87.0533920914, 33.75774427]}, "type": "Feature", "properties": {"collection_times": [{"days": "Mon-Fri", "time": "3:30pm"}, {"days": "Sat", "time": "10:00am"}, {"days": "Sun", "time": "Closed"}], "id": "3514800001", "name": "USPS COLLECTION BOX - BLUE BOX", "address": {"city": "SUMITON", "state": "AL", "street": "1675 MAIN ST", "postcode": "35148"}}},
{"geometry": {"type": "Point", "coordinates": [-87.0533920914, 33.75774427]}, "type": "Feature", "properties": {"collection_times": [{"days": "Mon-Fri", "time": "4:00pm"}, {"days": "Sat", "time": "10:00am"}, {"days": "Sun", "time": "Closed"}], "id": "3514800002", "name": "USPS COLLECTION BOX - PO LOBBY", "address": {"city": "SUMITON", "state": "AL", "street": "1675 MAIN ST", "postcode": "35148"}}},
{"geometry": {"type": "Point", "coordinates": [-86.2080863122, 33.2548747799]}, "type": "Feature", "properties": {"collection_times": [{"days": "Mon-Fri", "time": "12:00pm"}, {"days": "Sat", "time": "10:00am"}, {"days": "Sun", "time": "Closed"}], "id": "3514900000", "name": "USPS COLLECTION BOX - BLUE BOX", "address": {"city": "SYCAMORE", "state": "AL", "street": "479 MAIN ST", "postcode": "35149"}}},
{"geometry": {"type": "Point", "coordinates": [-86.2080863122, 33.2548747799]}, "type": "Feature", "properties": {"collection_times": [{"days": "Mon-Fri", "time": "12:00pm"}, {"days": "Sat", "time": "10:00am"}, {"days": "Sun", "time": "Closed"}], "id": "3514900001", "name": "USPS COLLECTION BOX - PO LOBBY", "address": {"city": "SYCAMORE", "state": "AL", "street": "479 MAIN ST", "postcode": "35149"}}},
{"geometry": {"type": "Point", "coordinates": [-86.2507221346, 33.1672651859]}, "type": "Feature", "properties": {"collection_times": [{"days": "Mon-Fri", "time": "5:00pm"}, {"days": "Sat", "time": "3:30pm"}, {"days": "Sun", "time": "Closed"}], "id": "3515000000", "name": "USPS COLLECTION BOX - BLUE BOX", "address": {"city": "SYLACAUGA", "state": "AL", "street": "1 S BROADWAY AVE", "postcode": "35150"}}},
{"geometry": {"type": "Point", "coordinates": [-86.2507221346, 33.1672651859]}, "type": "Feature", "properties": {"collection_times": [{"days": "Mon-Fri", "time": "5:00pm"}, {"days": "Sat", "time": "3:30pm"}, {"days": "Sun", "time": "Closed"}], "id": "3515000001", "name": "USPS COLLECTION BOX - BLUE BOX", "address": {"city": "SYLACAUGA", "state": "AL", "street": "1 S BROADWAY AVE", "postcode": "35150"}}},
{"geometry": {"type": "Point", "coordinates": [-86.2521476093, 33.1738596285]}, "type": "Feature", "properties": {"collection_times": [{"days": "Mon-Sat", "time": "9:30am"}, {"days": "Sun", "time": "Closed"}], "id": "3515000011", "name": "USPS COLLECTION BOX - BLUE BOX", "address": {"city": "SYLACAUGA", "state": "AL", "street": "400 N NORTON AVE", "postcode": "35150"}}},
{"geometry": {"type": "Point", "coordinates": [-86.2507202211, 33.1779044475]}, "type": "Feature", "properties": {"collection_times": [{"days": "Mon-Sat", "time": "9:30am"}, {"days": "Sun", "time": "Closed"}], "id": "3515000014", "name": "USPS COLLECTION BOX - BLUE BOX", "address": {"city": "SYLACAUGA", "state": "AL", "street": "2 W 8TH ST", "postcode": "35150"}}},
{"geometry": {"type": "Point", "coordinates": [-86.2507221346, 33.1672651859]}, "type": "Feature", "properties": {"collection_times": [{"days": "Mon-Fri", "time": "5:00pm"}, {"days": "Sat", "time": "3:30pm"}, {"days": "Sun", "time": "Closed"}], "id": "3515000017", "name": "USPS COLLECTION BOX - PO LOBBY", "address": {"city": "SYLACAUGA", "state": "AL", "street": "1 S BROADWAY AVE", "postcode": "35150"}}},
{"geometry": {"type": "Point", "coordinates": [-86.2507221346, 33.1672651859]}, "type": "Feature", "properties": {"collection_times": [{"days": "Mon-Fri", "time": "5:00pm"}, {"days": "Sat", "time": "3:30pm"}, {"days": "Sun", "time": "Closed"}], "id": "3515000019", "name": "USPS COLLECTION BOX - BLUE BOX", "address": {"city": "SYLACAUGA", "state": "AL", "street": "1 S BROADWAY AVE", "postcode": "35150"}}},
{"geometry": {"type": "Point", "coordinates": [-86.119050757, 33.41056458]}, "type": "Feature", "properties": {"collection_times": [{"days": "Mon-Fri", "time": "4:30pm"}, {"days": "Sat", "time": "3:30pm"}, {"days": "Sun", "time": "Closed"}], "id": "3516000000", "name": "USPS COLLECTION BOX - BLUE BOX", "address": {"city": "TALLADEGA", "state": "AL", "street": "127 E ST N", "postcode": "35160"}}},
{"geometry": {"type": "Point", "coordinates": [-86.102466895, 33.436086059]}, "type": "Feature", "properties": {"collection_times": [{"days": "Mon-Fri", "time": "4:30pm"}, {"days": "Sat", "time": "3:30pm"}, {"days": "Sun", "time": "Closed"}], "id": "3516000001", "name": "USPS COLLECTION BOX - BLUE BOX", "address": {"city": "TALLADEGA", "state": "AL", "street": "127 EAST ST N", "postcode": "35160"}}},
{"geometry": {"type": "Point", "coordinates": [-86.101803541, 33.4327297749]}, "type": "Feature", "properties": {"collection_times": [{"days": "Mon-Sat", "time": "2:00pm"}, {"days": "Sun", "time": "Closed"}], "id": "3516000006", "name": "USPS COLLECTION BOX - BLUE BOX", "address": {"city": "TALLADEGA", "state": "AL", "street": "106 SOUTH ST W", "postcode": "35160"}}},
{"geometry": {"type": "Point", "coordinates": [-86.1035281388, 33.4354404069]}, "type": "Feature", "properties": {"collection_times": [{"days": "Mon-Sat", "time": "2:00pm"}, {"days": "Sun", "time": "Closed"}], "id": "3516000010", "name": "USPS COLLECTION BOX - BLUE BOX", "address": {"city": "TALLADEGA", "state": "AL", "street": "100 COURT ST N", "postcode": "35160"}}},
{"geometry": {"type": "Point", "coordinates": [-86.1186041234, 33.4224282687]}, "type": "Feature", "properties": {"collection_times": [{"days": "Mon-Sat", "time": "12:00pm"}, {"days": "Sun", "time": "Closed"}], "id": "3516000014", "name": "USPS COLLECTION BOX - BLUE BOX", "address": {"city": "TALLADEGA", "state": "AL", "street": "1209 FORT LASHLEY AVE", "postcode": "35160"}}},
{"geometry": {"type": "Point", "coordinates": [-86.1024948257, 33.4361622439]}, "type": "Feature", "properties": {"collection_times": [{"days": "Mon-Fri", "time": "4:30pm"}, {"days": "Sat", "time": "3:30pm"}, {"days": "Sun", "time": "Closed"}], "id": "3516000016", "name": "USPS COLLECTION BOX - PO LOBBY", "address": {"city": "TALLADEGA", "state": "AL", "street": "127 EAST ST N", "postcode": "35160"}}},
{"geometry": {"type": "Point", "coordinates": [-86.1024948257, 33.4361622439]}, "type": "Feature", "properties": {"collection_times": [{"days": "Mon-Fri", "time": "4:30pm"}, {"days": "Sat", "time": "3:30pm"}, {"days": "Sun", "time": "Closed"}], "id": "3516000017", "name": "USPS COLLECTION BOX - PO LOBBY", "address": {"city": "TALLADEGA", "state": "AL", "street": "127 EAST ST N", "postcode": "35160"}}},
{"geometry": {"type": "Point", "coordinates": [-86.7081732343, 32.9060507547]}, "type": "Feature", "properties": {"collection_times": [{"days": "Mon-Sat", "time": "12:00pm"}, {"days": "Sun", "time": "Closed"}], "id": "3517100000", "name": "USPS COLLECTION BOX - BLUE BOX", "address": {"city": "THORSBY", "state": "AL", "street": "20650 US HIGHWAY 31", "postcode": "35171"}}},
{"geometry": {"type": "Point", "coordinates": [-86.7081732343, 32.9060507547]}, "type": "Feature", "properties": {"collection_times": [{"days": "Mon-Sat", "time": "12:00pm"}, {"days": "Sun", "time": "Closed"}], "id": "3517100002", "name": "USPS COLLECTION BOX - PO LOBBY", "address": {"city": "THORSBY", "state": "AL", "street": "20650 US HIGHWAY 31", "postcode": "35171"}}},
{"geometry": {"type": "Point", "coordinates": [-86.6112106038, 33.6139893574]}, "type": "Feature", "properties": {"collection_times": [{"days": "Mon-Fri", "time": "4:30pm"}, {"days": "Sat", "time": "12:00pm"}, {"days": "Sun", "time": "Closed"}], "id": "3517300000", "name": "USPS COLLECTION BOX - PO LOBBY", "address": {"city": "TRUSSVILLE", "state": "AL", "street": "810 WATTERSON CURV", "postcode": "35173"}}},
{"geometry": {"type": "Point", "coordinates": [-86.6112106038, 33.6139893574]}, "type": "Feature", "properties": {"collection_times": [{"days": "Mon-Fri", "time": "4:45pm"}, {"days": "Sat", "time": "12:00pm"}, {"days": "Sun", "time": "Closed"}], "id": "3517300001", "name": "USPS COLLECTION BOX - BLUE BOX", "address": {"city": "TRUSSVILLE", "state": "AL", "street": "810 WATTERSON CURV", "postcode": "35173"}}},
{"geometry": {"type": "Point", "coordinates": [-86.6112106038, 33.6139893574]}, "type": "Feature", "properties": {"collection_times": [{"days": "Mon-Fri", "time": "4:45pm"}, {"days": "Sat", "time": "12:00pm"}, {"days": "Sun", "time": "Closed"}], "id": "3517300002", "name": "USPS COLLECTION BOX - BLUE BOX", "address": {"city": "TRUSSVILLE", "state": "AL", "street": "810 WATTERSON CURV", "postcode": "35173"}}},
{"geometry": {"type": "Point", "coordinates": [-86.6095948669, 33.6192161418]}, "type": "Feature", "properties": {"collection_times": [{"days": "Mon-Fri", "time": "12:00pm"}, {"days": "Sat", "time": "11:00am"}, {"days": "Sun", "time": "Closed"}], "id": "3517300003", "name": "USPS COLLECTION BOX - BLUE BOX", "address": {"city": "TRUSSVILLE", "state": "AL", "street": "226 MAIN ST", "postcode": "35173"}}},
{"geometry": {"type": "Point", "coordinates": [-86.5784156903, 33.6404614669]}, "type": "Feature", "properties": {"collection_times": [{"days": "Mon-Sat", "time": "12:00pm"}, {"days": "Sun", "time": "Closed"}], "id": "3517300007", "name": "USPS COLLECTION BOX - BLUE BOX", "address": {"city": "TRUSSVILLE", "state": "AL", "street": "247 US HIGHWAY 11", "postcode": "35173"}}},
{"geometry": {"type": "Point", "coordinates": [-86.4481697941, 34.4016517535]}, "type": "Feature", "properties": {"collection_times": [{"days": "Mon-Fri", "time": "3:45pm"}, {"days": "Sat", "time": "11:00am"}, {"days": "Sun", "time": "Closed"}], "id": "3517500000", "name": "USPS COLLECTION BOX - BLUE BOX", "address": {"city": "UNION GROVE", "state": "AL", "street": "3935 UNION GROVE RD", "postcode": "35175"}}},
{"geometry": {"type": "Point", "coordinates": [-86.4481697941, 34.4016517535]}, "type": "Feature", "properties": {"collection_times": [{"days": "Mon-Fri", "time": "4:00pm"}, {"days": "Sat", "time": "11:00am"}, {"days": "Sun", "time": "Closed"}], "id": "3517500001", "name": "USPS COLLECTION BOX - PO LOBBY", "address": {"city": "UNION GROVE", "state": "AL", "street": "3935 UNION GROVE RD", "postcode": "35175"}}},
{"geometry": {"type": "Point", "coordinates": [-86.5109580866, 33.4709458078]}, "type": "Feature", "properties": {"collection_times": [{"days": "Mon-Fri", "time": "11:50am"}, {"days": "Sat", "time": "11:00am"}, {"days": "Sun", "time": "Closed"}], "id": "3517600000", "name": "USPS COLLECTION BOX - BLUE BOX", "address": {"city": "VANDIVER", "state": "AL", "street": "52782 HIGHWAY 25", "postcode": "35176"}}},
{"geometry": {"type": "Point", "coordinates": [-86.5109580866, 33.4709458078]}, "type": "Feature", "properties": {"collection_times": [{"days": "Mon-Fri", "time": "11:50am"}, {"days": "Sat", "time": "11:00am"}, {"days": "Sun", "time": "Closed"}], "id": "3517600001", "name": "USPS COLLECTION BOX - PO LOBBY", "address": {"city": "VANDIVER", "state": "AL", "street": "52782 HIGHWAY 25", "postcode": "35176"}}},
{"geometry": {"type": "Point", "coordinates": [-86.4165957691, 33.405203651]}, "type": "Feature", "properties": {"collection_times": [{"days": "Mon-Fri", "time": "3:30pm"}, {"days": "Sat", "time": "10:00am"}, {"days": "Sun", "time": "Closed"}], "id": "3517800000", "name": "USPS COLLECTION BOX - BLUE BOX", "address": {"city": "VINCENT", "state": "AL", "street": "42840 HIGHWAY 25", "postcode": "35178"}}},
{"geometry": {"type": "Point", "coordinates": [-86.4165957691, 33.405203651]}, "type": "Feature", "properties": {"collection_times": [{"days": "Mon-Fri", "time": "3:30pm"}, {"days": "Sat", "time": "10:00am"}, {"days": "Sun", "time": "Closed"}], "id": "3517800001", "name": "USPS COLLECTION BOX - PO LOBBY", "address": {"city": "VINCENT", "state": "AL", "street": "42840 HIGHWAY 25", "postcode": "35178"}}},
{"geometry": {"type": "Point", "coordinates": [-86.9617303559, 34.2687696974]}, "type": "Feature", "properties": {"collection_times": [{"days": "Mon-Fri", "time": "4:30pm"}, {"days": "Sat", "time": "12:00pm"}, {"days": "Sun", "time": "Closed"}], "id": "3517900000", "name": "USPS COLLECTION BOX - BLUE BOX", "address": {"city": "VINEMONT", "state": "AL", "street": "18181 US HIGHWAY 31", "postcode": "35179"}}},
{"geometry": {"type": "Point", "coordinates": [-86.9617303559, 34.2687696974]}, "type": "Feature", "properties": {"collection_times": [{"days": "Mon-Fri", "time": "4:30pm"}, {"days": "Sat", "time": "12:00pm"}, {"days": "Sun", "time": "Closed"}], "id": "3517900001", "name": "USPS COLLECTION BOX - PO LOBBY", "address": {"city": "VINEMONT", "state": "AL", "street": "18181 US HIGHWAY 31", "postcode": "35179"}}},
{"geometry": {"type": "Point", "coordinates": [-86.8254620943, 33.795888646]}, "type": "Feature", "properties": {"collection_times": [{"days": "Mon-Sat", "time": "12:00pm"}, {"days": "Sun", "time": "Closed"}], "id": "3518000000", "name": "USPS COLLECTION BOX - BLUE BOX", "address": {"city": "WARRIOR", "state": "AL", "street": "420 HIGHWAY 31 S", "postcode": "35180"}}},
{"geometry": {"type": "Point", "coordinates": [-86.8254620943, 33.795888646]}, "type": "Feature", "properties": {"collection_times": [{"days": "Mon-Sat", "time": "12:00pm"}, {"days": "Sun", "time": "Closed"}], "id": "3518000004", "name": "USPS COLLECTION BOX - PO LOBBY", "address": {"city": "WARRIOR", "state": "AL", "street": "420 HIGHWAY 31 S", "postcode": "35180"}}},
{"geometry": {"type": "Point", "coordinates": [-86.8254620943, 33.795888646]}, "type": "Feature", "properties": {"collection_times": [{"days": "Mon-Sat", "time": "12:00pm"}, {"days": "Sun", "time": "Closed"}], "id": "3518000005", "name": "USPS COLLECTION BOX - PO LOBBY", "address": {"city": "WARRIOR", "state": "AL", "street": "420 HIGHWAY 31 S", "postcode": "35180"}}},
{"geometry": {"type": "Point", "coordinates": [-86.8254620943, 33.795888646]}, "type": "Feature", "properties": {"collection_times": [{"days": "Mon-Sat", "time": "12:00pm"}, {"days": "Sun", "time": "Closed"}], "id": "3518000006", "name": "USPS COLLECTION BOX - BLUE BOX", "address": {"city": "WARRIOR", "state": "AL", "street": "420 HIGHWAY 31 S", "postcode": "35180"}}},
{"geometry": {"type": "Point", "coordinates": [-85.573308616, 34.3281010376]}, "type": "Feature", "properties": {"collection_times": [{"days": "Mon-Fri", "time": "4:00pm"}, {"days": "Sat", "time": "9:30am"}, {"days": "Sun", "time": "Closed"}], "id": "3518100000", "name": "USPS COLLECTION BOX - BLUE BOX", "address": {"city": "WATSON", "state": "AL", "street": "4016 POWDER MILL RD", "postcode": "35181"}}},
{"geometry": {"type": "Point", "coordinates": [-86.8787650358, 33.626949959]}, "type": "Feature", "properties": {"collection_times": [{"days": "Mon-Fri", "time": "4:00pm"}, {"days": "Sat", "time": "9:30am"}, {"days": "Sun", "time": "Closed"}], "id": "3518100001", "name": "USPS COLLECTION BOX - PO LOBBY", "address": {"city": "WATSON", "state": "AL", "street": "4016 POWDER MILL RD", "postcode": "35181"}}},
{"geometry": {"type": "Point", "coordinates": [-86.2805236153, 33.6721934369]}, "type": "Feature", "properties": {"collection_times": [{"days": "Mon-Fri", "time": "4:00pm"}, {"days": "Sat", "time": "9:45am"}, {"days": "Sun", "time": "Closed"}], "id": "3518200000", "name": "USPS COLLECTION BOX - PO LOBBY", "address": {"city": "WATTSVILLE", "state": "AL", "street": "50 OAKWOOD LN", "postcode": "35182"}}},
{"geometry": {"type": "Point", "coordinates": [-86.2805236153, 33.6721934369]}, "type": "Feature", "properties": {"collection_times": [{"days": "Mon-Fri", "time": "4:00pm"}, {"days": "Sat", "time": "9:45am"}, {"days": "Sun", "time": "Closed"}], "id": "3518200001", "name": "USPS COLLECTION BOX - BLUE BOX", "address": {"city": "WATTSVILLE", "state": "AL", "street": "50 OAKWOOD LN", "postcode": "35182"}}},
{"geometry": {"type": "Point", "coordinates": [-86.4040935502, 32.9285062543]}, "type": "Feature", "properties": {"collection_times": [{"days": "Mon-Fri", "time": "12:00pm"}, {"days": "Sat", "time": "9:30am"}, {"days": "Sun", "time": "Closed"}], "id": "3518300000", "name": "USPS COLLECTION BOX - BLUE BOX", "address": {"city": "WEOGUFKA", "state": "AL", "street": "20312 COOSA COUNTY ROAD 29", "postcode": "35183"}}},
{"geometry": {"type": "Point", "coordinates": [-86.4040935502, 32.9285062543]}, "type": "Feature", "properties": {"collection_times": [{"days": "Mon-Fri", "time": "12:00pm"}, {"days": "Sat", "time": "9:30am"}, {"days": "Sun", "time": "Closed"}], "id": "3518300001", "name": "USPS COLLECTION BOX - PO LOBBY", "address": {"city": "WEOGUFKA", "state": "AL", "street": "20312 COOSA COUNTY ROAD 29", "postcode": "35183"}}},
{"geometry": {"type": "Point", "coordinates": [-87.116562091, 33.1166712362]}, "type": "Feature", "properties": {"collection_times": [{"days": "Mon-Fri", "time": "12:00pm"}, {"days": "Sat", "time": "11:30am"}, {"days": "Sun", "time": "Closed"}], "id": "3518400000", "name": "USPS COLLECTION BOX - BLUE BOX", "address": {"city": "WEST BLOCTON", "state": "AL", "street": "106 FLORIDA ST", "postcode": "35184"}}},
{"geometry": {"type": "Point", "coordinates": [-87.116562091, 33.1166712362]}, "type": "Feature", "properties": {"collection_times": [{"days": "Mon-Fri", "time": "12:00pm"}, {"days": "Sat", "time": "11:30am"}, {"days": "Sun", "time": "Closed"}], "id": "3518400002", "name": "USPS COLLECTION BOX - PO LOBBY", "address": {"city": "WEST BLOCTON", "state": "AL", "street": "106 FLORIDA ST", "postcode": "35184"}}},
{"geometry": {"type": "Point", "coordinates": [-86.535449387, 33.3518192036]}, "type": "Feature", "properties": {"collection_times": [{"days": "Mon-Fri", "time": "12:00pm"}, {"days": "Sat", "time": "9:00am"}, {"days": "Sun", "time": "Closed"}], "id": "3518500000", "name": "USPS COLLECTION BOX - BLUE BOX", "address": {"city": "WESTOVER", "state": "AL", "street": "9779 HIGHWAY 55", "postcode": "35185"}}},
{"geometry": {"type": "Point", "coordinates": [-86.535449387, 33.3518192036]}, "type": "Feature", "properties": {"collection_times": [{"days": "Mon-Fri", "time": "12:00pm"}, {"days": "Sat", "time": "9:00am"}, {"days": "Sun", "time": "Closed"}], "id": "3518500001", "name": "USPS COLLECTION BOX - PO LOBBY", "address": {"city": "WESTOVER", "state": "AL", "street": "9779 HIGHWAY 55", "postcode": "35185"}}},
{"geometry": {"type": "Point", "coordinates": [-86.4799022417, 33.2393678877]}, "type": "Feature", "properties": {"collection_times": [{"days": "Mon-Fri", "time": "1:00pm"}, {"days": "Sat", "time": "10:00am"}, {"days": "Sun", "time": "Closed"}], "id": "3518600000", "name": "USPS COLLECTION BOX - BLUE BOX", "address": {"city": "WILSONVILLE", "state": "AL", "street": "31111 HIGHWAY 25", "postcode": "35186"}}},
{"geometry": {"type": "Point", "coordinates": [-86.4799022417, 33.2393678877]}, "type": "Feature", "properties": {"collection_times": [{"days": "Mon-Fri", "time": "1:00pm"}, {"days": "Sat", "time": "10:00am"}, {"days": "Sun", "time": "Closed"}], "id": "3518600002", "name": "USPS COLLECTION BOX - PO LOBBY", "address": {"city": "WILSONVILLE", "state": "AL", "street": "31111 HIGHWAY 25", "postcode": "35186"}}},
{"geometry": {"type": "Point", "coordinates": [-86.9123523935, 33.0600240609]}, "type": "Feature", "properties": {"collection_times": [{"days": "Mon-Fri", "time": "4:00pm"}, {"days": "Sat", "time": "8:00am"}, {"days": "Sun", "time": "Closed"}], "id": "3518700000", "name": "USPS COLLECTION BOX - BLUE BOX", "address": {"city": "WILTON", "state": "AL", "street": "2324 HIGHWAY 25", "postcode": "35187"}}},
{"geometry": {"type": "Point", "coordinates": [-86.8815971388, 33.0786000698]}, "type": "Feature", "properties": {"collection_times": [{"days": "Mon-Fri", "time": "4:00pm"}, {"days": "Sat", "time": "8:00am"}, {"days": "Sun", "time": "Closed"}], "id": "3518700001", "name": "USPS COLLECTION BOX - EXPRESS", "address": {"city": "WILTON", "state": "AL", "street": "2324 HIGHWAY 25", "postcode": "35187"}}},
{"geometry": {"type": "Point", "coordinates": [-86.9123523935, 33.0600240609]}, "type": "Feature", "properties": {"collection_times": [{"days": "Mon-Fri", "time": "11:50am"}, {"days": "Sat", "time": "8:00am"}, {"days": "Sun", "time": "Closed"}], "id": "3518700002", "name": "USPS COLLECTION BOX - PO LOBBY", "address": {"city": "WILTON", "state": "AL", "street": "2324 HIGHWAY 25", "postcode": "35187"}}},
{"geometry": {"type": "Point", "coordinates": [-87.1633769221, 33.2140331906]}, "type": "Feature", "properties": {"collection_times": [{"days": "Mon-Fri", "time": "3:45pm"}, {"days": "Sat", "time": "9:45am"}, {"days": "Sun", "time": "Closed"}], "id": "3518800000", "name": "USPS COLLECTION BOX - BLUE BOX", "address": {"city": "WOODSTOCK", "state": "AL", "street": "28770 HIGHWAY 5", "postcode": "35188"}}},
{"geometry": {"type": "Point", "coordinates": [-87.1633769221, 33.2140331906]}, "type": "Feature", "properties": {"collection_times": [{"days": "Mon-Fri", "time": "3:45pm"}, {"days": "Sat", "time": "9:45am"}, {"days": "Sun", "time": "Closed"}], "id": "3518800001", "name": "USPS COLLECTION BOX - PO LOBBY", "address": {"city": "WOODSTOCK", "state": "AL", "street": "28770 HIGHWAY 5", "postcode": "35188"}}}
]}
