{"type": "FeatureCollection", "features": [
{"geometry": {"type": "Point", "coordinates": [-86.8016447702, 33.519395003]}, "type": "Feature", "properties": {"collection_times": [{"days": "Mon-Sat", "time": "5:30pm"}, {"days": "Sun", "time": "Closed"}], "id": "3520300000", "name": "USPS COLLECTION BOX - BLUE BOX", "address": {"city": "BIRMINGHAM", "state": "AL", "street": "351 24TH ST N", "postcode": "35203"}}},
{"geometry": {"type": "Point", "coordinates": [-86.8016447702, 33.519395003]}, "type": "Feature", "properties": {"collection_times": [{"days": "Mon-Sat", "time": "5:30pm"}, {"days": "Sun", "time": "Closed"}], "id": "3520300001", "name": "USPS COLLECTION BOX - BLUE BOX", "address": {"city": "BIRMINGHAM", "state": "AL", "street": "351 24TH ST N", "postcode": "35203"}}},
{"geometry": {"type": "Point", "coordinates": [-86.8025100312, 33.5207193051]}, "type": "Feature", "properties": {"collection_times": [{"days": "Mon-Sat", "time": "5:00pm"}, {"days": "Sun", "time": "Closed"}], "id": "3520300003", "name": "USPS COLLECTION BOX - BLUE BOX", "address": {"city": "BIRMINGHAM", "state": "AL", "street": "2451 5TH AVE N", "postcode": "35203"}}},
{"geometry": {"type": "Point", "coordinates": [-86.8025100312, 33.5207193051]}, "type": "Feature", "properties": {"collection_times": [{"days": "Mon-Sat", "time": "5:00pm"}, {"days": "Sun", "time": "Closed"}], "id": "3520300004", "name": "USPS COLLECTION BOX - BLUE BOX", "address": {"city": "BIRMINGHAM", "state": "AL", "street": "2451 5TH AVE N", "postcode": "35203"}}},
{"geometry": {"type": "Point", "coordinates": [-86.8083360011, 33.5167330444]}, "type": "Feature", "properties": {"collection_times": [{"days": "Mon-Sat", "time": "5:00pm"}, {"days": "Sun", "time": "Closed"}], "id": "3520300005", "name": "USPS COLLECTION BOX - EXPRESS", "address": {"city": "BIRMINGHAM", "state": "AL", "street": "2451 5TH AVE N", "postcode": "35203"}}},
{"geometry": {"type": "Point", "coordinates": [-86.8183648255, 33.5095818736]}, "type": "Feature", "properties": {"collection_times": [{"days": "Mon-Fri", "time": "3:00pm"}, {"days": "Sat-Sun", "time": "Closed"}], "id": "3520300006", "name": "USPS COLLECTION BOX - BLUE BOX", "address": {"city": "BIRMINGHAM", "state": "AL", "street": "1125 2ND AVE N", "postcode": "35203"}}},
{"geometry": {"type": "Point", "coordinates": [-86.8188463926, 33.5129630845]}, "type": "Feature", "properties": {"collection_times": [{"days": "Mon-Fri", "time": "3:30pm"}, {"days": "Sat-Sun", "time": "Closed"}], "id": "3520300008", "name": "USPS COLLECTION BOX - BLUE BOX", "address": {"city": "BIRMINGHAM", "state": "AL", "street": "1225 5TH AVE N", "postcode": "35203"}}},
{"geometry": {"type": "Point", "coordinates": [-86.8155843067, 33.5109220128]}, "type": "Feature", "properties": {"collection_times": [{"days": "Mon-Fri", "time": "10:00am"}, {"days": "Sat-Sun", "time": "Closed"}], "id": "3520300009", "name": "USPS COLLECTION BOX - BLUE BOX", "address": {"city": "BIRMINGHAM", "state": "AL", "street": "1329 2ND AVE N", "postcode": "35203"}}},
{"geometry": {"type": "Point", "coordinates": [-86.8127320744, 33.5147795896]}, "type": "Feature", "properties": {"collection_times": [{"days": "Mon-Fri", "time": "10:30am"}, {"days": "Sat-Sun", "time": "Closed"}], "id": "3520300010", "name": "USPS COLLECTION BOX - BLUE BOX", "address": {"city": "BIRMINGHAM", "state": "AL", "street": "1630 4TH AVE N", "postcode": "35203"}}},
{"geometry": {"type": "Point", "coordinates": [-86.8118965014, 33.5162487232]}, "type": "Feature", "properties": {"collection_times": [{"days": "Mon-Fri", "time": "3:30pm"}, {"days": "Sat-Sun", "time": "Closed"}], "id": "3520300011", "name": "USPS COLLECTION BOX - BLUE BOX", "address": {"city": "BIRMINGHAM", "state": "AL", "street": "1729 5TH AVE N", "postcode": "35203"}}},
{"geometry": {"type": "Point", "coordinates": [-86.8083360011, 33.5167330444]}, "type": "Feature", "properties": {"collection_times": [{"days": "Mon-Fri", "time": "3:30pm"}, {"days": "Sat-Sun", "time": "Closed"}], "id": "3520300012", "name": "USPS COLLECTION BOX - EXPRESS", "address": {"city": "BIRMINGHAM", "state": "AL", "street": "1729 5TH AVE N", "postcode": "35203"}}},
{"geometry": {"type": "Point", "coordinates": [-86.8103033753, 33.5171062418]}, "type": "Feature", "properties": {"collection_times": [{"days": "Mon-Fri", "time": "3:30pm"}, {"days": "Sat-Sun", "time": "Closed"}], "id": "3520300015", "name": "USPS COLLECTION BOX - BLUE BOX", "address": {"city": "BIRMINGHAM", "state": "AL", "street": "1800 5TH AVE N", "postcode": "35203"}}},
{"geometry": {"type": "Point", "coordinates": [-86.8103859088, 33.5185758511]}, "type": "Feature", "properties": {"collection_times": [{"days": "Mon-Fri", "time": "3:30pm"}, {"days": "Sat-Sun", "time": "Closed"}], "id": "3520300020", "name": "USPS COLLECTION BOX - BLUE BOX", "address": {"city": "BIRMINGHAM", "state": "AL", "street": "600 19TH ST N", "postcode": "35203"}}},
{"geometry": {"type": "Point", "coordinates": [-86.8103859088, 33.5185758511]}, "type": "Feature", "properties": {"collection_times": [{"days": "Mon-Fri", "time": "3:30pm"}, {"days": "Sat-Sun", "time": "Closed"}], "id": "3520300021", "name": "USPS COLLECTION BOX - BLUE BOX", "address": {"city": "BIRMINGHAM", "state": "AL", "street": "600 19TH ST N", "postcode": "35203"}}},
{"geometry": {"type": "Point", "coordinates": [-86.8056507353, 33.514537159]}, "type": "Feature", "properties": {"collection_times": [{"days": "Mon-Fri", "time": "3:00pm"}, {"days": "Sat-Sun", "time": "Closed"}], "id": "3520300034", "name": "USPS COLLECTION BOX - BLUE BOX", "address": {"city": "BIRMINGHAM", "state": "AL", "street": "2000 1ST AVE N", "postcode": "35203"}}},
{"geometry": {"type": "Point", "coordinates": [-86.8062522342, 33.5154731953]}, "type": "Feature", "properties": {"collection_times": [{"days": "Mon-Fri", "time": "3:30pm"}, {"days": "Sat-Sun", "time": "Closed"}], "id": "3520300040", "name": "USPS COLLECTION BOX - BLUE BOX", "address": {"city": "BIRMINGHAM", "state": "AL", "street": "2000 2ND AVE N", "postcode": "35203"}}},
{"geometry": {"type": "Point", "coordinates": [-86.8062522342, 33.5154731953]}, "type": "Feature", "properties": {"collection_times": [{"days": "Mon-Fri", "time": "3:30pm"}, {"days": "Sat-Sun", "time": "Closed"}], "id": "3520300041", "name": "USPS COLLECTION BOX - BLUE BOX", "address": {"city": "BIRMINGHAM", "state": "AL", "street": "2000 2ND AVE N", "postcode": "35203"}}},
{"geometry": {"type": "Point", "coordinates": [-86.8089490811, 33.5189447239]}, "type": "Feature", "properties": {"collection_times": [{"days": "Mon-Fri", "time": "10:00am"}, {"days": "Sat-Sun", "time": "Closed"}], "id": "3520300045", "name": "USPS COLLECTION BOX - BLUE BOX", "address": {"city": "BIRMINGHAM", "state": "AL", "street": "1930 REVEREND ABRAHAM WOODS JR BLVD", "postcode": "35203"}}},
{"geometry": {"type": "Point", "coordinates": [-86.8091995944, 33.5198676523]}, "type": "Feature", "properties": {"collection_times": [{"days": "Mon-Fri", "time": "3:30pm"}, {"days": "Sat-Sun", "time": "Closed"}], "id": "3520300046", "name": "USPS COLLECTION BOX - BLUE BOX", "address": {"city": "BIRMINGHAM", "state": "AL", "street": "2001 PARK PL", "postcode": "35203"}}},
{"geometry": {"type": "Point", "coordinates": [-86.8091995944, 33.5198676523]}, "type": "Feature", "properties": {"collection_times": [{"days": "Mon-Fri", "time": "3:30pm"}, {"days": "Sat-Sun", "time": "Closed"}], "id": "3520300047", "name": "USPS COLLECTION BOX - BLUE BOX", "address": {"city": "BIRMINGHAM", "state": "AL", "street": "2001 PARK PL", "postcode": "35203"}}},
{"geometry": {"type": "Point", "coordinates": [-86.8083360011, 33.5167330444]}, "type": "Feature", "properties": {"collection_times": [{"days": "Mon-Fri", "time": "3:30pm"}, {"days": "Sat-Sun", "time": "Closed"}], "id": "3520300048", "name": "USPS COLLECTION BOX - EXPRESS", "address": {"city": "BIRMINGHAM", "state": "AL", "street": "2001 PARK PL", "postcode": "35203"}}},
{"geometry": {"type": "Point", "coordinates": [-86.8048706466, 33.5139277537]}, "type": "Feature", "properties": {"collection_times": [{"days": "Mon-Fri", "time": "10:00am"}, {"days": "Sat-Sun", "time": "Closed"}], "id": "3520300049", "name": "USPS COLLECTION BOX - BLUE BOX", "address": {"city": "BIRMINGHAM", "state": "AL", "street": "2021 MORRIS AVE", "postcode": "35203"}}},
{"geometry": {"type": "Point", "coordinates": [-86.8057618764, 33.5171524776]}, "type": "Feature", "properties": {"collection_times": [{"days": "Mon-Fri", "time": "3:30pm"}, {"days": "Sat-Sun", "time": "Closed"}], "id": "3520300059", "name": "USPS COLLECTION BOX - BLUE BOX", "address": {"city": "BIRMINGHAM", "state": "AL", "street": "324 21ST ST N", "postcode": "35203"}}},
{"geometry": {"type": "Point", "coordinates": [-86.8057618764, 33.5171524776]}, "type": "Feature", "properties": {"collection_times": [{"days": "Mon-Fri", "time": "3:30pm"}, {"days": "Sat-Sun", "time": "Closed"}], "id": "3520300060", "name": "USPS COLLECTION BOX - BLUE BOX", "address": {"city": "BIRMINGHAM", "state": "AL", "street": "324 21ST ST N", "postcode": "35203"}}},
{"geometry": {"type": "Point", "coordinates": [-86.8049660992, 33.5161957847]}, "type": "Feature", "properties": {"collection_times": [{"days": "Mon-Fri", "time": "3:30pm"}, {"days": "Sat-Sun", "time": "Closed"}], "id": "3520300064", "name": "USPS COLLECTION BOX - BLUE BOX", "address": {"city": "BIRMINGHAM", "state": "AL", "street": "215 21ST ST N", "postcode": "35203"}}},
{"geometry": {"type": "Point", "coordinates": [-86.8049660992, 33.5161957847]}, "type": "Feature", "properties": {"collection_times": [{"days": "Mon-Fri", "time": "3:30pm"}, {"days": "Sat-Sun", "time": "Closed"}], "id": "3520300065", "name": "USPS COLLECTION BOX - BLUE BOX", "address": {"city": "BIRMINGHAM", "state": "AL", "street": "215 21ST ST N", "postcode": "35203"}}},
{"geometry": {"type": "Point", "coordinates": [-86.8049660992, 33.5161957847]}, "type": "Feature", "properties": {"collection_times": [{"days": "Mon-Fri", "time": "3:30pm"}, {"days": "Sat-Sun", "time": "Closed"}], "id": "3520300066", "name": "USPS COLLECTION BOX - BLUE BOX", "address": {"city": "BIRMINGHAM", "state": "AL", "street": "215 21ST ST N", "postcode": "35203"}}},
{"geometry": {"type": "Point", "coordinates": [-86.8083360011, 33.5167330444]}, "type": "Feature", "properties": {"collection_times": [{"days": "Mon-Fri", "time": "3:30pm"}, {"days": "Sat-Sun", "time": "Closed"}], "id": "3520300067", "name": "USPS COLLECTION BOX - EXPRESS", "address": {"city": "BIRMINGHAM", "state": "AL", "street": "215 21ST ST N", "postcode": "35203"}}},
{"geometry": {"type": "Point", "coordinates": [-86.8027985572, 33.5157066274]}, "type": "Feature", "properties": {"collection_times": [{"days": "Mon-Fri", "time": "1:00pm"}, {"days": "Sat-Sun", "time": "Closed"}], "id": "3520300071", "name": "USPS COLLECTION BOX - BLUE BOX", "address": {"city": "BIRMINGHAM", "state": "AL", "street": "2201 1ST AVE N", "postcode": "35203"}}},
{"geometry": {"type": "Point", "coordinates": [-86.8034702414, 33.5166444767]}, "type": "Feature", "properties": {"collection_times": [{"days": "Mon-Fri", "time": "3:30pm"}, {"days": "Sat-Sun", "time": "Closed"}], "id": "3520300072", "name": "USPS COLLECTION BOX - BLUE BOX", "address": {"city": "BIRMINGHAM", "state": "AL", "street": "2201 2ND AVE N", "postcode": "35203"}}},
{"geometry": {"type": "Point", "coordinates": [-86.8040045663, 33.5201229643]}, "type": "Feature", "properties": {"collection_times": [{"days": "Mon-Fri", "time": "12:30pm"}, {"days": "Sat-Sun", "time": "Closed"}], "id": "3520300075", "name": "USPS COLLECTION BOX - BLUE BOX", "address": {"city": "BIRMINGHAM", "state": "AL", "street": "2300 5TH AVE N", "postcode": "35203"}}},
{"geometry": {"type": "Point", "coordinates": [-86.8014873387, 33.5163863246]}, "type": "Feature", "properties": {"collection_times": [{"days": "Mon-Fri", "time": "1:15pm"}, {"days": "Sat-Sun", "time": "Closed"}], "id": "3520300076", "name": "USPS COLLECTION BOX - BLUE BOX", "address": {"city": "BIRMINGHAM", "state": "AL", "street": "2301 1ST AVE N", "postcode": "35203"}}},
{"geometry": {"type": "Point", "coordinates": [-86.8014873387, 33.5163863246]}, "type": "Feature", "properties": {"collection_times": [{"days": "Mon-Fri", "time": "1:15pm"}, {"days": "Sat-Sun", "time": "Closed"}], "id": "3520300077", "name": "USPS COLLECTION BOX - BLUE BOX", "address": {"city": "BIRMINGHAM", "state": "AL", "street": "2301 1ST AVE N", "postcode": "35203"}}},
{"geometry": {"type": "Point", "coordinates": [-86.8017715743, 33.517604859]}, "type": "Feature", "properties": {"collection_times": [{"days": "Mon-Fri", "time": "3:30pm"}, {"days": "Sat-Sun", "time": "Closed"}], "id": "3520300078", "name": "USPS COLLECTION BOX - BLUE BOX", "address": {"city": "BIRMINGHAM", "state": "AL", "street": "2330 2ND AVE N", "postcode": "35203"}}},
{"geometry": {"type": "Point", "coordinates": [-86.8089490811, 33.5189447239]}, "type": "Feature", "properties": {"collection_times": [{"days": "Mon-Fri", "time": "1:30pm"}, {"days": "Sat-Sun", "time": "Closed"}], "id": "3520300079", "name": "USPS COLLECTION BOX - BLUE BOX", "address": {"city": "BIRMINGHAM", "state": "AL", "street": "3016 REVEREND ABRAHAM WOODS JR BLVD", "postcode": "35203"}}},
{"geometry": {"type": "Point", "coordinates": [-86.8095441178, 33.5255755751]}, "type": "Feature", "properties": {"collection_times": [{"days": "Mon-Fri", "time": "3:30pm"}, {"days": "Sat-Sun", "time": "Closed"}], "id": "3520300091", "name": "USPS COLLECTION BOX - BLUE BOX", "address": {"city": "BIRMINGHAM", "state": "AL", "street": "2201 RICHARD ARRINGTON JR BLVD N", "postcode": "35203"}}},
{"geometry": {"type": "Point", "coordinates": [-86.8083360011, 33.5167330444]}, "type": "Feature", "properties": {"collection_times": [{"days": "Mon-Fri", "time": "3:30pm"}, {"days": "Sat-Sun", "time": "Closed"}], "id": "3520300092", "name": "USPS COLLECTION BOX - EXPRESS", "address": {"city": "BIRMINGHAM", "state": "AL", "street": "2201 RICHARD ARRINGTON JR BLVD N", "postcode": "35203"}}},
{"geometry": {"type": "Point", "coordinates": [-86.8040801639, 33.5175653363]}, "type": "Feature", "properties": {"collection_times": [{"days": "Mon-Fri", "time": "3:30pm"}, {"days": "Sat-Sun", "time": "Closed"}], "id": "3520300093", "name": "USPS COLLECTION BOX - BLUE BOX", "address": {"city": "BIRMINGHAM", "state": "AL", "street": "2201 3RD AVE N", "postcode": "35203"}}},
{"geometry": {"type": "Point", "coordinates": [-86.8139768051, 33.5156670552]}, "type": "Feature", "properties": {"collection_times": [{"days": "Mon-Fri", "time": "10:00am"}, {"days": "Sat-Sun", "time": "Closed"}], "id": "3520300094", "name": "USPS COLLECTION BOX - BLUE BOX", "address": {"city": "BIRMINGHAM", "state": "AL", "street": "520 16TH ST N", "postcode": "35203"}}},
{"geometry": {"type": "Point", "coordinates": [-86.8118005676, 33.5179073199]}, "type": "Feature", "properties": {"collection_times": [{"days": "Mon-Fri", "time": "10:30am"}, {"days": "Sat-Sun", "time": "Closed"}], "id": "3520300095", "name": "USPS COLLECTION BOX - BLUE BOX", "address": {"city": "BIRMINGHAM", "state": "AL", "street": "600 18TH ST N", "postcode": "35203"}}},
{"geometry": {"type": "Point", "coordinates": [-86.8083360011, 33.5167330444]}, "type": "Feature", "properties": {"collection_times": [{"days": "Mon-Fri", "time": "3:30pm"}, {"days": "Sat-Sun", "time": "Closed"}], "id": "3520300097", "name": "USPS COLLECTION BOX - EXPRESS", "address": {"city": "BIRMINGHAM", "state": "AL", "street": "2000 2ND AVE N", "postcode": "35203"}}},
{"geometry": {"type": "Point", "coordinates": [-86.8118965014, 33.5162487232]}, "type": "Feature", "properties": {"collection_times": [{"days": "Mon-Fri", "time": "3:30pm"}, {"days": "Sat-Sun", "time": "Closed"}], "id": "3520300112", "name": "USPS COLLECTION BOX - BLUE BOX", "address": {"city": "BIRMINGHAM", "state": "AL", "street": "1729 5TH AVE N", "postcode": "35203"}}},
{"geometry": {"type": "Point", "coordinates": [-86.8016447702, 33.519395003]}, "type": "Feature", "properties": {"collection_times": [{"days": "Mon-Sat", "time": "8:00pm"}, {"days": "Sun", "time": "Closed"}], "id": "3520300115", "name": "USPS COLLECTION BOX - PO LOBBY", "address": {"city": "BIRMINGHAM", "state": "AL", "street": "351 24TH ST N", "postcode": "35203"}}},
{"geometry": {"type": "Point", "coordinates": [-86.8016447702, 33.519395003]}, "type": "Feature", "properties": {"collection_times": [{"days": "Mon-Sat", "time": "8:00pm"}, {"days": "Sun", "time": "Closed"}], "id": "3520300116", "name": "USPS COLLECTION BOX - PO LOBBY", "address": {"city": "BIRMINGHAM", "state": "AL", "street": "351 24TH ST N", "postcode": "35203"}}},
{"geometry": {"type": "Point", "coordinates": [-86.8071095745, 33.513901488]}, "type": "Feature", "properties": {"collection_times": [{"days": "Mon-Fri", "time": "10:00am"}, {"days": "Sat-Sun", "time": "Closed"}], "id": "3520300123", "name": "USPS COLLECTION BOX - BLUE BOX", "address": {"city": "BIRMINGHAM", "state": "AL", "street": "111 19TH ST N", "postcode": "35203"}}},
{"geometry": {"type": "Point", "coordinates": [-86.8080834341, 33.513249001]}, "type": "Feature", "properties": {"collection_times": [{"days": "Mon-Fri", "time": "10:00am"}, {"days": "Sat-Sun", "time": "Closed"}], "id": "3520300134", "name": "USPS COLLECTION BOX - BLUE BOX", "address": {"city": "BIRMINGHAM", "state": "AL", "street": "1827 1ST AVE N", "postcode": "35203"}}},
{"geometry": {"type": "Point", "coordinates": [-86.8016447702, 33.519395003]}, "type": "Feature", "properties": {"collection_times": [{"days": "Mon-Sat", "time": "8:00pm"}, {"days": "Sun", "time": "Closed"}], "id": "3520300135", "name": "USPS COLLECTION BOX - APC", "address": {"city": "BIRMINGHAM", "state": "AL", "street": "351 24TH ST N", "postcode": "35203"}}},
{"geometry": {"type": "Point", "coordinates": [-86.809460426, 33.512592197]}, "type": "Feature", "properties": {"collection_times": [{"days": "Mon-Fri", "time": "10:00am"}, {"days": "Sat-Sun", "time": "Closed"}], "id": "3520300139", "name": "USPS COLLECTION BOX - BLUE BOX", "address": {"city": "BIRMINGHAM", "state": "AL", "street": "1731 1ST AVE N", "postcode": "35203"}}},
{"geometry": {"type": "Point", "coordinates": [-86.8126916845, 33.511220431]}, "type": "Feature", "properties": {"collection_times": [{"days": "Mon-Fri", "time": "2:30pm"}, {"days": "Sat-Sun", "time": "Closed"}], "id": "3520300142", "name": "USPS COLLECTION BOX - BLUE BOX", "address": {"city": "BIRMINGHAM", "state": "AL", "street": "1500 1ST AVE N", "postcode": "35203"}}},
{"geometry": {"type": "Point", "coordinates": [-86.82016, 33.51694]}, "type": "Feature", "properties": {"collection_times": [{"days": "Mon-Fri", "time": "1:00pm"}, {"days": "Sat-Sun", "time": "Closed"}], "id": "3520300143", "name": "USPS COLLECTION BOX - BLUE BOX", "address": {"city": "BIRMINGHAM", "state": "AL", "street": "1200 REVEREND ABRAHAM WOODS JR BLVD", "postcode": "35203"}}},
{"geometry": {"type": "Point", "coordinates": [-86.839620988, 33.5220931835]}, "type": "Feature", "properties": {"collection_times": [{"days": "Mon-Fri", "time": "10:00am"}, {"days": "Sat-Sun", "time": "Closed"}], "id": "3520400001", "name": "USPS COLLECTION BOX - BLUE BOX", "address": {"city": "BIRMINGHAM", "state": "AL", "street": "150 REVEREND ABRAHAM WOODS JR BLVD", "postcode": "35204"}}},
{"geometry": {"type": "Point", "coordinates": [-86.8333990205, 33.5166583942]}, "type": "Feature", "properties": {"collection_times": [{"days": "Mon-Fri", "time": "11:30am"}, {"days": "Sat-Sun", "time": "Closed"}], "id": "3520400004", "name": "USPS COLLECTION BOX - BLUE BOX", "address": {"city": "BIRMINGHAM", "state": "AL", "street": "171 9TH CT N", "postcode": "35204"}}},
{"geometry": {"type": "Point", "coordinates": [-86.8408939745, 33.535604404]}, "type": "Feature", "properties": {"collection_times": [{"days": "Mon-Fri", "time": "1:00pm"}, {"days": "Sat-Sun", "time": "Closed"}], "id": "3520400006", "name": "USPS COLLECTION BOX - BLUE BOX", "address": {"city": "BIRMINGHAM", "state": "AL", "street": "232 FINLEY AVE W", "postcode": "35204"}}},
{"geometry": {"type": "Point", "coordinates": [-86.8324750618, 33.5112153122]}, "type": "Feature", "properties": {"collection_times": [{"days": "Mon-Fri", "time": "11:45am"}, {"days": "Sat-Sun", "time": "Closed"}], "id": "3520400007", "name": "USPS COLLECTION BOX - BLUE BOX", "address": {"city": "BIRMINGHAM", "state": "AL", "street": "237 GRAYMONT AVE N", "postcode": "35204"}}},
{"geometry": {"type": "Point", "coordinates": [-86.8361365667, 33.5256232132]}, "type": "Feature", "properties": {"collection_times": [{"days": "Mon-Fri", "time": "2:30pm"}, {"days": "Sat-Sun", "time": "Closed"}], "id": "3520400011", "name": "USPS COLLECTION BOX - BLUE BOX", "address": {"city": "BIRMINGHAM", "state": "AL", "street": "1 BANKHEAD HWY W", "postcode": "35204"}}},
{"geometry": {"type": "Point", "coordinates": [-86.8363403663, 33.5071467386]}, "type": "Feature", "properties": {"collection_times": [{"days": "Mon-Fri", "time": "2:00pm"}, {"days": "Sat-Sun", "time": "Closed"}], "id": "3520400014", "name": "USPS COLLECTION BOX - BLUE BOX", "address": {"city": "BIRMINGHAM", "state": "AL", "street": "2 CENTER ST N", "postcode": "35204"}}},
{"geometry": {"type": "Point", "coordinates": [-86.8506016549, 33.5290199806]}, "type": "Feature", "properties": {"collection_times": [{"days": "Mon-Fri", "time": "3:00pm"}, {"days": "Sat-Sun", "time": "Closed"}], "id": "3520400016", "name": "USPS COLLECTION BOX - BLUE BOX", "address": {"city": "BIRMINGHAM", "state": "AL", "street": "901 BANKHEAD HWY W", "postcode": "35204"}}},
{"geometry": {"type": "Point", "coordinates": [-86.7987839474, 33.4993723716]}, "type": "Feature", "properties": {"collection_times": [{"days": "Mon-Fri", "time": "5:00pm"}, {"days": "Sat", "time": "11:30am"}, {"days": "Sun", "time": "Closed"}], "id": "3520500000", "name": "USPS COLLECTION BOX - BLUE BOX", "address": {"city": "BIRMINGHAM", "state": "AL", "street": "1821 11TH AVE S", "postcode": "35205"}}},
{"geometry": {"type": "Point", "coordinates": [-86.7987839474, 33.4993723716]}, "type": "Feature", "properties": {"collection_times": [{"days": "Mon-Fri", "time": "5:00pm"}, {"days": "Sat", "time": "11:30am"}, {"days": "Sun", "time": "Closed"}], "id": "3520500001", "name": "USPS COLLECTION BOX - BLUE BOX", "address": {"city": "BIRMINGHAM", "state": "AL", "street": "1821 11TH AVE S", "postcode": "35205"}}},
{"geometry": {"type": "Point", "coordinates": [-86.7987839474, 33.4993723716]}, "type": "Feature", "properties": {"collection_times": [{"days": "Mon-Fri", "time": "5:00pm"}, {"days": "Sat", "time": "11:30am"}, {"days": "Sun", "time": "Closed"}], "id": "3520500002", "name": "USPS COLLECTION BOX - BLUE BOX", "address": {"city": "BIRMINGHAM", "state": "AL", "street": "1821 11TH AVE S", "postcode": "35205"}}},
{"geometry": {"type": "Point", "coordinates": [-86.7984989086, 33.4983927762]}, "type": "Feature", "properties": {"collection_times": [{"days": "Mon-Fri", "time": "5:00pm"}, {"days": "Sat", "time": "11:30am"}, {"days": "Sun", "time": "Closed"}], "id": "3520500004", "name": "USPS COLLECTION BOX - EXPRESS", "address": {"city": "BIRMINGHAM", "state": "AL", "street": "1821 11TH AVE S", "postcode": "35205"}}},
{"geometry": {"type": "Point", "coordinates": [-86.7969784, 33.5018036351]}, "type": "Feature", "properties": {"collection_times": [{"days": "Mon-Fri", "time": "10:00am"}, {"days": "Sat-Sun", "time": "Closed"}], "id": "3520500006", "name": "USPS COLLECTION BOX - BLUE BOX", "address": {"city": "BIRMINGHAM", "state": "AL", "street": "1015 20TH ST S", "postcode": "35205"}}},
{"geometry": {"type": "Point", "coordinates": [-86.8082541381, 33.494991005]}, "type": "Feature", "properties": {"collection_times": [{"days": "Mon-Fri", "time": "10:00am"}, {"days": "Sat-Sun", "time": "Closed"}], "id": "3520500008", "name": "USPS COLLECTION BOX - BLUE BOX", "address": {"city": "BIRMINGHAM", "state": "AL", "street": "1180 11TH AVE S", "postcode": "35205"}}},
{"geometry": {"type": "Point", "coordinates": [-86.8067656728, 33.4911969854]}, "type": "Feature", "properties": {"collection_times": [{"days": "Mon-Fri", "time": "10:00am"}, {"days": "Sat-Sun", "time": "Closed"}], "id": "3520500009", "name": "USPS COLLECTION BOX - BLUE BOX", "address": {"city": "BIRMINGHAM", "state": "AL", "street": "1200 16TH AVE S", "postcode": "35205"}}},
{"geometry": {"type": "Point", "coordinates": [-86.8066828747, 33.4936925849]}, "type": "Feature", "properties": {"collection_times": [{"days": "Mon-Fri", "time": "10:00am"}, {"days": "Sat-Sun", "time": "Closed"}], "id": "3520500010", "name": "USPS COLLECTION BOX - BLUE BOX", "address": {"city": "BIRMINGHAM", "state": "AL", "street": "1222 14TH AVE S", "postcode": "35205"}}},
{"geometry": {"type": "Point", "coordinates": [-86.8043135895, 33.4924408543]}, "type": "Feature", "properties": {"collection_times": [{"days": "Mon-Fri", "time": "10:00am"}, {"days": "Sat-Sun", "time": "Closed"}], "id": "3520500011", "name": "USPS COLLECTION BOX - BLUE BOX", "address": {"city": "BIRMINGHAM", "state": "AL", "street": "1340 15TH AVE S", "postcode": "35205"}}},
{"geometry": {"type": "Point", "coordinates": [-86.8031829788, 33.497416931]}, "type": "Feature", "properties": {"collection_times": [{"days": "Mon-Fri", "time": "10:00am"}, {"days": "Sat-Sun", "time": "Closed"}], "id": "3520500013", "name": "USPS COLLECTION BOX - BLUE BOX", "address": {"city": "BIRMINGHAM", "state": "AL", "street": "1530 11TH AVE S", "postcode": "35205"}}},
{"geometry": {"type": "Point", "coordinates": [-86.7998098788, 33.5001310779]}, "type": "Feature", "properties": {"collection_times": [{"days": "Mon-Fri", "time": "10:00am"}, {"days": "Sat-Sun", "time": "Closed"}], "id": "3520500018", "name": "USPS COLLECTION BOX - BLUE BOX", "address": {"city": "BIRMINGHAM", "state": "AL", "street": "1032 18TH ST S", "postcode": "35205"}}},
{"geometry": {"type": "Point", "coordinates": [-86.7962909118, 33.4977340358]}, "type": "Feature", "properties": {"collection_times": [{"days": "Mon-Fri", "time": "2:30pm"}, {"days": "Sat-Sun", "time": "Closed"}], "id": "3520500019", "name": "USPS COLLECTION BOX - BLUE BOX", "address": {"city": "BIRMINGHAM", "state": "AL", "street": "1320 19TH ST S", "postcode": "35205"}}},
{"geometry": {"type": "Point", "coordinates": [-86.7997790434, 33.5028437822]}, "type": "Feature", "properties": {"collection_times": [{"days": "Mon-Fri", "time": "10:00am"}, {"days": "Sat-Sun", "time": "Closed"}], "id": "3520500020", "name": "USPS COLLECTION BOX - BLUE BOX", "address": {"city": "BIRMINGHAM", "state": "AL", "street": "900 19TH ST S", "postcode": "35205"}}},
{"geometry": {"type": "Point", "coordinates": [-86.7958385598, 33.4995893952]}, "type": "Feature", "properties": {"collection_times": [{"days": "Mon-Fri", "time": "2:30pm"}, {"days": "Sat-Sun", "time": "Closed"}], "id": "3520500023", "name": "USPS COLLECTION BOX - BLUE BOX", "address": {"city": "BIRMINGHAM", "state": "AL", "street": "1200 20TH ST S", "postcode": "35205"}}},
{"geometry": {"type": "Point", "coordinates": [-86.794490963, 33.4997944943]}, "type": "Feature", "properties": {"collection_times": [{"days": "Mon-Fri", "time": "12:45pm"}, {"days": "Sat-Sun", "time": "Closed"}], "id": "3520500029", "name": "USPS COLLECTION BOX - BLUE BOX", "address": {"city": "BIRMINGHAM", "state": "AL", "street": "2040 HIGHLAND AVE S", "postcode": "35205"}}},
{"geometry": {"type": "Point", "coordinates": [-86.7919424309, 33.4966265087]}, "type": "Feature", "properties": {"collection_times": [{"days": "Mon-Fri", "time": "2:30pm"}, {"days": "Sat-Sun", "time": "Closed"}], "id": "3520500030", "name": "USPS COLLECTION BOX - BLUE BOX", "address": {"city": "BIRMINGHAM", "state": "AL", "street": "2100 16TH AVE S", "postcode": "35205"}}},
{"geometry": {"type": "Point", "coordinates": [-86.7919424309, 33.4966265087]}, "type": "Feature", "properties": {"collection_times": [{"days": "Mon-Fri", "time": "2:30pm"}, {"days": "Sat-Sun", "time": "Closed"}], "id": "3520500031", "name": "USPS COLLECTION BOX - BLUE BOX", "address": {"city": "BIRMINGHAM", "state": "AL", "street": "2100 16TH AVE S", "postcode": "35205"}}},
{"geometry": {"type": "Point", "coordinates": [-86.7984989086, 33.4983927762]}, "type": "Feature", "properties": {"collection_times": [{"days": "Mon-Fri", "time": "2:30pm"}, {"days": "Sat-Sun", "time": "Closed"}], "id": "3520500032", "name": "USPS COLLECTION BOX - EXPRESS", "address": {"city": "BIRMINGHAM", "state": "AL", "street": "2101 HIGHLAND AVE S", "postcode": "35205"}}},
{"geometry": {"type": "Point", "coordinates": [-86.7938726345, 33.4997664135]}, "type": "Feature", "properties": {"collection_times": [{"days": "Mon-Fri", "time": "2:30pm"}, {"days": "Sat-Sun", "time": "Closed"}], "id": "3520500033", "name": "USPS COLLECTION BOX - BLUE BOX", "address": {"city": "BIRMINGHAM", "state": "AL", "street": "2101 HIGHLAND AVE S", "postcode": "35205"}}},
{"geometry": {"type": "Point", "coordinates": [-86.7984989086, 33.4983927762]}, "type": "Feature", "properties": {"collection_times": [{"days": "Mon-Fri", "time": "2:30pm"}, {"days": "Sat-Sun", "time": "Closed"}], "id": "3520500036", "name": "USPS COLLECTION BOX - EXPRESS", "address": {"city": "BIRMINGHAM", "state": "AL", "street": "2112 11TH AVE S", "postcode": "35205"}}},
{"geometry": {"type": "Point", "coordinates": [-86.7908076886, 33.500277259]}, "type": "Feature", "properties": {"collection_times": [{"days": "Mon-Fri", "time": "10:00am"}, {"days": "Sat-Sun", "time": "Closed"}], "id": "3520500040", "name": "USPS COLLECTION BOX - BLUE BOX", "address": {"city": "BIRMINGHAM", "state": "AL", "street": "2200 HIGHLAND AVE S", "postcode": "35205"}}},
{"geometry": {"type": "Point", "coordinates": [-86.7949042784, 33.5025667713]}, "type": "Feature", "properties": {"collection_times": [{"days": "Mon-Fri", "time": "2:30pm"}, {"days": "Sat-Sun", "time": "Closed"}], "id": "3520500041", "name": "USPS COLLECTION BOX - BLUE BOX", "address": {"city": "BIRMINGHAM", "state": "AL", "street": "2117 MAGNOLIA AVE S", "postcode": "35205"}}},
{"geometry": {"type": "Point", "coordinates": [-86.7901731327, 33.5013195185]}, "type": "Feature", "properties": {"collection_times": [{"days": "Mon-Fri", "time": "10:00am"}, {"days": "Sat-Sun", "time": "Closed"}], "id": "3520500043", "name": "USPS COLLECTION BOX - BLUE BOX", "address": {"city": "BIRMINGHAM", "state": "AL", "street": "2253 HIGHLAND AVE S", "postcode": "35205"}}},
{"geometry": {"type": "Point", "coordinates": [-86.7851786549, 33.5039417028]}, "type": "Feature", "properties": {"collection_times": [{"days": "Mon-Fri", "time": "10:00am"}, {"days": "Sat-Sun", "time": "Closed"}], "id": "3520500047", "name": "USPS COLLECTION BOX - BLUE BOX", "address": {"city": "BIRMINGHAM", "state": "AL", "street": "2625 HIGHLAND AVE S", "postcode": "35205"}}},
{"geometry": {"type": "Point", "coordinates": [-86.7809805948, 33.5066063672]}, "type": "Feature", "properties": {"collection_times": [{"days": "Mon-Fri", "time": "10:00am"}, {"days": "Sat-Sun", "time": "Closed"}], "id": "3520500051", "name": "USPS COLLECTION BOX - BLUE BOX", "address": {"city": "BIRMINGHAM", "state": "AL", "street": "2911 HIGHLAND AVE S", "postcode": "35205"}}},
{"geometry": {"type": "Point", "coordinates": [-86.7853439091, 33.5107171094]}, "type": "Feature", "properties": {"collection_times": [{"days": "Mon-Fri", "time": "10:00am"}, {"days": "Sat-Sun", "time": "Closed"}], "id": "3520500052", "name": "USPS COLLECTION BOX - BLUE BOX", "address": {"city": "BIRMINGHAM", "state": "AL", "street": "2940 CLAIRMONT AVE S", "postcode": "35205"}}},
{"geometry": {"type": "Point", "coordinates": [-86.7790312251, 33.5081308]}, "type": "Feature", "properties": {"collection_times": [{"days": "Mon-Fri", "time": "10:00am"}, {"days": "Sat-Sun", "time": "Closed"}], "id": "3520500053", "name": "USPS COLLECTION BOX - BLUE BOX", "address": {"city": "BIRMINGHAM", "state": "AL", "street": "3117 HIGHLAND AVE S", "postcode": "35205"}}},
{"geometry": {"type": "Point", "coordinates": [-86.80759841, 33.4984647739]}, "type": "Feature", "properties": {"collection_times": [{"days": "Mon-Fri", "time": "2:30pm"}, {"days": "Sat-Sun", "time": "Closed"}], "id": "3520500057", "name": "USPS COLLECTION BOX - BLUE BOX", "address": {"city": "BIRMINGHAM", "state": "AL", "street": "917 13TH ST S", "postcode": "35205"}}},
{"geometry": {"type": "Point", "coordinates": [-86.8009197856, 33.5017533778]}, "type": "Feature", "properties": {"collection_times": [{"days": "Mon-Fri", "time": "2:30pm"}, {"days": "Sat-Sun", "time": "Closed"}], "id": "3520500058", "name": "USPS COLLECTION BOX - BLUE BOX", "address": {"city": "BIRMINGHAM", "state": "AL", "street": "924 18TH ST S", "postcode": "35205"}}},
{"geometry": {"type": "Point", "coordinates": [-86.8232928829, 33.4979260147]}, "type": "Feature", "properties": {"collection_times": [{"days": "Mon-Fri", "time": "10:00am"}, {"days": "Sat-Sun", "time": "Closed"}], "id": "3520500060", "name": "USPS COLLECTION BOX - BLUE BOX", "address": {"city": "BIRMINGHAM", "state": "AL", "street": "400 BETA ST S", "postcode": "35205"}}},
{"geometry": {"type": "Point", "coordinates": [-86.8141785661, 33.4947078945]}, "type": "Feature", "properties": {"collection_times": [{"days": "Mon-Fri", "time": "10:00am"}, {"days": "Sat-Sun", "time": "Closed"}], "id": "3520500061", "name": "USPS COLLECTION BOX - BLUE BOX", "address": {"city": "BIRMINGHAM", "state": "AL", "street": "801 9TH CT S", "postcode": "35205"}}},
{"geometry": {"type": "Point", "coordinates": [-86.8223680742, 33.4966244292]}, "type": "Feature", "properties": {"collection_times": [{"days": "Mon-Fri", "time": "10:00am"}, {"days": "Sat-Sun", "time": "Closed"}], "id": "3520500065", "name": "USPS COLLECTION BOX - BLUE BOX", "address": {"city": "BIRMINGHAM", "state": "AL", "street": "425 6TH AVE S", "postcode": "35205"}}},
{"geometry": {"type": "Point", "coordinates": [-86.7900127808, 33.5003133584]}, "type": "Feature", "properties": {"collection_times": [{"days": "Mon-Fri", "time": "10:00am"}, {"days": "Sat-Sun", "time": "Closed"}], "id": "3520500066", "name": "USPS COLLECTION BOX - BLUE BOX", "address": {"city": "BIRMINGHAM", "state": "AL", "street": "2201 HIGHLAND AVE S", "postcode": "35205"}}},
{"geometry": {"type": "Point", "coordinates": [-86.7949042784, 33.5025667713]}, "type": "Feature", "properties": {"collection_times": [{"days": "Mon-Fri", "time": "2:30pm"}, {"days": "Sat-Sun", "time": "Closed"}], "id": "3520500067", "name": "USPS COLLECTION BOX - BLUE BOX", "address": {"city": "BIRMINGHAM", "state": "AL", "street": "2117 MAGNOLIA AVE S", "postcode": "35205"}}},
{"geometry": {"type": "Point", "coordinates": [-86.7940717529, 33.5016755625]}, "type": "Feature", "properties": {"collection_times": [{"days": "Mon-Fri", "time": "2:30pm"}, {"days": "Sat-Sun", "time": "Closed"}], "id": "3520500069", "name": "USPS COLLECTION BOX - BLUE BOX", "address": {"city": "BIRMINGHAM", "state": "AL", "street": "2112 11TH AVE S", "postcode": "35205"}}},
{"geometry": {"type": "Point", "coordinates": [-86.7997790434, 33.5028437822]}, "type": "Feature", "properties": {"collection_times": [{"days": "Mon-Fri", "time": "10:00am"}, {"days": "Sat-Sun", "time": "Closed"}], "id": "3520500070", "name": "USPS COLLECTION BOX - BLUE BOX", "address": {"city": "BIRMINGHAM", "state": "AL", "street": "900 19TH ST S", "postcode": "35205"}}},
{"geometry": {"type": "Point", "coordinates": [-86.8036263399, 33.5007635502]}, "type": "Feature", "properties": {"collection_times": [{"days": "Mon-Fri", "time": "10:00am"}, {"days": "Sat-Sun", "time": "Closed"}], "id": "3520500071", "name": "USPS COLLECTION BOX - BLUE BOX", "address": {"city": "BIRMINGHAM", "state": "AL", "street": "1604 9TH AVE S", "postcode": "35205"}}},
{"geometry": {"type": "Point", "coordinates": [-86.7987839474, 33.4993723716]}, "type": "Feature", "properties": {"collection_times": [{"days": "Mon-Fri", "time": "5:00pm"}, {"days": "Sat", "time": "11:30am"}, {"days": "Sun", "time": "Closed"}], "id": "3520500073", "name": "USPS COLLECTION BOX - PO LOBBY", "address": {"city": "BIRMINGHAM", "state": "AL", "street": "1821 11TH AVE S", "postcode": "35205"}}},
{"geometry": {"type": "Point", "coordinates": [-86.7992414759, 33.507737184]}, "type": "Feature", "properties": {"collection_times": [{"days": "Mon-Fri", "time": "10:00am"}, {"days": "Sat-Sun", "time": "Closed"}], "id": "3520500077", "name": "USPS COLLECTION BOX - BLUE BOX", "address": {"city": "BIRMINGHAM", "state": "AL", "street": "2100 6TH AVE S", "postcode": "35205"}}},
{"geometry": {"type": "Point", "coordinates": [-86.7874248483, 33.5037372329]}, "type": "Feature", "properties": {"collection_times": [{"days": "Mon-Fri", "time": "10:00am"}, {"days": "Sat-Sun", "time": "Closed"}], "id": "3520500079", "name": "USPS COLLECTION BOX - BLUE BOX", "address": {"city": "BIRMINGHAM", "state": "AL", "street": "1112 26TH ST S", "postcode": "35205"}}},
{"geometry": {"type": "Point", "coordinates": [-86.7194676038, 33.5665442337]}, "type": "Feature", "properties": {"collection_times": [{"days": "Mon-Fri", "time": "5:00pm"}, {"days": "Sat", "time": "2:00pm"}, {"days": "Sun", "time": "Closed"}], "id": "3520600001", "name": "USPS COLLECTION BOX - BLUE BOX", "address": {"city": "BIRMINGHAM", "state": "AL", "street": "9092 PARKWAY E", "postcode": "35206"}}},
{"geometry": {"type": "Point", "coordinates": [-86.7194676038, 33.5665442337]}, "type": "Feature", "properties": {"collection_times": [{"days": "Mon-Fri", "time": "5:00pm"}, {"days": "Sat", "time": "2:00pm"}, {"days": "Sun", "time": "Closed"}], "id": "3520600018", "name": "USPS COLLECTION BOX - BLUE BOX", "address": {"city": "BIRMINGHAM", "state": "AL", "street": "9092 PARKWAY E", "postcode": "35206"}}},
{"geometry": {"type": "Point", "coordinates": [-86.7194676038, 33.5665442337]}, "type": "Feature", "properties": {"collection_times": [{"days": "Mon-Fri", "time": "5:00pm"}, {"days": "Sat", "time": "2:00pm"}, {"days": "Sun", "time": "Closed"}], "id": "3520600019", "name": "USPS COLLECTION BOX - PO LOBBY", "address": {"city": "BIRMINGHAM", "state": "AL", "street": "9092 PARKWAY E", "postcode": "35206"}}},
{"geometry": {"type": "Point", "coordinates": [-86.8171794685, 33.5542812641]}, "type": "Feature", "properties": {"collection_times": [{"days": "Mon-Fri", "time": "3:00pm"}, {"days": "Sat-Sun", "time": "Closed"}], "id": "3520700000", "name": "USPS COLLECTION BOX - BLUE BOX", "address": {"city": "BIRMINGHAM", "state": "AL", "street": "2708 32ND AVE N", "postcode": "35207"}}},
{"geometry": {"type": "Point", "coordinates": [-86.8180992284, 33.5600614393]}, "type": "Feature", "properties": {"collection_times": [{"days": "Mon-Fri", "time": "3:00pm"}, {"days": "Sat-Sun", "time": "Closed"}], "id": "3520700002", "name": "USPS COLLECTION BOX - EXPRESS", "address": {"city": "BIRMINGHAM", "state": "AL", "street": "2708 32ND AVE N", "postcode": "35207"}}},
{"geometry": {"type": "Point", "coordinates": [-86.8171794685, 33.5542812641]}, "type": "Feature", "properties": {"collection_times": [{"days": "Mon-Fri", "time": "3:00pm"}, {"days": "Sat-Sun", "time": "Closed"}], "id": "3520700005", "name": "USPS COLLECTION BOX - PO LOBBY", "address": {"city": "BIRMINGHAM", "state": "AL", "street": "2708 32ND AVE N", "postcode": "35207"}}},
{"geometry": {"type": "Point", "coordinates": [-86.8171794685, 33.5542812641]}, "type": "Feature", "properties": {"collection_times": [{"days": "Mon-Fri", "time": "3:00pm"}, {"days": "Sat-Sun", "time": "Closed"}], "id": "3520700007", "name": "USPS COLLECTION BOX - PO LOBBY", "address": {"city": "BIRMINGHAM", "state": "AL", "street": "2708 32ND AVE N", "postcode": "35207"}}},
{"geometry": {"type": "Point", "coordinates": [-86.8678562595, 33.5004409679]}, "type": "Feature", "properties": {"collection_times": [{"days": "Mon-Fri", "time": "5:00pm"}, {"days": "Sat", "time": "1:30pm"}, {"days": "Sun", "time": "Closed"}], "id": "3520800000", "name": "USPS COLLECTION BOX - BLUE BOX", "address": {"city": "BIRMINGHAM", "state": "AL", "street": "2801 LOMB AVE", "postcode": "35208"}}},
{"geometry": {"type": "Point", "coordinates": [-86.8678562595, 33.5004409679]}, "type": "Feature", "properties": {"collection_times": [{"days": "Mon-Fri", "time": "5:00pm"}, {"days": "Sat", "time": "1:30pm"}, {"days": "Sun", "time": "Closed"}], "id": "3520800001", "name": "USPS COLLECTION BOX - BLUE BOX", "address": {"city": "BIRMINGHAM", "state": "AL", "street": "2801 LOMB AVE", "postcode": "35208"}}},
{"geometry": {"type": "Point", "coordinates": [-86.8678562595, 33.5004409679]}, "type": "Feature", "properties": {"collection_times": [{"days": "Mon-Fri", "time": "5:00pm"}, {"days": "Sat", "time": "1:30pm"}, {"days": "Sun", "time": "Closed"}], "id": "3520800002", "name": "USPS COLLECTION BOX - BLUE BOX", "address": {"city": "BIRMINGHAM", "state": "AL", "street": "2801 LOMB AVE", "postcode": "35208"}}},
{"geometry": {"type": "Point", "coordinates": [-86.8678562595, 33.5004409679]}, "type": "Feature", "properties": {"collection_times": [{"days": "Mon-Fri", "time": "5:00pm"}, {"days": "Sat", "time": "1:30pm"}, {"days": "Sun", "time": "Closed"}], "id": "3520800010", "name": "USPS COLLECTION BOX - PO LOBBY", "address": {"city": "BIRMINGHAM", "state": "AL", "street": "2801 LOMB AVE", "postcode": "35208"}}},
{"geometry": {"type": "Point", "coordinates": [-86.7918461479, 33.4823826487]}, "type": "Feature", "properties": {"collection_times": [{"days": "Mon-Fri", "time": "5:00pm"}, {"days": "Sat", "time": "1:30pm"}, {"days": "Sun", "time": "Closed"}], "id": "3520900000", "name": "USPS COLLECTION BOX - BLUE BOX", "address": {"city": "BIRMINGHAM", "state": "AL", "street": "2710 18TH ST S", "postcode": "35209"}}},
{"geometry": {"type": "Point", "coordinates": [-86.7918461479, 33.4823826487]}, "type": "Feature", "properties": {"collection_times": [{"days": "Mon-Fri", "time": "5:00pm"}, {"days": "Sat", "time": "1:30pm"}, {"days": "Sun", "time": "Closed"}], "id": "3520900001", "name": "USPS COLLECTION BOX - BLUE BOX", "address": {"city": "BIRMINGHAM", "state": "AL", "street": "2710 18TH ST S", "postcode": "35209"}}},
{"geometry": {"type": "Point", "coordinates": [-86.7918461479, 33.4823826487]}, "type": "Feature", "properties": {"collection_times": [{"days": "Mon-Fri", "time": "5:00pm"}, {"days": "Sat", "time": "1:30pm"}, {"days": "Sun", "time": "Closed"}], "id": "3520900002", "name": "USPS COLLECTION BOX - BLUE BOX", "address": {"city": "BIRMINGHAM", "state": "AL", "street": "2710 18TH ST S", "postcode": "35209"}}},
{"geometry": {"type": "Point", "coordinates": [-86.8084576612, 33.4698417451]}, "type": "Feature", "properties": {"collection_times": [{"days": "Mon-Fri", "time": "5:00pm"}, {"days": "Sat", "time": "1:30pm"}, {"days": "Sun", "time": "Closed"}], "id": "3520900003", "name": "USPS COLLECTION BOX - EXPRESS", "address": {"city": "BIRMINGHAM", "state": "AL", "street": "2710 18TH ST S", "postcode": "35209"}}},
{"geometry": {"type": "Point", "coordinates": [-86.8174954236, 33.4602333362]}, "type": "Feature", "properties": {"collection_times": [{"days": "Mon-Fri", "time": "5:00pm"}, {"days": "Sat", "time": "2:00pm"}, {"days": "Sun", "time": "Closed"}], "id": "3520900004", "name": "USPS COLLECTION BOX - BLUE BOX", "address": {"city": "BIRMINGHAM", "state": "AL", "street": "813 GREEN SPRINGS HWY", "postcode": "35209"}}},
{"geometry": {"type": "Point", "coordinates": [-86.8174954236, 33.4602333362]}, "type": "Feature", "properties": {"collection_times": [{"days": "Mon-Fri", "time": "5:00pm"}, {"days": "Sat", "time": "2:00pm"}, {"days": "Sun", "time": "Closed"}], "id": "3520900005", "name": "USPS COLLECTION BOX - BLUE BOX", "address": {"city": "BIRMINGHAM", "state": "AL", "street": "813 GREEN SPRINGS HWY", "postcode": "35209"}}},
{"geometry": {"type": "Point", "coordinates": [-86.8084576612, 33.4698417451]}, "type": "Feature", "properties": {"collection_times": [{"days": "Mon-Fri", "time": "5:00pm"}, {"days": "Sat", "time": "2:00pm"}, {"days": "Sun", "time": "Closed"}], "id": "3520900006", "name": "USPS COLLECTION BOX - EXPRESS", "address": {"city": "BIRMINGHAM", "state": "AL", "street": "813 GREEN SPRINGS HWY", "postcode": "35209"}}},
{"geometry": {"type": "Point", "coordinates": [-86.8354713399, 33.4584120745]}, "type": "Feature", "properties": {"collection_times": [{"days": "Mon-Fri", "time": "10:30am"}, {"days": "Sat-Sun", "time": "Closed"}], "id": "3520900009", "name": "USPS COLLECTION BOX - BLUE BOX", "address": {"city": "BIRMINGHAM", "state": "AL", "street": "100 OXMOOR BLVD", "postcode": "35209"}}},
{"geometry": {"type": "Point", "coordinates": [-86.8354713399, 33.4584120745]}, "type": "Feature", "properties": {"collection_times": [{"days": "Mon-Fri", "time": "10:30am"}, {"days": "Sat-Sun", "time": "Closed"}], "id": "3520900010", "name": "USPS COLLECTION BOX - BLUE BOX", "address": {"city": "BIRMINGHAM", "state": "AL", "street": "100 OXMOOR BLVD", "postcode": "35209"}}},
{"geometry": {"type": "Point", "coordinates": [-86.8359826386, 33.4648025162]}, "type": "Feature", "properties": {"collection_times": [{"days": "Mon-Fri", "time": "10:30am"}, {"days": "Sat-Sun", "time": "Closed"}], "id": "3520900014", "name": "USPS COLLECTION BOX - BLUE BOX", "address": {"city": "BIRMINGHAM", "state": "AL", "street": "75 ASPEN RDG", "postcode": "35209"}}},
{"geometry": {"type": "Point", "coordinates": [-86.80361969, 33.4748011496]}, "type": "Feature", "properties": {"collection_times": [{"days": "Mon-Fri", "time": "12:00pm"}, {"days": "Sat-Sun", "time": "Closed"}], "id": "3520900016", "name": "USPS COLLECTION BOX - BLUE BOX", "address": {"city": "BIRMINGHAM", "state": "AL", "street": "1430 OXMOOR RD", "postcode": "35209"}}},
{"geometry": {"type": "Point", "coordinates": [-86.7725322825, 33.4658722351]}, "type": "Feature", "properties": {"collection_times": [{"days": "Mon-Fri", "time": "3:00pm"}, {"days": "Sat-Sun", "time": "Closed"}], "id": "3520900020", "name": "USPS COLLECTION BOX - BLUE BOX", "address": {"city": "BIRMINGHAM", "state": "AL", "street": "2 METROPLEX DR", "postcode": "35209"}}},
{"geometry": {"type": "Point", "coordinates": [-86.8084576612, 33.4698417451]}, "type": "Feature", "properties": {"collection_times": [{"days": "Mon-Fri", "time": "3:00pm"}, {"days": "Sat-Sun", "time": "Closed"}], "id": "3520900021", "name": "USPS COLLECTION BOX - EXPRESS", "address": {"city": "BIRMINGHAM", "state": "AL", "street": "2 METROPLEX DR", "postcode": "35209"}}},
{"geometry": {"type": "Point", "coordinates": [-86.839935275, 33.455361971]}, "type": "Feature", "properties": {"collection_times": [{"days": "Mon-Fri", "time": "10:30am"}, {"days": "Sat-Sun", "time": "Closed"}], "id": "3520900024", "name": "USPS COLLECTION BOX - BLUE BOX", "address": {"city": "BIRMINGHAM", "state": "AL", "street": "25 W OXMOOR RD", "postcode": "35209"}}},
{"geometry": {"type": "Point", "coordinates": [-86.839935275, 33.455361971]}, "type": "Feature", "properties": {"collection_times": [{"days": "Mon-Fri", "time": "10:30am"}, {"days": "Sat-Sun", "time": "Closed"}], "id": "3520900025", "name": "USPS COLLECTION BOX - BLUE BOX", "address": {"city": "BIRMINGHAM", "state": "AL", "street": "25 W OXMOOR RD", "postcode": "35209"}}},
{"geometry": {"type": "Point", "coordinates": [-86.8214361479, 33.472429539]}, "type": "Feature", "properties": {"collection_times": [{"days": "Mon-Fri", "time": "11:00am"}, {"days": "Sat-Sun", "time": "Closed"}], "id": "3520900026", "name": "USPS COLLECTION BOX - BLUE BOX", "address": {"city": "BIRMINGHAM", "state": "AL", "street": "200 BEACON PKWY W", "postcode": "35209"}}},
{"geometry": {"type": "Point", "coordinates": [-86.8214361479, 33.472429539]}, "type": "Feature", "properties": {"collection_times": [{"days": "Mon-Fri", "time": "11:00am"}, {"days": "Sat-Sun", "time": "Closed"}], "id": "3520900027", "name": "USPS COLLECTION BOX - BLUE BOX", "address": {"city": "BIRMINGHAM", "state": "AL", "street": "200 BEACON PKWY W", "postcode": "35209"}}},
{"geometry": {"type": "Point", "coordinates": [-86.822749965, 33.467242813]}, "type": "Feature", "properties": {"collection_times": [{"days": "Mon-Fri", "time": "11:00am"}, {"days": "Sat-Sun", "time": "Closed"}], "id": "3520900028", "name": "USPS COLLECTION BOX - BLUE BOX", "address": {"city": "BIRMINGHAM", "state": "AL", "street": "216 GREEN SPRINGS HWY", "postcode": "35209"}}},
{"geometry": {"type": "Point", "coordinates": [-86.8364184542, 33.4605304225]}, "type": "Feature", "properties": {"collection_times": [{"days": "Mon-Fri", "time": "10:30am"}, {"days": "Sat-Sun", "time": "Closed"}], "id": "3520900029", "name": "USPS COLLECTION BOX - BLUE BOX", "address": {"city": "BIRMINGHAM", "state": "AL", "street": "234 AQUARIUS DR", "postcode": "35209"}}},
{"geometry": {"type": "Point", "coordinates": [-86.8372683257, 33.4530943429]}, "type": "Feature", "properties": {"collection_times": [{"days": "Mon-Fri", "time": "10:30am"}, {"days": "Sat-Sun", "time": "Closed"}], "id": "3520900030", "name": "USPS COLLECTION BOX - BLUE BOX", "address": {"city": "BIRMINGHAM", "state": "AL", "street": "237 OXMOOR CIR", "postcode": "35209"}}},
{"geometry": {"type": "Point", "coordinates": [-86.8372683257, 33.4530943429]}, "type": "Feature", "properties": {"collection_times": [{"days": "Mon-Fri", "time": "10:30am"}, {"days": "Sat-Sun", "time": "Closed"}], "id": "3520900031", "name": "USPS COLLECTION BOX - BLUE BOX", "address": {"city": "BIRMINGHAM", "state": "AL", "street": "237 OXMOOR CIR", "postcode": "35209"}}},
{"geometry": {"type": "Point", "coordinates": [-86.8084576612, 33.4698417451]}, "type": "Feature", "properties": {"collection_times": [{"days": "Mon-Fri", "time": "10:30am"}, {"days": "Sat-Sun", "time": "Closed"}], "id": "3520900032", "name": "USPS COLLECTION BOX - EXPRESS", "address": {"city": "BIRMINGHAM", "state": "AL", "street": "237 OXMOOR CIR", "postcode": "35209"}}},
{"geometry": {"type": "Point", "coordinates": [-86.8325567857, 33.4714403703]}, "type": "Feature", "properties": {"collection_times": [{"days": "Mon-Fri", "time": "11:00am"}, {"days": "Sat-Sun", "time": "Closed"}], "id": "3520900033", "name": "USPS COLLECTION BOX - BLUE BOX", "address": {"city": "BIRMINGHAM", "state": "AL", "street": "244 GOODWIN CREST DR", "postcode": "35209"}}},
{"geometry": {"type": "Point", "coordinates": [-86.8325567857, 33.4714403703]}, "type": "Feature", "properties": {"collection_times": [{"days": "Mon-Fri", "time": "11:00am"}, {"days": "Sat-Sun", "time": "Closed"}], "id": "3520900034", "name": "USPS COLLECTION BOX - BLUE BOX", "address": {"city": "BIRMINGHAM", "state": "AL", "street": "244 GOODWIN CREST DR", "postcode": "35209"}}},
{"geometry": {"type": "Point", "coordinates": [-86.8325567857, 33.4714403703]}, "type": "Feature", "properties": {"collection_times": [{"days": "Mon-Fri", "time": "11:00am"}, {"days": "Sat-Sun", "time": "Closed"}], "id": "3520900035", "name": "USPS COLLECTION BOX - BLUE BOX", "address": {"city": "BIRMINGHAM", "state": "AL", "street": "244 GOODWIN CREST DR", "postcode": "35209"}}},
{"geometry": {"type": "Point", "coordinates": [-86.8125095683, 33.464977626]}, "type": "Feature", "properties": {"collection_times": [{"days": "Mon-Fri", "time": "4:00pm"}, {"days": "Sat-Sun", "time": "Closed"}], "id": "3520900038", "name": "USPS COLLECTION BOX - BLUE BOX", "address": {"city": "BIRMINGHAM", "state": "AL", "street": "2010 BROOKWOOD MED CENTER DR", "postcode": "35209"}}},
{"geometry": {"type": "Point", "coordinates": [-86.8084576612, 33.4698417451]}, "type": "Feature", "properties": {"collection_times": [{"days": "Mon-Fri", "time": "3:00pm"}, {"days": "Sat-Sun", "time": "Closed"}], "id": "3520900044", "name": "USPS COLLECTION BOX - EXPRESS", "address": {"city": "BIRMINGHAM", "state": "AL", "street": "2204 LAKESHORE DR", "postcode": "35209"}}},
{"geometry": {"type": "Point", "coordinates": [-86.7916834759, 33.4786703538]}, "type": "Feature", "properties": {"collection_times": [{"days": "Mon-Fri", "time": "12:00pm"}, {"days": "Sat-Sun", "time": "Closed"}], "id": "3520900045", "name": "USPS COLLECTION BOX - BLUE BOX", "address": {"city": "BIRMINGHAM", "state": "AL", "street": "2949 18TH ST S", "postcode": "35209"}}},
{"geometry": {"type": "Point", "coordinates": [-86.8160918552, 33.4501844746]}, "type": "Feature", "properties": {"collection_times": [{"days": "Mon-Fri", "time": "12:30pm"}, {"days": "Sat-Sun", "time": "Closed"}], "id": "3520900047", "name": "USPS COLLECTION BOX - BLUE BOX", "address": {"city": "BIRMINGHAM", "state": "AL", "street": "1 W LAKESHORE DR", "postcode": "35209"}}},
{"geometry": {"type": "Point", "coordinates": [-86.7874373828, 33.4770240648]}, "type": "Feature", "properties": {"collection_times": [{"days": "Mon-Fri", "time": "12:00pm"}, {"days": "Sat-Sun", "time": "Closed"}], "id": "3520900049", "name": "USPS COLLECTION BOX - BLUE BOX", "address": {"city": "BIRMINGHAM", "state": "AL", "street": "3030 INDEPENDENCE DR", "postcode": "35209"}}},
{"geometry": {"type": "Point", "coordinates": [-86.7871840809, 33.4762470993]}, "type": "Feature", "properties": {"collection_times": [{"days": "Mon-Fri", "time": "12:00pm"}, {"days": "Sat-Sun", "time": "Closed"}], "id": "3520900050", "name": "USPS COLLECTION BOX - BLUE BOX", "address": {"city": "BIRMINGHAM", "state": "AL", "street": "3055 INDEPENDENCE DR", "postcode": "35209"}}},
{"geometry": {"type": "Point", "coordinates": [-86.7866389699, 33.4737194686]}, "type": "Feature", "properties": {"collection_times": [{"days": "Mon-Fri", "time": "12:00pm"}, {"days": "Sat-Sun", "time": "Closed"}], "id": "3520900055", "name": "USPS COLLECTION BOX - BLUE BOX", "address": {"city": "BIRMINGHAM", "state": "AL", "street": "3349 INDEPENDENCE DR", "postcode": "35209"}}},
{"geometry": {"type": "Point", "coordinates": [-86.7863547458, 33.4734972953]}, "type": "Feature", "properties": {"collection_times": [{"days": "Mon-Fri", "time": "12:00pm"}, {"days": "Sat-Sun", "time": "Closed"}], "id": "3520900056", "name": "USPS COLLECTION BOX - BLUE BOX", "address": {"city": "BIRMINGHAM", "state": "AL", "street": "3401 INDEPENDENCE DR", "postcode": "35209"}}},
{"geometry": {"type": "Point", "coordinates": [-86.7863547458, 33.4734972953]}, "type": "Feature", "properties": {"collection_times": [{"days": "Mon-Fri", "time": "12:00pm"}, {"days": "Sat-Sun", "time": "Closed"}], "id": "3520900057", "name": "USPS COLLECTION BOX - BLUE BOX", "address": {"city": "BIRMINGHAM", "state": "AL", "street": "3401 INDEPENDENCE DR", "postcode": "35209"}}},
{"geometry": {"type": "Point", "coordinates": [-86.8260140309, 33.4735575875]}, "type": "Feature", "properties": {"collection_times": [{"days": "Mon-Fri", "time": "11:00am"}, {"days": "Sat-Sun", "time": "Closed"}], "id": "3520900058", "name": "USPS COLLECTION BOX - BLUE BOX", "address": {"city": "BIRMINGHAM", "state": "AL", "street": "48 GREEN SPRINGS HWY", "postcode": "35209"}}},
{"geometry": {"type": "Point", "coordinates": [-86.8203765125, 33.4724699368]}, "type": "Feature", "properties": {"collection_times": [{"days": "Mon-Fri", "time": "11:00am"}, {"days": "Sat-Sun", "time": "Closed"}], "id": "3520900059", "name": "USPS COLLECTION BOX - BLUE BOX", "address": {"city": "BIRMINGHAM", "state": "AL", "street": "401 VALLEY AVE", "postcode": "35209"}}},
{"geometry": {"type": "Point", "coordinates": [-86.8084576612, 33.4698417451]}, "type": "Feature", "properties": {"collection_times": [{"days": "Mon-Fri", "time": "11:00am"}, {"days": "Sat-Sun", "time": "Closed"}], "id": "3520900063", "name": "USPS COLLECTION BOX - EXPRESS", "address": {"city": "BIRMINGHAM", "state": "AL", "street": "200 BEACON PKWY W", "postcode": "35209"}}},
{"geometry": {"type": "Point", "coordinates": [-86.8304369704, 33.46972081]}, "type": "Feature", "properties": {"collection_times": [{"days": "Mon-Fri", "time": "11:00am"}, {"days": "Sat-Sun", "time": "Closed"}], "id": "3520900067", "name": "USPS COLLECTION BOX - BLUE BOX", "address": {"city": "BIRMINGHAM", "state": "AL", "street": "55 BAGBY DR", "postcode": "35209"}}},
{"geometry": {"type": "Point", "coordinates": [-86.8149695666, 33.4755338921]}, "type": "Feature", "properties": {"collection_times": [{"days": "Mon-Fri", "time": "10:30am"}, {"days": "Sat-Sun", "time": "Closed"}], "id": "3520900068", "name": "USPS COLLECTION BOX - BLUE BOX", "address": {"city": "BIRMINGHAM", "state": "AL", "street": "741 BARCELONA CT", "postcode": "35209"}}},
{"geometry": {"type": "Point", "coordinates": [-86.8302188338, 33.4692967499]}, "type": "Feature", "properties": {"collection_times": [{"days": "Mon-Fri", "time": "11:00am"}, {"days": "Sat-Sun", "time": "Closed"}], "id": "3520900069", "name": "USPS COLLECTION BOX - BLUE BOX", "address": {"city": "BIRMINGHAM", "state": "AL", "street": "85 BAGBY DR", "postcode": "35209"}}},
{"geometry": {"type": "Point", "coordinates": [-86.8302188338, 33.4692967499]}, "type": "Feature", "properties": {"collection_times": [{"days": "Mon-Fri", "time": "11:00am"}, {"days": "Sat-Sun", "time": "Closed"}], "id": "3520900070", "name": "USPS COLLECTION BOX - BLUE BOX", "address": {"city": "BIRMINGHAM", "state": "AL", "street": "85 BAGBY DR", "postcode": "35209"}}},
{"geometry": {"type": "Point", "coordinates": [-86.7698595788, 33.472073096]}, "type": "Feature", "properties": {"collection_times": [{"days": "Mon-Fri", "time": "2:30pm"}, {"days": "Sat-Sun", "time": "Closed"}], "id": "3520900071", "name": "USPS COLLECTION BOX - BLUE BOX", "address": {"city": "BIRMINGHAM", "state": "AL", "street": "813 SHADES CREEK PKWY", "postcode": "35209"}}},
{"geometry": {"type": "Point", "coordinates": [-86.7698595788, 33.472073096]}, "type": "Feature", "properties": {"collection_times": [{"days": "Mon-Fri", "time": "2:30pm"}, {"days": "Sat-Sun", "time": "Closed"}], "id": "3520900072", "name": "USPS COLLECTION BOX - BLUE BOX", "address": {"city": "BIRMINGHAM", "state": "AL", "street": "813 SHADES CREEK PKWY", "postcode": "35209"}}},
{"geometry": {"type": "Point", "coordinates": [-86.8125095683, 33.464977626]}, "type": "Feature", "properties": {"collection_times": [{"days": "Mon-Fri", "time": "12:00pm"}, {"days": "Sat-Sun", "time": "Closed"}], "id": "3520900077", "name": "USPS COLLECTION BOX - BLUE BOX", "address": {"city": "BIRMINGHAM", "state": "AL", "street": "1001 OXMOOR RD & BROADWAY", "postcode": "35209"}}},
{"geometry": {"type": "Point", "coordinates": [-86.8363453819, 33.4742081004]}, "type": "Feature", "properties": {"collection_times": [{"days": "Mon-Fri", "time": "10:30am"}, {"days": "Sat-Sun", "time": "Closed"}], "id": "3520900078", "name": "USPS COLLECTION BOX - BLUE BOX", "address": {"city": "BIRMINGHAM", "state": "AL", "street": "1528 STONERIDGE RD", "postcode": "35209"}}},
{"geometry": {"type": "Point", "coordinates": [-86.826391635, 33.4587985152]}, "type": "Feature", "properties": {"collection_times": [{"days": "Mon-Fri", "time": "10:30am"}, {"days": "Sat-Sun", "time": "Closed"}], "id": "3520900080", "name": "USPS COLLECTION BOX - BLUE BOX", "address": {"city": "BIRMINGHAM", "state": "AL", "street": "700 COBB ST", "postcode": "35209"}}},
{"geometry": {"type": "Point", "coordinates": [-86.8125095683, 33.464977626]}, "type": "Feature", "properties": {"collection_times": [{"days": "Mon-Fri", "time": "10:30am"}, {"days": "Sat-Sun", "time": "Closed"}], "id": "3520900081", "name": "USPS COLLECTION BOX - BLUE BOX", "address": {"city": "BIRMINGHAM", "state": "AL", "street": "1 COURTS AT WILDWOOD APTS", "postcode": "35209"}}},
{"geometry": {"type": "Point", "coordinates": [-86.8125095683, 33.464977626]}, "type": "Feature", "properties": {"collection_times": [{"days": "Mon-Fri", "time": "10:30am"}, {"days": "Sat-Sun", "time": "Closed"}], "id": "3520900082", "name": "USPS COLLECTION BOX - BLUE BOX", "address": {"city": "BIRMINGHAM", "state": "AL", "street": "100 DISTRIBUTION DR & W OXMOOR RD", "postcode": "35209"}}},
{"geometry": {"type": "Point", "coordinates": [-86.837971291, 33.4721799712]}, "type": "Feature", "properties": {"collection_times": [{"days": "Mon-Fri", "time": "10:30am"}, {"days": "Sat-Sun", "time": "Closed"}], "id": "3520900085", "name": "USPS COLLECTION BOX - BLUE BOX", "address": {"city": "BIRMINGHAM", "state": "AL", "street": "280 ROBERT JEMISON RD", "postcode": "35209"}}},
{"geometry": {"type": "Point", "coordinates": [-86.8199020012, 33.4679259648]}, "type": "Feature", "properties": {"collection_times": [{"days": "Mon-Fri", "time": "11:00am"}, {"days": "Sat-Sun", "time": "Closed"}], "id": "3520900087", "name": "USPS COLLECTION BOX - BLUE BOX", "address": {"city": "BIRMINGHAM", "state": "AL", "street": "300 PALISADES BLVD", "postcode": "35209"}}},
{"geometry": {"type": "Point", "coordinates": [-86.7899953426, 33.4629688518]}, "type": "Feature", "properties": {"collection_times": [{"days": "Mon-Fri", "time": "3:00pm"}, {"days": "Sat-Sun", "time": "Closed"}], "id": "3520900088", "name": "USPS COLLECTION BOX - BLUE BOX", "address": {"city": "BIRMINGHAM", "state": "AL", "street": "800 LAKESHORE DR", "postcode": "35209"}}},
{"geometry": {"type": "Point", "coordinates": [-86.8123145197, 33.4789142411]}, "type": "Feature", "properties": {"collection_times": [{"days": "Mon-Fri", "time": "10:30am"}, {"days": "Sat-Sun", "time": "Closed"}], "id": "3520900090", "name": "USPS COLLECTION BOX - BLUE BOX", "address": {"city": "BIRMINGHAM", "state": "AL", "street": "915 VALLEY RIDGE DR", "postcode": "35209"}}},
{"geometry": {"type": "Point", "coordinates": [-86.8291723567, 33.4692064827]}, "type": "Feature", "properties": {"collection_times": [{"days": "Mon-Fri", "time": "11:00am"}, {"days": "Sat-Sun", "time": "Closed"}], "id": "3520900093", "name": "USPS COLLECTION BOX - BLUE BOX", "address": {"city": "BIRMINGHAM", "state": "AL", "street": "325 W VALLEY AVE", "postcode": "35209"}}},
{"geometry": {"type": "Point", "coordinates": [-86.8084576612, 33.4698417451]}, "type": "Feature", "properties": {"collection_times": [{"days": "Mon-Fri", "time": "11:00am"}, {"days": "Sat-Sun", "time": "Closed"}], "id": "3520900094", "name": "USPS COLLECTION BOX - EXPRESS", "address": {"city": "BIRMINGHAM", "state": "AL", "street": "325 W VALLEY AVE", "postcode": "35209"}}},
{"geometry": {"type": "Point", "coordinates": [-86.7873672099, 33.4910721099]}, "type": "Feature", "properties": {"collection_times": [{"days": "Mon-Fri", "time": "12:00pm"}, {"days": "Sat-Sun", "time": "Closed"}], "id": "3520900095", "name": "USPS COLLECTION BOX - BLUE BOX", "address": {"city": "BIRMINGHAM", "state": "AL", "street": "2200 WOODCREST PL", "postcode": "35209"}}},
{"geometry": {"type": "Point", "coordinates": [-86.7873672099, 33.4910721099]}, "type": "Feature", "properties": {"collection_times": [{"days": "Mon-Fri", "time": "12:00pm"}, {"days": "Sat-Sun", "time": "Closed"}], "id": "3520900096", "name": "USPS COLLECTION BOX - BLUE BOX", "address": {"city": "BIRMINGHAM", "state": "AL", "street": "2200 WOODCREST PL", "postcode": "35209"}}},
{"geometry": {"type": "Point", "coordinates": [-86.7798049512, 33.4826802027]}, "type": "Feature", "properties": {"collection_times": [{"days": "Mon-Fri", "time": "12:00pm"}, {"days": "Sat-Sun", "time": "Closed"}], "id": "3520900097", "name": "USPS COLLECTION BOX - BLUE BOX", "address": {"city": "BIRMINGHAM", "state": "AL", "street": "400 UNION HILL DR", "postcode": "35209"}}},
{"geometry": {"type": "Point", "coordinates": [-86.7873451385, 33.4872380167]}, "type": "Feature", "properties": {"collection_times": [{"days": "Mon-Fri", "time": "12:00pm"}, {"days": "Sat-Sun", "time": "Closed"}], "id": "3520900099", "name": "USPS COLLECTION BOX - BLUE BOX", "address": {"city": "BIRMINGHAM", "state": "AL", "street": "2340 WOODCREST PL", "postcode": "35209"}}},
{"geometry": {"type": "Point", "coordinates": [-86.7918461479, 33.4823826487]}, "type": "Feature", "properties": {"collection_times": [{"days": "Mon-Fri", "time": "5:00pm"}, {"days": "Sat", "time": "1:30pm"}, {"days": "Sun", "time": "Closed"}], "id": "3520900103", "name": "USPS COLLECTION BOX - BLUE BOX", "address": {"city": "BIRMINGHAM", "state": "AL", "street": "2710 18TH ST S", "postcode": "35209"}}},
{"geometry": {"type": "Point", "coordinates": [-86.8249745973, 33.4502530641]}, "type": "Feature", "properties": {"collection_times": [{"days": "Mon-Fri", "time": "12:30pm"}, {"days": "Sat-Sun", "time": "Closed"}], "id": "3520900105", "name": "USPS COLLECTION BOX - BLUE BOX", "address": {"city": "BIRMINGHAM", "state": "AL", "street": "126 WILDWOOD PKWY", "postcode": "35209"}}},
{"geometry": {"type": "Point", "coordinates": [-86.8174954236, 33.4602333362]}, "type": "Feature", "properties": {"collection_times": [{"days": "Mon-Fri", "time": "5:00pm"}, {"days": "Sat", "time": "1:00pm"}, {"days": "Sun", "time": "Closed"}], "id": "3520900106", "name": "USPS COLLECTION BOX - PO LOBBY", "address": {"city": "BIRMINGHAM", "state": "AL", "street": "813 GREEN SPRINGS HWY", "postcode": "35209"}}},
{"geometry": {"type": "Point", "coordinates": [-86.7918461479, 33.4823826487]}, "type": "Feature", "properties": {"collection_times": [{"days": "Mon-Fri", "time": "5:00pm"}, {"days": "Sat", "time": "1:30pm"}, {"days": "Sun", "time": "Closed"}], "id": "3520900107", "name": "USPS COLLECTION BOX - PO LOBBY", "address": {"city": "BIRMINGHAM", "state": "AL", "street": "2710 18TH ST S", "postcode": "35209"}}},
{"geometry": {"type": "Point", "coordinates": [-86.7698595788, 33.472073096]}, "type": "Feature", "properties": {"collection_times": [{"days": "Mon-Fri", "time": "2:30pm"}, {"days": "Sat-Sun", "time": "Closed"}], "id": "3520900111", "name": "USPS COLLECTION BOX - BLUE BOX", "address": {"city": "BIRMINGHAM", "state": "AL", "street": "813 SHADES CREEK PKWY", "postcode": "35209"}}},
{"geometry": {"type": "Point", "coordinates": [-86.6931061075, 33.5389334738]}, "type": "Feature", "properties": {"collection_times": [{"days": "Mon-Fri", "time": "5:00pm"}, {"days": "Sat", "time": "3:00pm"}, {"days": "Sun", "time": "Closed"}], "id": "3521000000", "name": "USPS COLLECTION BOX - BLUE BOX", "address": {"city": "IRONDALE", "state": "AL", "street": "2730 CRESTWOOD BLVD", "postcode": "35210"}}},
{"geometry": {"type": "Point", "coordinates": [-86.6931061075, 33.5389334738]}, "type": "Feature", "properties": {"collection_times": [{"days": "Mon-Fri", "time": "5:00pm"}, {"days": "Sat", "time": "3:00pm"}, {"days": "Sun", "time": "Closed"}], "id": "3521000001", "name": "USPS COLLECTION BOX - BLUE BOX", "address": {"city": "IRONDALE", "state": "AL", "street": "2730 CRESTWOOD BLVD", "postcode": "35210"}}},
{"geometry": {"type": "Point", "coordinates": [-86.6931061075, 33.5389334738]}, "type": "Feature", "properties": {"collection_times": [{"days": "Mon-Fri", "time": "5:00pm"}, {"days": "Sat", "time": "3:00pm"}, {"days": "Sun", "time": "Closed"}], "id": "3521000002", "name": "USPS COLLECTION BOX - BLUE BOX", "address": {"city": "IRONDALE", "state": "AL", "street": "2730 CRESTWOOD BLVD", "postcode": "35210"}}},
{"geometry": {"type": "Point", "coordinates": [-86.6862587266, 33.5365028194]}, "type": "Feature", "properties": {"collection_times": [{"days": "Mon-Fri", "time": "5:00pm"}, {"days": "Sat", "time": "3:00pm"}, {"days": "Sun", "time": "Closed"}], "id": "3521000003", "name": "USPS COLLECTION BOX - EXPRESS", "address": {"city": "IRONDALE", "state": "AL", "street": "2730 CRESTWOOD BLVD", "postcode": "35210"}}},
{"geometry": {"type": "Point", "coordinates": [-86.73104415, 33.5216520282]}, "type": "Feature", "properties": {"collection_times": [{"days": "Mon-Fri", "time": "1:00pm"}, {"days": "Sat-Sun", "time": "Closed"}], "id": "3521000005", "name": "USPS COLLECTION BOX - BLUE BOX", "address": {"city": "IRONDALE", "state": "AL", "street": "1325 MONTCLAIR RD", "postcode": "35210"}}},
{"geometry": {"type": "Point", "coordinates": [-86.7037571924, 33.5332011122]}, "type": "Feature", "properties": {"collection_times": [{"days": "Mon-Fri", "time": "3:00pm"}, {"days": "Sat-Sun", "time": "Closed"}], "id": "3521000008", "name": "USPS COLLECTION BOX - BLUE BOX", "address": {"city": "IRONDALE", "state": "AL", "street": "1900 CRESTWOOD BLVD", "postcode": "35210"}}},
{"geometry": {"type": "Point", "coordinates": [-86.6931061075, 33.5389334738]}, "type": "Feature", "properties": {"collection_times": [{"days": "Mon-Fri", "time": "5:00pm"}, {"days": "Sat", "time": "3:00pm"}, {"days": "Sun", "time": "Closed"}], "id": "3521000020", "name": "USPS COLLECTION BOX - BLUE BOX", "address": {"city": "IRONDALE", "state": "AL", "street": "2730 CRESTWOOD BLVD", "postcode": "35210"}}},
{"geometry": {"type": "Point", "coordinates": [-86.6931061075, 33.5389334738]}, "type": "Feature", "properties": {"collection_times": [{"days": "Mon-Fri", "time": "5:00pm"}, {"days": "Sat", "time": "3:00pm"}, {"days": "Sun", "time": "Closed"}], "id": "3521000025", "name": "USPS COLLECTION BOX - PO LOBBY", "address": {"city": "IRONDALE", "state": "AL", "street": "2730 CRESTWOOD BLVD", "postcode": "35210"}}},
{"geometry": {"type": "Point", "coordinates": [-86.6931061075, 33.5389334738]}, "type": "Feature", "properties": {"collection_times": [{"days": "Mon-Fri", "time": "5:00pm"}, {"days": "Sat", "time": "3:00pm"}, {"days": "Sun", "time": "Closed"}], "id": "3521000026", "name": "USPS COLLECTION BOX - PO LOBBY", "address": {"city": "IRONDALE", "state": "AL", "street": "2730 CRESTWOOD BLVD", "postcode": "35210"}}},
{"geometry": {"type": "Point", "coordinates": [-86.8541450596, 33.4927389842]}, "type": "Feature", "properties": {"collection_times": [{"days": "Mon-Fri", "time": "5:00pm"}, {"days": "Sat", "time": "4:00pm"}, {"days": "Sun", "time": "Closed"}], "id": "3521100000", "name": "USPS COLLECTION BOX - BLUE BOX", "address": {"city": "BIRMINGHAM", "state": "AL", "street": "1337 TUSCALOOSA AVE SW", "postcode": "35211"}}},
{"geometry": {"type": "Point", "coordinates": [-86.8541450596, 33.4927389842]}, "type": "Feature", "properties": {"collection_times": [{"days": "Mon-Fri", "time": "5:00pm"}, {"days": "Sat", "time": "4:00pm"}, {"days": "Sun", "time": "Closed"}], "id": "3521100001", "name": "USPS COLLECTION BOX - BLUE BOX", "address": {"city": "BIRMINGHAM", "state": "AL", "street": "1337 TUSCALOOSA AVE SW", "postcode": "35211"}}},
{"geometry": {"type": "Point", "coordinates": [-86.8582470793, 33.478492651]}, "type": "Feature", "properties": {"collection_times": [{"days": "Mon-Fri", "time": "5:00pm"}, {"days": "Sat", "time": "4:00pm"}, {"days": "Sun", "time": "Closed"}], "id": "3521100002", "name": "USPS COLLECTION BOX - EXPRESS", "address": {"city": "BIRMINGHAM", "state": "AL", "street": "1337 TUSCALOOSA AVE SW", "postcode": "35211"}}},
{"geometry": {"type": "Point", "coordinates": [-86.8582470793, 33.478492651]}, "type": "Feature", "properties": {"collection_times": [{"days": "Mon-Fri", "time": "3:00pm"}, {"days": "Sat-Sun", "time": "Closed"}], "id": "3521100018", "name": "USPS COLLECTION BOX - BLUE BOX", "address": {"city": "BIRMINGHAM", "state": "AL", "street": "1 W PARK DR", "postcode": "35211"}}},
{"geometry": {"type": "Point", "coordinates": [-86.8582470793, 33.478492651]}, "type": "Feature", "properties": {"collection_times": [{"days": "Mon-Fri", "time": "3:00pm"}, {"days": "Sat-Sun", "time": "Closed"}], "id": "3521100019", "name": "USPS COLLECTION BOX - BLUE BOX", "address": {"city": "BIRMINGHAM", "state": "AL", "street": "1 W PARK DR", "postcode": "35211"}}},
{"geometry": {"type": "Point", "coordinates": [-86.8541450596, 33.4927389842]}, "type": "Feature", "properties": {"collection_times": [{"days": "Mon-Fri", "time": "5:00pm"}, {"days": "Sat", "time": "4:00pm"}, {"days": "Sun", "time": "Closed"}], "id": "3521100024", "name": "USPS COLLECTION BOX - PO LOBBY", "address": {"city": "BIRMINGHAM", "state": "AL", "street": "1337 TUSCALOOSA AVE SW", "postcode": "35211"}}},
{"geometry": {"type": "Point", "coordinates": [-86.8499883573, 33.4347446019]}, "type": "Feature", "properties": {"collection_times": [{"days": "Mon-Fri", "time": "3:00pm"}, {"days": "Sat-Sun", "time": "Closed"}], "id": "3521100025", "name": "USPS COLLECTION BOX - BLUE BOX", "address": {"city": "BIRMINGHAM", "state": "AL", "street": "801 TOM MARTIN DR", "postcode": "35211"}}},
{"geometry": {"type": "Point", "coordinates": [-86.8507265266, 33.4521404976]}, "type": "Feature", "properties": {"collection_times": [{"days": "Mon-Fri", "time": "3:00pm"}, {"days": "Sat-Sun", "time": "Closed"}], "id": "3521100026", "name": "USPS COLLECTION BOX - BLUE BOX", "address": {"city": "BIRMINGHAM", "state": "AL", "street": "136 INDUSTRIAL DR", "postcode": "35211"}}},
{"geometry": {"type": "Point", "coordinates": [-86.8507265266, 33.4521404976]}, "type": "Feature", "properties": {"collection_times": [{"days": "Mon-Fri", "time": "3:00pm"}, {"days": "Sat-Sun", "time": "Closed"}], "id": "3521100027", "name": "USPS COLLECTION BOX - BLUE BOX", "address": {"city": "BIRMINGHAM", "state": "AL", "street": "136 INDUSTRIAL DR", "postcode": "35211"}}},
{"geometry": {"type": "Point", "coordinates": [-86.7568951993, 33.5376403552]}, "type": "Feature", "properties": {"collection_times": [{"days": "Mon-Fri", "time": "5:00pm"}, {"days": "Sat", "time": "4:00pm"}, {"days": "Sun", "time": "Closed"}], "id": "3521200000", "name": "USPS COLLECTION BOX - BLUE BOX", "address": {"city": "BIRMINGHAM", "state": "AL", "street": "5310 1ST AVE N", "postcode": "35212"}}},
{"geometry": {"type": "Point", "coordinates": [-86.7568951993, 33.5376403552]}, "type": "Feature", "properties": {"collection_times": [{"days": "Mon-Fri", "time": "5:00pm"}, {"days": "Sat", "time": "4:00pm"}, {"days": "Sun", "time": "Closed"}], "id": "3521200001", "name": "USPS COLLECTION BOX - BLUE BOX", "address": {"city": "BIRMINGHAM", "state": "AL", "street": "5310 1ST AVE N", "postcode": "35212"}}},
{"geometry": {"type": "Point", "coordinates": [-86.7488485308, 33.541712481]}, "type": "Feature", "properties": {"collection_times": [{"days": "Mon-Fri", "time": "5:00pm"}, {"days": "Sat", "time": "4:00pm"}, {"days": "Sun", "time": "Closed"}], "id": "3521200002", "name": "USPS COLLECTION BOX - EXPRESS", "address": {"city": "BIRMINGHAM", "state": "AL", "street": "5310 1ST AVE N", "postcode": "35212"}}},
{"geometry": {"type": "Point", "coordinates": [-86.7484241662, 33.5285620519]}, "type": "Feature", "properties": {"collection_times": [{"days": "Mon-Fri", "time": "10:30am"}, {"days": "Sat-Sun", "time": "Closed"}], "id": "3521200007", "name": "USPS COLLECTION BOX - BLUE BOX", "address": {"city": "BIRMINGHAM", "state": "AL", "street": "5504 CRESTWOOD BLVD", "postcode": "35212"}}},
{"geometry": {"type": "Point", "coordinates": [-86.7568951993, 33.5376403552]}, "type": "Feature", "properties": {"collection_times": [{"days": "Mon-Fri", "time": "5:00pm"}, {"days": "Sat", "time": "4:00pm"}, {"days": "Sun", "time": "Closed"}], "id": "3521200021", "name": "USPS COLLECTION BOX - PO LOBBY", "address": {"city": "BIRMINGHAM", "state": "AL", "street": "5310 1ST AVE N", "postcode": "35212"}}},
{"geometry": {"type": "Point", "coordinates": [-86.76303237, 33.5056635861]}, "type": "Feature", "properties": {"collection_times": [{"days": "Mon-Fri", "time": "5:00pm"}, {"days": "Sat", "time": "2:15pm"}, {"days": "Sun", "time": "Closed"}], "id": "3521300000", "name": "USPS COLLECTION BOX - BLUE BOX", "address": {"city": "MOUNTAIN BRK", "state": "AL", "street": "3900 MONTCLAIR RD", "postcode": "35213"}}},
{"geometry": {"type": "Point", "coordinates": [-86.76303237, 33.5056635861]}, "type": "Feature", "properties": {"collection_times": [{"days": "Mon-Fri", "time": "5:00pm"}, {"days": "Sat", "time": "2:15pm"}, {"days": "Sun", "time": "Closed"}], "id": "3521300001", "name": "USPS COLLECTION BOX - BLUE BOX", "address": {"city": "MOUNTAIN BRK", "state": "AL", "street": "3900 MONTCLAIR RD", "postcode": "35213"}}},
{"geometry": {"type": "Point", "coordinates": [-86.7475493741, 33.5065222815]}, "type": "Feature", "properties": {"collection_times": [{"days": "Mon-Fri", "time": "5:00pm"}, {"days": "Sat", "time": "2:15pm"}, {"days": "Sun", "time": "Closed"}], "id": "3521300002", "name": "USPS COLLECTION BOX - EXPRESS", "address": {"city": "MOUNTAIN BRK", "state": "AL", "street": "3900 MONTCLAIR RD", "postcode": "35213"}}},
{"geometry": {"type": "Point", "coordinates": [-86.7573993746, 33.5086637216]}, "type": "Feature", "properties": {"collection_times": [{"days": "Mon-Fri", "time": "1:30pm"}, {"days": "Sat-Sun", "time": "Closed"}], "id": "3521300004", "name": "USPS COLLECTION BOX - BLUE BOX", "address": {"city": "MOUNTAIN BRK", "state": "AL", "street": "3940 MONTCLAIR RD", "postcode": "35213"}}},
{"geometry": {"type": "Point", "coordinates": [-86.7551021989, 33.5018081844]}, "type": "Feature", "properties": {"collection_times": [{"days": "Mon-Fri", "time": "10:30am"}, {"days": "Sat-Sun", "time": "Closed"}], "id": "3521300005", "name": "USPS COLLECTION BOX - BLUE BOX", "address": {"city": "MOUNTAIN BRK", "state": "AL", "street": "49 CHURCH ST", "postcode": "35213"}}},
{"geometry": {"type": "Point", "coordinates": [-86.7551021989, 33.5018081844]}, "type": "Feature", "properties": {"collection_times": [{"days": "Mon-Fri", "time": "10:30am"}, {"days": "Sat-Sun", "time": "Closed"}], "id": "3521300006", "name": "USPS COLLECTION BOX - BLUE BOX", "address": {"city": "MOUNTAIN BRK", "state": "AL", "street": "49 CHURCH ST", "postcode": "35213"}}},
{"geometry": {"type": "Point", "coordinates": [-86.7461659034, 33.5156995114]}, "type": "Feature", "properties": {"collection_times": [{"days": "Mon-Fri", "time": "1:30pm"}, {"days": "Sat-Sun", "time": "Closed"}], "id": "3521300008", "name": "USPS COLLECTION BOX - BLUE BOX", "address": {"city": "MOUNTAIN BRK", "state": "AL", "street": "840 MONTCLAIR RD", "postcode": "35213"}}},
{"geometry": {"type": "Point", "coordinates": [-86.7461659034, 33.5156995114]}, "type": "Feature", "properties": {"collection_times": [{"days": "Mon-Fri", "time": "1:30pm"}, {"days": "Sat-Sun", "time": "Closed"}], "id": "3521300009", "name": "USPS COLLECTION BOX - BLUE BOX", "address": {"city": "MOUNTAIN BRK", "state": "AL", "street": "840 MONTCLAIR RD", "postcode": "35213"}}},
{"geometry": {"type": "Point", "coordinates": [-86.7433044696, 33.5174909718]}, "type": "Feature", "properties": {"collection_times": [{"days": "Mon-Fri", "time": "1:30pm"}, {"days": "Sat-Sun", "time": "Closed"}], "id": "3521300013", "name": "USPS COLLECTION BOX - BLUE BOX", "address": {"city": "MOUNTAIN BRK", "state": "AL", "street": "924 MONTCLAIR RD", "postcode": "35213"}}},
{"geometry": {"type": "Point", "coordinates": [-86.76303237, 33.5056635861]}, "type": "Feature", "properties": {"collection_times": [{"days": "Mon-Fri", "time": "5:00pm"}, {"days": "Sat", "time": "2:15pm"}, {"days": "Sun", "time": "Closed"}], "id": "3521300019", "name": "USPS COLLECTION BOX - PO LOBBY", "address": {"city": "MOUNTAIN BRK", "state": "AL", "street": "3900 MONTCLAIR RD", "postcode": "35213"}}},
{"geometry": {"type": "Point", "coordinates": [-86.76303237, 33.5056635861]}, "type": "Feature", "properties": {"collection_times": [{"days": "Mon-Fri", "time": "5:00pm"}, {"days": "Sat", "time": "2:15pm"}, {"days": "Sun", "time": "Closed"}], "id": "3521300021", "name": "USPS COLLECTION BOX - PO LOBBY", "address": {"city": "MOUNTAIN BRK", "state": "AL", "street": "3900 MONTCLAIR RD", "postcode": "35213"}}},
{"geometry": {"type": "Point", "coordinates": [-86.8950627874, 33.5640091494]}, "type": "Feature", "properties": {"collection_times": [{"days": "Mon-Fri", "time": "5:00pm"}, {"days": "Sat", "time": "4:15pm"}, {"days": "Sun", "time": "Closed"}], "id": "3521400000", "name": "USPS COLLECTION BOX - BLUE BOX", "address": {"city": "BIRMINGHAM", "state": "AL", "street": "1450 FORESTDALE BLVD", "postcode": "35214"}}},
{"geometry": {"type": "Point", "coordinates": [-86.8950627874, 33.5640091494]}, "type": "Feature", "properties": {"collection_times": [{"days": "Mon-Fri", "time": "5:00pm"}, {"days": "Sat", "time": "4:15pm"}, {"days": "Sun", "time": "Closed"}], "id": "3521400001", "name": "USPS COLLECTION BOX - BLUE BOX", "address": {"city": "BIRMINGHAM", "state": "AL", "street": "1450 FORESTDALE BLVD", "postcode": "35214"}}},
{"geometry": {"type": "Point", "coordinates": [-86.8950627874, 33.5640091494]}, "type": "Feature", "properties": {"collection_times": [{"days": "Mon-Fri", "time": "5:00pm"}, {"days": "Sat", "time": "4:15pm"}, {"days": "Sun", "time": "Closed"}], "id": "3521400018", "name": "USPS COLLECTION BOX - PO LOBBY", "address": {"city": "BIRMINGHAM", "state": "AL", "street": "1450 FORESTDALE BLVD", "postcode": "35214"}}},
{"geometry": {"type": "Point", "coordinates": [-86.6818056463, 33.6457984047]}, "type": "Feature", "properties": {"collection_times": [{"days": "Mon-Fri", "time": "5:00pm"}, {"days": "Sat", "time": "3:30pm"}, {"days": "Sun", "time": "Closed"}], "id": "3521500000", "name": "USPS COLLECTION BOX - BLUE BOX", "address": {"city": "CENTER POINT", "state": "AL", "street": "2365 1ST ST NE", "postcode": "35215"}}},
{"geometry": {"type": "Point", "coordinates": [-86.6818056463, 33.6457984047]}, "type": "Feature", "properties": {"collection_times": [{"days": "Mon-Fri", "time": "5:00pm"}, {"days": "Sat", "time": "3:30pm"}, {"days": "Sun", "time": "Closed"}], "id": "3521500001", "name": "USPS COLLECTION BOX - BLUE BOX", "address": {"city": "CENTER POINT", "state": "AL", "street": "2365 1ST ST NE", "postcode": "35215"}}},
{"geometry": {"type": "Point", "coordinates": [-86.6818056463, 33.6457984047]}, "type": "Feature", "properties": {"collection_times": [{"days": "Mon-Fri", "time": "5:00pm"}, {"days": "Sat", "time": "3:30pm"}, {"days": "Sun", "time": "Closed"}], "id": "3521500002", "name": "USPS COLLECTION BOX - BLUE BOX", "address": {"city": "CENTER POINT", "state": "AL", "street": "2365 1ST ST NE", "postcode": "35215"}}},
{"geometry": {"type": "Point", "coordinates": [-86.6818056463, 33.6457984047]}, "type": "Feature", "properties": {"collection_times": [{"days": "Mon-Fri", "time": "5:00pm"}, {"days": "Sat", "time": "3:30pm"}, {"days": "Sun", "time": "Closed"}], "id": "3521500003", "name": "USPS COLLECTION BOX - BLUE BOX", "address": {"city": "CENTER POINT", "state": "AL", "street": "2365 1ST ST NE", "postcode": "35215"}}},
{"geometry": {"type": "Point", "coordinates": [-86.7038706631, 33.6492321303]}, "type": "Feature", "properties": {"collection_times": [{"days": "Mon-Fri", "time": "1:00pm"}, {"days": "Sat-Sun", "time": "Closed"}], "id": "3521500006", "name": "USPS COLLECTION BOX - BLUE BOX", "address": {"city": "CENTER POINT", "state": "AL", "street": "1100 EAST PARK DR", "postcode": "35215"}}},
{"geometry": {"type": "Point", "coordinates": [-86.7038706631, 33.6492321303]}, "type": "Feature", "properties": {"collection_times": [{"days": "Mon-Fri", "time": "10:00am"}, {"days": "Sat-Sun", "time": "Closed"}], "id": "3521500013", "name": "USPS COLLECTION BOX - BLUE BOX", "address": {"city": "CENTER POINT", "state": "AL", "street": "213 GADSDEN HWY", "postcode": "35215"}}},
{"geometry": {"type": "Point", "coordinates": [-86.6888008848, 33.6084551455]}, "type": "Feature", "properties": {"collection_times": [{"days": "Mon-Fri", "time": "9:45am"}, {"days": "Sat-Sun", "time": "Closed"}], "id": "3521500020", "name": "USPS COLLECTION BOX - BLUE BOX", "address": {"city": "CENTER POINT", "state": "AL", "street": "608 OLD SPRINGVILLE RD", "postcode": "35215"}}},
{"geometry": {"type": "Point", "coordinates": [-86.6888008848, 33.6084551455]}, "type": "Feature", "properties": {"collection_times": [{"days": "Mon-Fri", "time": "9:45am"}, {"days": "Sat-Sun", "time": "Closed"}], "id": "3521500021", "name": "USPS COLLECTION BOX - BLUE BOX", "address": {"city": "CENTER POINT", "state": "AL", "street": "608 OLD SPRINGVILLE RD", "postcode": "35215"}}},
{"geometry": {"type": "Point", "coordinates": [-86.7038706631, 33.6492321303]}, "type": "Feature", "properties": {"collection_times": [{"days": "Mon-Fri", "time": "1:00pm"}, {"days": "Sat-Sun", "time": "Closed"}], "id": "3521500026", "name": "USPS COLLECTION BOX - BLUE BOX", "address": {"city": "CENTER POINT", "state": "AL", "street": "48 MEDICAL PARK DR E", "postcode": "35215"}}},
{"geometry": {"type": "Point", "coordinates": [-86.7038706631, 33.6492321303]}, "type": "Feature", "properties": {"collection_times": [{"days": "Mon-Fri", "time": "1:00pm"}, {"days": "Sat-Sun", "time": "Closed"}], "id": "3521500030", "name": "USPS COLLECTION BOX - BLUE BOX", "address": {"city": "CENTER POINT", "state": "AL", "street": "5980 CHALKVILLE MT RD", "postcode": "35215"}}},
{"geometry": {"type": "Point", "coordinates": [-86.7038706631, 33.6492321303]}, "type": "Feature", "properties": {"collection_times": [{"days": "Mon-Fri", "time": "1:00pm"}, {"days": "Sat-Sun", "time": "Closed"}], "id": "3521500031", "name": "USPS COLLECTION BOX - BLUE BOX", "address": {"city": "CENTER POINT", "state": "AL", "street": "1100 EAST PARK DR", "postcode": "35215"}}},
{"geometry": {"type": "Point", "coordinates": [-86.6818056463, 33.6457984047]}, "type": "Feature", "properties": {"collection_times": [{"days": "Mon-Fri", "time": "5:00pm"}, {"days": "Sat", "time": "3:30pm"}, {"days": "Sun", "time": "Closed"}], "id": "3521500032", "name": "USPS COLLECTION BOX - PO LOBBY", "address": {"city": "CENTER POINT", "state": "AL", "street": "2365 1ST ST NE", "postcode": "35215"}}},
{"geometry": {"type": "Point", "coordinates": [-86.7038706631, 33.6492321303]}, "type": "Feature", "properties": {"collection_times": [{"days": "Mon-Fri", "time": "12:30pm"}, {"days": "Sat-Sun", "time": "Closed"}], "id": "3521500034", "name": "USPS COLLECTION BOX - BLUE BOX", "address": {"city": "CENTER POINT", "state": "AL", "street": "3504 VANN RD", "postcode": "35215"}}},
{"geometry": {"type": "Point", "coordinates": [-86.7038706631, 33.6492321303]}, "type": "Feature", "properties": {"collection_times": [{"days": "Mon-Fri", "time": "1:00pm"}, {"days": "Sat-Sun", "time": "Closed"}], "id": "3521500036", "name": "USPS COLLECTION BOX - BLUE BOX", "address": {"city": "CENTER POINT", "state": "AL", "street": "52 MEDICAL PARK DR E", "postcode": "35215"}}},
{"geometry": {"type": "Point", "coordinates": [-86.7038706631, 33.6492321303]}, "type": "Feature", "properties": {"collection_times": [{"days": "Mon-Fri", "time": "1:00pm"}, {"days": "Sat-Sun", "time": "Closed"}], "id": "3521500037", "name": "USPS COLLECTION BOX - BLUE BOX", "address": {"city": "CENTER POINT", "state": "AL", "street": "52 MEDICAL PARK DR E", "postcode": "35215"}}},
{"geometry": {"type": "Point", "coordinates": [-86.7038706631, 33.6492321303]}, "type": "Feature", "properties": {"collection_times": [{"days": "Mon-Fri", "time": "1:00pm"}, {"days": "Sat-Sun", "time": "Closed"}], "id": "3521500038", "name": "USPS COLLECTION BOX - BLUE BOX", "address": {"city": "CENTER POINT", "state": "AL", "street": "48 MEDICAL PARK DR E", "postcode": "35215"}}},
{"geometry": {"type": "Point", "coordinates": [-86.7909516288, 33.4450820649]}, "type": "Feature", "properties": {"collection_times": [{"days": "Mon-Fri", "time": "5:00pm"}, {"days": "Sat", "time": "2:00pm"}, {"days": "Sun", "time": "Closed"}], "id": "3521600000", "name": "USPS COLLECTION BOX - BLUE BOX", "address": {"city": "VESTAVIA", "state": "AL", "street": "745 MONTGOMERY HWY", "postcode": "35216"}}},
{"geometry": {"type": "Point", "coordinates": [-86.7909516288, 33.4450820649]}, "type": "Feature", "properties": {"collection_times": [{"days": "Mon-Fri", "time": "5:00pm"}, {"days": "Sat", "time": "2:00pm"}, {"days": "Sun", "time": "Closed"}], "id": "3521600001", "name": "USPS COLLECTION BOX - BLUE BOX", "address": {"city": "VESTAVIA", "state": "AL", "street": "745 MONTGOMERY HWY", "postcode": "35216"}}},
{"geometry": {"type": "Point", "coordinates": [-86.7909516288, 33.4450820649]}, "type": "Feature", "properties": {"collection_times": [{"days": "Mon-Fri", "time": "5:00pm"}, {"days": "Sat", "time": "2:00pm"}, {"days": "Sun", "time": "Closed"}], "id": "3521600002", "name": "USPS COLLECTION BOX - BLUE BOX", "address": {"city": "VESTAVIA", "state": "AL", "street": "745 MONTGOMERY HWY", "postcode": "35216"}}},
{"geometry": {"type": "Point", "coordinates": [-86.797124749, 33.4169674]}, "type": "Feature", "properties": {"collection_times": [{"days": "Mon-Fri", "time": "12:00pm"}, {"days": "Sat-Sun", "time": "Closed"}], "id": "3521600008", "name": "USPS COLLECTION BOX - BLUE BOX", "address": {"city": "VESTAVIA", "state": "AL", "street": "100 CENTERVIEW DR", "postcode": "35216"}}},
{"geometry": {"type": "Point", "coordinates": [-86.8067031395, 33.4083886856]}, "type": "Feature", "properties": {"collection_times": [{"days": "Mon-Fri", "time": "9:30am"}, {"days": "Sat-Sun", "time": "Closed"}], "id": "3521600011", "name": "USPS COLLECTION BOX - BLUE BOX", "address": {"city": "VESTAVIA", "state": "AL", "street": "1550 MONTGOMERY HWY", "postcode": "35216"}}},
{"geometry": {"type": "Point", "coordinates": [-86.8067031395, 33.4083886856]}, "type": "Feature", "properties": {"collection_times": [{"days": "Mon-Fri", "time": "9:30am"}, {"days": "Sat-Sun", "time": "Closed"}], "id": "3521600012", "name": "USPS COLLECTION BOX - BLUE BOX", "address": {"city": "VESTAVIA", "state": "AL", "street": "1550 MONTGOMERY HWY", "postcode": "35216"}}},
{"geometry": {"type": "Point", "coordinates": [-86.8063317925, 33.4050109519]}, "type": "Feature", "properties": {"collection_times": [{"days": "Mon-Fri", "time": "9:30am"}, {"days": "Sat-Sun", "time": "Closed"}], "id": "3521600014", "name": "USPS COLLECTION BOX - BLUE BOX", "address": {"city": "VESTAVIA", "state": "AL", "street": "1572 MONTGOMERY HWY", "postcode": "35216"}}},
{"geometry": {"type": "Point", "coordinates": [-86.8064186292, 33.3950855365]}, "type": "Feature", "properties": {"collection_times": [{"days": "Mon-Fri", "time": "2:30pm"}, {"days": "Sat-Sun", "time": "Closed"}], "id": "3521600017", "name": "USPS COLLECTION BOX - BLUE BOX", "address": {"city": "VESTAVIA", "state": "AL", "street": "1634A MONTGOMERY HWY", "postcode": "35216"}}},
{"geometry": {"type": "Point", "coordinates": [-86.7930372367, 33.4149208755]}, "type": "Feature", "properties": {"collection_times": [{"days": "Mon-Fri", "time": "2:30pm"}, {"days": "Sat-Sun", "time": "Closed"}], "id": "3521600018", "name": "USPS COLLECTION BOX - EXPRESS", "address": {"city": "VESTAVIA", "state": "AL", "street": "1634A MONTGOMERY HWY", "postcode": "35216"}}},
{"geometry": {"type": "Point", "coordinates": [-86.8029128348, 33.3967628073]}, "type": "Feature", "properties": {"collection_times": [{"days": "Mon-Fri", "time": "2:30pm"}, {"days": "Sat-Sun", "time": "Closed"}], "id": "3521600023", "name": "USPS COLLECTION BOX - BLUE BOX", "address": {"city": "VESTAVIA", "state": "AL", "street": "210 LORNA SQ", "postcode": "35216"}}},
{"geometry": {"type": "Point", "coordinates": [-86.78996969, 33.4004013352]}, "type": "Feature", "properties": {"collection_times": [{"days": "Mon-Fri", "time": "10:00am"}, {"days": "Sat-Sun", "time": "Closed"}], "id": "3521600025", "name": "USPS COLLECTION BOX - BLUE BOX", "address": {"city": "VESTAVIA", "state": "AL", "street": "2228 ROCKY RIDGE RD", "postcode": "35216"}}},
{"geometry": {"type": "Point", "coordinates": [-86.8071798762, 33.4197210221]}, "type": "Feature", "properties": {"collection_times": [{"days": "Mon-Fri", "time": "10:30am"}, {"days": "Sat-Sun", "time": "Closed"}], "id": "3521600026", "name": "USPS COLLECTION BOX - BLUE BOX", "address": {"city": "VESTAVIA", "state": "AL", "street": "2410 YELLOW HAMMER HL", "postcode": "35216"}}},
{"geometry": {"type": "Point", "coordinates": [-86.7930285463, 33.4149122316]}, "type": "Feature", "properties": {"collection_times": [{"days": "Mon-Fri", "time": "10:30am"}, {"days": "Sat-Sun", "time": "Closed"}], "id": "3521600027", "name": "USPS COLLECTION BOX - BLUE BOX", "address": {"city": "VESTAVIA", "state": "AL", "street": "2870 REGAL CIR", "postcode": "35216"}}},
{"geometry": {"type": "Point", "coordinates": [-86.7999140431, 33.4192192262]}, "type": "Feature", "properties": {"collection_times": [{"days": "Mon-Fri", "time": "11:30am"}, {"days": "Sat-Sun", "time": "Closed"}], "id": "3521600028", "name": "USPS COLLECTION BOX - BLUE BOX", "address": {"city": "VESTAVIA", "state": "AL", "street": "300 VESTAVIA PKWY", "postcode": "35216"}}},
{"geometry": {"type": "Point", "coordinates": [-86.7999140431, 33.4192192262]}, "type": "Feature", "properties": {"collection_times": [{"days": "Mon-Fri", "time": "11:30am"}, {"days": "Sat-Sun", "time": "Closed"}], "id": "3521600029", "name": "USPS COLLECTION BOX - BLUE BOX", "address": {"city": "VESTAVIA", "state": "AL", "street": "300 VESTAVIA PKWY", "postcode": "35216"}}},
{"geometry": {"type": "Point", "coordinates": [-86.8038990967, 33.4014667063]}, "type": "Feature", "properties": {"collection_times": [{"days": "Mon-Fri", "time": "2:30pm"}, {"days": "Sat-Sun", "time": "Closed"}], "id": "3521600030", "name": "USPS COLLECTION BOX - BLUE BOX", "address": {"city": "VESTAVIA", "state": "AL", "street": "3100 LORNA RD", "postcode": "35216"}}},
{"geometry": {"type": "Point", "coordinates": [-86.7978558546, 33.3925658005]}, "type": "Feature", "properties": {"collection_times": [{"days": "Mon-Fri", "time": "10:30am"}, {"days": "Sat-Sun", "time": "Closed"}], "id": "3521600032", "name": "USPS COLLECTION BOX - BLUE BOX", "address": {"city": "VESTAVIA", "state": "AL", "street": "3400 LORNA RD", "postcode": "35216"}}},
{"geometry": {"type": "Point", "coordinates": [-86.7922847362, 33.3921231937]}, "type": "Feature", "properties": {"collection_times": [{"days": "Mon-Fri", "time": "9:30am"}, {"days": "Sat-Sun", "time": "Closed"}], "id": "3521600033", "name": "USPS COLLECTION BOX - BLUE BOX", "address": {"city": "VESTAVIA", "state": "AL", "street": "3600 LORNA RIDGE DR", "postcode": "35216"}}},
{"geometry": {"type": "Point", "coordinates": [-86.7996467328, 33.418996711]}, "type": "Feature", "properties": {"collection_times": [{"days": "Mon-Fri", "time": "11:30am"}, {"days": "Sat-Sun", "time": "Closed"}], "id": "3521600037", "name": "USPS COLLECTION BOX - BLUE BOX", "address": {"city": "VESTAVIA", "state": "AL", "street": "400 VESTAVIA PKWY", "postcode": "35216"}}},
{"geometry": {"type": "Point", "coordinates": [-86.7996467328, 33.418996711]}, "type": "Feature", "properties": {"collection_times": [{"days": "Mon-Fri", "time": "11:30am"}, {"days": "Sat-Sun", "time": "Closed"}], "id": "3521600038", "name": "USPS COLLECTION BOX - BLUE BOX", "address": {"city": "VESTAVIA", "state": "AL", "street": "400 VESTAVIA PKWY", "postcode": "35216"}}},
{"geometry": {"type": "Point", "coordinates": [-86.7991279672, 33.4185772466]}, "type": "Feature", "properties": {"collection_times": [{"days": "Mon-Fri", "time": "11:30am"}, {"days": "Sat-Sun", "time": "Closed"}], "id": "3521600039", "name": "USPS COLLECTION BOX - BLUE BOX", "address": {"city": "VESTAVIA", "state": "AL", "street": "600 VESTAVIA PKWY", "postcode": "35216"}}},
{"geometry": {"type": "Point", "coordinates": [-86.7992179533, 33.4184973663]}, "type": "Feature", "properties": {"collection_times": [{"days": "Mon-Fri", "time": "11:30am"}, {"days": "Sat-Sun", "time": "Closed"}], "id": "3521600040", "name": "USPS COLLECTION BOX - BLUE BOX", "address": {"city": "VESTAVIA", "state": "AL", "street": "601 VESTAVIA PKWY", "postcode": "35216"}}},
{"geometry": {"type": "Point", "coordinates": [-86.7992179533, 33.4184973663]}, "type": "Feature", "properties": {"collection_times": [{"days": "Mon-Fri", "time": "11:30am"}, {"days": "Sat-Sun", "time": "Closed"}], "id": "3521600041", "name": "USPS COLLECTION BOX - BLUE BOX", "address": {"city": "VESTAVIA", "state": "AL", "street": "601 VESTAVIA PKWY", "postcode": "35216"}}},
{"geometry": {"type": "Point", "coordinates": [-86.803235945, 33.4251226492]}, "type": "Feature", "properties": {"collection_times": [{"days": "Mon-Fri", "time": "10:30am"}, {"days": "Sat-Sun", "time": "Closed"}], "id": "3521600042", "name": "USPS COLLECTION BOX - BLUE BOX", "address": {"city": "VESTAVIA", "state": "AL", "street": "2501 MOUNTAIN LODGE CIR", "postcode": "35216"}}},
{"geometry": {"type": "Point", "coordinates": [-86.7863557578, 33.4213936249]}, "type": "Feature", "properties": {"collection_times": [{"days": "Mon-Fri", "time": "11:30am"}, {"days": "Sat-Sun", "time": "Closed"}], "id": "3521600043", "name": "USPS COLLECTION BOX - BLUE BOX", "address": {"city": "VESTAVIA", "state": "AL", "street": "1 PARK SO PLZ SHOPPING CTR", "postcode": "35216"}}},
{"geometry": {"type": "Point", "coordinates": [-86.7903444749, 33.4479622819]}, "type": "Feature", "properties": {"collection_times": [{"days": "Mon-Fri", "time": "10:00am"}, {"days": "Sat-Sun", "time": "Closed"}], "id": "3521600048", "name": "USPS COLLECTION BOX - BLUE BOX", "address": {"city": "VESTAVIA", "state": "AL", "street": "632 MONTGOMERY HWY", "postcode": "35216"}}},
{"geometry": {"type": "Point", "coordinates": [-86.8059016531, 33.38791124]}, "type": "Feature", "properties": {"collection_times": [{"days": "Mon-Fri", "time": "10:00am"}, {"days": "Sat-Sun", "time": "Closed"}], "id": "3521600049", "name": "USPS COLLECTION BOX - BLUE BOX", "address": {"city": "VESTAVIA", "state": "AL", "street": "200 MUNICIPAL DR", "postcode": "35216"}}},
{"geometry": {"type": "Point", "coordinates": [-86.8118983206, 33.4332916067]}, "type": "Feature", "properties": {"collection_times": [{"days": "Mon-Fri", "time": "11:30am"}, {"days": "Sat-Sun", "time": "Closed"}], "id": "3521600052", "name": "USPS COLLECTION BOX - BLUE BOX", "address": {"city": "VESTAVIA", "state": "AL", "street": "2090 COLUMBIANA RD", "postcode": "35216"}}},
{"geometry": {"type": "Point", "coordinates": [-86.8118853087, 33.4323670034]}, "type": "Feature", "properties": {"collection_times": [{"days": "Mon-Fri", "time": "10:00am"}, {"days": "Sat-Sun", "time": "Closed"}], "id": "3521600055", "name": "USPS COLLECTION BOX - BLUE BOX", "address": {"city": "VESTAVIA", "state": "AL", "street": "2100 COLUMBIANA RD", "postcode": "35216"}}},
{"geometry": {"type": "Point", "coordinates": [-86.7991279672, 33.4185772466]}, "type": "Feature", "properties": {"collection_times": [{"days": "Mon-Fri", "time": "11:30am"}, {"days": "Sat-Sun", "time": "Closed"}], "id": "3521600058", "name": "USPS COLLECTION BOX - BLUE BOX", "address": {"city": "VESTAVIA", "state": "AL", "street": "600 VESTAVIA PKWY", "postcode": "35216"}}},
{"geometry": {"type": "Point", "coordinates": [-86.7909516288, 33.4450820649]}, "type": "Feature", "properties": {"collection_times": [{"days": "Mon-Fri", "time": "5:00pm"}, {"days": "Sat", "time": "2:00pm"}, {"days": "Sun", "time": "Closed"}], "id": "3521600062", "name": "USPS COLLECTION BOX - PO LOBBY", "address": {"city": "VESTAVIA", "state": "AL", "street": "745 MONTGOMERY HWY", "postcode": "35216"}}},
{"geometry": {"type": "Point", "coordinates": [-86.773638864, 33.4257329624]}, "type": "Feature", "properties": {"collection_times": [{"days": "Mon-Fri", "time": "12:00pm"}, {"days": "Sat-Sun", "time": "Closed"}], "id": "3521600063", "name": "USPS COLLECTION BOX - BLUE BOX", "address": {"city": "VESTAVIA", "state": "AL", "street": "3354 MORGAN DR", "postcode": "35216"}}},
{"geometry": {"type": "Point", "coordinates": [-86.773638864, 33.4257329624]}, "type": "Feature", "properties": {"collection_times": [{"days": "Mon-Fri", "time": "12:00pm"}, {"days": "Sat-Sun", "time": "Closed"}], "id": "3521600064", "name": "USPS COLLECTION BOX - BLUE BOX", "address": {"city": "VESTAVIA", "state": "AL", "street": "3354 MORGAN DR", "postcode": "35216"}}},
{"geometry": {"type": "Point", "coordinates": [-86.7930372367, 33.4149208755]}, "type": "Feature", "properties": {"collection_times": [{"days": "Mon-Fri", "time": "12:00pm"}, {"days": "Sat-Sun", "time": "Closed"}], "id": "3521600065", "name": "USPS COLLECTION BOX - EXPRESS", "address": {"city": "VESTAVIA", "state": "AL", "street": "3354 MORGAN DR", "postcode": "35216"}}},
{"geometry": {"type": "Point", "coordinates": [-86.7791677213, 33.4618315962]}, "type": "Feature", "properties": {"collection_times": [{"days": "Mon-Fri", "time": "10:00am"}, {"days": "Sat-Sun", "time": "Closed"}], "id": "3521600066", "name": "USPS COLLECTION BOX - BLUE BOX", "address": {"city": "VESTAVIA", "state": "AL", "street": "1770 INDEPENDENCE CT", "postcode": "35216"}}},
{"geometry": {"type": "Point", "coordinates": [-86.7930372367, 33.4149208755]}, "type": "Feature", "properties": {"collection_times": [{"days": "Mon-Fri", "time": "10:00am"}, {"days": "Sat-Sun", "time": "Closed"}], "id": "3521600067", "name": "USPS COLLECTION BOX - EXPRESS", "address": {"city": "VESTAVIA", "state": "AL", "street": "1770 INDEPENDENCE CT", "postcode": "35216"}}},
{"geometry": {"type": "Point", "coordinates": [-86.7713379938, 33.3953050371]}, "type": "Feature", "properties": {"collection_times": [{"days": "Mon-Fri", "time": "10:30am"}, {"days": "Sat-Sun", "time": "Closed"}], "id": "3521600068", "name": "USPS COLLECTION BOX - BLUE BOX", "address": {"city": "VESTAVIA", "state": "AL", "street": "3741 CHESTNUT RIDGE LN", "postcode": "35216"}}},
{"geometry": {"type": "Point", "coordinates": [-86.797124749, 33.4169674]}, "type": "Feature", "properties": {"collection_times": [{"days": "Mon-Fri", "time": "11:30am"}, {"days": "Sat-Sun", "time": "Closed"}], "id": "3521600069", "name": "USPS COLLECTION BOX - BLUE BOX", "address": {"city": "VESTAVIA", "state": "AL", "street": "100 CENTERVIEW DR", "postcode": "35216"}}},
{"geometry": {"type": "Point", "coordinates": [-86.8059510076, 33.3982973912]}, "type": "Feature", "properties": {"collection_times": [{"days": "Mon-Fri", "time": "12:00pm"}, {"days": "Sat-Sun", "time": "Closed"}], "id": "3521600070", "name": "USPS COLLECTION BOX - BLUE BOX", "address": {"city": "VESTAVIA", "state": "AL", "street": "1615 MONTGOMERY HWY", "postcode": "35216"}}},
{"geometry": {"type": "Point", "coordinates": [-86.7701038681, 33.5846872148]}, "type": "Feature", "properties": {"collection_times": [{"days": "Mon-Fri", "time": "5:00pm"}, {"days": "Sat", "time": "4:00pm"}, {"days": "Sun", "time": "Closed"}], "id": "3521700000", "name": "USPS COLLECTION BOX - BLUE BOX", "address": {"city": "BIRMINGHAM", "state": "AL", "street": "1101 ELIZABETH AVE", "postcode": "35217"}}},
{"geometry": {"type": "Point", "coordinates": [-86.7701038681, 33.5846872148]}, "type": "Feature", "properties": {"collection_times": [{"days": "Mon-Fri", "time": "5:00pm"}, {"days": "Sat", "time": "4:00pm"}, {"days": "Sun", "time": "Closed"}], "id": "3521700001", "name": "USPS COLLECTION BOX - BLUE BOX", "address": {"city": "BIRMINGHAM", "state": "AL", "street": "1101 ELIZABETH AVE", "postcode": "35217"}}},
{"geometry": {"type": "Point", "coordinates": [-86.7701038681, 33.5846872148]}, "type": "Feature", "properties": {"collection_times": [{"days": "Mon-Fri", "time": "5:00pm"}, {"days": "Sat", "time": "4:00pm"}, {"days": "Sun", "time": "Closed"}], "id": "3521700011", "name": "USPS COLLECTION BOX - PO LOBBY", "address": {"city": "BIRMINGHAM", "state": "AL", "street": "1101 ELIZABETH AVE", "postcode": "35217"}}},
{"geometry": {"type": "Point", "coordinates": [-86.7701038681, 33.5846872148]}, "type": "Feature", "properties": {"collection_times": [{"days": "Mon-Fri", "time": "5:00pm"}, {"days": "Sat", "time": "4:00pm"}, {"days": "Sun", "time": "Closed"}], "id": "3521700013", "name": "USPS COLLECTION BOX - PO LOBBY", "address": {"city": "BIRMINGHAM", "state": "AL", "street": "1101 ELIZABETH AVE", "postcode": "35217"}}},
{"geometry": {"type": "Point", "coordinates": [-86.8937770411, 33.512705475]}, "type": "Feature", "properties": {"collection_times": [{"days": "Mon-Fri", "time": "5:00pm"}, {"days": "Sat", "time": "4:00pm"}, {"days": "Sun", "time": "Closed"}], "id": "3521800000", "name": "USPS COLLECTION BOX - BLUE BOX", "address": {"city": "BIRMINGHAM", "state": "AL", "street": "700 18TH ST ENSLEY", "postcode": "35218"}}},
{"geometry": {"type": "Point", "coordinates": [-86.8657602458, 33.4835901301]}, "type": "Feature", "properties": {"collection_times": [{"days": "Mon-Fri", "time": "5:00pm"}, {"days": "Sat", "time": "4:00pm"}, {"days": "Sun", "time": "Closed"}], "id": "3521800001", "name": "USPS COLLECTION BOX - BLUE BOX", "address": {"city": "BIRMINGHAM", "state": "AL", "street": "700 18TH ST ENSLEY", "postcode": "35218"}}},
{"geometry": {"type": "Point", "coordinates": [-86.802747959, 33.5044247854]}, "type": "Feature", "properties": {"collection_times": [{"days": "Mon-Fri", "time": "5:00pm"}, {"days": "Sat", "time": "4:00pm"}, {"days": "Sun", "time": "Closed"}], "id": "3521800015", "name": "USPS COLLECTION BOX - PO LOBBY", "address": {"city": "BIRMINGHAM", "state": "AL", "street": "700 18TH ST S", "postcode": "35218"}}},
{"geometry": {"type": "Point", "coordinates": [-86.7811924053, 33.527636439]}, "type": "Feature", "properties": {"collection_times": [{"days": "Mon-Fri", "time": "11:00am"}, {"days": "Sat-Sun", "time": "Closed"}], "id": "3522200001", "name": "USPS COLLECTION BOX - BLUE BOX", "address": {"city": "BIRMINGHAM", "state": "AL", "street": "110 38TH ST N", "postcode": "35222"}}},
{"geometry": {"type": "Point", "coordinates": [-86.7709863338, 33.522703082]}, "type": "Feature", "properties": {"collection_times": [{"days": "Mon-Fri", "time": "11:00am"}, {"days": "Sat-Sun", "time": "Closed"}], "id": "3522200002", "name": "USPS COLLECTION BOX - EXPRESS", "address": {"city": "BIRMINGHAM", "state": "AL", "street": "110 38TH ST N", "postcode": "35222"}}},
{"geometry": {"type": "Point", "coordinates": [-86.7793983139, 33.5185722964]}, "type": "Feature", "properties": {"collection_times": [{"days": "Mon-Fri", "time": "12:00pm"}, {"days": "Sat-Sun", "time": "Closed"}], "id": "3522200011", "name": "USPS COLLECTION BOX - BLUE BOX", "address": {"city": "BIRMINGHAM", "state": "AL", "street": "3601 5TH AVE S", "postcode": "35222"}}},
{"geometry": {"type": "Point", "coordinates": [-86.7793983139, 33.5185722964]}, "type": "Feature", "properties": {"collection_times": [{"days": "Mon-Fri", "time": "12:00pm"}, {"days": "Sat-Sun", "time": "Closed"}], "id": "3522200012", "name": "USPS COLLECTION BOX - BLUE BOX", "address": {"city": "BIRMINGHAM", "state": "AL", "street": "3601 5TH AVE S", "postcode": "35222"}}},
{"geometry": {"type": "Point", "coordinates": [-86.7769610299, 33.5151580056]}, "type": "Feature", "properties": {"collection_times": [{"days": "Mon-Fri", "time": "2:00pm"}, {"days": "Sat-Sun", "time": "Closed"}], "id": "3522200013", "name": "USPS COLLECTION BOX - BLUE BOX", "address": {"city": "BIRMINGHAM", "state": "AL", "street": "3600 8TH AVE S", "postcode": "35222"}}},
{"geometry": {"type": "Point", "coordinates": [-86.7769610299, 33.5151580056]}, "type": "Feature", "properties": {"collection_times": [{"days": "Mon-Fri", "time": "2:00pm"}, {"days": "Sat-Sun", "time": "Closed"}], "id": "3522200014", "name": "USPS COLLECTION BOX - BLUE BOX", "address": {"city": "BIRMINGHAM", "state": "AL", "street": "3600 8TH AVE S", "postcode": "35222"}}},
{"geometry": {"type": "Point", "coordinates": [-86.7655242244, 33.5259122518]}, "type": "Feature", "properties": {"collection_times": [{"days": "Mon-Fri", "time": "10:00am"}, {"days": "Sat-Sun", "time": "Closed"}], "id": "3522200021", "name": "USPS COLLECTION BOX - BLUE BOX", "address": {"city": "BIRMINGHAM", "state": "AL", "street": "4500 5TH AVE S", "postcode": "35222"}}},
{"geometry": {"type": "Point", "coordinates": [-86.7161784933, 33.4804562462]}, "type": "Feature", "properties": {"collection_times": [{"days": "Mon-Fri", "time": "11:30am"}, {"days": "Sat-Sun", "time": "Closed"}], "id": "3522300000", "name": "USPS COLLECTION BOX - BLUE BOX", "address": {"city": "MOUNTAIN BRK", "state": "AL", "street": "3740 RIVER RUN DR", "postcode": "35223"}}},
{"geometry": {"type": "Point", "coordinates": [-86.7713385693, 33.4783332338]}, "type": "Feature", "properties": {"collection_times": [{"days": "Mon-Fri", "time": "11:30am"}, {"days": "Sat-Sun", "time": "Closed"}], "id": "3522300002", "name": "USPS COLLECTION BOX - BLUE BOX", "address": {"city": "MOUNTAIN BRK", "state": "AL", "street": "15 OFFICE PARK CIR", "postcode": "35223"}}},
{"geometry": {"type": "Point", "coordinates": [-86.7739898699, 33.477867007]}, "type": "Feature", "properties": {"collection_times": [{"days": "Mon-Fri", "time": "11:30am"}, {"days": "Sat-Sun", "time": "Closed"}], "id": "3522300003", "name": "USPS COLLECTION BOX - BLUE BOX", "address": {"city": "MOUNTAIN BRK", "state": "AL", "street": "120 OFFICE PARK DR", "postcode": "35223"}}},
{"geometry": {"type": "Point", "coordinates": [-86.7724263334, 33.4785835582]}, "type": "Feature", "properties": {"collection_times": [{"days": "Mon-Fri", "time": "11:30am"}, {"days": "Sat-Sun", "time": "Closed"}], "id": "3522300005", "name": "USPS COLLECTION BOX - BLUE BOX", "address": {"city": "MOUNTAIN BRK", "state": "AL", "street": "2 OFFICE PARK CIR", "postcode": "35223"}}},
{"geometry": {"type": "Point", "coordinates": [-86.7724263334, 33.4785835582]}, "type": "Feature", "properties": {"collection_times": [{"days": "Mon-Fri", "time": "10:00am"}, {"days": "Sat-Sun", "time": "Closed"}], "id": "3522300006", "name": "USPS COLLECTION BOX - BLUE BOX", "address": {"city": "MOUNTAIN BRK", "state": "AL", "street": "2 OFFICE PARK CIR", "postcode": "35223"}}},
{"geometry": {"type": "Point", "coordinates": [-86.7813314554, 33.4959969573]}, "type": "Feature", "properties": {"collection_times": [{"days": "Mon-Fri", "time": "12:00pm"}, {"days": "Sat-Sun", "time": "Closed"}], "id": "3522300008", "name": "USPS COLLECTION BOX - BLUE BOX", "address": {"city": "MOUNTAIN BRK", "state": "AL", "street": "1919 CAHABA RD", "postcode": "35223"}}},
{"geometry": {"type": "Point", "coordinates": [-86.7736956858, 33.4785984477]}, "type": "Feature", "properties": {"collection_times": [{"days": "Mon-Fri", "time": "2:30pm"}, {"days": "Sat-Sun", "time": "Closed"}], "id": "3522300013", "name": "USPS COLLECTION BOX - BLUE BOX", "address": {"city": "MOUNTAIN BRK", "state": "AL", "street": "2700 HIGHWAY 280 S", "postcode": "35223"}}},
{"geometry": {"type": "Point", "coordinates": [-86.7727217307, 33.4820643125]}, "type": "Feature", "properties": {"collection_times": [{"days": "Mon-Fri", "time": "5:00pm"}, {"days": "Sat", "time": "12:00pm"}, {"days": "Sun", "time": "Closed"}], "id": "3522300014", "name": "USPS COLLECTION BOX - BLUE BOX", "address": {"city": "MOUNTAIN BRK", "state": "AL", "street": "2701A CULVER RD", "postcode": "35223"}}},
{"geometry": {"type": "Point", "coordinates": [-86.7727217307, 33.4820643125]}, "type": "Feature", "properties": {"collection_times": [{"days": "Mon-Fri", "time": "5:00pm"}, {"days": "Sat", "time": "12:00pm"}, {"days": "Sun", "time": "Closed"}], "id": "3522300015", "name": "USPS COLLECTION BOX - BLUE BOX", "address": {"city": "MOUNTAIN BRK", "state": "AL", "street": "2701A CULVER RD", "postcode": "35223"}}},
{"geometry": {"type": "Point", "coordinates": [-86.7541798525, 33.485561975]}, "type": "Feature", "properties": {"collection_times": [{"days": "Mon-Fri", "time": "5:00pm"}, {"days": "Sat", "time": "12:00pm"}, {"days": "Sun", "time": "Closed"}], "id": "3522300016", "name": "USPS COLLECTION BOX - EXPRESS", "address": {"city": "MOUNTAIN BRK", "state": "AL", "street": "2701A CULVER RD", "postcode": "35223"}}},
{"geometry": {"type": "Point", "coordinates": [-86.7734424629, 33.4828820003]}, "type": "Feature", "properties": {"collection_times": [{"days": "Mon-Fri", "time": "11:30am"}, {"days": "Sat-Sun", "time": "Closed"}], "id": "3522300019", "name": "USPS COLLECTION BOX - BLUE BOX", "address": {"city": "MOUNTAIN BRK", "state": "AL", "street": "2805 CAHABA RD", "postcode": "35223"}}},
{"geometry": {"type": "Point", "coordinates": [-86.7731616175, 33.4808959209]}, "type": "Feature", "properties": {"collection_times": [{"days": "Mon-Fri", "time": "11:30am"}, {"days": "Sat-Sun", "time": "Closed"}], "id": "3522300020", "name": "USPS COLLECTION BOX - BLUE BOX", "address": {"city": "MOUNTAIN BRK", "state": "AL", "street": "2840 CULVER RD", "postcode": "35223"}}},
{"geometry": {"type": "Point", "coordinates": [-86.7722062861, 33.4784906473]}, "type": "Feature", "properties": {"collection_times": [{"days": "Mon-Fri", "time": "10:00am"}, {"days": "Sat-Sun", "time": "Closed"}], "id": "3522300023", "name": "USPS COLLECTION BOX - BLUE BOX", "address": {"city": "MOUNTAIN BRK", "state": "AL", "street": "3 OFFICE PARK CIR", "postcode": "35223"}}},
{"geometry": {"type": "Point", "coordinates": [-86.7722062861, 33.4784906473]}, "type": "Feature", "properties": {"collection_times": [{"days": "Mon-Fri", "time": "11:45am"}, {"days": "Sat-Sun", "time": "Closed"}], "id": "3522300024", "name": "USPS COLLECTION BOX - BLUE BOX", "address": {"city": "MOUNTAIN BRK", "state": "AL", "street": "3 OFFICE PARK CIR", "postcode": "35223"}}},
{"geometry": {"type": "Point", "coordinates": [-86.7637074641, 33.4741464309]}, "type": "Feature", "properties": {"collection_times": [{"days": "Mon-Fri", "time": "2:30pm"}, {"days": "Sat-Sun", "time": "Closed"}], "id": "3522300026", "name": "USPS COLLECTION BOX - BLUE BOX", "address": {"city": "MOUNTAIN BRK", "state": "AL", "street": "3300 CAHABA RD", "postcode": "35223"}}},
{"geometry": {"type": "Point", "coordinates": [-86.7637074641, 33.4741464309]}, "type": "Feature", "properties": {"collection_times": [{"days": "Mon-Fri", "time": "2:30pm"}, {"days": "Sat-Sun", "time": "Closed"}], "id": "3522300027", "name": "USPS COLLECTION BOX - BLUE BOX", "address": {"city": "MOUNTAIN BRK", "state": "AL", "street": "3300 CAHABA RD", "postcode": "35223"}}},
{"geometry": {"type": "Point", "coordinates": [-86.7712656341, 33.4782420127]}, "type": "Feature", "properties": {"collection_times": [{"days": "Mon-Fri", "time": "11:30am"}, {"days": "Sat-Sun", "time": "Closed"}], "id": "3522300028", "name": "USPS COLLECTION BOX - BLUE BOX", "address": {"city": "MOUNTAIN BRK", "state": "AL", "street": "14 OFFICE PARK CIR", "postcode": "35223"}}},
{"geometry": {"type": "Point", "coordinates": [-86.7778689951, 33.4765344682]}, "type": "Feature", "properties": {"collection_times": [{"days": "Mon-Fri", "time": "11:30am"}, {"days": "Sat-Sun", "time": "Closed"}], "id": "3522300029", "name": "USPS COLLECTION BOX - BLUE BOX", "address": {"city": "MOUNTAIN BRK", "state": "AL", "street": "402 OFFICE PARK DR", "postcode": "35223"}}},
{"geometry": {"type": "Point", "coordinates": [-86.7778689951, 33.4765344682]}, "type": "Feature", "properties": {"collection_times": [{"days": "Mon-Fri", "time": "11:30am"}, {"days": "Sat-Sun", "time": "Closed"}], "id": "3522300030", "name": "USPS COLLECTION BOX - BLUE BOX", "address": {"city": "MOUNTAIN BRK", "state": "AL", "street": "402 OFFICE PARK DR", "postcode": "35223"}}},
{"geometry": {"type": "Point", "coordinates": [-86.7693559248, 33.4739807609]}, "type": "Feature", "properties": {"collection_times": [{"days": "Mon-Fri", "time": "1:30pm"}, {"days": "Sat-Sun", "time": "Closed"}], "id": "3522300033", "name": "USPS COLLECTION BOX - BLUE BOX", "address": {"city": "MOUNTAIN BRK", "state": "AL", "street": "600 LUCKIE DR", "postcode": "35223"}}},
{"geometry": {"type": "Point", "coordinates": [-86.7693559248, 33.4739807609]}, "type": "Feature", "properties": {"collection_times": [{"days": "Mon-Fri", "time": "1:30pm"}, {"days": "Sat-Sun", "time": "Closed"}], "id": "3522300034", "name": "USPS COLLECTION BOX - BLUE BOX", "address": {"city": "MOUNTAIN BRK", "state": "AL", "street": "600 LUCKIE DR", "postcode": "35223"}}},
{"geometry": {"type": "Point", "coordinates": [-86.7717943392, 33.4782088448]}, "type": "Feature", "properties": {"collection_times": [{"days": "Mon-Fri", "time": "12:30pm"}, {"days": "Sat-Sun", "time": "Closed"}], "id": "3522300035", "name": "USPS COLLECTION BOX - BLUE BOX", "address": {"city": "MOUNTAIN BRK", "state": "AL", "street": "9 OFFICE PARK CIR", "postcode": "35223"}}},
{"geometry": {"type": "Point", "coordinates": [-86.7717943392, 33.4782088448]}, "type": "Feature", "properties": {"collection_times": [{"days": "Mon-Fri", "time": "12:30pm"}, {"days": "Sat-Sun", "time": "Closed"}], "id": "3522300036", "name": "USPS COLLECTION BOX - BLUE BOX", "address": {"city": "MOUNTAIN BRK", "state": "AL", "street": "9 OFFICE PARK CIR", "postcode": "35223"}}},
{"geometry": {"type": "Point", "coordinates": [-86.7541798525, 33.485561975]}, "type": "Feature", "properties": {"collection_times": [{"days": "Mon-Fri", "time": "12:30pm"}, {"days": "Sat-Sun", "time": "Closed"}], "id": "3522300037", "name": "USPS COLLECTION BOX - EXPRESS", "address": {"city": "MOUNTAIN BRK", "state": "AL", "street": "9 OFFICE PARK CIR", "postcode": "35223"}}},
{"geometry": {"type": "Point", "coordinates": [-86.7742683408, 33.4901743519]}, "type": "Feature", "properties": {"collection_times": [{"days": "Mon-Fri", "time": "11:00am"}, {"days": "Sat-Sun", "time": "Closed"}], "id": "3522300038", "name": "USPS COLLECTION BOX - BLUE BOX", "address": {"city": "MOUNTAIN BRK", "state": "AL", "street": "2531 LANE PARK RD", "postcode": "35223"}}},
{"geometry": {"type": "Point", "coordinates": [-86.7727217307, 33.4820643125]}, "type": "Feature", "properties": {"collection_times": [{"days": "Mon-Fri", "time": "5:00pm"}, {"days": "Sat", "time": "12:00pm"}, {"days": "Sun", "time": "Closed"}], "id": "3522300042", "name": "USPS COLLECTION BOX - PO LOBBY", "address": {"city": "MOUNTAIN BRK", "state": "AL", "street": "2701A CULVER RD", "postcode": "35223"}}},
{"geometry": {"type": "Point", "coordinates": [-86.7712656341, 33.4782420127]}, "type": "Feature", "properties": {"collection_times": [{"days": "Mon-Fri", "time": "11:30am"}, {"days": "Sat-Sun", "time": "Closed"}], "id": "3522300046", "name": "USPS COLLECTION BOX - BLUE BOX", "address": {"city": "MOUNTAIN BRK", "state": "AL", "street": "14 OFFICE PARK CIR", "postcode": "35223"}}},
{"geometry": {"type": "Point", "coordinates": [-86.7727217307, 33.4820643125]}, "type": "Feature", "properties": {"collection_times": [{"days": "Mon-Fri", "time": "5:00pm"}, {"days": "Sat", "time": "12:00pm"}, {"days": "Sun", "time": "Closed"}], "id": "3522300047", "name": "USPS COLLECTION BOX - PO LOBBY", "address": {"city": "MOUNTAIN BRK", "state": "AL", "street": "2701A CULVER RD", "postcode": "35223"}}},
{"geometry": {"type": "Point", "coordinates": [-86.7768940556, 33.4844548503]}, "type": "Feature", "properties": {"collection_times": [{"days": "Mon-Fri", "time": "10:00am"}, {"days": "Sat-Sun", "time": "Closed"}], "id": "3522300048", "name": "USPS COLLECTION BOX - BLUE BOX", "address": {"city": "MOUNTAIN BRK", "state": "AL", "street": "2501 20TH PL S", "postcode": "35223"}}},
{"geometry": {"type": "Point", "coordinates": [-86.7768940556, 33.4844548503]}, "type": "Feature", "properties": {"collection_times": [{"days": "Mon-Fri", "time": "9:00am"}, {"days": "Sat-Sun", "time": "Closed"}], "id": "3522300049", "name": "USPS COLLECTION BOX - BLUE BOX", "address": {"city": "MOUNTAIN BRK", "state": "AL", "street": "2501 20TH PL S", "postcode": "35223"}}},
{"geometry": {"type": "Point", "coordinates": [-86.7714497606, 33.4765228972]}, "type": "Feature", "properties": {"collection_times": [{"days": "Mon-Fri", "time": "10:00am"}, {"days": "Sat-Sun", "time": "Closed"}], "id": "3522300054", "name": "USPS COLLECTION BOX - BLUE BOX", "address": {"city": "MOUNTAIN BRK", "state": "AL", "street": "2801 HIGHWAY 280 S", "postcode": "35223"}}},
{"geometry": {"type": "Point", "coordinates": [-86.84466, 33.4141]}, "type": "Feature", "properties": {"collection_times": [{"days": "Mon-Fri", "time": "5:00pm"}, {"days": "Sat", "time": "1:00pm"}, {"days": "Sun", "time": "Closed"}], "id": "3522600001", "name": "USPS COLLECTION BOX - BLUE BOX", "address": {"city": "BIRMINGHAM", "state": "AL", "street": "762 SHADES MOUNTAIN PLZ", "postcode": "35226"}}},
{"geometry": {"type": "Point", "coordinates": [-86.84466, 33.4141]}, "type": "Feature", "properties": {"collection_times": [{"days": "Mon-Fri", "time": "5:00pm"}, {"days": "Sat", "time": "1:00pm"}, {"days": "Sun", "time": "Closed"}], "id": "3522600002", "name": "USPS COLLECTION BOX - EXPRESS", "address": {"city": "BIRMINGHAM", "state": "AL", "street": "762 SHADES MOUNTAIN PLZ", "postcode": "35226"}}},
{"geometry": {"type": "Point", "coordinates": [-86.8091307916, 33.4157092273]}, "type": "Feature", "properties": {"collection_times": [{"days": "Mon-Fri", "time": "2:30pm"}, {"days": "Sat-Sun", "time": "Closed"}], "id": "3522600004", "name": "USPS COLLECTION BOX - BLUE BOX", "address": {"city": "BIRMINGHAM", "state": "AL", "street": "200 CENTURY PARK S", "postcode": "35226"}}},
{"geometry": {"type": "Point", "coordinates": [-86.8091307916, 33.4157092273]}, "type": "Feature", "properties": {"collection_times": [{"days": "Mon-Fri", "time": "2:30pm"}, {"days": "Sat-Sun", "time": "Closed"}], "id": "3522600005", "name": "USPS COLLECTION BOX - BLUE BOX", "address": {"city": "BIRMINGHAM", "state": "AL", "street": "200 CENTURY PARK S", "postcode": "35226"}}},
{"geometry": {"type": "Point", "coordinates": [-86.8091307916, 33.4157092273]}, "type": "Feature", "properties": {"collection_times": [{"days": "Mon-Fri", "time": "2:30pm"}, {"days": "Sat-Sun", "time": "Closed"}], "id": "3522600006", "name": "USPS COLLECTION BOX - BLUE BOX", "address": {"city": "BIRMINGHAM", "state": "AL", "street": "200 CENTURY PARK S", "postcode": "35226"}}},
{"geometry": {"type": "Point", "coordinates": [-86.8362656964, 33.4021204893]}, "type": "Feature", "properties": {"collection_times": [{"days": "Mon-Fri", "time": "2:30pm"}, {"days": "Sat-Sun", "time": "Closed"}], "id": "3522600007", "name": "USPS COLLECTION BOX - EXPRESS", "address": {"city": "BIRMINGHAM", "state": "AL", "street": "200 CENTURY PARK S", "postcode": "35226"}}},
{"geometry": {"type": "Point", "coordinates": [-86.84466, 33.4141]}, "type": "Feature", "properties": {"collection_times": [{"days": "Mon-Fri", "time": "5:00pm"}, {"days": "Sat", "time": "1:00pm"}, {"days": "Sun", "time": "Closed"}], "id": "3522600012", "name": "USPS COLLECTION BOX - PO LOBBY", "address": {"city": "BIRMINGHAM", "state": "AL", "street": "762 SHADES MOUNTAIN PLZ", "postcode": "35226"}}},
{"geometry": {"type": "Point", "coordinates": [-86.8464380414, 33.4133845962]}, "type": "Feature", "properties": {"collection_times": [{"days": "Mon-Fri", "time": "5:00pm"}, {"days": "Sat", "time": "1:00pm"}, {"days": "Sun", "time": "Closed"}], "id": "3522600014", "name": "USPS COLLECTION BOX - BLUE BOX", "address": {"city": "BIRMINGHAM", "state": "AL", "street": "762 SHADES MOUNTAIN PLZ", "postcode": "35226"}}},
{"geometry": {"type": "Point", "coordinates": [-86.9252985242, 33.4489367161]}, "type": "Feature", "properties": {"collection_times": [{"days": "Mon-Fri", "time": "5:00pm"}, {"days": "Sat", "time": "2:00pm"}, {"days": "Sun", "time": "Closed"}], "id": "3522800000", "name": "USPS COLLECTION BOX - BLUE BOX", "address": {"city": "BIRMINGHAM", "state": "AL", "street": "880 WILKES RD", "postcode": "35228"}}},
{"geometry": {"type": "Point", "coordinates": [-86.9252985242, 33.4489367161]}, "type": "Feature", "properties": {"collection_times": [{"days": "Mon-Fri", "time": "5:00pm"}, {"days": "Sat", "time": "2:00pm"}, {"days": "Sun", "time": "Closed"}], "id": "3522800001", "name": "USPS COLLECTION BOX - BLUE BOX", "address": {"city": "BIRMINGHAM", "state": "AL", "street": "880 WILKES RD", "postcode": "35228"}}},
{"geometry": {"type": "Point", "coordinates": [-86.9252985242, 33.4489367161]}, "type": "Feature", "properties": {"collection_times": [{"days": "Mon-Fri", "time": "5:00pm"}, {"days": "Sat", "time": "2:00pm"}, {"days": "Sun", "time": "Closed"}], "id": "3522800014", "name": "USPS COLLECTION BOX - PO LOBBY", "address": {"city": "BIRMINGHAM", "state": "AL", "street": "880 WILKES RD", "postcode": "35228"}}},
{"geometry": {"type": "Point", "coordinates": [-86.8011643181, 33.5105853736]}, "type": "Feature", "properties": {"collection_times": [{"days": "Mon-Fri", "time": "3:00pm"}, {"days": "Sat-Sun", "time": "Closed"}], "id": "3523300000", "name": "USPS COLLECTION BOX - BLUE BOX", "address": {"city": "BIRMINGHAM", "state": "AL", "street": "301 21ST ST S", "postcode": "35233"}}},
{"geometry": {"type": "Point", "coordinates": [-86.7950460117, 33.5093928672]}, "type": "Feature", "properties": {"collection_times": [{"days": "Mon-Fri", "time": "12:00pm"}, {"days": "Sat-Sun", "time": "Closed"}], "id": "3523300009", "name": "USPS COLLECTION BOX - BLUE BOX", "address": {"city": "BIRMINGHAM", "state": "AL", "street": "600 24TH ST S", "postcode": "35233"}}},
{"geometry": {"type": "Point", "coordinates": [-86.7941126638, 33.5086265998]}, "type": "Feature", "properties": {"collection_times": [{"days": "Mon-Fri", "time": "3:00pm"}, {"days": "Sat-Sun", "time": "Closed"}], "id": "3523300010", "name": "USPS COLLECTION BOX - BLUE BOX", "address": {"city": "BIRMINGHAM", "state": "AL", "street": "2400 7TH AVE S", "postcode": "35233"}}},
{"geometry": {"type": "Point", "coordinates": [-86.7941126638, 33.5086265998]}, "type": "Feature", "properties": {"collection_times": [{"days": "Mon-Fri", "time": "3:00pm"}, {"days": "Sat-Sun", "time": "Closed"}], "id": "3523300011", "name": "USPS COLLECTION BOX - BLUE BOX", "address": {"city": "BIRMINGHAM", "state": "AL", "street": "2400 7TH AVE S", "postcode": "35233"}}},
{"geometry": {"type": "Point", "coordinates": [-86.7922425101, 33.5137657766]}, "type": "Feature", "properties": {"collection_times": [{"days": "Mon-Fri", "time": "3:00pm"}, {"days": "Sat-Sun", "time": "Closed"}], "id": "3523300013", "name": "USPS COLLECTION BOX - BLUE BOX", "address": {"city": "BIRMINGHAM", "state": "AL", "street": "2700 4TH AVE S", "postcode": "35233"}}},
{"geometry": {"type": "Point", "coordinates": [-86.7910078461, 33.5115072893]}, "type": "Feature", "properties": {"collection_times": [{"days": "Mon-Fri", "time": "3:00pm"}, {"days": "Sat-Sun", "time": "Closed"}], "id": "3523300014", "name": "USPS COLLECTION BOX - BLUE BOX", "address": {"city": "BIRMINGHAM", "state": "AL", "street": "602 27TH ST S", "postcode": "35233"}}},
{"geometry": {"type": "Point", "coordinates": [-86.7921797734, 33.5161620732]}, "type": "Feature", "properties": {"collection_times": [{"days": "Mon-Fri", "time": "3:00pm"}, {"days": "Sat-Sun", "time": "Closed"}], "id": "3523300015", "name": "USPS COLLECTION BOX - BLUE BOX", "address": {"city": "BIRMINGHAM", "state": "AL", "street": "2800 2ND AVE S", "postcode": "35233"}}},
{"geometry": {"type": "Point", "coordinates": [-86.8060272051, 33.5013601281]}, "type": "Feature", "properties": {"collection_times": [{"days": "Mon-Fri", "time": "3:00pm"}, {"days": "Sat-Sun", "time": "Closed"}], "id": "3523300016", "name": "USPS COLLECTION BOX - BLUE BOX", "address": {"city": "BIRMINGHAM", "state": "AL", "street": "2800 8TH AVE S", "postcode": "35233"}}},
{"geometry": {"type": "Point", "coordinates": [-86.7881870272, 33.5113630651]}, "type": "Feature", "properties": {"collection_times": [{"days": "Mon-Fri", "time": "3:00pm"}, {"days": "Sat-Sun", "time": "Closed"}], "id": "3523300018", "name": "USPS COLLECTION BOX - BLUE BOX", "address": {"city": "BIRMINGHAM", "state": "AL", "street": "2839 7TH AVE S", "postcode": "35233"}}},
{"geometry": {"type": "Point", "coordinates": [-86.7855464333, 33.5127010233]}, "type": "Feature", "properties": {"collection_times": [{"days": "Mon-Fri", "time": "10:00am"}, {"days": "Sat-Sun", "time": "Closed"}], "id": "3523300019", "name": "USPS COLLECTION BOX - BLUE BOX", "address": {"city": "BIRMINGHAM", "state": "AL", "street": "3028 7TH AVE S", "postcode": "35233"}}},
{"geometry": {"type": "Point", "coordinates": [-86.8004306664, 33.5067542329]}, "type": "Feature", "properties": {"collection_times": [{"days": "Mon-Fri", "time": "11:00am"}, {"days": "Sat-Sun", "time": "Closed"}], "id": "3523300021", "name": "USPS COLLECTION BOX - BLUE BOX", "address": {"city": "BIRMINGHAM", "state": "AL", "street": "620 20TH ST S", "postcode": "35233"}}},
{"geometry": {"type": "Point", "coordinates": [-86.7995836975, 33.5055165904]}, "type": "Feature", "properties": {"collection_times": [{"days": "Mon-Fri", "time": "3:00pm"}, {"days": "Sat-Sun", "time": "Closed"}], "id": "3523300024", "name": "USPS COLLECTION BOX - BLUE BOX", "address": {"city": "BIRMINGHAM", "state": "AL", "street": "701 20TH ST S", "postcode": "35233"}}},
{"geometry": {"type": "Point", "coordinates": [-86.7995836975, 33.5055165904]}, "type": "Feature", "properties": {"collection_times": [{"days": "Mon-Fri", "time": "3:00pm"}, {"days": "Sat-Sun", "time": "Closed"}], "id": "3523300025", "name": "USPS COLLECTION BOX - BLUE BOX", "address": {"city": "BIRMINGHAM", "state": "AL", "street": "701 20TH ST S", "postcode": "35233"}}},
{"geometry": {"type": "Point", "coordinates": [-86.7995836975, 33.5055165904]}, "type": "Feature", "properties": {"collection_times": [{"days": "Mon-Fri", "time": "3:00pm"}, {"days": "Sat-Sun", "time": "Closed"}], "id": "3523300026", "name": "USPS COLLECTION BOX - EXPRESS", "address": {"city": "BIRMINGHAM", "state": "AL", "street": "701 20TH ST S", "postcode": "35233"}}},
{"geometry": {"type": "Point", "coordinates": [-86.8086164207, 33.5059233286]}, "type": "Feature", "properties": {"collection_times": [{"days": "Mon-Fri", "time": "11:00am"}, {"days": "Sat-Sun", "time": "Closed"}], "id": "3523300035", "name": "USPS COLLECTION BOX - BLUE BOX", "address": {"city": "BIRMINGHAM", "state": "AL", "street": "1507 4TH AVE S", "postcode": "35233"}}},
{"geometry": {"type": "Point", "coordinates": [-86.8075286808, 33.5036948329]}, "type": "Feature", "properties": {"collection_times": [{"days": "Mon-Fri", "time": "3:00pm"}, {"days": "Sat-Sun", "time": "Closed"}], "id": "3523300037", "name": "USPS COLLECTION BOX - BLUE BOX", "address": {"city": "BIRMINGHAM", "state": "AL", "street": "1515 6TH AVE S", "postcode": "35233"}}},
{"geometry": {"type": "Point", "coordinates": [-86.8082164391, 33.5049549728]}, "type": "Feature", "properties": {"collection_times": [{"days": "Mon-Fri", "time": "3:00pm"}, {"days": "Sat-Sun", "time": "Closed"}], "id": "3523300038", "name": "USPS COLLECTION BOX - BLUE BOX", "address": {"city": "BIRMINGHAM", "state": "AL", "street": "1518 5TH AVE S", "postcode": "35233"}}},
{"geometry": {"type": "Point", "coordinates": [-86.8048221945, 33.5035258358]}, "type": "Feature", "properties": {"collection_times": [{"days": "Mon-Fri", "time": "3:00pm"}, {"days": "Sat-Sun", "time": "Closed"}], "id": "3523300040", "name": "USPS COLLECTION BOX - BLUE BOX", "address": {"city": "BIRMINGHAM", "state": "AL", "street": "1600 7TH AVE S", "postcode": "35233"}}},
{"geometry": {"type": "Point", "coordinates": [-86.8059777091, 33.5107848235]}, "type": "Feature", "properties": {"collection_times": [{"days": "Mon-Fri", "time": "3:00pm"}, {"days": "Sat-Sun", "time": "Closed"}], "id": "3523300043", "name": "USPS COLLECTION BOX - BLUE BOX", "address": {"city": "BIRMINGHAM", "state": "AL", "street": "1801 1ST AVE S", "postcode": "35233"}}},
{"geometry": {"type": "Point", "coordinates": [-86.8063164801, 33.5097834904]}, "type": "Feature", "properties": {"collection_times": [{"days": "Mon-Fri", "time": "3:00pm"}, {"days": "Sat-Sun", "time": "Closed"}], "id": "3523300044", "name": "USPS COLLECTION BOX - BLUE BOX", "address": {"city": "BIRMINGHAM", "state": "AL", "street": "120 18TH ST S", "postcode": "35233"}}},
{"geometry": {"type": "Point", "coordinates": [-86.8026330585, 33.5044122059]}, "type": "Feature", "properties": {"collection_times": [{"days": "Mon-Fri", "time": "3:00pm"}, {"days": "Sat-Sun", "time": "Closed"}], "id": "3523300045", "name": "USPS COLLECTION BOX - BLUE BOX", "address": {"city": "BIRMINGHAM", "state": "AL", "street": "700 18TH ST S", "postcode": "35233"}}},
{"geometry": {"type": "Point", "coordinates": [-86.8036326729, 33.5040807185]}, "type": "Feature", "properties": {"collection_times": [{"days": "Mon-Fri", "time": "3:00pm"}, {"days": "Sat-Sun", "time": "Closed"}], "id": "3523300046", "name": "USPS COLLECTION BOX - BLUE BOX", "address": {"city": "BIRMINGHAM", "state": "AL", "street": "1720 7TH AVE S", "postcode": "35233"}}},
{"geometry": {"type": "Point", "coordinates": [-86.8041766926, 33.5122228709]}, "type": "Feature", "properties": {"collection_times": [{"days": "Mon-Fri", "time": "3:00pm"}, {"days": "Sat-Sun", "time": "Closed"}], "id": "3523300052", "name": "USPS COLLECTION BOX - BLUE BOX", "address": {"city": "BIRMINGHAM", "state": "AL", "street": "20 20TH ST S", "postcode": "35233"}}},
{"geometry": {"type": "Point", "coordinates": [-86.8025317876, 33.5100346306]}, "type": "Feature", "properties": {"collection_times": [{"days": "Mon-Fri", "time": "3:00pm"}, {"days": "Sat-Sun", "time": "Closed"}], "id": "3523300058", "name": "USPS COLLECTION BOX - BLUE BOX", "address": {"city": "BIRMINGHAM", "state": "AL", "street": "2003 3RD AVE S", "postcode": "35233"}}},
{"geometry": {"type": "Point", "coordinates": [-86.8036326729, 33.5040807185]}, "type": "Feature", "properties": {"collection_times": [{"days": "Mon-Fri", "time": "3:00pm"}, {"days": "Sat-Sun", "time": "Closed"}], "id": "3523300062", "name": "USPS COLLECTION BOX - EXPRESS", "address": {"city": "BIRMINGHAM", "state": "AL", "street": "1720 7TH AVE S", "postcode": "35233"}}},
{"geometry": {"type": "Point", "coordinates": [-86.8026330585, 33.5044122059]}, "type": "Feature", "properties": {"collection_times": [{"days": "Mon-Fri", "time": "3:00pm"}, {"days": "Sat-Sun", "time": "Closed"}], "id": "3523300063", "name": "USPS COLLECTION BOX - BLUE BOX", "address": {"city": "BIRMINGHAM", "state": "AL", "street": "700 18TH ST S", "postcode": "35233"}}},
{"geometry": {"type": "Point", "coordinates": [-86.7999524277, 33.5073855921]}, "type": "Feature", "properties": {"collection_times": [{"days": "Mon-Fri", "time": "10:00am"}, {"days": "Sat-Sun", "time": "Closed"}], "id": "3523300065", "name": "USPS COLLECTION BOX - BLUE BOX", "address": {"city": "BIRMINGHAM", "state": "AL", "street": "2000 6TH AVE S", "postcode": "35233"}}},
{"geometry": {"type": "Point", "coordinates": [-86.8123288063, 33.5278959915]}, "type": "Feature", "properties": {"collection_times": [{"days": "Mon-Fri", "time": "10:00am"}, {"days": "Sat-Sun", "time": "Closed"}], "id": "3523400004", "name": "USPS COLLECTION BOX - BLUE BOX", "address": {"city": "BIRMINGHAM", "state": "AL", "street": "2131 12TH AVE N", "postcode": "35234"}}},
{"geometry": {"type": "Point", "coordinates": [-86.8049346376, 33.5407089019]}, "type": "Feature", "properties": {"collection_times": [{"days": "Mon-Fri", "time": "12:00pm"}, {"days": "Sat-Sun", "time": "Closed"}], "id": "3523400008", "name": "USPS COLLECTION BOX - BLUE BOX", "address": {"city": "BIRMINGHAM", "state": "AL", "street": "3001 NORWOOD BLVD", "postcode": "35234"}}},
{"geometry": {"type": "Point", "coordinates": [-86.8004377112, 33.5335594489]}, "type": "Feature", "properties": {"collection_times": [{"days": "Mon-Fri", "time": "9:30am"}, {"days": "Sat-Sun", "time": "Closed"}], "id": "3523400011", "name": "USPS COLLECTION BOX - BLUE BOX", "address": {"city": "BIRMINGHAM", "state": "AL", "street": "3001 12TH AVE N", "postcode": "35234"}}},
{"geometry": {"type": "Point", "coordinates": [-86.8140747002, 33.5270616969]}, "type": "Feature", "properties": {"collection_times": [{"days": "Mon-Fri", "time": "10:00am"}, {"days": "Sat-Sun", "time": "Closed"}], "id": "3523400014", "name": "USPS COLLECTION BOX - BLUE BOX", "address": {"city": "BIRMINGHAM", "state": "AL", "street": "2001 12TH AVE N", "postcode": "35234"}}},
{"geometry": {"type": "Point", "coordinates": [-86.7952851909, 33.502055429]}, "type": "Feature", "properties": {"collection_times": [{"days": "Mon-Fri", "time": "12:00pm"}, {"days": "Sat-Sun", "time": "Closed"}], "id": "3523400015", "name": "USPS COLLECTION BOX - BLUE BOX", "address": {"city": "BIRMINGHAM", "state": "AL", "street": "2101 MAGNOLIA AVE S", "postcode": "35234"}}},
{"geometry": {"type": "Point", "coordinates": [-86.6785581596, 33.4152594947]}, "type": "Feature", "properties": {"collection_times": [{"days": "Mon-Fri", "time": "5:00pm"}, {"days": "Sat", "time": "4:30pm"}, {"days": "Sun", "time": "Closed"}], "id": "3524200000", "name": "USPS COLLECTION BOX - BLUE BOX", "address": {"city": "BIRMINGHAM", "state": "AL", "street": "1900 CORPORATE DR", "postcode": "35242"}}},
{"geometry": {"type": "Point", "coordinates": [-86.6785581596, 33.4152594947]}, "type": "Feature", "properties": {"collection_times": [{"days": "Mon-Fri", "time": "5:00pm"}, {"days": "Sat", "time": "4:30pm"}, {"days": "Sun", "time": "Closed"}], "id": "3524200001", "name": "USPS COLLECTION BOX - BLUE BOX", "address": {"city": "BIRMINGHAM", "state": "AL", "street": "1900 CORPORATE DR", "postcode": "35242"}}},
{"geometry": {"type": "Point", "coordinates": [-86.6785581596, 33.4152594947]}, "type": "Feature", "properties": {"collection_times": [{"days": "Mon-Fri", "time": "5:00pm"}, {"days": "Sat", "time": "4:30pm"}, {"days": "Sun", "time": "Closed"}], "id": "3524200003", "name": "USPS COLLECTION BOX - BLUE BOX", "address": {"city": "BIRMINGHAM", "state": "AL", "street": "1900 CORPORATE DR", "postcode": "35242"}}},
{"geometry": {"type": "Point", "coordinates": [-86.6785581596, 33.4152594947]}, "type": "Feature", "properties": {"collection_times": [{"days": "Mon-Fri", "time": "5:00pm"}, {"days": "Sat", "time": "4:30pm"}, {"days": "Sun", "time": "Closed"}], "id": "3524200004", "name": "USPS COLLECTION BOX - BLUE BOX", "address": {"city": "BIRMINGHAM", "state": "AL", "street": "1900 CORPORATE DR", "postcode": "35242"}}},
{"geometry": {"type": "Point", "coordinates": [-86.7159097087, 33.4087011363]}, "type": "Feature", "properties": {"collection_times": [{"days": "Mon-Fri", "time": "1:00pm"}, {"days": "Sat-Sun", "time": "Closed"}], "id": "3524200008", "name": "USPS COLLECTION BOX - BLUE BOX", "address": {"city": "BIRMINGHAM", "state": "AL", "street": "115 CAMBRIAN WAY", "postcode": "35242"}}},
{"geometry": {"type": "Point", "coordinates": [-86.6963295063, 33.4198504111]}, "type": "Feature", "properties": {"collection_times": [{"days": "Mon-Fri", "time": "10:30am"}, {"days": "Sat-Sun", "time": "Closed"}], "id": "3524200009", "name": "USPS COLLECTION BOX - BLUE BOX", "address": {"city": "BIRMINGHAM", "state": "AL", "street": "165 INVERNESS PLZ", "postcode": "35242"}}},
{"geometry": {"type": "Point", "coordinates": [-86.7002601639, 33.4230197727]}, "type": "Feature", "properties": {"collection_times": [{"days": "Mon-Fri", "time": "10:30am"}, {"days": "Sat-Sun", "time": "Closed"}], "id": "3524200012", "name": "USPS COLLECTION BOX - BLUE BOX", "address": {"city": "BIRMINGHAM", "state": "AL", "street": "3 GREENHILL PKWY", "postcode": "35242"}}},
{"geometry": {"type": "Point", "coordinates": [-86.7043177784, 33.4259630373]}, "type": "Feature", "properties": {"collection_times": [{"days": "Mon-Fri", "time": "1:00pm"}, {"days": "Sat-Sun", "time": "Closed"}], "id": "3524200016", "name": "USPS COLLECTION BOX - BLUE BOX", "address": {"city": "BIRMINGHAM", "state": "AL", "street": "4625 HIGHWAY 280", "postcode": "35242"}}},
{"geometry": {"type": "Point", "coordinates": [-86.7043177784, 33.4259630373]}, "type": "Feature", "properties": {"collection_times": [{"days": "Mon-Fri", "time": "1:00pm"}, {"days": "Sat-Sun", "time": "Closed"}], "id": "3524200017", "name": "USPS COLLECTION BOX - BLUE BOX", "address": {"city": "BIRMINGHAM", "state": "AL", "street": "4625 HIGHWAY 280", "postcode": "35242"}}},
{"geometry": {"type": "Point", "coordinates": [-86.6832476377, 33.4182230797]}, "type": "Feature", "properties": {"collection_times": [{"days": "Mon-Fri", "time": "1:00pm"}, {"days": "Sat-Sun", "time": "Closed"}], "id": "3524200018", "name": "USPS COLLECTION BOX - EXPRESS", "address": {"city": "BIRMINGHAM", "state": "AL", "street": "4625 HIGHWAY 280", "postcode": "35242"}}},
{"geometry": {"type": "Point", "coordinates": [-86.8402850888, 32.7665445132]}, "type": "Feature", "properties": {"collection_times": [{"days": "Mon-Fri", "time": "1:30pm"}, {"days": "Sat-Sun", "time": "Closed"}], "id": "3524200020", "name": "USPS COLLECTION BOX - BLUE BOX", "address": {"city": "BIRMINGHAM", "state": "AL", "street": "4500 VALLEYDALE RD", "postcode": "35242"}}},
{"geometry": {"type": "Point", "coordinates": [-86.6859086168, 33.4223650532]}, "type": "Feature", "properties": {"collection_times": [{"days": "Mon-Fri", "time": "12:00pm"}, {"days": "Sat-Sun", "time": "Closed"}], "id": "3524200021", "name": "USPS COLLECTION BOX - BLUE BOX", "address": {"city": "BIRMINGHAM", "state": "AL", "street": "1 EAGLE RIDGE DR", "postcode": "35242"}}},
{"geometry": {"type": "Point", "coordinates": [-86.7079262913, 33.4300707294]}, "type": "Feature", "properties": {"collection_times": [{"days": "Mon-Fri", "time": "1:00pm"}, {"days": "Sat-Sun", "time": "Closed"}], "id": "3524200022", "name": "USPS COLLECTION BOX - BLUE BOX", "address": {"city": "BIRMINGHAM", "state": "AL", "street": "200 CAHABA PARK CIR", "postcode": "35242"}}},
{"geometry": {"type": "Point", "coordinates": [-86.7023700808, 33.4259154396]}, "type": "Feature", "properties": {"collection_times": [{"days": "Mon-Fri", "time": "1:00pm"}, {"days": "Sat-Sun", "time": "Closed"}], "id": "3524200024", "name": "USPS COLLECTION BOX - BLUE BOX", "address": {"city": "BIRMINGHAM", "state": "AL", "street": "200 RIVERHILLS BUSINESS PARK", "postcode": "35242"}}},
{"geometry": {"type": "Point", "coordinates": [-86.6832476377, 33.4182230797]}, "type": "Feature", "properties": {"collection_times": [{"days": "Mon-Fri", "time": "5:00pm"}, {"days": "Sat", "time": "4:30pm"}, {"days": "Sun", "time": "Closed"}], "id": "3524200027", "name": "USPS COLLECTION BOX - EXPRESS", "address": {"city": "BIRMINGHAM", "state": "AL", "street": "1900 CORPORATE DR", "postcode": "35242"}}},
{"geometry": {"type": "Point", "coordinates": [-86.680241846, 33.4188216846]}, "type": "Feature", "properties": {"collection_times": [{"days": "Mon-Fri", "time": "10:30am"}, {"days": "Sat-Sun", "time": "Closed"}], "id": "3524200028", "name": "USPS COLLECTION BOX - BLUE BOX", "address": {"city": "BIRMINGHAM", "state": "AL", "street": "5259 HIGHWAY 280", "postcode": "35242"}}},
{"geometry": {"type": "Point", "coordinates": [-86.6785581596, 33.4152594947]}, "type": "Feature", "properties": {"collection_times": [{"days": "Mon-Fri", "time": "5:00pm"}, {"days": "Sat", "time": "4:30pm"}, {"days": "Sun", "time": "Closed"}], "id": "3524200032", "name": "USPS COLLECTION BOX - PO LOBBY", "address": {"city": "BIRMINGHAM", "state": "AL", "street": "1900 CORPORATE DR", "postcode": "35242"}}},
{"geometry": {"type": "Point", "coordinates": [-86.6785581596, 33.4152594947]}, "type": "Feature", "properties": {"collection_times": [{"days": "Mon-Fri", "time": "5:00pm"}, {"days": "Sat", "time": "4:30pm"}, {"days": "Sun", "time": "Closed"}], "id": "3524200035", "name": "USPS COLLECTION BOX - BLUE BOX", "address": {"city": "BIRMINGHAM", "state": "AL", "street": "1900 CORPORATE DR", "postcode": "35242"}}},
{"geometry": {"type": "Point", "coordinates": [-86.8402850888, 32.7665445132]}, "type": "Feature", "properties": {"collection_times": [{"days": "Mon-Fri", "time": "1:00pm"}, {"days": "Sat-Sun", "time": "Closed"}], "id": "3524200036", "name": "USPS COLLECTION BOX - BLUE BOX", "address": {"city": "BIRMINGHAM", "state": "AL", "street": "4501 OLD CALDWELL MILL RD", "postcode": "35242"}}},
{"geometry": {"type": "Point", "coordinates": [-86.6307758957, 33.4087768002]}, "type": "Feature", "properties": {"collection_times": [{"days": "Mon-Fri", "time": "1:00pm"}, {"days": "Sat-Sun", "time": "Closed"}], "id": "3524200039", "name": "USPS COLLECTION BOX - BLUE BOX", "address": {"city": "BIRMINGHAM", "state": "AL", "street": "1 MT LAUREL AVE", "postcode": "35242"}}},
{"geometry": {"type": "Point", "coordinates": [-86.6785581596, 33.4152594947]}, "type": "Feature", "properties": {"collection_times": [{"days": "Mon-Fri", "time": "5:00pm"}, {"days": "Sat", "time": "4:30pm"}, {"days": "Sun", "time": "Closed"}], "id": "3524200040", "name": "USPS COLLECTION BOX - APC", "address": {"city": "BIRMINGHAM", "state": "AL", "street": "1900 CORPORATE DR", "postcode": "35242"}}},
{"geometry": {"type": "Point", "coordinates": [-86.7350862126, 33.4620101255]}, "type": "Feature", "properties": {"collection_times": [{"days": "Mon-Fri", "time": "5:00pm"}, {"days": "Sat", "time": "2:00pm"}, {"days": "Sun", "time": "Closed"}], "id": "3524300000", "name": "USPS COLLECTION BOX - BLUE BOX", "address": {"city": "VESTAVIA", "state": "AL", "street": "3105 SUNVIEW DR", "postcode": "35243"}}},
{"geometry": {"type": "Point", "coordinates": [-86.7350862126, 33.4620101255]}, "type": "Feature", "properties": {"collection_times": [{"days": "Mon-Fri", "time": "5:00pm"}, {"days": "Sat", "time": "2:00pm"}, {"days": "Sun", "time": "Closed"}], "id": "3524300001", "name": "USPS COLLECTION BOX - BLUE BOX", "address": {"city": "VESTAVIA", "state": "AL", "street": "3105 SUNVIEW DR", "postcode": "35243"}}},
{"geometry": {"type": "Point", "coordinates": [-86.7350862126, 33.4620101255]}, "type": "Feature", "properties": {"collection_times": [{"days": "Mon-Fri", "time": "5:00pm"}, {"days": "Sat", "time": "2:00pm"}, {"days": "Sun", "time": "Closed"}], "id": "3524300002", "name": "USPS COLLECTION BOX - BLUE BOX", "address": {"city": "VESTAVIA", "state": "AL", "street": "3105 SUNVIEW DR", "postcode": "35243"}}},
{"geometry": {"type": "Point", "coordinates": [-86.7406886105, 33.4435023217]}, "type": "Feature", "properties": {"collection_times": [{"days": "Mon-Fri", "time": "5:00pm"}, {"days": "Sat", "time": "2:00pm"}, {"days": "Sun", "time": "Closed"}], "id": "3524300003", "name": "USPS COLLECTION BOX - EXPRESS", "address": {"city": "VESTAVIA", "state": "AL", "street": "3105 SUNVIEW DR", "postcode": "35243"}}},
{"geometry": {"type": "Point", "coordinates": [-86.7647888835, 33.4094288965]}, "type": "Feature", "properties": {"collection_times": [{"days": "Mon-Fri", "time": "10:00am"}, {"days": "Sat-Sun", "time": "Closed"}], "id": "3524300006", "name": "USPS COLLECTION BOX - BLUE BOX", "address": {"city": "VESTAVIA", "state": "AL", "street": "2870 OLD ROCKY RIDGE RD", "postcode": "35243"}}},
{"geometry": {"type": "Point", "coordinates": [-86.732644573, 33.4626271029]}, "type": "Feature", "properties": {"collection_times": [{"days": "Mon-Fri", "time": "8:30am"}, {"days": "Sat-Sun", "time": "Closed"}], "id": "3524300007", "name": "USPS COLLECTION BOX - BLUE BOX", "address": {"city": "VESTAVIA", "state": "AL", "street": "3125 NAPOLEON CT", "postcode": "35243"}}},
{"geometry": {"type": "Point", "coordinates": [-86.7354545772, 33.4559608925]}, "type": "Feature", "properties": {"collection_times": [{"days": "Mon-Fri", "time": "10:00am"}, {"days": "Sat-Sun", "time": "Closed"}], "id": "3524300008", "name": "USPS COLLECTION BOX - BLUE BOX", "address": {"city": "VESTAVIA", "state": "AL", "street": "3134 CAHABA HEIGHTS PLZ", "postcode": "35243"}}},
{"geometry": {"type": "Point", "coordinates": [-86.728227368, 33.4414410763]}, "type": "Feature", "properties": {"collection_times": [{"days": "Mon-Fri", "time": "10:30am"}, {"days": "Sat-Sun", "time": "Closed"}], "id": "3524300009", "name": "USPS COLLECTION BOX - BLUE BOX", "address": {"city": "VESTAVIA", "state": "AL", "street": "3443 COLONNADE PKWY", "postcode": "35243"}}},
{"geometry": {"type": "Point", "coordinates": [-86.7406886105, 33.4435023217]}, "type": "Feature", "properties": {"collection_times": [{"days": "Mon-Fri", "time": "3:00pm"}, {"days": "Sat-Sun", "time": "Closed"}], "id": "3524300013", "name": "USPS COLLECTION BOX - EXPRESS", "address": {"city": "VESTAVIA", "state": "AL", "street": "3800 COLONNADE PKWY", "postcode": "35243"}}},
{"geometry": {"type": "Point", "coordinates": [-86.7304636641, 33.43836036]}, "type": "Feature", "properties": {"collection_times": [{"days": "Mon-Fri", "time": "11:00am"}, {"days": "Sat-Sun", "time": "Closed"}], "id": "3524300014", "name": "USPS COLLECTION BOX - BLUE BOX", "address": {"city": "VESTAVIA", "state": "AL", "street": "4100 COLONNADE PKWY", "postcode": "35243"}}},
{"geometry": {"type": "Point", "coordinates": [-86.7369211445, 33.4326091047]}, "type": "Feature", "properties": {"collection_times": [{"days": "Mon-Fri", "time": "9:00am"}, {"days": "Sat-Sun", "time": "Closed"}], "id": "3524300025", "name": "USPS COLLECTION BOX - BLUE BOX", "address": {"city": "VESTAVIA", "state": "AL", "street": "4704 CAHABA RIVER RD", "postcode": "35243"}}},
{"geometry": {"type": "Point", "coordinates": [-86.7406886105, 33.4435023217]}, "type": "Feature", "properties": {"collection_times": [{"days": "Mon-Fri", "time": "10:00am"}, {"days": "Sat-Sun", "time": "Closed"}], "id": "3524300027", "name": "USPS COLLECTION BOX - EXPRESS", "address": {"city": "VESTAVIA", "state": "AL", "street": "2868 ACTON RD", "postcode": "35243"}}},
{"geometry": {"type": "Point", "coordinates": [-86.7402547431, 33.4302352306]}, "type": "Feature", "properties": {"collection_times": [{"days": "Mon-Fri", "time": "10:00am"}, {"days": "Sat-Sun", "time": "Closed"}], "id": "3524300028", "name": "USPS COLLECTION BOX - BLUE BOX", "address": {"city": "VESTAVIA", "state": "AL", "street": "2868 ACTON RD", "postcode": "35243"}}},
{"geometry": {"type": "Point", "coordinates": [-86.764466706, 33.4101222342]}, "type": "Feature", "properties": {"collection_times": [{"days": "Mon-Fri", "time": "10:00am"}, {"days": "Sat-Sun", "time": "Closed"}], "id": "3524300031", "name": "USPS COLLECTION BOX - BLUE BOX", "address": {"city": "VESTAVIA", "state": "AL", "street": "2409 ACTON RD", "postcode": "35243"}}},
{"geometry": {"type": "Point", "coordinates": [-86.7406886103, 33.4435023674]}, "type": "Feature", "properties": {"collection_times": [{"days": "Mon-Fri", "time": "5:00pm"}, {"days": "Sat", "time": "2:00pm"}, {"days": "Sun", "time": "Closed"}], "id": "3524300032", "name": "USPS COLLECTION BOX - PO LOBBY", "address": {"city": "VESTAVIA", "state": "AL", "street": "3105 SUNVIEW DR", "postcode": "35243"}}},
{"geometry": {"type": "Point", "coordinates": [-86.7350862126, 33.4620101255]}, "type": "Feature", "properties": {"collection_times": [{"days": "Mon-Fri", "time": "5:00pm"}, {"days": "Sat", "time": "2:00pm"}, {"days": "Sun", "time": "Closed"}], "id": "3524300040", "name": "USPS COLLECTION BOX - APC", "address": {"city": "VESTAVIA", "state": "AL", "street": "3105 SUNVIEW DR", "postcode": "35243"}}},
{"geometry": {"type": "Point", "coordinates": [-86.7601972462, 33.4088435868]}, "type": "Feature", "properties": {"collection_times": [{"days": "Mon-Fri", "time": "11:30am"}, {"days": "Sat-Sun", "time": "Closed"}], "id": "3524300041", "name": "USPS COLLECTION BOX - BLUE BOX", "address": {"city": "VESTAVIA", "state": "AL", "street": "2000 INTERNATIONAL PARK DR", "postcode": "35243"}}},
{"geometry": {"type": "Point", "coordinates": [-86.7601972462, 33.4088435868]}, "type": "Feature", "properties": {"collection_times": [{"days": "Mon-Fri", "time": "11:00am"}, {"days": "Sat-Sun", "time": "Closed"}], "id": "3524300042", "name": "USPS COLLECTION BOX - BLUE BOX", "address": {"city": "VESTAVIA", "state": "AL", "street": "2000 INTERNATIONAL PARK DR", "postcode": "35243"}}},
{"geometry": {"type": "Point", "coordinates": [-86.7308176003, 33.4520181307]}, "type": "Feature", "properties": {"collection_times": [{"days": "Mon-Fri", "time": "11:30am"}, {"days": "Sat-Sun", "time": "Closed"}], "id": "3524300043", "name": "USPS COLLECTION BOX - BLUE BOX", "address": {"city": "VESTAVIA", "state": "AL", "street": "335 SUMMIT BLVD", "postcode": "35243"}}},
{"geometry": {"type": "Point", "coordinates": [-86.7333708945, 33.4460623398]}, "type": "Feature", "properties": {"collection_times": [{"days": "Mon-Fri", "time": "11:30am"}, {"days": "Sat-Sun", "time": "Closed"}], "id": "3524300044", "name": "USPS COLLECTION BOX - BLUE BOX", "address": {"city": "VESTAVIA", "state": "AL", "street": "130 SUMMIT BLVD", "postcode": "35243"}}},
{"geometry": {"type": "Point", "coordinates": [-86.8090890225, 33.3712396774]}, "type": "Feature", "properties": {"collection_times": [{"days": "Mon-Fri", "time": "5:00pm"}, {"days": "Sat", "time": "2:00pm"}, {"days": "Sun", "time": "Closed"}], "id": "3524400001", "name": "USPS COLLECTION BOX - BLUE BOX", "address": {"city": "BIRMINGHAM", "state": "AL", "street": "1809 RIVERCHASE DR", "postcode": "35244"}}},
{"geometry": {"type": "Point", "coordinates": [-86.8090890225, 33.3712396774]}, "type": "Feature", "properties": {"collection_times": [{"days": "Mon-Fri", "time": "5:00pm"}, {"days": "Sat", "time": "2:00pm"}, {"days": "Sun", "time": "Closed"}], "id": "3524400002", "name": "USPS COLLECTION BOX - BLUE BOX", "address": {"city": "BIRMINGHAM", "state": "AL", "street": "1809 RIVERCHASE DR", "postcode": "35244"}}},
{"geometry": {"type": "Point", "coordinates": [-86.8090890225, 33.3712396774]}, "type": "Feature", "properties": {"collection_times": [{"days": "Mon-Fri", "time": "5:00pm"}, {"days": "Sat", "time": "2:00pm"}, {"days": "Sun", "time": "Closed"}], "id": "3524400003", "name": "USPS COLLECTION BOX - BLUE BOX", "address": {"city": "BIRMINGHAM", "state": "AL", "street": "1809 RIVERCHASE DR", "postcode": "35244"}}},
{"geometry": {"type": "Point", "coordinates": [-86.8090890225, 33.3712396774]}, "type": "Feature", "properties": {"collection_times": [{"days": "Mon-Fri", "time": "5:00pm"}, {"days": "Sat", "time": "2:00pm"}, {"days": "Sun", "time": "Closed"}], "id": "3524400004", "name": "USPS COLLECTION BOX - PO LOBBY", "address": {"city": "BIRMINGHAM", "state": "AL", "street": "1809 RIVERCHASE DR", "postcode": "35244"}}},
{"geometry": {"type": "Point", "coordinates": [-86.8090890225, 33.3712396774]}, "type": "Feature", "properties": {"collection_times": [{"days": "Mon-Fri", "time": "5:00pm"}, {"days": "Sat", "time": "2:00pm"}, {"days": "Sun", "time": "Closed"}], "id": "3524400005", "name": "USPS COLLECTION BOX - BLUE BOX", "address": {"city": "BIRMINGHAM", "state": "AL", "street": "1809 RIVERCHASE DR", "postcode": "35244"}}},
{"geometry": {"type": "Point", "coordinates": [-86.8090890225, 33.3712396774]}, "type": "Feature", "properties": {"collection_times": [{"days": "Mon-Fri", "time": "5:00pm"}, {"days": "Sat", "time": "2:00pm"}, {"days": "Sun", "time": "Closed"}], "id": "3524400006", "name": "USPS COLLECTION BOX - BLUE BOX", "address": {"city": "BIRMINGHAM", "state": "AL", "street": "1809 RIVERCHASE DR", "postcode": "35244"}}},
{"geometry": {"type": "Point", "coordinates": [-86.8492181578, 33.3509841196]}, "type": "Feature", "properties": {"collection_times": [{"days": "Mon-Fri", "time": "5:00pm"}, {"days": "Sat", "time": "2:00pm"}, {"days": "Sun", "time": "Closed"}], "id": "3524400007", "name": "USPS COLLECTION BOX - EXPRESS", "address": {"city": "BIRMINGHAM", "state": "AL", "street": "1809 RIVERCHASE DR", "postcode": "35244"}}},
{"geometry": {"type": "Point", "coordinates": [-86.7851696522, 33.3527666622]}, "type": "Feature", "properties": {"collection_times": [{"days": "Mon-Fri", "time": "2:30pm"}, {"days": "Sat-Sun", "time": "Closed"}], "id": "3524400008", "name": "USPS COLLECTION BOX - BLUE BOX", "address": {"city": "BIRMINGHAM", "state": "AL", "street": "100 CONCOURSE PKWY", "postcode": "35244"}}},
{"geometry": {"type": "Point", "coordinates": [-86.7851696522, 33.3527666622]}, "type": "Feature", "properties": {"collection_times": [{"days": "Mon-Fri", "time": "2:30pm"}, {"days": "Sat-Sun", "time": "Closed"}], "id": "3524400009", "name": "USPS COLLECTION BOX - BLUE BOX", "address": {"city": "BIRMINGHAM", "state": "AL", "street": "100 CONCOURSE PKWY", "postcode": "35244"}}},
{"geometry": {"type": "Point", "coordinates": [-86.7965142548, 33.3720640162]}, "type": "Feature", "properties": {"collection_times": [{"days": "Mon-Fri", "time": "10:00am"}, {"days": "Sat-Sun", "time": "Closed"}], "id": "3524400013", "name": "USPS COLLECTION BOX - BLUE BOX", "address": {"city": "BIRMINGHAM", "state": "AL", "street": "1855 DATA DR", "postcode": "35244"}}},
{"geometry": {"type": "Point", "coordinates": [-86.7826175578, 33.3583871332]}, "type": "Feature", "properties": {"collection_times": [{"days": "Mon-Fri", "time": "11:00am"}, {"days": "Sat-Sun", "time": "Closed"}], "id": "3524400015", "name": "USPS COLLECTION BOX - BLUE BOX", "address": {"city": "BIRMINGHAM", "state": "AL", "street": "265 RIVERCHASE PKWY E", "postcode": "35244"}}},
{"geometry": {"type": "Point", "coordinates": [-86.8492181578, 33.3509841196]}, "type": "Feature", "properties": {"collection_times": [{"days": "Mon-Fri", "time": "11:00am"}, {"days": "Sat-Sun", "time": "Closed"}], "id": "3524400016", "name": "USPS COLLECTION BOX - EXPRESS", "address": {"city": "BIRMINGHAM", "state": "AL", "street": "265 RIVERCHASE PKWY E", "postcode": "35244"}}},
{"geometry": {"type": "Point", "coordinates": [-86.7871599321, 33.364993462]}, "type": "Feature", "properties": {"collection_times": [{"days": "Mon-Fri", "time": "12:00pm"}, {"days": "Sat-Sun", "time": "Closed"}], "id": "3524400017", "name": "USPS COLLECTION BOX - BLUE BOX", "address": {"city": "BIRMINGHAM", "state": "AL", "street": "2100 RIVERCHASE CTR", "postcode": "35244"}}},
{"geometry": {"type": "Point", "coordinates": [-86.7871599321, 33.364993462]}, "type": "Feature", "properties": {"collection_times": [{"days": "Mon-Fri", "time": "12:00pm"}, {"days": "Sat-Sun", "time": "Closed"}], "id": "3524400018", "name": "USPS COLLECTION BOX - BLUE BOX", "address": {"city": "BIRMINGHAM", "state": "AL", "street": "2100 RIVERCHASE CTR", "postcode": "35244"}}},
{"geometry": {"type": "Point", "coordinates": [-86.8011433184, 33.3718568135]}, "type": "Feature", "properties": {"collection_times": [{"days": "Mon-Fri", "time": "10:30am"}, {"days": "Sat-Sun", "time": "Closed"}], "id": "3524400019", "name": "USPS COLLECTION BOX - BLUE BOX", "address": {"city": "BIRMINGHAM", "state": "AL", "street": "1 CHASE CORPORATE DR", "postcode": "35244"}}},
{"geometry": {"type": "Point", "coordinates": [-86.8011433184, 33.3718568135]}, "type": "Feature", "properties": {"collection_times": [{"days": "Mon-Fri", "time": "10:30am"}, {"days": "Sat-Sun", "time": "Closed"}], "id": "3524400020", "name": "USPS COLLECTION BOX - BLUE BOX", "address": {"city": "BIRMINGHAM", "state": "AL", "street": "1 CHASE CORPORATE DR", "postcode": "35244"}}},
{"geometry": {"type": "Point", "coordinates": [-86.79269, 33.365334]}, "type": "Feature", "properties": {"collection_times": [{"days": "Mon-Fri", "time": "12:00pm"}, {"days": "Sat-Sun", "time": "Closed"}], "id": "3524400023", "name": "USPS COLLECTION BOX - BLUE BOX", "address": {"city": "BIRMINGHAM", "state": "AL", "street": "501 RIVERCHASE PKWY E", "postcode": "35244"}}},
{"geometry": {"type": "Point", "coordinates": [-86.79269, 33.365334]}, "type": "Feature", "properties": {"collection_times": [{"days": "Mon-Fri", "time": "12:00pm"}, {"days": "Sat-Sun", "time": "Closed"}], "id": "3524400024", "name": "USPS COLLECTION BOX - BLUE BOX", "address": {"city": "BIRMINGHAM", "state": "AL", "street": "501 RIVERCHASE PKWY E", "postcode": "35244"}}},
{"geometry": {"type": "Point", "coordinates": [-86.79269, 33.365334]}, "type": "Feature", "properties": {"collection_times": [{"days": "Mon-Fri", "time": "12:00pm"}, {"days": "Sat-Sun", "time": "Closed"}], "id": "3524400025", "name": "USPS COLLECTION BOX - EXPRESS", "address": {"city": "BIRMINGHAM", "state": "AL", "street": "501 RIVERCHASE PKWY E", "postcode": "35244"}}},
{"geometry": {"type": "Point", "coordinates": [-86.77372, 33.360817]}, "type": "Feature", "properties": {"collection_times": [{"days": "Mon-Fri", "time": "10:00am"}, {"days": "Sat-Sun", "time": "Closed"}], "id": "3524400026", "name": "USPS COLLECTION BOX - BLUE BOX", "address": {"city": "BIRMINGHAM", "state": "AL", "street": "4524 SOUTHLAKE PKWY", "postcode": "35244"}}},
{"geometry": {"type": "Point", "coordinates": [-86.77372, 33.360817]}, "type": "Feature", "properties": {"collection_times": [{"days": "Mon-Fri", "time": "2:30pm"}, {"days": "Sat-Sun", "time": "Closed"}], "id": "3524400027", "name": "USPS COLLECTION BOX - BLUE BOX", "address": {"city": "BIRMINGHAM", "state": "AL", "street": "4524 SOUTHLAKE PKWY", "postcode": "35244"}}},
{"geometry": {"type": "Point", "coordinates": [-86.79269, 33.365334]}, "type": "Feature", "properties": {"collection_times": [{"days": "Mon-Fri", "time": "12:00pm"}, {"days": "Sat-Sun", "time": "Closed"}], "id": "3524400028", "name": "USPS COLLECTION BOX - BLUE BOX", "address": {"city": "BIRMINGHAM", "state": "AL", "street": "501 RIVERCHASE PKWY E", "postcode": "35244"}}},
{"geometry": {"type": "Point", "coordinates": [-86.7871123111, 33.3649220305]}, "type": "Feature", "properties": {"collection_times": [{"days": "Mon-Fri", "time": "12:00pm"}, {"days": "Sat-Sun", "time": "Closed"}], "id": "3524400030", "name": "USPS COLLECTION BOX - BLUE BOX", "address": {"city": "BIRMINGHAM", "state": "AL", "street": "2200 RIVERCHASE CTR", "postcode": "35244"}}},
{"geometry": {"type": "Point", "coordinates": [-86.8090890225, 33.3712396774]}, "type": "Feature", "properties": {"collection_times": [{"days": "Mon-Fri", "time": "5:00pm"}, {"days": "Sat", "time": "2:00pm"}, {"days": "Sun", "time": "Closed"}], "id": "3524400038", "name": "USPS COLLECTION BOX - APC", "address": {"city": "BIRMINGHAM", "state": "AL", "street": "1809 RIVERCHASE DR", "postcode": "35244"}}}
]}
