{"type": "FeatureCollection", "features": [
{"geometry": {"type": "Point", "coordinates": [-87.5624046248, 33.202856826]}, "type": "Feature", "properties": {"collection_times": [{"days": "Mon-Fri", "time": "5:00pm"}, {"days": "Sat", "time": "4:00pm"}, {"days": "Sun", "time": "Closed"}], "id": "3540100001", "name": "USPS COLLECTION BOX - BLUE BOX", "address": {"city": "TUSCALOOSA", "state": "AL", "street": "1313 22ND AVE", "postcode": "35401"}}},
{"geometry": {"type": "Point", "coordinates": [-87.5624046248, 33.202856826]}, "type": "Feature", "properties": {"collection_times": [{"days": "Mon-Fri", "time": "5:00pm"}, {"days": "Sat", "time": "4:00pm"}, {"days": "Sun", "time": "Closed"}], "id": "3540100002", "name": "USPS COLLECTION BOX - BLUE BOX", "address": {"city": "TUSCALOOSA", "state": "AL", "street": "1313 22ND AVE", "postcode": "35401"}}},
{"geometry": {"type": "Point", "coordinates": [-87.5663873856, 33.194850692]}, "type": "Feature", "properties": {"collection_times": [{"days": "Mon-Fri", "time": "3:30pm"}, {"days": "Sat", "time": "4:00pm"}, {"days": "Sun", "time": "Closed"}], "id": "3540100004", "name": "USPS COLLECTION BOX - EXPRESS", "address": {"city": "TUSCALOOSA", "state": "AL", "street": "1313 22ND AVE", "postcode": "35401"}}},
{"geometry": {"type": "Point", "coordinates": [-87.5706658804, 33.2080590696]}, "type": "Feature", "properties": {"collection_times": [{"days": "Mon-Fri", "time": "5:00pm"}, {"days": "Sat", "time": "9:00am"}, {"days": "Sun", "time": "Closed"}], "id": "3540100005", "name": "USPS COLLECTION BOX - BLUE BOX", "address": {"city": "TUSCALOOSA", "state": "AL", "street": "600 LURLEEN B WALLACE BLVD S", "postcode": "35401"}}},
{"geometry": {"type": "Point", "coordinates": [-87.5724064735, 33.2085401232]}, "type": "Feature", "properties": {"collection_times": [{"days": "Mon-Fri", "time": "5:00pm"}, {"days": "Sat", "time": "9:00am"}, {"days": "Sun", "time": "Closed"}], "id": "3540100006", "name": "USPS COLLECTION BOX - BLUE BOX", "address": {"city": "TUSCALOOSA", "state": "AL", "street": "2727 UNIVERSITY BLVD", "postcode": "35401"}}},
{"geometry": {"type": "Point", "coordinates": [-87.5708075305, 33.2079740946]}, "type": "Feature", "properties": {"collection_times": [{"days": "Mon-Sat", "time": "9:00am"}, {"days": "Sun", "time": "Closed"}], "id": "3540100007", "name": "USPS COLLECTION BOX - BLUE BOX", "address": {"city": "TUSCALOOSA", "state": "AL", "street": "2615 6TH ST", "postcode": "35401"}}},
{"geometry": {"type": "Point", "coordinates": [-87.567959161, 33.2086182379]}, "type": "Feature", "properties": {"collection_times": [{"days": "Mon-Fri", "time": "9:00am"}, {"days": "Sat", "time": "8:30am"}, {"days": "Sun", "time": "Closed"}], "id": "3540100015", "name": "USPS COLLECTION BOX - BLUE BOX", "address": {"city": "TUSCALOOSA", "state": "AL", "street": "620 GREENSBORO AVE", "postcode": "35401"}}},
{"geometry": {"type": "Point", "coordinates": [-87.5665556918, 33.2104522214]}, "type": "Feature", "properties": {"collection_times": [{"days": "Mon-Fri", "time": "5:00pm"}, {"days": "Sat", "time": "9:00am"}, {"days": "Sun", "time": "Closed"}], "id": "3540100016", "name": "USPS COLLECTION BOX - BLUE BOX", "address": {"city": "TUSCALOOSA", "state": "AL", "street": "2330 UNIVERSITY BLVD", "postcode": "35401"}}},
{"geometry": {"type": "Point", "coordinates": [-87.5665556918, 33.2104522214]}, "type": "Feature", "properties": {"collection_times": [{"days": "Mon-Fri", "time": "5:00pm"}, {"days": "Sat", "time": "9:00am"}, {"days": "Sun", "time": "Closed"}], "id": "3540100017", "name": "USPS COLLECTION BOX - BLUE BOX", "address": {"city": "TUSCALOOSA", "state": "AL", "street": "2330 UNIVERSITY BLVD", "postcode": "35401"}}},
{"geometry": {"type": "Point", "coordinates": [-87.5663873856, 33.194850692]}, "type": "Feature", "properties": {"collection_times": [{"days": "Mon-Fri", "time": "5:00pm"}, {"days": "Sat", "time": "9:00am"}, {"days": "Sun", "time": "Closed"}], "id": "3540100018", "name": "USPS COLLECTION BOX - EXPRESS", "address": {"city": "TUSCALOOSA", "state": "AL", "street": "2330 UNIVERSITY BLVD", "postcode": "35401"}}},
{"geometry": {"type": "Point", "coordinates": [-87.5645087065, 33.2108560962]}, "type": "Feature", "properties": {"collection_times": [{"days": "Mon-Fri", "time": "11:45am"}, {"days": "Sat", "time": "9:30am"}, {"days": "Sun", "time": "Closed"}], "id": "3540100019", "name": "USPS COLLECTION BOX - BLUE BOX", "address": {"city": "TUSCALOOSA", "state": "AL", "street": "2201 UNIVERSITY BLVD", "postcode": "35401"}}},
{"geometry": {"type": "Point", "coordinates": [-87.5319509587, 33.2055076143]}, "type": "Feature", "properties": {"collection_times": [{"days": "Mon-Fri", "time": "4:00pm"}, {"days": "Sat", "time": "10:30am"}, {"days": "Sun", "time": "Closed"}], "id": "3540100021", "name": "USPS COLLECTION BOX - BLUE BOX", "address": {"city": "TUSCALOOSA", "state": "AL", "street": "408 PAUL W BRYANT DR E", "postcode": "35401"}}},
{"geometry": {"type": "Point", "coordinates": [-87.5424037638, 33.2060003841]}, "type": "Feature", "properties": {"collection_times": [{"days": "Mon-Fri", "time": "3:45pm"}, {"days": "Sat", "time": "9:15am"}, {"days": "Sun", "time": "Closed"}], "id": "3540100023", "name": "USPS COLLECTION BOX - BLUE BOX", "address": {"city": "TUSCALOOSA", "state": "AL", "street": "504 PAUL W BRYANT DR", "postcode": "35401"}}},
{"geometry": {"type": "Point", "coordinates": [-87.5663873856, 33.194850692]}, "type": "Feature", "properties": {"collection_times": [{"days": "Mon-Fri", "time": "3:45pm"}, {"days": "Sat", "time": "9:15am"}, {"days": "Sun", "time": "Closed"}], "id": "3540100024", "name": "USPS COLLECTION BOX - EXPRESS", "address": {"city": "TUSCALOOSA", "state": "AL", "street": "504 PAUL W BRYANT DR", "postcode": "35401"}}},
{"geometry": {"type": "Point", "coordinates": [-87.5338498581, 33.2072992347]}, "type": "Feature", "properties": {"collection_times": [{"days": "Mon-Fri", "time": "4:15pm"}, {"days": "Sat", "time": "9:15am"}, {"days": "Sun", "time": "Closed"}], "id": "3540100025", "name": "USPS COLLECTION BOX - BLUE BOX", "address": {"city": "TUSCALOOSA", "state": "AL", "street": "225 UNIVERSITY BLVD E", "postcode": "35401"}}},
{"geometry": {"type": "Point", "coordinates": [-87.5269312506, 33.2062981989]}, "type": "Feature", "properties": {"collection_times": [{"days": "Mon-Fri", "time": "2:30pm"}, {"days": "Sat-Sun", "time": "Closed"}], "id": "3540100026", "name": "USPS COLLECTION BOX - BLUE BOX", "address": {"city": "TUSCALOOSA", "state": "AL", "street": "809 UNIVERSITY BLVD E", "postcode": "35401"}}},
{"geometry": {"type": "Point", "coordinates": [-87.5524996779, 33.2063938348]}, "type": "Feature", "properties": {"collection_times": [{"days": "Mon-Sat", "time": "1:00pm"}, {"days": "Sun", "time": "Closed"}], "id": "3540100028", "name": "USPS COLLECTION BOX - BLUE BOX", "address": {"city": "TUSCALOOSA", "state": "AL", "street": "1121 PAUL W BRYANT DR", "postcode": "35401"}}},
{"geometry": {"type": "Point", "coordinates": [-87.5765548249, 33.2042474215]}, "type": "Feature", "properties": {"collection_times": [{"days": "Mon-Fri", "time": "11:00am"}, {"days": "Sat", "time": "10:00am"}, {"days": "Sun", "time": "Closed"}], "id": "3540100032", "name": "USPS COLLECTION BOX - BLUE BOX", "address": {"city": "TUSCALOOSA", "state": "AL", "street": "800 31ST ST", "postcode": "35401"}}},
{"geometry": {"type": "Point", "coordinates": [-87.5402610346, 33.198682109]}, "type": "Feature", "properties": {"collection_times": [{"days": "Mon-Fri", "time": "9:30am"}, {"days": "Sat", "time": "9:00am"}, {"days": "Sun", "time": "Closed"}], "id": "3540100035", "name": "USPS COLLECTION BOX - BLUE BOX", "address": {"city": "TUSCALOOSA", "state": "AL", "street": "408 15TH ST", "postcode": "35401"}}},
{"geometry": {"type": "Point", "coordinates": [-87.5493122455, 33.1927147553]}, "type": "Feature", "properties": {"collection_times": [{"days": "Mon-Fri", "time": "1:00pm"}, {"days": "Sat", "time": "12:00pm"}, {"days": "Sun", "time": "Closed"}], "id": "3540100039", "name": "USPS COLLECTION BOX - BLUE BOX", "address": {"city": "TUSCALOOSA", "state": "AL", "street": "900 HARGROVE RD", "postcode": "35401"}}},
{"geometry": {"type": "Point", "coordinates": [-87.5875422292, 33.2009648666]}, "type": "Feature", "properties": {"collection_times": [{"days": "Mon-Sat", "time": "9:30am"}, {"days": "Sun", "time": "Closed"}], "id": "3540100041", "name": "USPS COLLECTION BOX - BLUE BOX", "address": {"city": "TUSCALOOSA", "state": "AL", "street": "1505 CULVER RD", "postcode": "35401"}}},
{"geometry": {"type": "Point", "coordinates": [-87.5828642263, 33.2007160568]}, "type": "Feature", "properties": {"collection_times": [{"days": "Mon-Fri", "time": "2:30pm"}, {"days": "Sat", "time": "12:30pm"}, {"days": "Sun", "time": "Closed"}], "id": "3540100043", "name": "USPS COLLECTION BOX - BLUE BOX", "address": {"city": "TUSCALOOSA", "state": "AL", "street": "3601 STILLMAN BLVD", "postcode": "35401"}}},
{"geometry": {"type": "Point", "coordinates": [-87.5489190369, 33.1792770448]}, "type": "Feature", "properties": {"collection_times": [{"days": "Mon-Fri", "time": "4:15pm"}, {"days": "Sat-Sun", "time": "Closed"}], "id": "3540100050", "name": "USPS COLLECTION BOX - BLUE BOX", "address": {"city": "TUSCALOOSA", "state": "AL", "street": "901 UNIVERSITY LN", "postcode": "35401"}}},
{"geometry": {"type": "Point", "coordinates": [-87.5478232026, 33.1942278868]}, "type": "Feature", "properties": {"collection_times": [{"days": "Mon-Sat", "time": "11:30am"}, {"days": "Sun", "time": "Closed"}], "id": "3540100054", "name": "USPS COLLECTION BOX - BLUE BOX", "address": {"city": "TUSCALOOSA", "state": "AL", "street": "1925 8TH AVE", "postcode": "35401"}}},
{"geometry": {"type": "Point", "coordinates": [-87.5531226997, 33.1813464097]}, "type": "Feature", "properties": {"collection_times": [{"days": "Mon-Fri", "time": "11:15am"}, {"days": "Sat", "time": "10:15am"}, {"days": "Sun", "time": "Closed"}], "id": "3540100056", "name": "USPS COLLECTION BOX - BLUE BOX", "address": {"city": "TUSCALOOSA", "state": "AL", "street": "3401 GREENSBORO AVE", "postcode": "35401"}}},
{"geometry": {"type": "Point", "coordinates": [-87.5271397276, 33.206317267]}, "type": "Feature", "properties": {"collection_times": [{"days": "Mon-Fri", "time": "3:30pm"}, {"days": "Sat-Sun", "time": "Closed"}], "id": "3540100059", "name": "USPS COLLECTION BOX - BLUE BOX", "address": {"city": "TUSCALOOSA", "state": "AL", "street": "801 UNIVERSITY BLVD E", "postcode": "35401"}}},
{"geometry": {"type": "Point", "coordinates": [-87.5665801411, 33.2133143862]}, "type": "Feature", "properties": {"collection_times": [{"days": "Mon-Fri", "time": "5:00pm"}, {"days": "Sat", "time": "9:45am"}, {"days": "Sun", "time": "Closed"}], "id": "3540100063", "name": "USPS COLLECTION BOX - BLUE BOX", "address": {"city": "TUSCALOOSA", "state": "AL", "street": "2117 JACK WARNER PKWY", "postcode": "35401"}}},
{"geometry": {"type": "Point", "coordinates": [-87.5624046248, 33.202856826]}, "type": "Feature", "properties": {"collection_times": [{"days": "Mon-Fri", "time": "5:00pm"}, {"days": "Sat", "time": "4:00pm"}, {"days": "Sun", "time": "Closed"}], "id": "3540100068", "name": "USPS COLLECTION BOX - PO LOBBY", "address": {"city": "TUSCALOOSA", "state": "AL", "street": "1313 22ND AVE", "postcode": "35401"}}},
{"geometry": {"type": "Point", "coordinates": [-87.5665801411, 33.2133143862]}, "type": "Feature", "properties": {"collection_times": [{"days": "Mon-Fri", "time": "5:00pm"}, {"days": "Sat", "time": "9:45am"}, {"days": "Sun", "time": "Closed"}], "id": "3540100075", "name": "USPS COLLECTION BOX - BLUE BOX", "address": {"city": "TUSCALOOSA", "state": "AL", "street": "2117 JACK WARNER PKWY", "postcode": "35401"}}},
{"geometry": {"type": "Point", "coordinates": [-87.5677790519, 33.2088698008]}, "type": "Feature", "properties": {"collection_times": [{"days": "Mon-Fri", "time": "5:00pm"}, {"days": "Sat-Sun", "time": "Closed"}], "id": "3540100083", "name": "USPS COLLECTION BOX - BLUE BOX", "address": {"city": "TUSCALOOSA", "state": "AL", "street": "601 GREENSBORO AVE", "postcode": "35401"}}},
{"geometry": {"type": "Point", "coordinates": [-87.5639975095, 33.2067751145]}, "type": "Feature", "properties": {"collection_times": [{"days": "Mon-Fri", "time": "4:15pm"}, {"days": "Sat-Sun", "time": "Closed"}], "id": "3540100084", "name": "USPS COLLECTION BOX - BLUE BOX", "address": {"city": "TUSCALOOSA", "state": "AL", "street": "901 22ND AVE", "postcode": "35401"}}},
{"geometry": {"type": "Point", "coordinates": [-87.4940473891, 33.2110923225]}, "type": "Feature", "properties": {"collection_times": [{"days": "Mon-Fri", "time": "4:45pm"}, {"days": "Sat", "time": "3:30pm"}, {"days": "Sun", "time": "Closed"}], "id": "3540400001", "name": "USPS COLLECTION BOX - BLUE BOX", "address": {"city": "TUSCALOOSA", "state": "AL", "street": "2731 UNIVERSITY BLVD E", "postcode": "35404"}}},
{"geometry": {"type": "Point", "coordinates": [-87.4892751206, 33.1925695236]}, "type": "Feature", "properties": {"collection_times": [{"days": "Mon-Fri", "time": "3:00pm"}, {"days": "Sat", "time": "10:00am"}, {"days": "Sun", "time": "Closed"}], "id": "3540400007", "name": "USPS COLLECTION BOX - BLUE BOX", "address": {"city": "TUSCALOOSA", "state": "AL", "street": "3701 LOOP RD", "postcode": "35404"}}},
{"geometry": {"type": "Point", "coordinates": [-87.5258678797, 33.194986471]}, "type": "Feature", "properties": {"collection_times": [{"days": "Mon-Sat", "time": "11:00am"}, {"days": "Sun", "time": "Closed"}], "id": "3540400008", "name": "USPS COLLECTION BOX - BLUE BOX", "address": {"city": "TUSCALOOSA", "state": "AL", "street": "1701 MCFARLAND BLVD E", "postcode": "35404"}}},
{"geometry": {"type": "Point", "coordinates": [-87.4940473891, 33.2110923225]}, "type": "Feature", "properties": {"collection_times": [{"days": "Mon-Sat", "time": "11:00am"}, {"days": "Sun", "time": "Closed"}], "id": "3540400012", "name": "USPS COLLECTION BOX - EXPRESS", "address": {"city": "TUSCALOOSA", "state": "AL", "street": "1701 MCFARLAND BLVD E", "postcode": "35404"}}},
{"geometry": {"type": "Point", "coordinates": [-87.4944632683, 33.1896171957]}, "type": "Feature", "properties": {"collection_times": [{"days": "Mon-Sat", "time": "10:30am"}, {"days": "Sun", "time": "Closed"}], "id": "3540400015", "name": "USPS COLLECTION BOX - BLUE BOX", "address": {"city": "TUSCALOOSA", "state": "AL", "street": "3301 LOOP RD", "postcode": "35404"}}},
{"geometry": {"type": "Point", "coordinates": [-87.4782977999, 33.1968116282]}, "type": "Feature", "properties": {"collection_times": [{"days": "Mon-Sat", "time": "10:30am"}, {"days": "Sun", "time": "Closed"}], "id": "3540400017", "name": "USPS COLLECTION BOX - BLUE BOX", "address": {"city": "TUSCALOOSA", "state": "AL", "street": "4400 UNIVERSITY BLVD E", "postcode": "35404"}}},
{"geometry": {"type": "Point", "coordinates": [-87.5597186779, 33.2172050406]}, "type": "Feature", "properties": {"collection_times": [{"days": "Mon-Fri", "time": "4:15pm"}, {"days": "Sat", "time": "8:45am"}, {"days": "Sun", "time": "Closed"}], "id": "3540400018", "name": "USPS COLLECTION BOX - BLUE BOX", "address": {"city": "TUSCALOOSA", "state": "AL", "street": "535 JACK WARNER PKWY NE", "postcode": "35404"}}},
{"geometry": {"type": "Point", "coordinates": [-87.4808203769, 33.1980315131]}, "type": "Feature", "properties": {"collection_times": [{"days": "Mon-Sat", "time": "8:45am"}, {"days": "Sun", "time": "Closed"}], "id": "3540400019", "name": "USPS COLLECTION BOX - BLUE BOX", "address": {"city": "TUSCALOOSA", "state": "AL", "street": "4205 UNIVERSITY BLVD E", "postcode": "35404"}}},
{"geometry": {"type": "Point", "coordinates": [-87.4724717592, 33.1938774338]}, "type": "Feature", "properties": {"collection_times": [{"days": "Mon-Sat", "time": "8:45am"}, {"days": "Sun", "time": "Closed"}], "id": "3540400020", "name": "USPS COLLECTION BOX - BLUE BOX", "address": {"city": "TUSCALOOSA", "state": "AL", "street": "4800 UNIVERSITY BLVD E", "postcode": "35404"}}},
{"geometry": {"type": "Point", "coordinates": [-87.5262404156, 33.1942293713]}, "type": "Feature", "properties": {"collection_times": [{"days": "Mon-Sat", "time": "9:30am"}, {"days": "Sun", "time": "Closed"}], "id": "3540400021", "name": "USPS COLLECTION BOX - BLUE BOX", "address": {"city": "TUSCALOOSA", "state": "AL", "street": "1800 MCFARLAND BLVD E", "postcode": "35404"}}},
{"geometry": {"type": "Point", "coordinates": [-87.5286683929, 33.1481940229]}, "type": "Feature", "properties": {"collection_times": [{"days": "Mon-Sat", "time": "6:00pm"}, {"days": "Sun", "time": "Closed"}], "id": "3540500003", "name": "USPS COLLECTION BOX - EXPRESS", "address": {"city": "TUSCALOOSA", "state": "AL", "street": "3201 SKYLAND BLVD E", "postcode": "35405"}}},
{"geometry": {"type": "Point", "coordinates": [-87.4955477551, 33.1697719806]}, "type": "Feature", "properties": {"collection_times": [{"days": "Mon-Sat", "time": "6:00pm"}, {"days": "Sun", "time": "Closed"}], "id": "3540500004", "name": "USPS COLLECTION BOX - BLUE BOX", "address": {"city": "TUSCALOOSA", "state": "AL", "street": "3201 SKYLAND BLVD E", "postcode": "35405"}}},
{"geometry": {"type": "Point", "coordinates": [-87.4955477551, 33.1697719806]}, "type": "Feature", "properties": {"collection_times": [{"days": "Mon-Sat", "time": "6:00pm"}, {"days": "Sun", "time": "Closed"}], "id": "3540500005", "name": "USPS COLLECTION BOX - BLUE BOX", "address": {"city": "TUSCALOOSA", "state": "AL", "street": "3201 SKYLAND BLVD E", "postcode": "35405"}}},
{"geometry": {"type": "Point", "coordinates": [-87.4955477551, 33.1697719806]}, "type": "Feature", "properties": {"collection_times": [{"days": "Mon-Sat", "time": "6:00pm"}, {"days": "Sun", "time": "Closed"}], "id": "3540500006", "name": "USPS COLLECTION BOX - BLUE BOX", "address": {"city": "TUSCALOOSA", "state": "AL", "street": "3201 SKYLAND BLVD E", "postcode": "35405"}}},
{"geometry": {"type": "Point", "coordinates": [-87.4768975215, 33.1730133047]}, "type": "Feature", "properties": {"collection_times": [{"days": "Mon-Fri", "time": "10:30am"}, {"days": "Sat", "time": "10:00am"}, {"days": "Sun", "time": "Closed"}], "id": "3540500010", "name": "USPS COLLECTION BOX - BLUE BOX", "address": {"city": "TUSCALOOSA", "state": "AL", "street": "4416 SKYLAND BLVD E", "postcode": "35405"}}},
{"geometry": {"type": "Point", "coordinates": [-87.5366601155, 33.1733753269]}, "type": "Feature", "properties": {"collection_times": [{"days": "Mon-Sat", "time": "9:30am"}, {"days": "Sun", "time": "Closed"}], "id": "3540500011", "name": "USPS COLLECTION BOX - BLUE BOX", "address": {"city": "TUSCALOOSA", "state": "AL", "street": "3820 1ST AVE", "postcode": "35405"}}},
{"geometry": {"type": "Point", "coordinates": [-87.5039244914, 33.1673874338]}, "type": "Feature", "properties": {"collection_times": [{"days": "Mon-Sat", "time": "11:30am"}, {"days": "Sun", "time": "Closed"}], "id": "3540500012", "name": "USPS COLLECTION BOX - BLUE BOX", "address": {"city": "TUSCALOOSA", "state": "AL", "street": "4413 CYPRESS CREEK AVE E", "postcode": "35405"}}},
{"geometry": {"type": "Point", "coordinates": [-87.5038821152, 33.1634435731]}, "type": "Feature", "properties": {"collection_times": [{"days": "Mon-Sat", "time": "11:00am"}, {"days": "Sun", "time": "Closed"}], "id": "3540500013", "name": "USPS COLLECTION BOX - BLUE BOX", "address": {"city": "TUSCALOOSA", "state": "AL", "street": "4709 CYPRESS CREEK AVE E", "postcode": "35405"}}},
{"geometry": {"type": "Point", "coordinates": [-87.5100883989, 33.1639899001]}, "type": "Feature", "properties": {"collection_times": [{"days": "Mon-Sat", "time": "9:15am"}, {"days": "Sun", "time": "Closed"}], "id": "3540500014", "name": "USPS COLLECTION BOX - BLUE BOX", "address": {"city": "TUSCALOOSA", "state": "AL", "street": "2201 48TH ST E", "postcode": "35405"}}},
{"geometry": {"type": "Point", "coordinates": [-87.5137677156, 33.1683332912]}, "type": "Feature", "properties": {"collection_times": [{"days": "Mon-Sat", "time": "9:30am"}, {"days": "Sun", "time": "Closed"}], "id": "3540500015", "name": "USPS COLLECTION BOX - BLUE BOX", "address": {"city": "TUSCALOOSA", "state": "AL", "street": "4527 18TH AVE E", "postcode": "35405"}}},
{"geometry": {"type": "Point", "coordinates": [-87.5322186125, 33.1752978546]}, "type": "Feature", "properties": {"collection_times": [{"days": "Mon-Sat", "time": "9:45am"}, {"days": "Sun", "time": "Closed"}], "id": "3540500017", "name": "USPS COLLECTION BOX - BLUE BOX", "address": {"city": "TUSCALOOSA", "state": "AL", "street": "3715 3RD AVE E", "postcode": "35405"}}},
{"geometry": {"type": "Point", "coordinates": [-87.5262349967, 33.1854470033]}, "type": "Feature", "properties": {"collection_times": [{"days": "Mon-Fri", "time": "10:45am"}, {"days": "Sat", "time": "10:30am"}, {"days": "Sun", "time": "Closed"}], "id": "3540500018", "name": "USPS COLLECTION BOX - BLUE BOX", "address": {"city": "TUSCALOOSA", "state": "AL", "street": "2600 MCFARLAND BLVD E", "postcode": "35405"}}},
{"geometry": {"type": "Point", "coordinates": [-87.4955477551, 33.1697719806]}, "type": "Feature", "properties": {"collection_times": [{"days": "Mon-Sat", "time": "6:00pm"}, {"days": "Sun", "time": "Closed"}], "id": "3540500021", "name": "USPS COLLECTION BOX - PO LOBBY", "address": {"city": "TUSCALOOSA", "state": "AL", "street": "3201 SKYLAND BLVD E", "postcode": "35405"}}},
{"geometry": {"type": "Point", "coordinates": [-87.5340069947, 33.1353169024]}, "type": "Feature", "properties": {"collection_times": [{"days": "Mon-Fri", "time": "11:00am"}, {"days": "Sat-Sun", "time": "Closed"}], "id": "3540500025", "name": "USPS COLLECTION BOX - BLUE BOX", "address": {"city": "TUSCALOOSA", "state": "AL", "street": "623 BEAR CREEK RD", "postcode": "35405"}}},
{"geometry": {"type": "Point", "coordinates": [-87.498088943, 33.1733699684]}, "type": "Feature", "properties": {"collection_times": [{"days": "Mon-Fri", "time": "4:15pm"}, {"days": "Sat-Sun", "time": "Closed"}], "id": "3540500026", "name": "USPS COLLECTION BOX - BLUE BOX", "address": {"city": "TUSCALOOSA", "state": "AL", "street": "3831 PALISADES DR", "postcode": "35405"}}},
{"geometry": {"type": "Point", "coordinates": [-87.5340069947, 33.1353169024]}, "type": "Feature", "properties": {"collection_times": [{"days": "Mon-Fri", "time": "11:00am"}, {"days": "Sat-Sun", "time": "Closed"}], "id": "3540500028", "name": "USPS COLLECTION BOX - BLUE BOX", "address": {"city": "TUSCALOOSA", "state": "AL", "street": "623 BEAR CREEK RD", "postcode": "35405"}}},
{"geometry": {"type": "Point", "coordinates": [-87.4954635586, 33.1748431194]}, "type": "Feature", "properties": {"collection_times": [{"days": "Mon-Sat", "time": "9:00am"}, {"days": "Sun", "time": "Closed"}], "id": "3540500029", "name": "USPS COLLECTION BOX - BLUE BOX", "address": {"city": "TUSCALOOSA", "state": "AL", "street": "3201 HARGROVE RD E", "postcode": "35405"}}},
{"geometry": {"type": "Point", "coordinates": [-87.5182022982, 33.1683086954]}, "type": "Feature", "properties": {"collection_times": [{"days": "Mon-Sat", "time": "11:00am"}, {"days": "Sun", "time": "Closed"}], "id": "3540500030", "name": "USPS COLLECTION BOX - BLUE BOX", "address": {"city": "TUSCALOOSA", "state": "AL", "street": "1501 SKYLAND BLVD E", "postcode": "35405"}}},
{"geometry": {"type": "Point", "coordinates": [-87.5253712576, 33.1694691936]}, "type": "Feature", "properties": {"collection_times": [{"days": "Mon-Sat", "time": "10:30am"}, {"days": "Sun", "time": "Closed"}], "id": "3540500031", "name": "USPS COLLECTION BOX - BLUE BOX", "address": {"city": "TUSCALOOSA", "state": "AL", "street": "4200 MCFARLAND BLVD E", "postcode": "35405"}}},
{"geometry": {"type": "Point", "coordinates": [-87.5218769246, 33.1756609931]}, "type": "Feature", "properties": {"collection_times": [{"days": "Mon-Fri", "time": "4:15pm"}, {"days": "Sat", "time": "9:15am"}, {"days": "Sun", "time": "Closed"}], "id": "3540500032", "name": "USPS COLLECTION BOX - BLUE BOX", "address": {"city": "TUSCALOOSA", "state": "AL", "street": "3716 12TH AVE E", "postcode": "35405"}}},
{"geometry": {"type": "Point", "coordinates": [-87.5218769246, 33.1756609931]}, "type": "Feature", "properties": {"collection_times": [{"days": "Mon-Fri", "time": "4:15pm"}, {"days": "Sat", "time": "9:15am"}, {"days": "Sun", "time": "Closed"}], "id": "3540500033", "name": "USPS COLLECTION BOX - BLUE BOX", "address": {"city": "TUSCALOOSA", "state": "AL", "street": "3716 12TH AVE E", "postcode": "35405"}}},
{"geometry": {"type": "Point", "coordinates": [-87.551573206, 33.2357797971]}, "type": "Feature", "properties": {"collection_times": [{"days": "Mon-Sat", "time": "10:00am"}, {"days": "Sun", "time": "Closed"}], "id": "3540600000", "name": "USPS COLLECTION BOX - BLUE BOX", "address": {"city": "TUSCALOOSA", "state": "AL", "street": "1825 MCFARLAND BLVD N", "postcode": "35406"}}},
{"geometry": {"type": "Point", "coordinates": [-87.5423397425, 33.2336301045]}, "type": "Feature", "properties": {"collection_times": [{"days": "Mon-Sat", "time": "2:00pm"}, {"days": "Sun", "time": "Closed"}], "id": "3540600001", "name": "USPS COLLECTION BOX - BLUE BOX", "address": {"city": "TUSCALOOSA", "state": "AL", "street": "1653 MCFARLAND BLVD N", "postcode": "35406"}}},
{"geometry": {"type": "Point", "coordinates": [-87.5423397425, 33.2336301045]}, "type": "Feature", "properties": {"collection_times": [{"days": "Mon-Sat", "time": "2:00pm"}, {"days": "Sun", "time": "Closed"}], "id": "3540600002", "name": "USPS COLLECTION BOX - BLUE BOX", "address": {"city": "TUSCALOOSA", "state": "AL", "street": "1653 MCFARLAND BLVD N", "postcode": "35406"}}},
{"geometry": {"type": "Point", "coordinates": [-87.5493830921, 33.2389611346]}, "type": "Feature", "properties": {"collection_times": [{"days": "Mon-Sat", "time": "11:00am"}, {"days": "Sun", "time": "Closed"}], "id": "3540600004", "name": "USPS COLLECTION BOX - BLUE BOX", "address": {"city": "TUSCALOOSA", "state": "AL", "street": "1000 FAIRFAX PARK", "postcode": "35406"}}},
{"geometry": {"type": "Point", "coordinates": [-87.5478313673, 33.23764802]}, "type": "Feature", "properties": {"collection_times": [{"days": "Mon-Fri", "time": "9:30am"}, {"days": "Sat", "time": "9:15am"}, {"days": "Sun", "time": "Closed"}], "id": "3540600005", "name": "USPS COLLECTION BOX - BLUE BOX", "address": {"city": "TUSCALOOSA", "state": "AL", "street": "1000 FIELDCREST DR", "postcode": "35406"}}},
{"geometry": {"type": "Point", "coordinates": [-87.5403334965, 33.2335253115]}, "type": "Feature", "properties": {"collection_times": [{"days": "Mon-Sat", "time": "2:00pm"}, {"days": "Sun", "time": "Closed"}], "id": "3540600006", "name": "USPS COLLECTION BOX - BLUE BOX", "address": {"city": "TUSCALOOSA", "state": "AL", "street": "312 MERCHANTS WALK", "postcode": "35406"}}},
{"geometry": {"type": "Point", "coordinates": [-87.5123368525, 33.250033682]}, "type": "Feature", "properties": {"collection_times": [{"days": "Mon-Sat", "time": "9:00am"}, {"days": "Sun", "time": "Closed"}], "id": "3540600009", "name": "USPS COLLECTION BOX - BLUE BOX", "address": {"city": "TUSCALOOSA", "state": "AL", "street": "3611 RICE MINE RD NE", "postcode": "35406"}}},
{"geometry": {"type": "Point", "coordinates": [-87.5376151879, 33.2332288174]}, "type": "Feature", "properties": {"collection_times": [{"days": "Mon-Fri", "time": "4:00pm"}, {"days": "Sat", "time": "10:45am"}, {"days": "Sun", "time": "Closed"}], "id": "3540600010", "name": "USPS COLLECTION BOX - BLUE BOX", "address": {"city": "TUSCALOOSA", "state": "AL", "street": "214 MCFARLAND CIR N", "postcode": "35406"}}},
{"geometry": {"type": "Point", "coordinates": [-87.5327135501, 33.2306979624]}, "type": "Feature", "properties": {"collection_times": [{"days": "Mon-Fri", "time": "4:00pm"}, {"days": "Sat", "time": "9:00am"}, {"days": "Sun", "time": "Closed"}], "id": "3540600013", "name": "USPS COLLECTION BOX - BLUE BOX", "address": {"city": "TUSCALOOSA", "state": "AL", "street": "1400 AFFLINK PL", "postcode": "35406"}}},
{"geometry": {"type": "Point", "coordinates": [-87.514222439, 33.2570836725]}, "type": "Feature", "properties": {"collection_times": [{"days": "Mon-Fri", "time": "2:00pm"}, {"days": "Sat", "time": "1:00pm"}, {"days": "Sun", "time": "Closed"}], "id": "3540600014", "name": "USPS COLLECTION BOX - BLUE BOX", "address": {"city": "TUSCALOOSA", "state": "AL", "street": "4851 RICE MINE RD NE", "postcode": "35406"}}},
{"geometry": {"type": "Point", "coordinates": [-87.1995640838, 33.2912355099]}, "type": "Feature", "properties": {"collection_times": [{"days": "Mon-Fri", "time": "10:00am"}, {"days": "Sat", "time": "9:00am"}, {"days": "Sun", "time": "Closed"}], "id": "3544000000", "name": "USPS COLLECTION BOX - BLUE BOX", "address": {"city": "ABERNANT", "state": "AL", "street": "13525 JOHNS RD", "postcode": "35440"}}},
{"geometry": {"type": "Point", "coordinates": [-87.1995640838, 33.2912355099]}, "type": "Feature", "properties": {"collection_times": [{"days": "Mon-Fri", "time": "10:00am"}, {"days": "Sat", "time": "9:00am"}, {"days": "Sun", "time": "Closed"}], "id": "3544000001", "name": "USPS COLLECTION BOX - PO LOBBY", "address": {"city": "ABERNANT", "state": "AL", "street": "13525 JOHNS RD", "postcode": "35440"}}},
{"geometry": {"type": "Point", "coordinates": [-87.7148558129, 32.8525937114]}, "type": "Feature", "properties": {"collection_times": [{"days": "Mon-Fri", "time": "3:30pm"}, {"days": "Sat", "time": "10:30am"}, {"days": "Sun", "time": "Closed"}], "id": "3544100000", "name": "USPS COLLECTION BOX - BLUE BOX", "address": {"city": "AKRON", "state": "AL", "street": "197 1ST AVE S", "postcode": "35441"}}},
{"geometry": {"type": "Point", "coordinates": [-87.7148558129, 32.8525937114]}, "type": "Feature", "properties": {"collection_times": [{"days": "Mon-Fri", "time": "3:30pm"}, {"days": "Sat", "time": "10:30am"}, {"days": "Sun", "time": "Closed"}], "id": "3544100001", "name": "USPS COLLECTION BOX - PO LOBBY", "address": {"city": "AKRON", "state": "AL", "street": "197 1ST AVE S", "postcode": "35441"}}},
{"geometry": {"type": "Point", "coordinates": [-88.150548869, 33.1294453532]}, "type": "Feature", "properties": {"collection_times": [{"days": "Mon-Fri", "time": "4:00pm"}, {"days": "Sat", "time": "12:00pm"}, {"days": "Sun", "time": "Closed"}], "id": "3544200000", "name": "USPS COLLECTION BOX - BLUE BOX", "address": {"city": "ALICEVILLE", "state": "AL", "street": "119 3RD AVE NE", "postcode": "35442"}}},
{"geometry": {"type": "Point", "coordinates": [-88.150548869, 33.1294453532]}, "type": "Feature", "properties": {"collection_times": [{"days": "Mon-Fri", "time": "4:00pm"}, {"days": "Sat", "time": "12:00pm"}, {"days": "Sun", "time": "Closed"}], "id": "3544200007", "name": "USPS COLLECTION BOX - PO LOBBY", "address": {"city": "ALICEVILLE", "state": "AL", "street": "119 3RD AVE NE", "postcode": "35442"}}},
{"geometry": {"type": "Point", "coordinates": [-88.0234005902, 32.7554304868]}, "type": "Feature", "properties": {"collection_times": [{"days": "Mon-Fri", "time": "2:30pm"}, {"days": "Sat", "time": "11:45am"}, {"days": "Sun", "time": "Closed"}], "id": "3544300000", "name": "USPS COLLECTION BOX - BLUE BOX", "address": {"city": "BOLIGEE", "state": "AL", "street": "157 COUNTY ROAD 81", "postcode": "35443"}}},
{"geometry": {"type": "Point", "coordinates": [-88.0234005902, 32.7554304868]}, "type": "Feature", "properties": {"collection_times": [{"days": "Mon-Fri", "time": "2:30pm"}, {"days": "Sat", "time": "11:45am"}, {"days": "Sun", "time": "Closed"}], "id": "3544300001", "name": "USPS COLLECTION BOX - PO LOBBY", "address": {"city": "BOLIGEE", "state": "AL", "street": "157 COUNTY ROAD 81", "postcode": "35443"}}},
{"geometry": {"type": "Point", "coordinates": [-88.0299299524, 32.770673875]}, "type": "Feature", "properties": {"collection_times": [{"days": "Mon-Sat", "time": "9:00am"}, {"days": "Sun", "time": "Closed"}], "id": "3544300003", "name": "USPS COLLECTION BOX - BLUE BOX", "address": {"city": "BOLIGEE", "state": "AL", "street": "17619 COUNTY ROAD 20", "postcode": "35443"}}},
{"geometry": {"type": "Point", "coordinates": [-87.3157883619, 33.2602462447]}, "type": "Feature", "properties": {"collection_times": [{"days": "Mon-Fri", "time": "4:00pm"}, {"days": "Sat", "time": "10:00am"}, {"days": "Sun", "time": "Closed"}], "id": "3544400000", "name": "USPS COLLECTION BOX - BLUE BOX", "address": {"city": "BROOKWOOD", "state": "AL", "street": "15605 HIGHWAY 216", "postcode": "35444"}}},
{"geometry": {"type": "Point", "coordinates": [-87.3157883619, 33.2602462447]}, "type": "Feature", "properties": {"collection_times": [{"days": "Mon-Fri", "time": "4:00pm"}, {"days": "Sat", "time": "10:00am"}, {"days": "Sun", "time": "Closed"}], "id": "3544400001", "name": "USPS COLLECTION BOX - PO LOBBY", "address": {"city": "BROOKWOOD", "state": "AL", "street": "15605 HIGHWAY 216", "postcode": "35444"}}},
{"geometry": {"type": "Point", "coordinates": [-87.749811726, 33.257008355]}, "type": "Feature", "properties": {"collection_times": [{"days": "Mon-Fri", "time": "11:45am"}, {"days": "Sat", "time": "10:00am"}, {"days": "Sun", "time": "Closed"}], "id": "3544600000", "name": "USPS COLLECTION BOX - BLUE BOX", "address": {"city": "BUHL", "state": "AL", "street": "16512 HIGHWAY 140", "postcode": "35446"}}},
{"geometry": {"type": "Point", "coordinates": [-87.749811726, 33.257008355]}, "type": "Feature", "properties": {"collection_times": [{"days": "Mon-Fri", "time": "11:45am"}, {"days": "Sat", "time": "10:00am"}, {"days": "Sun", "time": "Closed"}], "id": "3544600001", "name": "USPS COLLECTION BOX - PO LOBBY", "address": {"city": "BUHL", "state": "AL", "street": "16512 HIGHWAY 140", "postcode": "35446"}}},
{"geometry": {"type": "Point", "coordinates": [-88.095003001, 33.2622435778]}, "type": "Feature", "properties": {"collection_times": [{"days": "Mon-Fri", "time": "4:00pm"}, {"days": "Sat", "time": "10:30am"}, {"days": "Sun", "time": "Closed"}], "id": "3544700000", "name": "USPS COLLECTION BOX - BLUE BOX", "address": {"city": "CARROLLTON", "state": "AL", "street": "56 COURT SQ", "postcode": "35447"}}},
{"geometry": {"type": "Point", "coordinates": [-88.095003001, 33.2622435778]}, "type": "Feature", "properties": {"collection_times": [{"days": "Mon-Fri", "time": "4:00pm"}, {"days": "Sat", "time": "10:30am"}, {"days": "Sun", "time": "Closed"}], "id": "3544700001", "name": "USPS COLLECTION BOX - PO LOBBY", "address": {"city": "CARROLLTON", "state": "AL", "street": "56 COURT SQ SW", "postcode": "35447"}}},
{"geometry": {"type": "Point", "coordinates": [-87.8878577, 32.8420500659]}, "type": "Feature", "properties": {"collection_times": [{"days": "Mon-Fri", "time": "9:45am"}, {"days": "Sat", "time": "11:45am"}, {"days": "Sun", "time": "Closed"}], "id": "3544800000", "name": "USPS COLLECTION BOX - BLUE BOX", "address": {"city": "CLINTON", "state": "AL", "street": "44 HIGHWAY 14 N", "postcode": "35448"}}},
{"geometry": {"type": "Point", "coordinates": [-87.8878577, 32.8420500659]}, "type": "Feature", "properties": {"collection_times": [{"days": "Mon-Fri", "time": "9:45am"}, {"days": "Sat", "time": "11:45am"}, {"days": "Sun", "time": "Closed"}], "id": "3544800001", "name": "USPS COLLECTION BOX - PO LOBBY", "address": {"city": "CLINTON", "state": "AL", "street": "44 HIGHWAY 14 N", "postcode": "35448"}}},
{"geometry": {"type": "Point", "coordinates": [-87.3403739835, 33.1597038463]}, "type": "Feature", "properties": {"collection_times": [{"days": "Mon-Fri", "time": "12:00pm"}, {"days": "Sat", "time": "10:00am"}, {"days": "Sun", "time": "Closed"}], "id": "3544900000", "name": "USPS COLLECTION BOX - BLUE BOX", "address": {"city": "COALING", "state": "AL", "street": "11153 HAGLER COALING RD", "postcode": "35449"}}},
{"geometry": {"type": "Point", "coordinates": [-87.3403739835, 33.1597038463]}, "type": "Feature", "properties": {"collection_times": [{"days": "Mon-Fri", "time": "12:00pm"}, {"days": "Sat", "time": "10:00am"}, {"days": "Sun", "time": "Closed"}], "id": "3544900001", "name": "USPS COLLECTION BOX - PO LOBBY", "address": {"city": "COALING", "state": "AL", "street": "11153 HAGLER COALING RD", "postcode": "35449"}}},
{"geometry": {"type": "Point", "coordinates": [-87.6858390251, 33.2440476327]}, "type": "Feature", "properties": {"collection_times": [{"days": "Mon-Fri", "time": "3:45pm"}, {"days": "Sat", "time": "10:00am"}, {"days": "Sun", "time": "Closed"}], "id": "3545200000", "name": "USPS COLLECTION BOX - BLUE BOX", "address": {"city": "COKER", "state": "AL", "street": "14585 ROMULUS RD", "postcode": "35452"}}},
{"geometry": {"type": "Point", "coordinates": [-87.6858390251, 33.2440476327]}, "type": "Feature", "properties": {"collection_times": [{"days": "Mon-Fri", "time": "12:00pm"}, {"days": "Sat", "time": "10:00am"}, {"days": "Sun", "time": "Closed"}], "id": "3545200001", "name": "USPS COLLECTION BOX - PO LOBBY", "address": {"city": "COKER", "state": "AL", "street": "14585 ROMULUS RD", "postcode": "35452"}}},
{"geometry": {"type": "Point", "coordinates": [-87.4477903748, 33.1699947318]}, "type": "Feature", "properties": {"collection_times": [{"days": "Mon-Fri", "time": "4:30pm"}, {"days": "Sat", "time": "12:00pm"}, {"days": "Sun", "time": "Closed"}], "id": "3545300000", "name": "USPS COLLECTION BOX - BLUE BOX", "address": {"city": "COTTONDALE", "state": "AL", "street": "3101 BUTTERMILK RD", "postcode": "35453"}}},
{"geometry": {"type": "Point", "coordinates": [-87.4477903748, 33.1699947318]}, "type": "Feature", "properties": {"collection_times": [{"days": "Mon-Fri", "time": "4:30pm"}, {"days": "Sat", "time": "12:00pm"}, {"days": "Sun", "time": "Closed"}], "id": "3545300003", "name": "USPS COLLECTION BOX - BLUE BOX", "address": {"city": "COTTONDALE", "state": "AL", "street": "3101 BUTTERMILK RD", "postcode": "35453"}}},
{"geometry": {"type": "Point", "coordinates": [-87.4477903748, 33.1699947318]}, "type": "Feature", "properties": {"collection_times": [{"days": "Mon-Fri", "time": "4:30pm"}, {"days": "Sat", "time": "12:00pm"}, {"days": "Sun", "time": "Closed"}], "id": "3545300004", "name": "USPS COLLECTION BOX - PO LOBBY", "address": {"city": "COTTONDALE", "state": "AL", "street": "3101 BUTTERMILK RD", "postcode": "35453"}}},
{"geometry": {"type": "Point", "coordinates": [-87.4162150977, 33.0495916383]}, "type": "Feature", "properties": {"collection_times": [{"days": "Mon-Fri", "time": "2:15pm"}, {"days": "Sat", "time": "9:30am"}, {"days": "Sun", "time": "Closed"}], "id": "3545600000", "name": "USPS COLLECTION BOX - BLUE BOX", "address": {"city": "DUNCANVILLE", "state": "AL", "street": "12108 HIGHWAY 82 E", "postcode": "35456"}}},
{"geometry": {"type": "Point", "coordinates": [-87.4162150977, 33.0495916383]}, "type": "Feature", "properties": {"collection_times": [{"days": "Mon-Fri", "time": "2:15pm"}, {"days": "Sat", "time": "9:30am"}, {"days": "Sun", "time": "Closed"}], "id": "3545600002", "name": "USPS COLLECTION BOX - PO LOBBY", "address": {"city": "DUNCANVILLE", "state": "AL", "street": "12108 HIGHWAY 82 E", "postcode": "35456"}}},
{"geometry": {"type": "Point", "coordinates": [-87.8024834389, 33.2810367983]}, "type": "Feature", "properties": {"collection_times": [{"days": "Mon-Fri", "time": "11:45am"}, {"days": "Sat", "time": "10:15am"}, {"days": "Sun", "time": "Closed"}], "id": "3545800000", "name": "USPS COLLECTION BOX - BLUE BOX", "address": {"city": "ELROD", "state": "AL", "street": "12630 ELROD RD", "postcode": "35458"}}},
{"geometry": {"type": "Point", "coordinates": [-87.8024834389, 33.2810367983]}, "type": "Feature", "properties": {"collection_times": [{"days": "Mon-Fri", "time": "11:45am"}, {"days": "Sat", "time": "10:15am"}, {"days": "Sun", "time": "Closed"}], "id": "3545800001", "name": "USPS COLLECTION BOX - PO LOBBY", "address": {"city": "ELROD", "state": "AL", "street": "12630 ELROD RD", "postcode": "35458"}}},
{"geometry": {"type": "Point", "coordinates": [-88.3155950536, 32.7285825977]}, "type": "Feature", "properties": {"collection_times": [{"days": "Mon-Fri", "time": "12:00pm"}, {"days": "Sat", "time": "11:15am"}, {"days": "Sun", "time": "Closed"}], "id": "3545900000", "name": "USPS COLLECTION BOX - BLUE BOX", "address": {"city": "EMELLE", "state": "AL", "street": "121 DAILEY AVE", "postcode": "35459"}}},
{"geometry": {"type": "Point", "coordinates": [-88.3155950536, 32.7285825977]}, "type": "Feature", "properties": {"collection_times": [{"days": "Mon-Fri", "time": "12:00pm"}, {"days": "Sat", "time": "11:15am"}, {"days": "Sun", "time": "Closed"}], "id": "3545900001", "name": "USPS COLLECTION BOX - PO LOBBY", "address": {"city": "EMELLE", "state": "AL", "street": "121 DAILEY AVE", "postcode": "35459"}}},
{"geometry": {"type": "Point", "coordinates": [-88.1264746672, 32.6920771367]}, "type": "Feature", "properties": {"collection_times": [{"days": "Mon-Fri", "time": "11:50am"}, {"days": "Sat", "time": "10:30am"}, {"days": "Sun", "time": "Closed"}], "id": "3546000000", "name": "USPS COLLECTION BOX - BLUE BOX", "address": {"city": "EPES", "state": "AL", "street": "10230 CEDAR HILL DR", "postcode": "35460"}}},
{"geometry": {"type": "Point", "coordinates": [-88.1264746672, 32.6920771367]}, "type": "Feature", "properties": {"collection_times": [{"days": "Mon-Fri", "time": "11:50am"}, {"days": "Sat", "time": "10:30am"}, {"days": "Sun", "time": "Closed"}], "id": "3546000001", "name": "USPS COLLECTION BOX - PO LOBBY", "address": {"city": "EPES", "state": "AL", "street": "10230 CEDAR HILL DR", "postcode": "35460"}}},
{"geometry": {"type": "Point", "coordinates": [-88.2143555166, 33.4142385516]}, "type": "Feature", "properties": {"collection_times": [{"days": "Mon-Fri", "time": "2:30pm"}, {"days": "Sat", "time": "10:00am"}, {"days": "Sun", "time": "Closed"}], "id": "3546100000", "name": "USPS COLLECTION BOX - BLUE BOX", "address": {"city": "ETHELSVILLE", "state": "AL", "street": "491 MAIN ST", "postcode": "35461"}}},
{"geometry": {"type": "Point", "coordinates": [-88.2143555166, 33.4142385516]}, "type": "Feature", "properties": {"collection_times": [{"days": "Mon-Fri", "time": "2:30pm"}, {"days": "Sat", "time": "10:45am"}, {"days": "Sun", "time": "Closed"}], "id": "3546100001", "name": "USPS COLLECTION BOX - PO LOBBY", "address": {"city": "ETHELSVILLE", "state": "AL", "street": "491 MAIN ST", "postcode": "35461"}}},
{"geometry": {"type": "Point", "coordinates": [-87.8879058763, 32.841911673]}, "type": "Feature", "properties": {"collection_times": [{"days": "Mon-Sat", "time": "12:00pm"}, {"days": "Sun", "time": "Closed"}], "id": "3546200000", "name": "USPS COLLECTION BOX - PO LOBBY", "address": {"city": "EUTAW", "state": "AL", "street": "256 PRAIRIE AVE", "postcode": "35462"}}},
{"geometry": {"type": "Point", "coordinates": [-87.8879058763, 32.841911673]}, "type": "Feature", "properties": {"collection_times": [{"days": "Mon-Sat", "time": "12:00pm"}, {"days": "Sun", "time": "Closed"}], "id": "3546200001", "name": "USPS COLLECTION BOX - BLUE BOX", "address": {"city": "EUTAW", "state": "AL", "street": "256 PRAIRIE AVE", "postcode": "35462"}}},
{"geometry": {"type": "Point", "coordinates": [-87.6762940817, 33.1054075394]}, "type": "Feature", "properties": {"collection_times": [{"days": "Mon-Fri", "time": "3:30pm"}, {"days": "Sat", "time": "10:00am"}, {"days": "Sun", "time": "Closed"}], "id": "3546300000", "name": "USPS COLLECTION BOX - BLUE BOX", "address": {"city": "FOSTERS", "state": "AL", "street": "13467 HIGHWAY 11 S", "postcode": "35463"}}},
{"geometry": {"type": "Point", "coordinates": [-87.6762940817, 33.1054075394]}, "type": "Feature", "properties": {"collection_times": [{"days": "Mon-Fri", "time": "3:30pm"}, {"days": "Sat", "time": "10:00am"}, {"days": "Sun", "time": "Closed"}], "id": "3546300001", "name": "USPS COLLECTION BOX - PO LOBBY", "address": {"city": "FOSTERS", "state": "AL", "street": "13467 HIGHWAY 11 S", "postcode": "35463"}}},
{"geometry": {"type": "Point", "coordinates": [-88.1620806423, 32.81962177]}, "type": "Feature", "properties": {"collection_times": [{"days": "Mon-Fri", "time": "12:00pm"}, {"days": "Sat", "time": "11:30am"}, {"days": "Sun", "time": "Closed"}], "id": "3546400000", "name": "USPS COLLECTION BOX - BLUE BOX", "address": {"city": "GAINESVILLE", "state": "AL", "street": "9393 STATE ST", "postcode": "35464"}}},
{"geometry": {"type": "Point", "coordinates": [-88.1620806423, 32.81962177]}, "type": "Feature", "properties": {"collection_times": [{"days": "Mon-Fri", "time": "12:00pm"}, {"days": "Sat", "time": "11:30am"}, {"days": "Sun", "time": "Closed"}], "id": "3546400001", "name": "USPS COLLECTION BOX - PO LOBBY", "address": {"city": "GAINESVILLE", "state": "AL", "street": "9393 STATE ST", "postcode": "35464"}}},
{"geometry": {"type": "Point", "coordinates": [-88.1620806423, 32.81962177]}, "type": "Feature", "properties": {"collection_times": [{"days": "Mon-Fri", "time": "12:00pm"}, {"days": "Sat", "time": "11:30am"}, {"days": "Sun", "time": "Closed"}], "id": "3546400002", "name": "USPS COLLECTION BOX - PO LOBBY", "address": {"city": "GAINESVILLE", "state": "AL", "street": "9393 STATE ST", "postcode": "35464"}}},
{"geometry": {"type": "Point", "coordinates": [-87.9094119263, 33.3205947316]}, "type": "Feature", "properties": {"collection_times": [{"days": "Mon-Fri", "time": "4:00pm"}, {"days": "Sat", "time": "11:00am"}, {"days": "Sun", "time": "Closed"}], "id": "3546600000", "name": "USPS COLLECTION BOX - BLUE BOX", "address": {"city": "GORDO", "state": "AL", "street": "842 INDUSTRIAL PARK BLVD", "postcode": "35466"}}},
{"geometry": {"type": "Point", "coordinates": [-87.9094119263, 33.3205947316]}, "type": "Feature", "properties": {"collection_times": [{"days": "Mon-Fri", "time": "4:00pm"}, {"days": "Sat", "time": "11:00am"}, {"days": "Sun", "time": "Closed"}], "id": "3546600001", "name": "USPS COLLECTION BOX - PO LOBBY", "address": {"city": "GORDO", "state": "AL", "street": "842 INDUSTRIAL PARK BLVD", "postcode": "35466"}}},
{"geometry": {"type": "Point", "coordinates": [-87.9094119263, 33.3205947316]}, "type": "Feature", "properties": {"collection_times": [{"days": "Mon-Fri", "time": "4:00pm"}, {"days": "Sat", "time": "11:00am"}, {"days": "Sun", "time": "Closed"}], "id": "3546600002", "name": "USPS COLLECTION BOX - PO LOBBY", "address": {"city": "GORDO", "state": "AL", "street": "842 INDUSTRIAL PARK BLVD", "postcode": "35466"}}},
{"geometry": {"type": "Point", "coordinates": [-88.189240613, 32.582760975]}, "type": "Feature", "properties": {"collection_times": [{"days": "Mon-Fri", "time": "4:00pm"}, {"days": "Sat", "time": "12:00pm"}, {"days": "Sun", "time": "Closed"}], "id": "3547000000", "name": "USPS COLLECTION BOX - BLUE BOX", "address": {"city": "LIVINGSTON", "state": "AL", "street": "205 MADISON ST", "postcode": "35470"}}},
{"geometry": {"type": "Point", "coordinates": [-88.1901753412, 32.5817075385]}, "type": "Feature", "properties": {"collection_times": [{"days": "Mon-Fri", "time": "5:00pm"}, {"days": "Sat", "time": "12:00pm"}, {"days": "Sun", "time": "Closed"}], "id": "3547000002", "name": "USPS COLLECTION BOX - PO LOBBY", "address": {"city": "LIVINGSTON", "state": "AL", "street": "321 WASHINGTON ST", "postcode": "35470"}}},
{"geometry": {"type": "Point", "coordinates": [-87.6367103133, 32.9899414068]}, "type": "Feature", "properties": {"collection_times": [{"days": "Mon-Fri", "time": "4:30pm"}, {"days": "Sat", "time": "12:00pm"}, {"days": "Sun", "time": "Closed"}], "id": "3547400000", "name": "USPS COLLECTION BOX - BLUE BOX", "address": {"city": "MOUNDVILLE", "state": "AL", "street": "259 2ND AVE", "postcode": "35474"}}},
{"geometry": {"type": "Point", "coordinates": [-87.6367103133, 32.9899414068]}, "type": "Feature", "properties": {"collection_times": [{"days": "Mon-Fri", "time": "4:30pm"}, {"days": "Sat", "time": "12:00pm"}, {"days": "Sun", "time": "Closed"}], "id": "3547400001", "name": "USPS COLLECTION BOX - PO LOBBY", "address": {"city": "MOUNDVILLE", "state": "AL", "street": "259 2ND AVE", "postcode": "35474"}}},
{"geometry": {"type": "Point", "coordinates": [-87.5959533601, 33.2392761587]}, "type": "Feature", "properties": {"collection_times": [{"days": "Mon-Sat", "time": "4:00pm"}, {"days": "Sun", "time": "Closed"}], "id": "3547600000", "name": "USPS COLLECTION BOX - BLUE BOX", "address": {"city": "NORTHPORT", "state": "AL", "street": "4200 MCFARLAND BLVD", "postcode": "35476"}}},
{"geometry": {"type": "Point", "coordinates": [-87.5959533601, 33.2392761587]}, "type": "Feature", "properties": {"collection_times": [{"days": "Mon-Sat", "time": "4:00pm"}, {"days": "Sun", "time": "Closed"}], "id": "3547600001", "name": "USPS COLLECTION BOX - BLUE BOX", "address": {"city": "NORTHPORT", "state": "AL", "street": "4200 MCFARLAND BLVD", "postcode": "35476"}}},
{"geometry": {"type": "Point", "coordinates": [-87.5842366682, 33.2304927721]}, "type": "Feature", "properties": {"collection_times": [{"days": "Mon-Sat", "time": "4:00pm"}, {"days": "Sun", "time": "Closed"}], "id": "3547600002", "name": "USPS COLLECTION BOX - EXPRESS", "address": {"city": "NORTHPORT", "state": "AL", "street": "4200 MCFARLAND BLVD", "postcode": "35476"}}},
{"geometry": {"type": "Point", "coordinates": [-87.5773040733, 33.2190185867]}, "type": "Feature", "properties": {"collection_times": [{"days": "Mon-Fri", "time": "11:45am"}, {"days": "Sat", "time": "11:00am"}, {"days": "Sun", "time": "Closed"}], "id": "3547600003", "name": "USPS COLLECTION BOX - BLUE BOX", "address": {"city": "NORTHPORT", "state": "AL", "street": "1922 5TH ST", "postcode": "35476"}}},
{"geometry": {"type": "Point", "coordinates": [-87.5897567736, 33.2406964936]}, "type": "Feature", "properties": {"collection_times": [{"days": "Mon-Sat", "time": "1:00pm"}, {"days": "Sun", "time": "Closed"}], "id": "3547600007", "name": "USPS COLLECTION BOX - BLUE BOX", "address": {"city": "NORTHPORT", "state": "AL", "street": "3500 MCFARLAND BLVD", "postcode": "35476"}}},
{"geometry": {"type": "Point", "coordinates": [-87.5695606279, 33.2336359806]}, "type": "Feature", "properties": {"collection_times": [{"days": "Mon-Sat", "time": "9:30am"}, {"days": "Sun", "time": "Closed"}], "id": "3547600010", "name": "USPS COLLECTION BOX - BLUE BOX", "address": {"city": "NORTHPORT", "state": "AL", "street": "2700 HOSPITAL DR", "postcode": "35476"}}},
{"geometry": {"type": "Point", "coordinates": [-87.5581870911, 33.2398418891]}, "type": "Feature", "properties": {"collection_times": [{"days": "Mon-Sat", "time": "10:00am"}, {"days": "Sun", "time": "Closed"}], "id": "3547600015", "name": "USPS COLLECTION BOX - BLUE BOX", "address": {"city": "NORTHPORT", "state": "AL", "street": "800 ENERGY CENTER BLVD", "postcode": "35476"}}},
{"geometry": {"type": "Point", "coordinates": [-87.5518138578, 33.2373977009]}, "type": "Feature", "properties": {"collection_times": [{"days": "Mon-Sat", "time": "12:15pm"}, {"days": "Sun", "time": "Closed"}], "id": "3547600017", "name": "USPS COLLECTION BOX - BLUE BOX", "address": {"city": "NORTHPORT", "state": "AL", "street": "3610 WATERMELON RD", "postcode": "35476"}}},
{"geometry": {"type": "Point", "coordinates": [-87.5518230259, 33.2367303366]}, "type": "Feature", "properties": {"collection_times": [{"days": "Mon-Sat", "time": "12:15pm"}, {"days": "Sun", "time": "Closed"}], "id": "3547600018", "name": "USPS COLLECTION BOX - BLUE BOX", "address": {"city": "NORTHPORT", "state": "AL", "street": "3550 WATERMELON RD", "postcode": "35476"}}},
{"geometry": {"type": "Point", "coordinates": [-87.5842366682, 33.2304927721]}, "type": "Feature", "properties": {"collection_times": [{"days": "Mon-Fri", "time": "12:00pm"}, {"days": "Sat", "time": "11:30am"}, {"days": "Sun", "time": "Closed"}], "id": "3547600029", "name": "USPS COLLECTION BOX - BLUE BOX", "address": {"city": "NORTHPORT", "state": "AL", "street": "13620 HIGHWAY 43 N", "postcode": "35476"}}},
{"geometry": {"type": "Point", "coordinates": [-87.5959533601, 33.2392761587]}, "type": "Feature", "properties": {"collection_times": [{"days": "Mon-Sat", "time": "4:00pm"}, {"days": "Sun", "time": "Closed"}], "id": "3547600031", "name": "USPS COLLECTION BOX - PO LOBBY", "address": {"city": "NORTHPORT", "state": "AL", "street": "4200 MCFARLAND BLVD", "postcode": "35476"}}},
{"geometry": {"type": "Point", "coordinates": [-87.552057678, 33.2402094931]}, "type": "Feature", "properties": {"collection_times": [{"days": "Mon-Sat", "time": "9:00am"}, {"days": "Sun", "time": "Closed"}], "id": "3547600034", "name": "USPS COLLECTION BOX - BLUE BOX", "address": {"city": "NORTHPORT", "state": "AL", "street": "519 ENERGY CENTER BLVD", "postcode": "35476"}}},
{"geometry": {"type": "Point", "coordinates": [-87.5842366682, 33.2304927721]}, "type": "Feature", "properties": {"collection_times": [{"days": "Mon-Sat", "time": "11:30am"}, {"days": "Sun", "time": "Closed"}], "id": "3547600038", "name": "USPS COLLECTION BOX - BLUE BOX", "address": {"city": "NORTHPORT", "state": "AL", "street": "19049 HIGHWAY 43 N", "postcode": "35476"}}},
{"geometry": {"type": "Point", "coordinates": [-88.2684291734, 32.9503209877]}, "type": "Feature", "properties": {"collection_times": [{"days": "Mon-Fri", "time": "11:20am"}, {"days": "Sat", "time": "10:30am"}, {"days": "Sun", "time": "Closed"}], "id": "3547700000", "name": "USPS COLLECTION BOX - BLUE BOX", "address": {"city": "PANOLA", "state": "AL", "street": "1630 PANOLA PARKWAY 34", "postcode": "35477"}}},
{"geometry": {"type": "Point", "coordinates": [-88.2684291734, 32.9503209877]}, "type": "Feature", "properties": {"collection_times": [{"days": "Mon-Fri", "time": "11:20am"}, {"days": "Sat", "time": "10:30am"}, {"days": "Sun", "time": "Closed"}], "id": "3547700001", "name": "USPS COLLECTION BOX - PO LOBBY", "address": {"city": "PANOLA", "state": "AL", "street": "1630 PANOLA PARKWAY 34", "postcode": "35477"}}},
{"geometry": {"type": "Point", "coordinates": [-87.4229587541, 33.23279128]}, "type": "Feature", "properties": {"collection_times": [{"days": "Mon-Fri", "time": "10:00am"}, {"days": "Sat", "time": "9:00am"}, {"days": "Sun", "time": "Closed"}], "id": "3547800001", "name": "USPS COLLECTION BOX - PO LOBBY", "address": {"city": "PETERSON", "state": "AL", "street": "8910 OLD BIRMINGHAM HWY", "postcode": "35478"}}},
{"geometry": {"type": "Point", "coordinates": [-87.7720103136, 33.0380593424]}, "type": "Feature", "properties": {"collection_times": [{"days": "Mon-Fri", "time": "12:50pm"}, {"days": "Sat", "time": "11:00am"}, {"days": "Sun", "time": "Closed"}], "id": "3548000000", "name": "USPS COLLECTION BOX - BLUE BOX", "address": {"city": "RALPH", "state": "AL", "street": "17127 RALPH LOOP RD", "postcode": "35480"}}},
{"geometry": {"type": "Point", "coordinates": [-87.7720103136, 33.0380593424]}, "type": "Feature", "properties": {"collection_times": [{"days": "Mon-Fri", "time": "12:50pm"}, {"days": "Sat", "time": "11:00am"}, {"days": "Sun", "time": "Closed"}], "id": "3548000001", "name": "USPS COLLECTION BOX - PO LOBBY", "address": {"city": "RALPH", "state": "AL", "street": "17127 RALPH LOOP RD", "postcode": "35480"}}},
{"geometry": {"type": "Point", "coordinates": [-88.0115734791, 33.3777494148]}, "type": "Feature", "properties": {"collection_times": [{"days": "Mon-Fri", "time": "4:35pm"}, {"days": "Sat", "time": "11:30am"}, {"days": "Sun", "time": "Closed"}], "id": "3548100000", "name": "USPS COLLECTION BOX - BLUE BOX", "address": {"city": "REFORM", "state": "AL", "street": "406 1ST AVE E", "postcode": "35481"}}},
{"geometry": {"type": "Point", "coordinates": [-88.0115734791, 33.3777494148]}, "type": "Feature", "properties": {"collection_times": [{"days": "Mon-Fri", "time": "4:35pm"}, {"days": "Sat", "time": "11:30am"}, {"days": "Sun", "time": "Closed"}], "id": "3548100001", "name": "USPS COLLECTION BOX - PO LOBBY", "address": {"city": "REFORM", "state": "AL", "street": "406 1ST AVE E", "postcode": "35481"}}},
{"geometry": {"type": "Point", "coordinates": [-87.6042050761, 33.4778272056]}, "type": "Feature", "properties": {"collection_times": [{"days": "Mon-Sat", "time": "11:30am"}, {"days": "Sun", "time": "Closed"}], "id": "3548200000", "name": "USPS COLLECTION BOX - BLUE BOX", "address": {"city": "SAMANTHA", "state": "AL", "street": "12855 NORTHSIDE RD", "postcode": "35482"}}},
{"geometry": {"type": "Point", "coordinates": [-87.6042050761, 33.4778272056]}, "type": "Feature", "properties": {"collection_times": [{"days": "Mon-Sat", "time": "11:30am"}, {"days": "Sun", "time": "Closed"}], "id": "3548200001", "name": "USPS COLLECTION BOX - PO LOBBY", "address": {"city": "SAMANTHA", "state": "AL", "street": "12855 NORTHSIDE RD", "postcode": "35482"}}},
{"geometry": {"type": "Point", "coordinates": [-87.224913961, 33.1770183299]}, "type": "Feature", "properties": {"collection_times": [{"days": "Mon-Fri", "time": "3:50pm"}, {"days": "Sat", "time": "11:00am"}, {"days": "Sun", "time": "Closed"}], "id": "3549000000", "name": "USPS COLLECTION BOX - BLUE BOX", "address": {"city": "VANCE", "state": "AL", "street": "18694 HIGHWAY 11 N", "postcode": "35490"}}},
{"geometry": {"type": "Point", "coordinates": [-87.2250351723, 33.1770452006]}, "type": "Feature", "properties": {"collection_times": [{"days": "Mon-Fri", "time": "3:45pm"}, {"days": "Sat", "time": "11:00am"}, {"days": "Sun", "time": "Closed"}], "id": "3549000001", "name": "USPS COLLECTION BOX - PO LOBBY", "address": {"city": "VANCE", "state": "AL", "street": "18694 HIGHWAY 11 N", "postcode": "35490"}}},
{"geometry": {"type": "Point", "coordinates": [-87.263524495, 33.1881472636]}, "type": "Feature", "properties": {"collection_times": [{"days": "Mon-Sat", "time": "11:30am"}, {"days": "Sun", "time": "Closed"}], "id": "3549000002", "name": "USPS COLLECTION BOX - BLUE BOX", "address": {"city": "VANCE", "state": "AL", "street": "1 MERCEDES DR", "postcode": "35490"}}},
{"geometry": {"type": "Point", "coordinates": [-87.254005465, 33.190608458]}, "type": "Feature", "properties": {"collection_times": [{"days": "Mon-Sat", "time": "11:35am"}, {"days": "Sun", "time": "Closed"}], "id": "3549000003", "name": "USPS COLLECTION BOX - BLUE BOX", "address": {"city": "VANCE", "state": "AL", "street": "3 MERCEDES DR", "postcode": "35490"}}},
{"geometry": {"type": "Point", "coordinates": [-88.0835523652, 32.9233132854]}, "type": "Feature", "properties": {"collection_times": [{"days": "Mon-Fri", "time": "9:45am"}, {"days": "Sat", "time": "11:45am"}, {"days": "Sun", "time": "Closed"}], "id": "3549100000", "name": "USPS COLLECTION BOX - BLUE BOX", "address": {"city": "WEST GREENE", "state": "AL", "street": "5190 GREENE COUNTY ROAD 117", "postcode": "35491"}}},
{"geometry": {"type": "Point", "coordinates": [-88.0835523652, 32.9233132854]}, "type": "Feature", "properties": {"collection_times": [{"days": "Mon-Fri", "time": "9:45am"}, {"days": "Sat", "time": "11:45am"}, {"days": "Sun", "time": "Closed"}], "id": "3549100001", "name": "USPS COLLECTION BOX - PO LOBBY", "address": {"city": "WEST GREENE", "state": "AL", "street": "5190 GREENE COUNTY ROAD 117", "postcode": "35491"}}}
]}
