{"type": "FeatureCollection", "features": [
{"geometry": {"type": "Point", "coordinates": [-87.2718785678, 33.8291736999]}, "type": "Feature", "properties": {"collection_times": [{"days": "Mon-Sat", "time": "6:30pm"}, {"days": "Sun", "time": "Closed"}], "id": "3550100001", "name": "USPS COLLECTION BOX - BLUE BOX", "address": {"city": "JASPER", "state": "AL", "street": "2101 3RD AVE S", "postcode": "35501"}}},
{"geometry": {"type": "Point", "coordinates": [-87.2718785678, 33.8291736999]}, "type": "Feature", "properties": {"collection_times": [{"days": "Mon-Fri", "time": "6:30pm"}, {"days": "Sat-Sun", "time": "Closed"}], "id": "3550100003", "name": "USPS COLLECTION BOX - EXPRESS", "address": {"city": "JASPER", "state": "AL", "street": "2101 3RD AVE S", "postcode": "35501"}}},
{"geometry": {"type": "Point", "coordinates": [-87.2718785678, 33.8291736999]}, "type": "Feature", "properties": {"collection_times": [{"days": "Mon-Sat", "time": "6:30pm"}, {"days": "Sun", "time": "Closed"}], "id": "3550100004", "name": "USPS COLLECTION BOX - BLUE BOX", "address": {"city": "JASPER", "state": "AL", "street": "2101 3RD AVE S", "postcode": "35501"}}},
{"geometry": {"type": "Point", "coordinates": [-87.2713658471, 33.8493549884]}, "type": "Feature", "properties": {"collection_times": [{"days": "Mon-Fri", "time": "11:15am"}, {"days": "Sat", "time": "10:00am"}, {"days": "Sun", "time": "Closed"}], "id": "3550100009", "name": "USPS COLLECTION BOX - BLUE BOX", "address": {"city": "JASPER", "state": "AL", "street": "300 HIGHWAY 78 E", "postcode": "35501"}}},
{"geometry": {"type": "Point", "coordinates": [-87.2650313927, 33.8476073449]}, "type": "Feature", "properties": {"collection_times": [{"days": "Mon-Fri", "time": "10:30am"}, {"days": "Sat", "time": "10:15am"}, {"days": "Sun", "time": "Closed"}], "id": "3550100011", "name": "USPS COLLECTION BOX - BLUE BOX", "address": {"city": "JASPER", "state": "AL", "street": "904 HIGHWAY 78 E", "postcode": "35501"}}},
{"geometry": {"type": "Point", "coordinates": [-87.2768248899, 33.8323358459]}, "type": "Feature", "properties": {"collection_times": [{"days": "Mon-Fri", "time": "9:00am"}, {"days": "Sat", "time": "8:00am"}, {"days": "Sun", "time": "Closed"}], "id": "3550100013", "name": "USPS COLLECTION BOX - BLUE BOX", "address": {"city": "JASPER", "state": "AL", "street": "200 19TH ST W", "postcode": "35501"}}},
{"geometry": {"type": "Point", "coordinates": [-87.2785767589, 33.8330381815]}, "type": "Feature", "properties": {"collection_times": [{"days": "Mon-Sat", "time": "8:00am"}, {"days": "Sun", "time": "Closed"}], "id": "3550100014", "name": "USPS COLLECTION BOX - BLUE BOX", "address": {"city": "JASPER", "state": "AL", "street": "1820 4TH AVE S", "postcode": "35501"}}},
{"geometry": {"type": "Point", "coordinates": [-87.2604037939, 33.8465537429]}, "type": "Feature", "properties": {"collection_times": [{"days": "Mon-Fri", "time": "10:30am"}, {"days": "Sat", "time": "9:00am"}, {"days": "Sun", "time": "Closed"}], "id": "3550100017", "name": "USPS COLLECTION BOX - BLUE BOX", "address": {"city": "JASPER", "state": "AL", "street": "1200 HWY 78 E", "postcode": "35501"}}},
{"geometry": {"type": "Point", "coordinates": [-87.2830998767, 33.8486853268]}, "type": "Feature", "properties": {"collection_times": [{"days": "Mon-Fri", "time": "9:30am"}, {"days": "Sat", "time": "9:00am"}, {"days": "Sun", "time": "Closed"}], "id": "3550100020", "name": "USPS COLLECTION BOX - BLUE BOX", "address": {"city": "JASPER", "state": "AL", "street": "703 HIGHWAY 78 W", "postcode": "35501"}}},
{"geometry": {"type": "Point", "coordinates": [-87.2746313476, 33.8333262651]}, "type": "Feature", "properties": {"collection_times": [{"days": "Mon-Sat", "time": "8:00am"}, {"days": "Sun", "time": "Closed"}], "id": "3550100025", "name": "USPS COLLECTION BOX - BLUE BOX", "address": {"city": "JASPER", "state": "AL", "street": "11 18TH ST W", "postcode": "35501"}}},
{"geometry": {"type": "Point", "coordinates": [-87.2744413414, 33.834221977]}, "type": "Feature", "properties": {"collection_times": [{"days": "Mon-Sat", "time": "9:00am"}, {"days": "Sun", "time": "Closed"}], "id": "3550100026", "name": "USPS COLLECTION BOX - BLUE BOX", "address": {"city": "JASPER", "state": "AL", "street": "1710 ALABAMA AVE", "postcode": "35501"}}},
{"geometry": {"type": "Point", "coordinates": [-87.2368366045, 33.8411915595]}, "type": "Feature", "properties": {"collection_times": [{"days": "Mon-Sat", "time": "12:00pm"}, {"days": "Sun", "time": "Closed"}], "id": "3550100028", "name": "USPS COLLECTION BOX - BLUE BOX", "address": {"city": "JASPER", "state": "AL", "street": "3400 HIGHWAY 78 E", "postcode": "35501"}}},
{"geometry": {"type": "Point", "coordinates": [-87.2718785678, 33.8291736999]}, "type": "Feature", "properties": {"collection_times": [{"days": "Mon-Sat", "time": "6:45pm"}, {"days": "Sun", "time": "Closed"}], "id": "3550100031", "name": "USPS COLLECTION BOX - PO LOBBY", "address": {"city": "JASPER", "state": "AL", "street": "2101 3RD AVE S", "postcode": "35501"}}},
{"geometry": {"type": "Point", "coordinates": [-87.2216919075, 33.8242587459]}, "type": "Feature", "properties": {"collection_times": [{"days": "Mon-Sat", "time": "11:00am"}, {"days": "Sun", "time": "Closed"}], "id": "3550100032", "name": "USPS COLLECTION BOX - BLUE BOX", "address": {"city": "JASPER", "state": "AL", "street": "4330 HIGHWAY 78 E", "postcode": "35501"}}},
{"geometry": {"type": "Point", "coordinates": [-87.2529049696, 33.8446140703]}, "type": "Feature", "properties": {"collection_times": [{"days": "Mon-Sat", "time": "9:00am"}, {"days": "Sun", "time": "Closed"}], "id": "3550100033", "name": "USPS COLLECTION BOX - BLUE BOX", "address": {"city": "JASPER", "state": "AL", "street": "1801 HIGHWAY 78 E", "postcode": "35501"}}},
{"geometry": {"type": "Point", "coordinates": [-87.1778988166, 34.2012554654]}, "type": "Feature", "properties": {"collection_times": [{"days": "Mon-Fri", "time": "3:30pm"}, {"days": "Sat", "time": "10:00am"}, {"days": "Sun", "time": "Closed"}], "id": "3554000000", "name": "USPS COLLECTION BOX - BLUE BOX", "address": {"city": "ADDISON", "state": "AL", "street": "30696 HIGHWAY 278", "postcode": "35540"}}},
{"geometry": {"type": "Point", "coordinates": [-87.1778988166, 34.2012554654]}, "type": "Feature", "properties": {"collection_times": [{"days": "Mon-Fri", "time": "3:30pm"}, {"days": "Sat", "time": "10:00am"}, {"days": "Sun", "time": "Closed"}], "id": "3554000001", "name": "USPS COLLECTION BOX - PO LOBBY", "address": {"city": "ADDISON", "state": "AL", "street": "30696 HIGHWAY 278", "postcode": "35540"}}},
{"geometry": {"type": "Point", "coordinates": [-87.2238969603, 34.0511584372]}, "type": "Feature", "properties": {"collection_times": [{"days": "Mon-Fri", "time": "3:45pm"}, {"days": "Sat", "time": "12:00pm"}, {"days": "Sun", "time": "Closed"}], "id": "3554100000", "name": "USPS COLLECTION BOX - BLUE BOX", "address": {"city": "ARLEY", "state": "AL", "street": "6865 COUNTY ROAD 41", "postcode": "35541"}}},
{"geometry": {"type": "Point", "coordinates": [-87.2238969603, 34.0511584372]}, "type": "Feature", "properties": {"collection_times": [{"days": "Mon-Fri", "time": "3:45pm"}, {"days": "Sat", "time": "12:00pm"}, {"days": "Sun", "time": "Closed"}], "id": "3554100001", "name": "USPS COLLECTION BOX - PO LOBBY", "address": {"city": "ARLEY", "state": "AL", "street": "6865 COUNTY ROAD 41", "postcode": "35541"}}},
{"geometry": {"type": "Point", "coordinates": [-87.6734836196, 33.6742039832]}, "type": "Feature", "properties": {"collection_times": [{"days": "Mon-Fri", "time": "10:00am"}, {"days": "Sat", "time": "9:30am"}, {"days": "Sun", "time": "Closed"}], "id": "3554200000", "name": "USPS COLLECTION BOX - BLUE BOX", "address": {"city": "BANKSTON", "state": "AL", "street": "10745 HIGHWAY 18 E", "postcode": "35542"}}},
{"geometry": {"type": "Point", "coordinates": [-87.6734836196, 33.6742039832]}, "type": "Feature", "properties": {"collection_times": [{"days": "Mon-Fri", "time": "10:00am"}, {"days": "Sat", "time": "9:30am"}, {"days": "Sun", "time": "Closed"}], "id": "3554200001", "name": "USPS COLLECTION BOX - PO LOBBY", "address": {"city": "BANKSTON", "state": "AL", "street": "10745 HIGHWAY 18 E", "postcode": "35542"}}},
{"geometry": {"type": "Point", "coordinates": [-87.7007201214, 34.2752680124]}, "type": "Feature", "properties": {"collection_times": [{"days": "Mon-Fri", "time": "12:00pm"}, {"days": "Sat", "time": "10:30am"}, {"days": "Sun", "time": "Closed"}], "id": "3554300000", "name": "USPS COLLECTION BOX - BLUE BOX", "address": {"city": "BEAR CREEK", "state": "AL", "street": "335 MAIN ST", "postcode": "35543"}}},
{"geometry": {"type": "Point", "coordinates": [-87.7007201214, 34.2752680124]}, "type": "Feature", "properties": {"collection_times": [{"days": "Mon-Fri", "time": "12:00pm"}, {"days": "Sat", "time": "10:30am"}, {"days": "Sun", "time": "Closed"}], "id": "3554300001", "name": "USPS COLLECTION BOX - PO LOBBY", "address": {"city": "BEAR CREEK", "state": "AL", "street": "335 MAIN ST", "postcode": "35543"}}},
{"geometry": {"type": "Point", "coordinates": [-88.0203358759, 33.9311827879]}, "type": "Feature", "properties": {"collection_times": [{"days": "Mon-Fri", "time": "11:50am"}, {"days": "Sat", "time": "11:00am"}, {"days": "Sun", "time": "Closed"}], "id": "3554400000", "name": "USPS COLLECTION BOX - BLUE BOX", "address": {"city": "BEAVERTON", "state": "AL", "street": "32457 COUNTY ROAD 49", "postcode": "35544"}}},
{"geometry": {"type": "Point", "coordinates": [-88.0203358759, 33.9311827879]}, "type": "Feature", "properties": {"collection_times": [{"days": "Mon-Fri", "time": "11:50am"}, {"days": "Sat", "time": "11:00am"}, {"days": "Sun", "time": "Closed"}], "id": "3554400001", "name": "USPS COLLECTION BOX - PO LOBBY", "address": {"city": "BEAVERTON", "state": "AL", "street": "32457 COUNTY ROAD 49", "postcode": "35544"}}},
{"geometry": {"type": "Point", "coordinates": [-87.9365181515, 33.6349813337]}, "type": "Feature", "properties": {"collection_times": [{"days": "Mon-Fri", "time": "11:00am"}, {"days": "Sat", "time": "10:30am"}, {"days": "Sun", "time": "Closed"}], "id": "3554500000", "name": "USPS COLLECTION BOX - BLUE BOX", "address": {"city": "BELK", "state": "AL", "street": "7660 HIGHWAY 96", "postcode": "35545"}}},
{"geometry": {"type": "Point", "coordinates": [-87.9365181515, 33.6349813337]}, "type": "Feature", "properties": {"collection_times": [{"days": "Mon-Fri", "time": "11:00am"}, {"days": "Sat", "time": "10:30am"}, {"days": "Sun", "time": "Closed"}], "id": "3554500001", "name": "USPS COLLECTION BOX - PO LOBBY", "address": {"city": "BELK", "state": "AL", "street": "7660 HIGHWAY 96", "postcode": "35545"}}},
{"geometry": {"type": "Point", "coordinates": [-87.6048465218, 33.6553765995]}, "type": "Feature", "properties": {"collection_times": [{"days": "Mon-Fri", "time": "12:00pm"}, {"days": "Sat", "time": "10:30am"}, {"days": "Sun", "time": "Closed"}], "id": "3554600000", "name": "USPS COLLECTION BOX - BLUE BOX", "address": {"city": "BERRY", "state": "AL", "street": "107 FEDERAL AVE", "postcode": "35546"}}},
{"geometry": {"type": "Point", "coordinates": [-87.6048465218, 33.6553765995]}, "type": "Feature", "properties": {"collection_times": [{"days": "Mon-Fri", "time": "12:00pm"}, {"days": "Sat", "time": "10:30am"}, {"days": "Sun", "time": "Closed"}], "id": "3554600001", "name": "USPS COLLECTION BOX - PO LOBBY", "address": {"city": "BERRY", "state": "AL", "street": "107 FEDERAL AVE", "postcode": "35546"}}},
{"geometry": {"type": "Point", "coordinates": [-87.7605659253, 34.0244718865]}, "type": "Feature", "properties": {"collection_times": [{"days": "Mon-Fri", "time": "4:00pm"}, {"days": "Sat", "time": "12:00pm"}, {"days": "Sun", "time": "Closed"}], "id": "3554800000", "name": "USPS COLLECTION BOX - BLUE BOX", "address": {"city": "BRILLIANT", "state": "AL", "street": "1260 MAIN ST", "postcode": "35548"}}},
{"geometry": {"type": "Point", "coordinates": [-87.7605659253, 34.0244718865]}, "type": "Feature", "properties": {"collection_times": [{"days": "Mon-Fri", "time": "4:00pm"}, {"days": "Sat", "time": "12:00pm"}, {"days": "Sun", "time": "Closed"}], "id": "3554800001", "name": "USPS COLLECTION BOX - PO LOBBY", "address": {"city": "BRILLIANT", "state": "AL", "street": "1260 MAIN ST", "postcode": "35548"}}},
{"geometry": {"type": "Point", "coordinates": [-87.5280847369, 33.8905750124]}, "type": "Feature", "properties": {"collection_times": [{"days": "Mon-Sat", "time": "12:00pm"}, {"days": "Sun", "time": "Closed"}], "id": "3554900000", "name": "USPS COLLECTION BOX - BLUE BOX", "address": {"city": "CARBON HILL", "state": "AL", "street": "170 3RD AVE NW", "postcode": "35549"}}},
{"geometry": {"type": "Point", "coordinates": [-87.5280847369, 33.8905750124]}, "type": "Feature", "properties": {"collection_times": [{"days": "Mon-Sat", "time": "12:00pm"}, {"days": "Sun", "time": "Closed"}], "id": "3554900001", "name": "USPS COLLECTION BOX - PO LOBBY", "address": {"city": "CARBON HILL", "state": "AL", "street": "170 3RD AVE NW", "postcode": "35549"}}},
{"geometry": {"type": "Point", "coordinates": [-87.5192093159, 33.8856935315]}, "type": "Feature", "properties": {"collection_times": [{"days": "Mon-Sat", "time": "12:00pm"}, {"days": "Sun", "time": "Closed"}], "id": "3554900003", "name": "USPS COLLECTION BOX - BLUE BOX", "address": {"city": "CARBON HILL", "state": "AL", "street": "33780 HIGHWAY 78", "postcode": "35549"}}},
{"geometry": {"type": "Point", "coordinates": [-87.1841216242, 33.7621073356]}, "type": "Feature", "properties": {"collection_times": [{"days": "Mon-Fri", "time": "4:00pm"}, {"days": "Sat", "time": "12:00pm"}, {"days": "Sun", "time": "Closed"}], "id": "3555000001", "name": "USPS COLLECTION BOX - BLUE BOX", "address": {"city": "CORDOVA", "state": "AL", "street": "10 BREWER ST", "postcode": "35550"}}},
{"geometry": {"type": "Point", "coordinates": [-87.1841216242, 33.7621073356]}, "type": "Feature", "properties": {"collection_times": [{"days": "Mon-Fri", "time": "4:00pm"}, {"days": "Sat", "time": "12:00pm"}, {"days": "Sun", "time": "Closed"}], "id": "3555000009", "name": "USPS COLLECTION BOX - PO LOBBY", "address": {"city": "CORDOVA", "state": "AL", "street": "10 BREWER ST", "postcode": "35550"}}},
{"geometry": {"type": "Point", "coordinates": [-88.1587771528, 34.0343940811]}, "type": "Feature", "properties": {"collection_times": [{"days": "Mon-Fri", "time": "12:00pm"}, {"days": "Sat", "time": "11:00am"}, {"days": "Sun", "time": "Closed"}], "id": "3555200000", "name": "USPS COLLECTION BOX - BLUE BOX", "address": {"city": "DETROIT", "state": "AL", "street": "65910 HIGHWAY 17", "postcode": "35552"}}},
{"geometry": {"type": "Point", "coordinates": [-88.1587771528, 34.0343940811]}, "type": "Feature", "properties": {"collection_times": [{"days": "Mon-Fri", "time": "12:00pm"}, {"days": "Sat", "time": "11:00am"}, {"days": "Sun", "time": "Closed"}], "id": "3555200001", "name": "USPS COLLECTION BOX - PO LOBBY", "address": {"city": "DETROIT", "state": "AL", "street": "65910 HIGHWAY 17", "postcode": "35552"}}},
{"geometry": {"type": "Point", "coordinates": [-88.171829754, 34.02744236]}, "type": "Feature", "properties": {"collection_times": [{"days": "Mon-Fri", "time": "1:00pm"}, {"days": "Sat-Sun", "time": "Closed"}], "id": "3555200003", "name": "USPS COLLECTION BOX - BLUE BOX", "address": {"city": "DETROIT", "state": "AL", "street": "65424 HIGHWAY 17", "postcode": "35552"}}},
{"geometry": {"type": "Point", "coordinates": [-87.4031109747, 34.1425740274]}, "type": "Feature", "properties": {"collection_times": [{"days": "Mon-Fri", "time": "3:45pm"}, {"days": "Sat", "time": "11:15am"}, {"days": "Sun", "time": "Closed"}], "id": "3555300000", "name": "USPS COLLECTION BOX - BLUE BOX", "address": {"city": "DOUBLE SPRINGS", "state": "AL", "street": "22 LYNN RD", "postcode": "35553"}}},
{"geometry": {"type": "Point", "coordinates": [-87.411701509, 34.1585714484]}, "type": "Feature", "properties": {"collection_times": [{"days": "Mon-Fri", "time": "12:00pm"}, {"days": "Sat", "time": "11:15am"}, {"days": "Sun", "time": "Closed"}], "id": "3555300001", "name": "USPS COLLECTION BOX - BLUE BOX", "address": {"city": "DOUBLE SPRINGS", "state": "AL", "street": "14950 HIGHWAY 278", "postcode": "35553"}}},
{"geometry": {"type": "Point", "coordinates": [-87.4076078497, 34.1558703185]}, "type": "Feature", "properties": {"collection_times": [{"days": "Mon-Sat", "time": "12:00pm"}, {"days": "Sun", "time": "Closed"}], "id": "3555300002", "name": "USPS COLLECTION BOX - BLUE BOX", "address": {"city": "DOUBLE SPRINGS", "state": "AL", "street": "13 BLAKE DR", "postcode": "35553"}}},
{"geometry": {"type": "Point", "coordinates": [-87.40678679, 34.1599416567]}, "type": "Feature", "properties": {"collection_times": [{"days": "Mon-Sat", "time": "8:45am"}, {"days": "Sun", "time": "Closed"}], "id": "3555300003", "name": "USPS COLLECTION BOX - BLUE BOX", "address": {"city": "DOUBLE SPRINGS", "state": "AL", "street": "2 EAST ST", "postcode": "35553"}}},
{"geometry": {"type": "Point", "coordinates": [-87.4031109747, 34.1425740274]}, "type": "Feature", "properties": {"collection_times": [{"days": "Mon-Fri", "time": "3:45pm"}, {"days": "Sat", "time": "11:15am"}, {"days": "Sun", "time": "Closed"}], "id": "3555300004", "name": "USPS COLLECTION BOX - PO LOBBY", "address": {"city": "DOUBLE SPRINGS", "state": "AL", "street": "22 LYNN RD", "postcode": "35553"}}},
{"geometry": {"type": "Point", "coordinates": [-87.6586111966, 33.8910952046]}, "type": "Feature", "properties": {"collection_times": [{"days": "Mon-Fri", "time": "12:00pm"}, {"days": "Sat", "time": "11:00am"}, {"days": "Sun", "time": "Closed"}], "id": "3555400000", "name": "USPS COLLECTION BOX - BLUE BOX", "address": {"city": "ELDRIDGE", "state": "AL", "street": "37855 HIGHWAY 78", "postcode": "35554"}}},
{"geometry": {"type": "Point", "coordinates": [-87.6586111966, 33.8910952046]}, "type": "Feature", "properties": {"collection_times": [{"days": "Mon-Fri", "time": "12:00pm"}, {"days": "Sat", "time": "11:00am"}, {"days": "Sun", "time": "Closed"}], "id": "3555400001", "name": "USPS COLLECTION BOX - PO LOBBY", "address": {"city": "ELDRIDGE", "state": "AL", "street": "37855 HIGHWAY 78", "postcode": "35554"}}},
{"geometry": {"type": "Point", "coordinates": [-87.8308686836, 33.6867355569]}, "type": "Feature", "properties": {"collection_times": [{"days": "Mon-Fri", "time": "4:00pm"}, {"days": "Sat", "time": "12:00pm"}, {"days": "Sun", "time": "Closed"}], "id": "3555500000", "name": "USPS COLLECTION BOX - BLUE BOX", "address": {"city": "FAYETTE", "state": "AL", "street": "223 TEMPLE AVE N", "postcode": "35555"}}},
{"geometry": {"type": "Point", "coordinates": [-87.8308686836, 33.6867355569]}, "type": "Feature", "properties": {"collection_times": [{"days": "Mon-Fri", "time": "4:00pm"}, {"days": "Sat", "time": "12:00pm"}, {"days": "Sun", "time": "Closed"}], "id": "3555500001", "name": "USPS COLLECTION BOX - BLUE BOX", "address": {"city": "FAYETTE", "state": "AL", "street": "223 TEMPLE AVE N", "postcode": "35555"}}},
{"geometry": {"type": "Point", "coordinates": [-87.8255973788, 33.6868313197]}, "type": "Feature", "properties": {"collection_times": [{"days": "Mon-Fri", "time": "4:00pm"}, {"days": "Sat", "time": "12:00pm"}, {"days": "Sun", "time": "Closed"}], "id": "3555500002", "name": "USPS COLLECTION BOX - EXPRESS", "address": {"city": "FAYETTE", "state": "AL", "street": "223 TEMPLE AVE N", "postcode": "35555"}}},
{"geometry": {"type": "Point", "coordinates": [-87.8285305384, 33.6994260176]}, "type": "Feature", "properties": {"collection_times": [{"days": "Mon-Sat", "time": "9:30am"}, {"days": "Sun", "time": "Closed"}], "id": "3555500006", "name": "USPS COLLECTION BOX - BLUE BOX", "address": {"city": "FAYETTE", "state": "AL", "street": "1640 2ND AVE NE", "postcode": "35555"}}},
{"geometry": {"type": "Point", "coordinates": [-87.8423863351, 33.6797864384]}, "type": "Feature", "properties": {"collection_times": [{"days": "Mon-Sat", "time": "11:30am"}, {"days": "Sun", "time": "Closed"}], "id": "3555500013", "name": "USPS COLLECTION BOX - BLUE BOX", "address": {"city": "FAYETTE", "state": "AL", "street": "737 6TH ST SW", "postcode": "35555"}}},
{"geometry": {"type": "Point", "coordinates": [-87.8308686836, 33.6867355569]}, "type": "Feature", "properties": {"collection_times": [{"days": "Mon-Fri", "time": "4:00pm"}, {"days": "Sat", "time": "12:00pm"}, {"days": "Sun", "time": "Closed"}], "id": "3555500018", "name": "USPS COLLECTION BOX - PO LOBBY", "address": {"city": "FAYETTE", "state": "AL", "street": "223 TEMPLE AVE N", "postcode": "35555"}}},
{"geometry": {"type": "Point", "coordinates": [-87.739968558, 33.9144982466]}, "type": "Feature", "properties": {"collection_times": [{"days": "Mon-Fri", "time": "4:00pm"}, {"days": "Sat", "time": "10:00am"}, {"days": "Sun", "time": "Closed"}], "id": "3555900000", "name": "USPS COLLECTION BOX - BLUE BOX", "address": {"city": "GLEN ALLEN", "state": "AL", "street": "152 HIGHWAY 129 S", "postcode": "35559"}}},
{"geometry": {"type": "Point", "coordinates": [-87.7393061022, 33.9143648215]}, "type": "Feature", "properties": {"collection_times": [{"days": "Mon-Fri", "time": "4:00pm"}, {"days": "Sat", "time": "10:00am"}, {"days": "Sun", "time": "Closed"}], "id": "3555900001", "name": "USPS COLLECTION BOX - PO LOBBY", "address": {"city": "GLEN ALLEN", "state": "AL", "street": "152 HIGHWAY 129 S", "postcode": "35559"}}},
{"geometry": {"type": "Point", "coordinates": [-87.2337481712, 33.6705510094]}, "type": "Feature", "properties": {"collection_times": [{"days": "Mon-Sat", "time": "10:00am"}, {"days": "Sun", "time": "Closed"}], "id": "3556000000", "name": "USPS COLLECTION BOX - BLUE BOX", "address": {"city": "GOODSPRINGS", "state": "AL", "street": "824 GOODSPRINGS RD", "postcode": "35560"}}},
{"geometry": {"type": "Point", "coordinates": [-87.2337481712, 33.6705510094]}, "type": "Feature", "properties": {"collection_times": [{"days": "Mon-Sat", "time": "10:00am"}, {"days": "Sun", "time": "Closed"}], "id": "3556000001", "name": "USPS COLLECTION BOX - PO LOBBY", "address": {"city": "GOODSPRINGS", "state": "AL", "street": "824 GOODSPRINGS RD", "postcode": "35560"}}},
{"geometry": {"type": "Point", "coordinates": [-87.9156365241, 33.9717754338]}, "type": "Feature", "properties": {"collection_times": [{"days": "Mon-Fri", "time": "12:00pm"}, {"days": "Sat", "time": "11:45am"}, {"days": "Sun", "time": "Closed"}], "id": "3556300000", "name": "USPS COLLECTION BOX - BLUE BOX", "address": {"city": "GUIN", "state": "AL", "street": "7479 US HIGHWAY 43", "postcode": "35563"}}},
{"geometry": {"type": "Point", "coordinates": [-87.9156365241, 33.9717754338]}, "type": "Feature", "properties": {"collection_times": [{"days": "Mon-Fri", "time": "12:00pm"}, {"days": "Sat", "time": "11:45am"}, {"days": "Sun", "time": "Closed"}], "id": "3556300001", "name": "USPS COLLECTION BOX - PO LOBBY", "address": {"city": "GUIN", "state": "AL", "street": "7479 US HIGHWAY 43", "postcode": "35563"}}},
{"geometry": {"type": "Point", "coordinates": [-87.8274385535, 34.275685559]}, "type": "Feature", "properties": {"collection_times": [{"days": "Mon-Fri", "time": "4:00pm"}, {"days": "Sat", "time": "11:00am"}, {"days": "Sun", "time": "Closed"}], "id": "3556400000", "name": "USPS COLLECTION BOX - BLUE BOX", "address": {"city": "HACKLEBURG", "state": "AL", "street": "429 WALKER ST", "postcode": "35564"}}},
{"geometry": {"type": "Point", "coordinates": [-87.8274385535, 34.275685559]}, "type": "Feature", "properties": {"collection_times": [{"days": "Mon-Fri", "time": "4:00pm"}, {"days": "Sat", "time": "11:00am"}, {"days": "Sun", "time": "Closed"}], "id": "3556400001", "name": "USPS COLLECTION BOX - PO LOBBY", "address": {"city": "HACKLEBURG", "state": "AL", "street": "429 WALKER ST", "postcode": "35564"}}},
{"geometry": {"type": "Point", "coordinates": [-87.8274385535, 34.275685559]}, "type": "Feature", "properties": {"collection_times": [{"days": "Mon-Fri", "time": "4:00pm"}, {"days": "Sat", "time": "11:00am"}, {"days": "Sun", "time": "Closed"}], "id": "3556400002", "name": "USPS COLLECTION BOX - PO LOBBY", "address": {"city": "HACKLEBURG", "state": "AL", "street": "429 WALKER ST", "postcode": "35564"}}},
{"geometry": {"type": "Point", "coordinates": [-87.6197206153, 34.2276801931]}, "type": "Feature", "properties": {"collection_times": [{"days": "Mon-Fri", "time": "4:15pm"}, {"days": "Sat", "time": "12:00pm"}, {"days": "Sun", "time": "Closed"}], "id": "3556500000", "name": "USPS COLLECTION BOX - BLUE BOX", "address": {"city": "HALEYVILLE", "state": "AL", "street": "1212 21ST ST", "postcode": "35565"}}},
{"geometry": {"type": "Point", "coordinates": [-87.6197206153, 34.2276801931]}, "type": "Feature", "properties": {"collection_times": [{"days": "Mon-Fri", "time": "4:15pm"}, {"days": "Sat", "time": "12:00pm"}, {"days": "Sun", "time": "Closed"}], "id": "3556500001", "name": "USPS COLLECTION BOX - BLUE BOX", "address": {"city": "HALEYVILLE", "state": "AL", "street": "1212 21ST ST", "postcode": "35565"}}},
{"geometry": {"type": "Point", "coordinates": [-87.4811797007, 34.2472676334]}, "type": "Feature", "properties": {"collection_times": [{"days": "Mon-Sat", "time": "1:00pm"}, {"days": "Sun", "time": "Closed"}], "id": "3556500010", "name": "USPS COLLECTION BOX - BLUE BOX", "address": {"city": "HALEYVILLE", "state": "AL", "street": "42425 HIGHWAY 195", "postcode": "35565"}}},
{"geometry": {"type": "Point", "coordinates": [-87.6197206153, 34.2276801931]}, "type": "Feature", "properties": {"collection_times": [{"days": "Mon-Fri", "time": "4:15pm"}, {"days": "Sat", "time": "12:00pm"}, {"days": "Sun", "time": "Closed"}], "id": "3556500011", "name": "USPS COLLECTION BOX - PO LOBBY", "address": {"city": "HALEYVILLE", "state": "AL", "street": "1212 21ST ST", "postcode": "35565"}}},
{"geometry": {"type": "Point", "coordinates": [-87.9857720303, 34.1418802907]}, "type": "Feature", "properties": {"collection_times": [{"days": "Mon-Sat", "time": "12:00pm"}, {"days": "Sun", "time": "Closed"}], "id": "3557000001", "name": "USPS COLLECTION BOX - BLUE BOX", "address": {"city": "HAMILTON", "state": "AL", "street": "315 BEXAR AVE E", "postcode": "35570"}}},
{"geometry": {"type": "Point", "coordinates": [-87.9857720303, 34.1418802907]}, "type": "Feature", "properties": {"collection_times": [{"days": "Mon-Sat", "time": "12:00pm"}, {"days": "Sun", "time": "Closed"}], "id": "3557000002", "name": "USPS COLLECTION BOX - BLUE BOX", "address": {"city": "HAMILTON", "state": "AL", "street": "315 BEXAR AVE E", "postcode": "35570"}}},
{"geometry": {"type": "Point", "coordinates": [-88.0068058331, 34.1592333527]}, "type": "Feature", "properties": {"collection_times": [{"days": "Mon-Sat", "time": "12:00pm"}, {"days": "Sun", "time": "Closed"}], "id": "3557000003", "name": "USPS COLLECTION BOX - EXPRESS", "address": {"city": "HAMILTON", "state": "AL", "street": "315 BEXAR AVE E", "postcode": "35570"}}},
{"geometry": {"type": "Point", "coordinates": [-87.9857720303, 34.1418802907]}, "type": "Feature", "properties": {"collection_times": [{"days": "Mon-Sat", "time": "12:00pm"}, {"days": "Sun", "time": "Closed"}], "id": "3557000004", "name": "USPS COLLECTION BOX - PO LOBBY", "address": {"city": "HAMILTON", "state": "AL", "street": "315 BEXAR AVE E", "postcode": "35570"}}},
{"geometry": {"type": "Point", "coordinates": [-87.9261087503, 34.3273682322]}, "type": "Feature", "properties": {"collection_times": [{"days": "Mon-Fri", "time": "12:00pm"}, {"days": "Sat", "time": "11:00am"}, {"days": "Sun", "time": "Closed"}], "id": "3557100000", "name": "USPS COLLECTION BOX - BLUE BOX", "address": {"city": "HODGES", "state": "AL", "street": "227 MAIN ST", "postcode": "35571"}}},
{"geometry": {"type": "Point", "coordinates": [-87.9261087503, 34.3273682322]}, "type": "Feature", "properties": {"collection_times": [{"days": "Mon-Fri", "time": "12:00pm"}, {"days": "Sat", "time": "11:00am"}, {"days": "Sun", "time": "Closed"}], "id": "3557100001", "name": "USPS COLLECTION BOX - PO LOBBY", "address": {"city": "HODGES", "state": "AL", "street": "227 MAIN ST", "postcode": "35571"}}},
{"geometry": {"type": "Point", "coordinates": [-87.2514212617, 34.128147617]}, "type": "Feature", "properties": {"collection_times": [{"days": "Mon-Fri", "time": "12:00pm"}, {"days": "Sat", "time": "11:45am"}, {"days": "Sun", "time": "Closed"}], "id": "3557200000", "name": "USPS COLLECTION BOX - BLUE BOX", "address": {"city": "HOUSTON", "state": "AL", "street": "4802 COUNTY ROAD 63", "postcode": "35572"}}},
{"geometry": {"type": "Point", "coordinates": [-87.2514212617, 34.128147617]}, "type": "Feature", "properties": {"collection_times": [{"days": "Mon-Sat", "time": "11:45am"}, {"days": "Sun", "time": "Closed"}], "id": "3557200001", "name": "USPS COLLECTION BOX - PO LOBBY", "address": {"city": "HOUSTON", "state": "AL", "street": "4802 COUNTY ROAD 63", "postcode": "35572"}}},
{"geometry": {"type": "Point", "coordinates": [-87.5505693371, 33.9018444895]}, "type": "Feature", "properties": {"collection_times": [{"days": "Mon-Fri", "time": "11:00am"}, {"days": "Sat-Sun", "time": "Closed"}], "id": "3557300000", "name": "USPS COLLECTION BOX - BLUE BOX", "address": {"city": "KANSAS", "state": "AL", "street": "497 OLD HIGHWAY 78", "postcode": "35573"}}},
{"geometry": {"type": "Point", "coordinates": [-87.5505693371, 33.9018444895]}, "type": "Feature", "properties": {"collection_times": [{"days": "Mon-Fri", "time": "11:00am"}, {"days": "Sat-Sun", "time": "Closed"}], "id": "3557300001", "name": "USPS COLLECTION BOX - PO LOBBY", "address": {"city": "KANSAS", "state": "AL", "street": "497 OLD HIGHWAY 78", "postcode": "35573"}}},
{"geometry": {"type": "Point", "coordinates": [-87.9910614584, 33.5951463912]}, "type": "Feature", "properties": {"collection_times": [{"days": "Mon-Fri", "time": "2:15pm"}, {"days": "Sat", "time": "9:30am"}, {"days": "Sun", "time": "Closed"}], "id": "3557400000", "name": "USPS COLLECTION BOX - BLUE BOX", "address": {"city": "KENNEDY", "state": "AL", "street": "4187 COUNTY ROAD 49", "postcode": "35574"}}},
{"geometry": {"type": "Point", "coordinates": [-87.9910614584, 33.5951463912]}, "type": "Feature", "properties": {"collection_times": [{"days": "Mon-Fri", "time": "2:15pm"}, {"days": "Sat", "time": "9:30am"}, {"days": "Sun", "time": "Closed"}], "id": "3557400001", "name": "USPS COLLECTION BOX - PO LOBBY", "address": {"city": "KENNEDY", "state": "AL", "street": "4187 COUNTY ROAD 49", "postcode": "35574"}}},
{"geometry": {"type": "Point", "coordinates": [-87.5520062078, 34.0490866739]}, "type": "Feature", "properties": {"collection_times": [{"days": "Mon-Fri", "time": "11:50am"}, {"days": "Sat", "time": "10:50am"}, {"days": "Sun", "time": "Closed"}], "id": "3557500000", "name": "USPS COLLECTION BOX - BLUE BOX", "address": {"city": "LYNN", "state": "AL", "street": "1303 W MAIN ST", "postcode": "35575"}}},
{"geometry": {"type": "Point", "coordinates": [-87.5520062078, 34.0490866739]}, "type": "Feature", "properties": {"collection_times": [{"days": "Mon-Fri", "time": "11:50am"}, {"days": "Sat", "time": "10:50am"}, {"days": "Sun", "time": "Closed"}], "id": "3557500001", "name": "USPS COLLECTION BOX - PO LOBBY", "address": {"city": "LYNN", "state": "AL", "street": "1303 W MAIN ST", "postcode": "35575"}}},
{"geometry": {"type": "Point", "coordinates": [-88.122857801, 33.5820558891]}, "type": "Feature", "properties": {"collection_times": [{"days": "Mon-Fri", "time": "3:45pm"}, {"days": "Sat", "time": "11:45am"}, {"days": "Sun", "time": "Closed"}], "id": "3557600000", "name": "USPS COLLECTION BOX - BLUE BOX", "address": {"city": "MILLPORT", "state": "AL", "street": "115 WOOD DR", "postcode": "35576"}}},
{"geometry": {"type": "Point", "coordinates": [-88.122857801, 33.5820558891]}, "type": "Feature", "properties": {"collection_times": [{"days": "Mon-Fri", "time": "3:45pm"}, {"days": "Sat", "time": "11:45am"}, {"days": "Sun", "time": "Closed"}], "id": "3557600001", "name": "USPS COLLECTION BOX - PO LOBBY", "address": {"city": "MILLPORT", "state": "AL", "street": "115 WOOD DR", "postcode": "35576"}}},
{"geometry": {"type": "Point", "coordinates": [-87.600105, 34.09093]}, "type": "Feature", "properties": {"collection_times": [{"days": "Mon-Fri", "time": "12:00pm"}, {"days": "Sat", "time": "2:45pm"}, {"days": "Sun", "time": "Closed"}], "id": "3557700000", "name": "USPS COLLECTION BOX - BLUE BOX", "address": {"city": "NATURAL BRIDGE", "state": "AL", "street": "16430 HIGHWAY 13", "postcode": "35577"}}},
{"geometry": {"type": "Point", "coordinates": [-87.600105, 34.09093]}, "type": "Feature", "properties": {"collection_times": [{"days": "Mon-Fri", "time": "12:00pm"}, {"days": "Sat", "time": "2:45pm"}, {"days": "Sun", "time": "Closed"}], "id": "3557700001", "name": "USPS COLLECTION BOX - PO LOBBY", "address": {"city": "NATURAL BRIDGE", "state": "AL", "street": "16430 HIGHWAY 13", "postcode": "35577"}}},
{"geometry": {"type": "Point", "coordinates": [-87.4852180358, 33.9900450553]}, "type": "Feature", "properties": {"collection_times": [{"days": "Mon-Fri", "time": "3:30pm"}, {"days": "Sat", "time": "10:30am"}, {"days": "Sun", "time": "Closed"}], "id": "3557800000", "name": "USPS COLLECTION BOX - BLUE BOX", "address": {"city": "NAUVOO", "state": "AL", "street": "481 4TH ST", "postcode": "35578"}}},
{"geometry": {"type": "Point", "coordinates": [-87.4852180358, 33.9900450553]}, "type": "Feature", "properties": {"collection_times": [{"days": "Mon-Fri", "time": "4:00pm"}, {"days": "Sat", "time": "10:30am"}, {"days": "Sun", "time": "Closed"}], "id": "3557800001", "name": "USPS COLLECTION BOX - PO LOBBY", "address": {"city": "NAUVOO", "state": "AL", "street": "481 4TH ST", "postcode": "35578"}}},
{"geometry": {"type": "Point", "coordinates": [-87.3884753258, 33.7135605295]}, "type": "Feature", "properties": {"collection_times": [{"days": "Mon-Fri", "time": "12:00pm"}, {"days": "Sat", "time": "10:00am"}, {"days": "Sun", "time": "Closed"}], "id": "3557900000", "name": "USPS COLLECTION BOX - BLUE BOX", "address": {"city": "OAKMAN", "state": "AL", "street": "8359 MARKET ST", "postcode": "35579"}}},
{"geometry": {"type": "Point", "coordinates": [-87.3884753258, 33.7135605295]}, "type": "Feature", "properties": {"collection_times": [{"days": "Mon-Fri", "time": "12:00pm"}, {"days": "Sat", "time": "10:00am"}, {"days": "Sun", "time": "Closed"}], "id": "3557900001", "name": "USPS COLLECTION BOX - PO LOBBY", "address": {"city": "OAKMAN", "state": "AL", "street": "8359 MARKET ST", "postcode": "35579"}}},
{"geometry": {"type": "Point", "coordinates": [-87.2725816855, 33.7508201917]}, "type": "Feature", "properties": {"collection_times": [{"days": "Mon-Sat", "time": "12:00pm"}, {"days": "Sun", "time": "Closed"}], "id": "3558000000", "name": "USPS COLLECTION BOX - BLUE BOX", "address": {"city": "PARRISH", "state": "AL", "street": "5911 HIGHWAY 269", "postcode": "35580"}}},
{"geometry": {"type": "Point", "coordinates": [-87.2725816855, 33.7508201917]}, "type": "Feature", "properties": {"collection_times": [{"days": "Mon-Sat", "time": "12:00pm"}, {"days": "Sun", "time": "Closed"}], "id": "3558000001", "name": "USPS COLLECTION BOX - PO LOBBY", "address": {"city": "PARRISH", "state": "AL", "street": "5911 HIGHWAY 269", "postcode": "35580"}}},
{"geometry": {"type": "Point", "coordinates": [-87.7096263283, 34.3454114844]}, "type": "Feature", "properties": {"collection_times": [{"days": "Mon-Fri", "time": "4:00pm"}, {"days": "Sat", "time": "10:30am"}, {"days": "Sun", "time": "Closed"}], "id": "3558100000", "name": "USPS COLLECTION BOX - PO LOBBY", "address": {"city": "PHIL CAMPBELL", "state": "AL", "street": "3025 HIGHWAY 237", "postcode": "35581"}}},
{"geometry": {"type": "Point", "coordinates": [-87.7096263283, 34.3454114844]}, "type": "Feature", "properties": {"collection_times": [{"days": "Mon-Fri", "time": "4:00pm"}, {"days": "Sat", "time": "10:30am"}, {"days": "Sun", "time": "Closed"}], "id": "3558100002", "name": "USPS COLLECTION BOX - BLUE BOX", "address": {"city": "PHIL CAMPBELL", "state": "AL", "street": "3025 HIGHWAY 237", "postcode": "35581"}}},
{"geometry": {"type": "Point", "coordinates": [-88.1463756931, 34.4420884184]}, "type": "Feature", "properties": {"collection_times": [{"days": "Mon-Sat", "time": "4:15pm"}, {"days": "Sun", "time": "Closed"}], "id": "3558200000", "name": "USPS COLLECTION BOX - BLUE BOX", "address": {"city": "RED BAY", "state": "AL", "street": "300 4TH AVE SW", "postcode": "35582"}}},
{"geometry": {"type": "Point", "coordinates": [-88.1463756931, 34.4420884184]}, "type": "Feature", "properties": {"collection_times": [{"days": "Mon-Sat", "time": "4:15pm"}, {"days": "Sun", "time": "Closed"}], "id": "3558200003", "name": "USPS COLLECTION BOX - PO LOBBY", "address": {"city": "RED BAY", "state": "AL", "street": "300 4TH AVE SW", "postcode": "35582"}}},
{"geometry": {"type": "Point", "coordinates": [-87.0859331304, 33.8247035599]}, "type": "Feature", "properties": {"collection_times": [{"days": "Mon-Fri", "time": "12:00pm"}, {"days": "Sat", "time": "10:00am"}, {"days": "Sun", "time": "Closed"}], "id": "3558400000", "name": "USPS COLLECTION BOX - BLUE BOX", "address": {"city": "SIPSEY", "state": "AL", "street": "4000 SIPSEY RD", "postcode": "35584"}}},
{"geometry": {"type": "Point", "coordinates": [-87.0859331304, 33.8247035599]}, "type": "Feature", "properties": {"collection_times": [{"days": "Mon-Fri", "time": "12:00pm"}, {"days": "Sat", "time": "10:00am"}, {"days": "Sun", "time": "Closed"}], "id": "3558400001", "name": "USPS COLLECTION BOX - PO LOBBY", "address": {"city": "SIPSEY", "state": "AL", "street": "4000 SIPSEY RD", "postcode": "35584"}}},
{"geometry": {"type": "Point", "coordinates": [-87.8293995006, 34.4159658662]}, "type": "Feature", "properties": {"collection_times": [{"days": "Mon-Fri", "time": "4:00pm"}, {"days": "Sat", "time": "11:00am"}, {"days": "Sun", "time": "Closed"}], "id": "3558500000", "name": "USPS COLLECTION BOX - BLUE BOX", "address": {"city": "SPRUCE PINE", "state": "AL", "street": "9300 HIGHWAY 22", "postcode": "35585"}}},
{"geometry": {"type": "Point", "coordinates": [-87.8293995006, 34.4159658662]}, "type": "Feature", "properties": {"collection_times": [{"days": "Mon-Fri", "time": "4:00pm"}, {"days": "Sat", "time": "11:00am"}, {"days": "Sun", "time": "Closed"}], "id": "3558500001", "name": "USPS COLLECTION BOX - PO LOBBY", "address": {"city": "SPRUCE PINE", "state": "AL", "street": "9300 HIGHWAY 22", "postcode": "35585"}}},
{"geometry": {"type": "Point", "coordinates": [-88.1410095417, 33.9116587132]}, "type": "Feature", "properties": {"collection_times": [{"days": "Mon-Fri", "time": "4:30pm"}, {"days": "Sat", "time": "12:00pm"}, {"days": "Sun", "time": "Closed"}], "id": "3558600000", "name": "USPS COLLECTION BOX - BLUE BOX", "address": {"city": "SULLIGENT", "state": "AL", "street": "55144 HIGHWAY 17", "postcode": "35586"}}},
{"geometry": {"type": "Point", "coordinates": [-88.1410095417, 33.9116587132]}, "type": "Feature", "properties": {"collection_times": [{"days": "Mon-Fri", "time": "4:30pm"}, {"days": "Sat", "time": "12:00pm"}, {"days": "Sun", "time": "Closed"}], "id": "3558600001", "name": "USPS COLLECTION BOX - PO LOBBY", "address": {"city": "SULLIGENT", "state": "AL", "street": "55144 HIGHWAY 17", "postcode": "35586"}}},
{"geometry": {"type": "Point", "coordinates": [-87.4343925902, 33.8283251881]}, "type": "Feature", "properties": {"collection_times": [{"days": "Mon-Fri", "time": "12:00pm"}, {"days": "Sat", "time": "10:45am"}, {"days": "Sun", "time": "Closed"}], "id": "3558700000", "name": "USPS COLLECTION BOX - BLUE BOX", "address": {"city": "TOWNLEY", "state": "AL", "street": "82 MAIN ST", "postcode": "35587"}}},
{"geometry": {"type": "Point", "coordinates": [-87.4343925902, 33.8283251881]}, "type": "Feature", "properties": {"collection_times": [{"days": "Mon-Fri", "time": "12:00pm"}, {"days": "Sat", "time": "10:45am"}, {"days": "Sun", "time": "Closed"}], "id": "3558700001", "name": "USPS COLLECTION BOX - PO LOBBY", "address": {"city": "TOWNLEY", "state": "AL", "street": "82 MAIN ST", "postcode": "35587"}}},
{"geometry": {"type": "Point", "coordinates": [-88.1110102515, 33.7693716024]}, "type": "Feature", "properties": {"collection_times": [{"days": "Mon-Fri", "time": "4:00pm"}, {"days": "Sat", "time": "12:00pm"}, {"days": "Sun", "time": "Closed"}], "id": "3559200001", "name": "USPS COLLECTION BOX - BLUE BOX", "address": {"city": "VERNON", "state": "AL", "street": "44924 HIGHWAY 17", "postcode": "35592"}}},
{"geometry": {"type": "Point", "coordinates": [-88.0863914122, 33.745869141]}, "type": "Feature", "properties": {"collection_times": [{"days": "Mon-Sat", "time": "11:30am"}, {"days": "Sun", "time": "Closed"}], "id": "3559200003", "name": "USPS COLLECTION BOX - BLUE BOX", "address": {"city": "VERNON", "state": "AL", "street": "9467 HIGHWAY 18", "postcode": "35592"}}},
{"geometry": {"type": "Point", "coordinates": [-88.1110102515, 33.7693716024]}, "type": "Feature", "properties": {"collection_times": [{"days": "Mon-Fri", "time": "4:00pm"}, {"days": "Sat", "time": "12:00pm"}, {"days": "Sun", "time": "Closed"}], "id": "3559200004", "name": "USPS COLLECTION BOX - PO LOBBY", "address": {"city": "VERNON", "state": "AL", "street": "44924 HIGHWAY 17", "postcode": "35592"}}},
{"geometry": {"type": "Point", "coordinates": [-88.0326740666, 34.3277262554]}, "type": "Feature", "properties": {"collection_times": [{"days": "Mon-Fri", "time": "12:00pm"}, {"days": "Sat", "time": "10:30am"}, {"days": "Sun", "time": "Closed"}], "id": "3559300000", "name": "USPS COLLECTION BOX - BLUE BOX", "address": {"city": "VINA", "state": "AL", "street": "7191 HIGHWAY 19", "postcode": "35593"}}},
{"geometry": {"type": "Point", "coordinates": [-88.0326740666, 34.3277262554]}, "type": "Feature", "properties": {"collection_times": [{"days": "Mon-Fri", "time": "12:00pm"}, {"days": "Sat", "time": "10:30am"}, {"days": "Sun", "time": "Closed"}], "id": "3559300001", "name": "USPS COLLECTION BOX - PO LOBBY", "address": {"city": "VINA", "state": "AL", "street": "7191 HIGHWAY 19", "postcode": "35593"}}},
{"geometry": {"type": "Point", "coordinates": [-87.8175912095, 33.9333734043]}, "type": "Feature", "properties": {"collection_times": [{"days": "Mon-Fri", "time": "4:30pm"}, {"days": "Sat", "time": "12:15pm"}, {"days": "Sun", "time": "Closed"}], "id": "3559400001", "name": "USPS COLLECTION BOX - PO LOBBY", "address": {"city": "WINFIELD", "state": "AL", "street": "161 BROOK ST", "postcode": "35594"}}},
{"geometry": {"type": "Point", "coordinates": [-87.8175912095, 33.9333734043]}, "type": "Feature", "properties": {"collection_times": [{"days": "Mon-Fri", "time": "4:30pm"}, {"days": "Sat", "time": "12:15pm"}, {"days": "Sun", "time": "Closed"}], "id": "3559400002", "name": "USPS COLLECTION BOX - PO LOBBY", "address": {"city": "WINFIELD", "state": "AL", "street": "161 BROOK ST", "postcode": "35594"}}},
{"geometry": {"type": "Point", "coordinates": [-87.8175912095, 33.9333734043]}, "type": "Feature", "properties": {"collection_times": [{"days": "Mon-Fri", "time": "4:30pm"}, {"days": "Sat", "time": "12:15pm"}, {"days": "Sun", "time": "Closed"}], "id": "3559400003", "name": "USPS COLLECTION BOX - BLUE BOX", "address": {"city": "WINFIELD", "state": "AL", "street": "161 BROOK ST", "postcode": "35594"}}},
{"geometry": {"type": "Point", "coordinates": [-87.8175912095, 33.9333734043]}, "type": "Feature", "properties": {"collection_times": [{"days": "Mon-Fri", "time": "4:30pm"}, {"days": "Sat", "time": "12:15pm"}, {"days": "Sun", "time": "Closed"}], "id": "3559400004", "name": "USPS COLLECTION BOX - BLUE BOX", "address": {"city": "WINFIELD", "state": "AL", "street": "161 BROOK ST", "postcode": "35594"}}}
]}
