{"type": "FeatureCollection", "features": [
{"geometry": {"type": "Point", "coordinates": [-86.9793739339, 34.6126712129]}, "type": "Feature", "properties": {"collection_times": [{"days": "Mon-Fri", "time": "1:00pm"}, {"days": "Sat-Sun", "time": "Closed"}], "id": "3560100001", "name": "USPS COLLECTION BOX - BLUE BOX", "address": {"city": "DECATUR", "state": "AL", "street": "300 MARKET ST NE", "postcode": "35601"}}},
{"geometry": {"type": "Point", "coordinates": [-86.9824873746, 34.6066364073]}, "type": "Feature", "properties": {"collection_times": [{"days": "Mon-Fri", "time": "5:00pm"}, {"days": "Sat", "time": "4:00pm"}, {"days": "Sun", "time": "Closed"}], "id": "3560200000", "name": "USPS COLLECTION BOX - BLUE BOX", "address": {"city": "DECATUR", "state": "AL", "street": "400 WELL ST NE", "postcode": "35602"}}},
{"geometry": {"type": "Point", "coordinates": [-86.9824873746, 34.6066364073]}, "type": "Feature", "properties": {"collection_times": [{"days": "Mon-Fri", "time": "5:00pm"}, {"days": "Sat", "time": "4:00pm"}, {"days": "Sun", "time": "Closed"}], "id": "3560200001", "name": "USPS COLLECTION BOX - BLUE BOX", "address": {"city": "DECATUR", "state": "AL", "street": "400 WELL ST NE", "postcode": "35602"}}},
{"geometry": {"type": "Point", "coordinates": [-86.9824873746, 34.6066364073]}, "type": "Feature", "properties": {"collection_times": [{"days": "Mon-Fri", "time": "5:00pm"}, {"days": "Sat", "time": "4:00pm"}, {"days": "Sun", "time": "Closed"}], "id": "3560200002", "name": "USPS COLLECTION BOX - BLUE BOX", "address": {"city": "DECATUR", "state": "AL", "street": "400 WELL ST NE", "postcode": "35602"}}},
{"geometry": {"type": "Point", "coordinates": [-86.9824873746, 34.6066364073]}, "type": "Feature", "properties": {"collection_times": [{"days": "Mon-Fri", "time": "5:00pm"}, {"days": "Sat", "time": "4:00pm"}, {"days": "Sun", "time": "Closed"}], "id": "3560200003", "name": "USPS COLLECTION BOX - BLUE BOX", "address": {"city": "DECATUR", "state": "AL", "street": "400 WELL ST NE", "postcode": "35602"}}},
{"geometry": {"type": "Point", "coordinates": [-86.9824873746, 34.6066364073]}, "type": "Feature", "properties": {"collection_times": [{"days": "Mon-Fri", "time": "5:00pm"}, {"days": "Sat", "time": "4:00pm"}, {"days": "Sun", "time": "Closed"}], "id": "3560200004", "name": "USPS COLLECTION BOX - BLUE BOX", "address": {"city": "DECATUR", "state": "AL", "street": "400 WELL ST NE", "postcode": "35602"}}},
{"geometry": {"type": "Point", "coordinates": [-86.9824873746, 34.6066364073]}, "type": "Feature", "properties": {"collection_times": [{"days": "Mon-Fri", "time": "5:00pm"}, {"days": "Sat", "time": "4:00pm"}, {"days": "Sun", "time": "Closed"}], "id": "3560200005", "name": "USPS COLLECTION BOX - BLUE BOX", "address": {"city": "DECATUR", "state": "AL", "street": "400 WELL ST NE", "postcode": "35602"}}},
{"geometry": {"type": "Point", "coordinates": [-86.9825140751, 34.6066516626]}, "type": "Feature", "properties": {"collection_times": [{"days": "Mon-Fri", "time": "5:00pm"}, {"days": "Sat", "time": "4:00pm"}, {"days": "Sun", "time": "Closed"}], "id": "3560200006", "name": "USPS COLLECTION BOX - BLUE BOX", "address": {"city": "DECATUR", "state": "AL", "street": "400 WELL ST NE", "postcode": "35602"}}},
{"geometry": {"type": "Point", "coordinates": [-86.9932536687, 34.5602487639]}, "type": "Feature", "properties": {"collection_times": [{"days": "Mon-Sat", "time": "11:00am"}, {"days": "Sun", "time": "Closed"}], "id": "3560200037", "name": "USPS COLLECTION BOX - BLUE BOX", "address": {"city": "DECATUR", "state": "AL", "street": "530 HIGHWAY 67 S", "postcode": "35602"}}},
{"geometry": {"type": "Point", "coordinates": [-86.9859697764, 34.611863812]}, "type": "Feature", "properties": {"collection_times": [{"days": "Mon-Sat", "time": "12:00pm"}, {"days": "Sun", "time": "Closed"}], "id": "3560200039", "name": "USPS COLLECTION BOX - BLUE BOX", "address": {"city": "DECATUR", "state": "AL", "street": "624 BANK ST NE", "postcode": "35602"}}},
{"geometry": {"type": "Point", "coordinates": [-86.9994772566, 34.5893520809]}, "type": "Feature", "properties": {"collection_times": [{"days": "Mon-Sat", "time": "12:00pm"}, {"days": "Sun", "time": "Closed"}], "id": "3560200044", "name": "USPS COLLECTION BOX - BLUE BOX", "address": {"city": "DECATUR", "state": "AL", "street": "1209 DANVILLE RD SW", "postcode": "35602"}}},
{"geometry": {"type": "Point", "coordinates": [-87.0112805527, 34.5732989789]}, "type": "Feature", "properties": {"collection_times": [{"days": "Mon-Fri", "time": "4:00pm"}, {"days": "Sat", "time": "11:30am"}, {"days": "Sun", "time": "Closed"}], "id": "3560200046", "name": "USPS COLLECTION BOX - BLUE BOX", "address": {"city": "DECATUR", "state": "AL", "street": "2208 DANVILLE RD SW", "postcode": "35602"}}},
{"geometry": {"type": "Point", "coordinates": [-87.024683494, 34.5845517113]}, "type": "Feature", "properties": {"collection_times": [{"days": "Mon-Fri", "time": "4:00pm"}, {"days": "Sat", "time": "2:00pm"}, {"days": "Sun", "time": "Closed"}], "id": "3560200047", "name": "USPS COLLECTION BOX - BLUE BOX", "address": {"city": "DECATUR", "state": "AL", "street": "2009 BELTLINE RD SW", "postcode": "35602"}}},
{"geometry": {"type": "Point", "coordinates": [-87.024683494, 34.5845517113]}, "type": "Feature", "properties": {"collection_times": [{"days": "Mon-Fri", "time": "4:00pm"}, {"days": "Sat", "time": "2:00pm"}, {"days": "Sun", "time": "Closed"}], "id": "3560200048", "name": "USPS COLLECTION BOX - BLUE BOX", "address": {"city": "DECATUR", "state": "AL", "street": "2009 BELTLINE RD SW", "postcode": "35602"}}},
{"geometry": {"type": "Point", "coordinates": [-86.9757188269, 34.5765688787]}, "type": "Feature", "properties": {"collection_times": [{"days": "Mon-Fri", "time": "2:45pm"}, {"days": "Sat", "time": "2:30pm"}, {"days": "Sun", "time": "Closed"}], "id": "3560200051", "name": "USPS COLLECTION BOX - BLUE BOX", "address": {"city": "DECATUR", "state": "AL", "street": "1910 6TH AVE SE", "postcode": "35602"}}},
{"geometry": {"type": "Point", "coordinates": [-86.9804060348, 34.583788775]}, "type": "Feature", "properties": {"collection_times": [{"days": "Mon-Fri", "time": "3:00pm"}, {"days": "Sat", "time": "2:30pm"}, {"days": "Sun", "time": "Closed"}], "id": "3560200053", "name": "USPS COLLECTION BOX - BLUE BOX", "address": {"city": "DECATUR", "state": "AL", "street": "1526 6TH AVE SE", "postcode": "35602"}}},
{"geometry": {"type": "Point", "coordinates": [-86.973495, 34.55331]}, "type": "Feature", "properties": {"collection_times": [{"days": "Mon-Sat", "time": "11:00am"}, {"days": "Sun", "time": "Closed"}], "id": "3560200056", "name": "USPS COLLECTION BOX - BLUE BOX", "address": {"city": "DECATUR", "state": "AL", "street": "2828 HIGHWAY 31 S", "postcode": "35602"}}},
{"geometry": {"type": "Point", "coordinates": [-87.0164666552, 34.5756868927]}, "type": "Feature", "properties": {"collection_times": [{"days": "Mon-Fri", "time": "5:00pm"}, {"days": "Sat", "time": "2:00pm"}, {"days": "Sun", "time": "Closed"}], "id": "3560200061", "name": "USPS COLLECTION BOX - BLUE BOX", "address": {"city": "DECATUR", "state": "AL", "street": "1814 BELTLINE RD SW", "postcode": "35602"}}},
{"geometry": {"type": "Point", "coordinates": [-86.973165095, 34.5716494805]}, "type": "Feature", "properties": {"collection_times": [{"days": "Mon-Fri", "time": "1:00pm"}, {"days": "Sat-Sun", "time": "Closed"}], "id": "3560200071", "name": "USPS COLLECTION BOX - BLUE BOX", "address": {"city": "DECATUR", "state": "AL", "street": "2132 6TH AVE SE", "postcode": "35602"}}},
{"geometry": {"type": "Point", "coordinates": [-87.0164666552, 34.5756868927]}, "type": "Feature", "properties": {"collection_times": [{"days": "Mon-Fri", "time": "5:00pm"}, {"days": "Sat", "time": "2:00pm"}, {"days": "Sun", "time": "Closed"}], "id": "3560200074", "name": "USPS COLLECTION BOX - BLUE BOX", "address": {"city": "DECATUR", "state": "AL", "street": "1814 BELTLINE RD SW", "postcode": "35602"}}},
{"geometry": {"type": "Point", "coordinates": [-86.9824873746, 34.6066364073]}, "type": "Feature", "properties": {"collection_times": [{"days": "Mon-Fri", "time": "5:00pm"}, {"days": "Sat", "time": "4:00pm"}, {"days": "Sun", "time": "Closed"}], "id": "3560200075", "name": "USPS COLLECTION BOX - PO LOBBY", "address": {"city": "DECATUR", "state": "AL", "street": "400 WELL ST NE", "postcode": "35602"}}},
{"geometry": {"type": "Point", "coordinates": [-87.0164666552, 34.5756868927]}, "type": "Feature", "properties": {"collection_times": [{"days": "Mon-Fri", "time": "5:00pm"}, {"days": "Sat", "time": "2:00pm"}, {"days": "Sun", "time": "Closed"}], "id": "3560200077", "name": "USPS COLLECTION BOX - BLUE BOX", "address": {"city": "DECATUR", "state": "AL", "street": "1814 BELTLINE RD SW", "postcode": "35602"}}},
{"geometry": {"type": "Point", "coordinates": [-86.9740952581, 34.5741961007]}, "type": "Feature", "properties": {"collection_times": [{"days": "Mon-Fri", "time": "11:00am"}, {"days": "Sat-Sun", "time": "Closed"}], "id": "3560200079", "name": "USPS COLLECTION BOX - BLUE BOX", "address": {"city": "DECATUR", "state": "AL", "street": "2019 6TH AVE SE", "postcode": "35602"}}},
{"geometry": {"type": "Point", "coordinates": [-86.8944349414, 34.5247944075]}, "type": "Feature", "properties": {"collection_times": [{"days": "Mon-Sat", "time": "10:00am"}, {"days": "Sun", "time": "Closed"}], "id": "3560300001", "name": "USPS COLLECTION BOX - BLUE BOX", "address": {"city": "DECATUR", "state": "AL", "street": "2941 POINT MALLARD PKWY SE", "postcode": "35603"}}},
{"geometry": {"type": "Point", "coordinates": [-87.2684766677, 34.9252519646]}, "type": "Feature", "properties": {"collection_times": [{"days": "Mon-Fri", "time": "2:30pm"}, {"days": "Sat", "time": "9:30am"}, {"days": "Sun", "time": "Closed"}], "id": "3561000000", "name": "USPS COLLECTION BOX - BLUE BOX", "address": {"city": "ANDERSON", "state": "AL", "street": "7312 HIGHWAY 207", "postcode": "35610"}}},
{"geometry": {"type": "Point", "coordinates": [-87.2684766677, 34.9252519646]}, "type": "Feature", "properties": {"collection_times": [{"days": "Mon-Fri", "time": "2:30pm"}, {"days": "Sat", "time": "9:30am"}, {"days": "Sun", "time": "Closed"}], "id": "3561000001", "name": "USPS COLLECTION BOX - PO LOBBY", "address": {"city": "ANDERSON", "state": "AL", "street": "7312 HIGHWAY 207", "postcode": "35610"}}},
{"geometry": {"type": "Point", "coordinates": [-86.9822712566, 34.804927853]}, "type": "Feature", "properties": {"collection_times": [{"days": "Mon-Sat", "time": "5:00pm"}, {"days": "Sun", "time": "Closed"}], "id": "3561100000", "name": "USPS COLLECTION BOX - BLUE BOX", "address": {"city": "ATHENS", "state": "AL", "street": "1110 W MARKET ST", "postcode": "35611"}}},
{"geometry": {"type": "Point", "coordinates": [-87.036548725, 34.7876732232]}, "type": "Feature", "properties": {"collection_times": [{"days": "Mon-Sat", "time": "4:30pm"}, {"days": "Sun", "time": "Closed"}], "id": "3561100002", "name": "USPS COLLECTION BOX - EXPRESS", "address": {"city": "ATHENS", "state": "AL", "street": "1110 W MARKET ST", "postcode": "35611"}}},
{"geometry": {"type": "Point", "coordinates": [-86.9725070667, 34.7984218197]}, "type": "Feature", "properties": {"collection_times": [{"days": "Mon-Fri", "time": "12:00pm"}, {"days": "Sat", "time": "11:00am"}, {"days": "Sun", "time": "Closed"}], "id": "3561100018", "name": "USPS COLLECTION BOX - BLUE BOX", "address": {"city": "ATHENS", "state": "AL", "street": "608 S JEFFERSON ST", "postcode": "35611"}}},
{"geometry": {"type": "Point", "coordinates": [-86.9733542216, 34.8033635203]}, "type": "Feature", "properties": {"collection_times": [{"days": "Mon-Sat", "time": "10:00am"}, {"days": "Sun", "time": "Closed"}], "id": "3561100021", "name": "USPS COLLECTION BOX - BLUE BOX", "address": {"city": "ATHENS", "state": "AL", "street": "100 S MADISON ST", "postcode": "35611"}}},
{"geometry": {"type": "Point", "coordinates": [-86.9372576515, 34.7821938815]}, "type": "Feature", "properties": {"collection_times": [{"days": "Mon-Fri", "time": "10:00am"}, {"days": "Sat", "time": "9:30am"}, {"days": "Sun", "time": "Closed"}], "id": "3561100022", "name": "USPS COLLECTION BOX - BLUE BOX", "address": {"city": "ATHENS", "state": "AL", "street": "22031 US HIGHWAY 72", "postcode": "35611"}}},
{"geometry": {"type": "Point", "coordinates": [-86.9701965086, 34.8023711559]}, "type": "Feature", "properties": {"collection_times": [{"days": "Mon-Sat", "time": "9:45am"}, {"days": "Sun", "time": "Closed"}], "id": "3561100028", "name": "USPS COLLECTION BOX - BLUE BOX", "address": {"city": "ATHENS", "state": "AL", "street": "203 W WASHINGTON ST", "postcode": "35611"}}},
{"geometry": {"type": "Point", "coordinates": [-86.9513721325, 34.8028032244]}, "type": "Feature", "properties": {"collection_times": [{"days": "Mon-Fri", "time": "11:30am"}, {"days": "Sat", "time": "10:30am"}, {"days": "Sun", "time": "Closed"}], "id": "3561100030", "name": "USPS COLLECTION BOX - BLUE BOX", "address": {"city": "ATHENS", "state": "AL", "street": "100 US HIGHWAY 31 N", "postcode": "35611"}}},
{"geometry": {"type": "Point", "coordinates": [-86.9822712566, 34.804927853]}, "type": "Feature", "properties": {"collection_times": [{"days": "Mon-Sat", "time": "5:00pm"}, {"days": "Sun", "time": "Closed"}], "id": "3561100042", "name": "USPS COLLECTION BOX - PO LOBBY", "address": {"city": "ATHENS", "state": "AL", "street": "1110 W MARKET ST", "postcode": "35611"}}},
{"geometry": {"type": "Point", "coordinates": [-86.959485848, 34.7868521556]}, "type": "Feature", "properties": {"collection_times": [{"days": "Mon-Fri", "time": "3:30pm"}, {"days": "Sat", "time": "2:30pm"}, {"days": "Sun", "time": "Closed"}], "id": "3561100044", "name": "USPS COLLECTION BOX - BLUE BOX", "address": {"city": "ATHENS", "state": "AL", "street": "1011 US HIGHWAY 72 E", "postcode": "35611"}}},
{"geometry": {"type": "Point", "coordinates": [-86.8800963114, 34.6568002921]}, "type": "Feature", "properties": {"collection_times": [{"days": "Mon-Fri", "time": "3:00pm"}, {"days": "Sat", "time": "9:30am"}, {"days": "Sun", "time": "Closed"}], "id": "3561500000", "name": "USPS COLLECTION BOX - BLUE BOX", "address": {"city": "BELLE MINA", "state": "AL", "street": "24989 GARRETT RD", "postcode": "35615"}}},
{"geometry": {"type": "Point", "coordinates": [-86.8800963114, 34.6568002921]}, "type": "Feature", "properties": {"collection_times": [{"days": "Mon-Fri", "time": "3:00pm"}, {"days": "Sat", "time": "9:30am"}, {"days": "Sun", "time": "Closed"}], "id": "3561500002", "name": "USPS COLLECTION BOX - PO LOBBY", "address": {"city": "BELLE MINA", "state": "AL", "street": "24989 GARRETT RD", "postcode": "35615"}}},
{"geometry": {"type": "Point", "coordinates": [-87.9729495014, 34.756856845]}, "type": "Feature", "properties": {"collection_times": [{"days": "Mon-Fri", "time": "3:00pm"}, {"days": "Sat", "time": "10:00am"}, {"days": "Sun", "time": "Closed"}], "id": "3561600000", "name": "USPS COLLECTION BOX - BLUE BOX", "address": {"city": "CHEROKEE", "state": "AL", "street": "215 MAIN ST", "postcode": "35616"}}},
{"geometry": {"type": "Point", "coordinates": [-87.9729495014, 34.756856845]}, "type": "Feature", "properties": {"collection_times": [{"days": "Mon-Fri", "time": "3:00pm"}, {"days": "Sat", "time": "10:00am"}, {"days": "Sun", "time": "Closed"}], "id": "3561600001", "name": "USPS COLLECTION BOX - PO LOBBY", "address": {"city": "CHEROKEE", "state": "AL", "street": "215 MAIN ST", "postcode": "35616"}}},
{"geometry": {"type": "Point", "coordinates": [-87.7713003436, 34.9385908331]}, "type": "Feature", "properties": {"collection_times": [{"days": "Mon-Fri", "time": "2:00pm"}, {"days": "Sat", "time": "11:30am"}, {"days": "Sun", "time": "Closed"}], "id": "3561700000", "name": "USPS COLLECTION BOX - BLUE BOX", "address": {"city": "CLOVERDALE", "state": "AL", "street": "11440 HIGHWAY 157", "postcode": "35617"}}},
{"geometry": {"type": "Point", "coordinates": [-87.7706841392, 34.9381711352]}, "type": "Feature", "properties": {"collection_times": [{"days": "Mon-Fri", "time": "2:00pm"}, {"days": "Sat", "time": "11:30am"}, {"days": "Sun", "time": "Closed"}], "id": "3561700001", "name": "USPS COLLECTION BOX - PO LOBBY", "address": {"city": "CLOVERDALE", "state": "AL", "street": "11440 HIGHWAY 157", "postcode": "35617"}}},
{"geometry": {"type": "Point", "coordinates": [-87.3113208616, 34.6677005407]}, "type": "Feature", "properties": {"collection_times": [{"days": "Mon-Fri", "time": "3:00pm"}, {"days": "Sat", "time": "8:30am"}, {"days": "Sun", "time": "Closed"}], "id": "3561800000", "name": "USPS COLLECTION BOX - BLUE BOX", "address": {"city": "COURTLAND", "state": "AL", "street": "361 ALABAMA ST", "postcode": "35618"}}},
{"geometry": {"type": "Point", "coordinates": [-87.3113208616, 34.6677005407]}, "type": "Feature", "properties": {"collection_times": [{"days": "Mon-Fri", "time": "3:00pm"}, {"days": "Sat", "time": "8:30am"}, {"days": "Sun", "time": "Closed"}], "id": "3561800002", "name": "USPS COLLECTION BOX - PO LOBBY", "address": {"city": "COURTLAND", "state": "AL", "street": "361 ALABAMA ST", "postcode": "35618"}}},
{"geometry": {"type": "Point", "coordinates": [-87.0641727118, 34.4144606952]}, "type": "Feature", "properties": {"collection_times": [{"days": "Mon-Fri", "time": "3:00pm"}, {"days": "Sat", "time": "9:00am"}, {"days": "Sun", "time": "Closed"}], "id": "3561900000", "name": "USPS COLLECTION BOX - BLUE BOX", "address": {"city": "DANVILLE", "state": "AL", "street": "5652 HIGHWAY 36 W", "postcode": "35619"}}},
{"geometry": {"type": "Point", "coordinates": [-87.0641727118, 34.4144606952]}, "type": "Feature", "properties": {"collection_times": [{"days": "Mon-Fri", "time": "3:00pm"}, {"days": "Sat", "time": "9:00am"}, {"days": "Sun", "time": "Closed"}], "id": "3561900001", "name": "USPS COLLECTION BOX - PO LOBBY", "address": {"city": "DANVILLE", "state": "AL", "street": "5652 HIGHWAY 36 W", "postcode": "35619"}}},
{"geometry": {"type": "Point", "coordinates": [-86.9801307908, 34.9294449513]}, "type": "Feature", "properties": {"collection_times": [{"days": "Mon-Fri", "time": "3:00pm"}, {"days": "Sat", "time": "10:30am"}, {"days": "Sun", "time": "Closed"}], "id": "3562000000", "name": "USPS COLLECTION BOX - BLUE BOX", "address": {"city": "ELKMONT", "state": "AL", "street": "25540 LEVIE DAVIS DR", "postcode": "35620"}}},
{"geometry": {"type": "Point", "coordinates": [-86.9801307908, 34.9294449513]}, "type": "Feature", "properties": {"collection_times": [{"days": "Mon-Fri", "time": "3:00pm"}, {"days": "Sat", "time": "10:30am"}, {"days": "Sun", "time": "Closed"}], "id": "3562000001", "name": "USPS COLLECTION BOX - PO LOBBY", "address": {"city": "ELKMONT", "state": "AL", "street": "25540 LEVIE DAVIS DR", "postcode": "35620"}}},
{"geometry": {"type": "Point", "coordinates": [-86.9700397258, 34.9234416101]}, "type": "Feature", "properties": {"collection_times": [{"days": "Mon-Sat", "time": "10:30am"}, {"days": "Sun", "time": "Closed"}], "id": "3562000003", "name": "USPS COLLECTION BOX - BLUE BOX", "address": {"city": "ELKMONT", "state": "AL", "street": "28901 AL HIGHWAY 99", "postcode": "35620"}}},
{"geometry": {"type": "Point", "coordinates": [-86.7743490394, 34.3331755676]}, "type": "Feature", "properties": {"collection_times": [{"days": "Mon-Fri", "time": "3:00pm"}, {"days": "Sat", "time": "10:00am"}, {"days": "Sun", "time": "Closed"}], "id": "3562100000", "name": "USPS COLLECTION BOX - BLUE BOX", "address": {"city": "EVA", "state": "AL", "street": "4456 HIGHWAY 55 E", "postcode": "35621"}}},
{"geometry": {"type": "Point", "coordinates": [-86.7743490394, 34.3331755676]}, "type": "Feature", "properties": {"collection_times": [{"days": "Mon-Fri", "time": "3:00pm"}, {"days": "Sat", "time": "10:00am"}, {"days": "Sun", "time": "Closed"}], "id": "3562100001", "name": "USPS COLLECTION BOX - PO LOBBY", "address": {"city": "EVA", "state": "AL", "street": "4456 HIGHWAY 55 E", "postcode": "35621"}}},
{"geometry": {"type": "Point", "coordinates": [-86.7319464594, 34.3501702744]}, "type": "Feature", "properties": {"collection_times": [{"days": "Mon-Sat", "time": "10:00am"}, {"days": "Sun", "time": "Closed"}], "id": "3562100003", "name": "USPS COLLECTION BOX - BLUE BOX", "address": {"city": "EVA", "state": "AL", "street": "5530 HIGHWAY 55 E", "postcode": "35621"}}},
{"geometry": {"type": "Point", "coordinates": [-86.9086806908, 34.3697245644]}, "type": "Feature", "properties": {"collection_times": [{"days": "Mon-Fri", "time": "3:00pm"}, {"days": "Sat", "time": "11:00am"}, {"days": "Sun", "time": "Closed"}], "id": "3562200000", "name": "USPS COLLECTION BOX - BLUE BOX", "address": {"city": "FALKVILLE", "state": "AL", "street": "4539 HIGHWAY 31 SW", "postcode": "35622"}}},
{"geometry": {"type": "Point", "coordinates": [-86.9086806908, 34.3697245644]}, "type": "Feature", "properties": {"collection_times": [{"days": "Mon-Fri", "time": "3:00pm"}, {"days": "Sat", "time": "11:00am"}, {"days": "Sun", "time": "Closed"}], "id": "3562200001", "name": "USPS COLLECTION BOX - PO LOBBY", "address": {"city": "FALKVILLE", "state": "AL", "street": "4539 HIGHWAY 31 SW", "postcode": "35622"}}},
{"geometry": {"type": "Point", "coordinates": [-87.670478107, 34.836174513]}, "type": "Feature", "properties": {"collection_times": [{"days": "Mon-Sat", "time": "9:30am"}, {"days": "Sun", "time": "Closed"}], "id": "3563000003", "name": "USPS COLLECTION BOX - BLUE BOX", "address": {"city": "FLORENCE", "state": "AL", "street": "2251 HELTON DR", "postcode": "35630"}}},
{"geometry": {"type": "Point", "coordinates": [-87.686849042, 34.8392002295]}, "type": "Feature", "properties": {"collection_times": [{"days": "Mon-Sat", "time": "9:00am"}, {"days": "Sun", "time": "Closed"}], "id": "3563000009", "name": "USPS COLLECTION BOX - BLUE BOX", "address": {"city": "FLORENCE", "state": "AL", "street": "992 COX CREEK PKWY", "postcode": "35630"}}},
{"geometry": {"type": "Point", "coordinates": [-87.690247681, 34.847390134]}, "type": "Feature", "properties": {"collection_times": [{"days": "Mon-Sat", "time": "10:30am"}, {"days": "Sun", "time": "Closed"}], "id": "3563000010", "name": "USPS COLLECTION BOX - BLUE BOX", "address": {"city": "FLORENCE", "state": "AL", "street": "206 HEATHROW DR", "postcode": "35630"}}},
{"geometry": {"type": "Point", "coordinates": [-87.6682773294, 34.8194444971]}, "type": "Feature", "properties": {"collection_times": [{"days": "Mon-Fri", "time": "11:00am"}, {"days": "Sat", "time": "10:00am"}, {"days": "Sun", "time": "Closed"}], "id": "3563000017", "name": "USPS COLLECTION BOX - BLUE BOX", "address": {"city": "FLORENCE", "state": "AL", "street": "1301 HERMITAGE DR", "postcode": "35630"}}},
{"geometry": {"type": "Point", "coordinates": [-87.6806573481, 34.7969197361]}, "type": "Feature", "properties": {"collection_times": [{"days": "Mon-Fri", "time": "2:30pm"}, {"days": "Sat", "time": "12:00pm"}, {"days": "Sun", "time": "Closed"}], "id": "3563000019", "name": "USPS COLLECTION BOX - BLUE BOX", "address": {"city": "FLORENCE", "state": "AL", "street": "541 W COLLEGE ST", "postcode": "35630"}}},
{"geometry": {"type": "Point", "coordinates": [-87.6763853459, 34.8036539234]}, "type": "Feature", "properties": {"collection_times": [{"days": "Mon-Fri", "time": "2:00pm"}, {"days": "Sat", "time": "12:00pm"}, {"days": "Sun", "time": "Closed"}], "id": "3563000023", "name": "USPS COLLECTION BOX - BLUE BOX", "address": {"city": "FLORENCE", "state": "AL", "street": "416 N SEMINARY ST", "postcode": "35630"}}},
{"geometry": {"type": "Point", "coordinates": [-87.6670698531, 34.8187313225]}, "type": "Feature", "properties": {"collection_times": [{"days": "Mon-Fri", "time": "5:00pm"}, {"days": "Sat", "time": "2:30pm"}, {"days": "Sun", "time": "Closed"}], "id": "3563000037", "name": "USPS COLLECTION BOX - BLUE BOX", "address": {"city": "FLORENCE", "state": "AL", "street": "201 N WOOD AVE", "postcode": "35630"}}},
{"geometry": {"type": "Point", "coordinates": [-87.6812652291, 34.8179807028]}, "type": "Feature", "properties": {"collection_times": [{"days": "Mon-Fri", "time": "4:30pm"}, {"days": "Sat", "time": "2:00pm"}, {"days": "Sun", "time": "Closed"}], "id": "3563000038", "name": "USPS COLLECTION BOX - BLUE BOX", "address": {"city": "FLORENCE", "state": "AL", "street": "121 EDGEWOOD DR", "postcode": "35630"}}},
{"geometry": {"type": "Point", "coordinates": [-87.6812652291, 34.8179807028]}, "type": "Feature", "properties": {"collection_times": [{"days": "Mon-Fri", "time": "4:30pm"}, {"days": "Sat", "time": "2:00pm"}, {"days": "Sun", "time": "Closed"}], "id": "3563000039", "name": "USPS COLLECTION BOX - BLUE BOX", "address": {"city": "FLORENCE", "state": "AL", "street": "121 EDGEWOOD DR", "postcode": "35630"}}},
{"geometry": {"type": "Point", "coordinates": [-87.6670698531, 34.8187313225]}, "type": "Feature", "properties": {"collection_times": [{"days": "Mon-Fri", "time": "4:45pm"}, {"days": "Sat", "time": "2:30pm"}, {"days": "Sun", "time": "Closed"}], "id": "3563000043", "name": "USPS COLLECTION BOX - BLUE BOX", "address": {"city": "FLORENCE", "state": "AL", "street": "102 N COURT ST", "postcode": "35630"}}},
{"geometry": {"type": "Point", "coordinates": [-87.6753757422, 34.7992336634]}, "type": "Feature", "properties": {"collection_times": [{"days": "Mon-Fri", "time": "5:00pm"}, {"days": "Sat-Sun", "time": "Closed"}], "id": "3563000047", "name": "USPS COLLECTION BOX - BLUE BOX", "address": {"city": "FLORENCE", "state": "AL", "street": "200 S COURT ST", "postcode": "35630"}}},
{"geometry": {"type": "Point", "coordinates": [-87.6670698531, 34.8187313225]}, "type": "Feature", "properties": {"collection_times": [{"days": "Mon-Fri", "time": "4:45pm"}, {"days": "Sat", "time": "2:30pm"}, {"days": "Sun", "time": "Closed"}], "id": "3563000051", "name": "USPS COLLECTION BOX - BLUE BOX", "address": {"city": "FLORENCE", "state": "AL", "street": "202 N COURT ST", "postcode": "35630"}}},
{"geometry": {"type": "Point", "coordinates": [-87.6670698531, 34.8187313225]}, "type": "Feature", "properties": {"collection_times": [{"days": "Mon-Fri", "time": "5:00pm"}, {"days": "Sat", "time": "2:30pm"}, {"days": "Sun", "time": "Closed"}], "id": "3563000052", "name": "USPS COLLECTION BOX - BLUE BOX", "address": {"city": "FLORENCE", "state": "AL", "street": "102 S PINE ST", "postcode": "35630"}}},
{"geometry": {"type": "Point", "coordinates": [-87.6670698531, 34.8187313225]}, "type": "Feature", "properties": {"collection_times": [{"days": "Mon-Fri", "time": "5:00pm"}, {"days": "Sat", "time": "2:30pm"}, {"days": "Sun", "time": "Closed"}], "id": "3563000053", "name": "USPS COLLECTION BOX - BLUE BOX", "address": {"city": "FLORENCE", "state": "AL", "street": "202 S PINE ST", "postcode": "35630"}}},
{"geometry": {"type": "Point", "coordinates": [-87.6687720389, 34.797498554]}, "type": "Feature", "properties": {"collection_times": [{"days": "Mon-Fri", "time": "4:45pm"}, {"days": "Sat-Sun", "time": "Closed"}], "id": "3563000056", "name": "USPS COLLECTION BOX - BLUE BOX", "address": {"city": "FLORENCE", "state": "AL", "street": "424 VETERANS DR", "postcode": "35630"}}},
{"geometry": {"type": "Point", "coordinates": [-87.6751762128, 34.801761525]}, "type": "Feature", "properties": {"collection_times": [{"days": "Mon-Fri", "time": "5:45pm"}, {"days": "Sat", "time": "4:45pm"}, {"days": "Sun", "time": "Closed"}], "id": "3563000063", "name": "USPS COLLECTION BOX - PO LOBBY", "address": {"city": "FLORENCE", "state": "AL", "street": "210 N SEMINARY ST", "postcode": "35630"}}},
{"geometry": {"type": "Point", "coordinates": [-87.6850720502, 34.7950888143]}, "type": "Feature", "properties": {"collection_times": [{"days": "Mon-Fri", "time": "2:30pm"}, {"days": "Sat", "time": "12:00pm"}, {"days": "Sun", "time": "Closed"}], "id": "3563000066", "name": "USPS COLLECTION BOX - BLUE BOX", "address": {"city": "FLORENCE", "state": "AL", "street": "205 MARENGO ST", "postcode": "35630"}}},
{"geometry": {"type": "Point", "coordinates": [-87.6751762128, 34.801761525]}, "type": "Feature", "properties": {"collection_times": [{"days": "Mon-Fri", "time": "5:30pm"}, {"days": "Sat", "time": "4:30pm"}, {"days": "Sun", "time": "Closed"}], "id": "3563000070", "name": "USPS COLLECTION BOX - BLUE BOX", "address": {"city": "FLORENCE", "state": "AL", "street": "210 N SEMINARY ST", "postcode": "35630"}}},
{"geometry": {"type": "Point", "coordinates": [-87.6751762128, 34.801761525]}, "type": "Feature", "properties": {"collection_times": [{"days": "Mon-Fri", "time": "5:30pm"}, {"days": "Sat", "time": "4:30pm"}, {"days": "Sun", "time": "Closed"}], "id": "3563000071", "name": "USPS COLLECTION BOX - BLUE BOX", "address": {"city": "FLORENCE", "state": "AL", "street": "210 N SEMINARY ST", "postcode": "35630"}}},
{"geometry": {"type": "Point", "coordinates": [-87.6350775774, 34.8392285392]}, "type": "Feature", "properties": {"collection_times": [{"days": "Mon-Sat", "time": "10:00am"}, {"days": "Sun", "time": "Closed"}], "id": "3563000076", "name": "USPS COLLECTION BOX - BLUE BOX", "address": {"city": "FLORENCE", "state": "AL", "street": "402 COX CREEK PKWY", "postcode": "35630"}}},
{"geometry": {"type": "Point", "coordinates": [-87.6737910548, 34.7998942953]}, "type": "Feature", "properties": {"collection_times": [{"days": "Mon-Fri", "time": "4:45pm"}, {"days": "Sat", "time": "2:30pm"}, {"days": "Sun", "time": "Closed"}], "id": "3563000077", "name": "USPS COLLECTION BOX - BLUE BOX", "address": {"city": "FLORENCE", "state": "AL", "street": "214 E COLLEGE ST", "postcode": "35630"}}},
{"geometry": {"type": "Point", "coordinates": [-87.655267534, 34.820167348]}, "type": "Feature", "properties": {"collection_times": [{"days": "Mon-Fri", "time": "12:30pm"}, {"days": "Sat", "time": "11:00am"}, {"days": "Sun", "time": "Closed"}], "id": "3563000078", "name": "USPS COLLECTION BOX - BLUE BOX", "address": {"city": "FLORENCE", "state": "AL", "street": "1501 FLORENCE BLVD", "postcode": "35630"}}},
{"geometry": {"type": "Point", "coordinates": [-87.6911023836, 34.8524761302]}, "type": "Feature", "properties": {"collection_times": [{"days": "Mon-Fri", "time": "2:00pm"}, {"days": "Sat", "time": "12:30pm"}, {"days": "Sun", "time": "Closed"}], "id": "3563000079", "name": "USPS COLLECTION BOX - BLUE BOX", "address": {"city": "FLORENCE", "state": "AL", "street": "3509 CLOVERDALE RD", "postcode": "35630"}}},
{"geometry": {"type": "Point", "coordinates": [-87.6751762128, 34.801761525]}, "type": "Feature", "properties": {"collection_times": [{"days": "Mon-Fri", "time": "5:30pm"}, {"days": "Sat", "time": "4:30pm"}, {"days": "Sun", "time": "Closed"}], "id": "3563000082", "name": "USPS COLLECTION BOX - BLUE BOX", "address": {"city": "FLORENCE", "state": "AL", "street": "210 N SEMINARY ST", "postcode": "35630"}}},
{"geometry": {"type": "Point", "coordinates": [-87.6751762128, 34.801761525]}, "type": "Feature", "properties": {"collection_times": [{"days": "Mon-Fri", "time": "5:30pm"}, {"days": "Sat", "time": "4:30pm"}, {"days": "Sun", "time": "Closed"}], "id": "3563000083", "name": "USPS COLLECTION BOX - BLUE BOX", "address": {"city": "FLORENCE", "state": "AL", "street": "210 N SEMINARY ST", "postcode": "35630"}}},
{"geometry": {"type": "Point", "coordinates": [-87.6670698531, 34.8187313225]}, "type": "Feature", "properties": {"collection_times": [{"days": "Mon-Sat", "time": "1:00pm"}, {"days": "Sun", "time": "Closed"}], "id": "3563000088", "name": "USPS COLLECTION BOX - BLUE BOX", "address": {"city": "FLORENCE", "state": "AL", "street": "4508 COUNTY ROAD 47", "postcode": "35630"}}},
{"geometry": {"type": "Point", "coordinates": [-87.661172872, 34.8246248386]}, "type": "Feature", "properties": {"collection_times": [{"days": "Mon-Sat", "time": "12:30pm"}, {"days": "Sun", "time": "Closed"}], "id": "3563000089", "name": "USPS COLLECTION BOX - BLUE BOX", "address": {"city": "FLORENCE", "state": "AL", "street": "95 WOODLAND HILLS DR", "postcode": "35630"}}},
{"geometry": {"type": "Point", "coordinates": [-87.6670698531, 34.8187313225]}, "type": "Feature", "properties": {"collection_times": [{"days": "Mon-Fri", "time": "12:00pm"}, {"days": "Sat-Sun", "time": "Closed"}], "id": "3563000091", "name": "USPS COLLECTION BOX - BLUE BOX", "address": {"city": "FLORENCE", "state": "AL", "street": "11385 HIGHWAY 20", "postcode": "35630"}}},
{"geometry": {"type": "Point", "coordinates": [-87.6812652291, 34.8179807028]}, "type": "Feature", "properties": {"collection_times": [{"days": "Mon-Fri", "time": "4:30pm"}, {"days": "Sat-Sun", "time": "Closed"}], "id": "3563000093", "name": "USPS COLLECTION BOX - PO LOBBY", "address": {"city": "FLORENCE", "state": "AL", "street": "121 EDGEWOOD DR", "postcode": "35630"}}},
{"geometry": {"type": "Point", "coordinates": [-86.939417286, 34.4418421538]}, "type": "Feature", "properties": {"collection_times": [{"days": "Mon-Sat", "time": "2:30pm"}, {"days": "Sun", "time": "Closed"}], "id": "3564000000", "name": "USPS COLLECTION BOX - BLUE BOX", "address": {"city": "HARTSELLE", "state": "AL", "street": "201 STEWART ST NW", "postcode": "35640"}}},
{"geometry": {"type": "Point", "coordinates": [-86.939417286, 34.4418421538]}, "type": "Feature", "properties": {"collection_times": [{"days": "Mon-Sat", "time": "2:30pm"}, {"days": "Sun", "time": "Closed"}], "id": "3564000001", "name": "USPS COLLECTION BOX - BLUE BOX", "address": {"city": "HARTSELLE", "state": "AL", "street": "201 STEWART ST NW", "postcode": "35640"}}},
{"geometry": {"type": "Point", "coordinates": [-86.9398375925, 34.4447740792]}, "type": "Feature", "properties": {"collection_times": [{"days": "Mon-Sat", "time": "2:30pm"}, {"days": "Sun", "time": "Closed"}], "id": "3564000002", "name": "USPS COLLECTION BOX - EXPRESS", "address": {"city": "HARTSELLE", "state": "AL", "street": "201 STEWART ST NW", "postcode": "35640"}}},
{"geometry": {"type": "Point", "coordinates": [-86.9418071606, 34.4409614599]}, "type": "Feature", "properties": {"collection_times": [{"days": "Mon-Sat", "time": "11:00am"}, {"days": "Sun", "time": "Closed"}], "id": "3564000008", "name": "USPS COLLECTION BOX - BLUE BOX", "address": {"city": "HARTSELLE", "state": "AL", "street": "201 HIGHWAY 31 SW", "postcode": "35640"}}},
{"geometry": {"type": "Point", "coordinates": [-86.9386768258, 34.443476326]}, "type": "Feature", "properties": {"collection_times": [{"days": "Mon-Sat", "time": "2:30pm"}, {"days": "Sun", "time": "Closed"}], "id": "3564000012", "name": "USPS COLLECTION BOX - PO LOBBY", "address": {"city": "HARTSELLE", "state": "AL", "street": "201 CEDAR ST NW", "postcode": "35640"}}},
{"geometry": {"type": "Point", "coordinates": [-87.2017433721, 34.6429166884]}, "type": "Feature", "properties": {"collection_times": [{"days": "Mon-Fri", "time": "3:00pm"}, {"days": "Sat", "time": "10:00am"}, {"days": "Sun", "time": "Closed"}], "id": "3564300000", "name": "USPS COLLECTION BOX - BLUE BOX", "address": {"city": "HILLSBORO", "state": "AL", "street": "564 FRONT ST", "postcode": "35643"}}},
{"geometry": {"type": "Point", "coordinates": [-87.2017433721, 34.6429166884]}, "type": "Feature", "properties": {"collection_times": [{"days": "Mon-Fri", "time": "3:00pm"}, {"days": "Sat", "time": "10:00am"}, {"days": "Sun", "time": "Closed"}], "id": "3564300001", "name": "USPS COLLECTION BOX - PO LOBBY", "address": {"city": "HILLSBORO", "state": "AL", "street": "564 FRONT ST", "postcode": "35643"}}},
{"geometry": {"type": "Point", "coordinates": [-87.5405083997, 34.8574966211]}, "type": "Feature", "properties": {"collection_times": [{"days": "Mon-Fri", "time": "3:00pm"}, {"days": "Sat", "time": "11:30am"}, {"days": "Sun", "time": "Closed"}], "id": "3564500000", "name": "USPS COLLECTION BOX - BLUE BOX", "address": {"city": "KILLEN", "state": "AL", "street": "1650 HIGHWAY 72", "postcode": "35645"}}},
{"geometry": {"type": "Point", "coordinates": [-87.5405083997, 34.8574966211]}, "type": "Feature", "properties": {"collection_times": [{"days": "Mon-Fri", "time": "3:00pm"}, {"days": "Sat", "time": "11:30am"}, {"days": "Sun", "time": "Closed"}], "id": "3564500001", "name": "USPS COLLECTION BOX - PO LOBBY", "address": {"city": "KILLEN", "state": "AL", "street": "1650 HIGHWAY 72", "postcode": "35645"}}},
{"geometry": {"type": "Point", "coordinates": [-87.5289020962, 34.7031581153]}, "type": "Feature", "properties": {"collection_times": [{"days": "Mon-Fri", "time": "3:00pm"}, {"days": "Sat", "time": "9:30am"}, {"days": "Sun", "time": "Closed"}], "id": "3564600000", "name": "USPS COLLECTION BOX - BLUE BOX", "address": {"city": "LEIGHTON", "state": "AL", "street": "8945 MAIN ST", "postcode": "35646"}}},
{"geometry": {"type": "Point", "coordinates": [-87.5289020962, 34.7031581153]}, "type": "Feature", "properties": {"collection_times": [{"days": "Mon-Fri", "time": "3:00pm"}, {"days": "Sat", "time": "9:30am"}, {"days": "Sun", "time": "Closed"}], "id": "3564600001", "name": "USPS COLLECTION BOX - PO LOBBY", "address": {"city": "LEIGHTON", "state": "AL", "street": "8945 MAIN ST", "postcode": "35646"}}},
{"geometry": {"type": "Point", "coordinates": [-87.5289020962, 34.7031581153]}, "type": "Feature", "properties": {"collection_times": [{"days": "Mon-Fri", "time": "3:00pm"}, {"days": "Sat", "time": "9:30am"}, {"days": "Sun", "time": "Closed"}], "id": "3564600002", "name": "USPS COLLECTION BOX - BLUE BOX", "address": {"city": "LEIGHTON", "state": "AL", "street": "8945 MAIN ST", "postcode": "35646"}}},
{"geometry": {"type": "Point", "coordinates": [-87.3743664409, 34.9652154642]}, "type": "Feature", "properties": {"collection_times": [{"days": "Mon-Fri", "time": "12:00pm"}, {"days": "Sat", "time": "10:00am"}, {"days": "Sun", "time": "Closed"}], "id": "3564800000", "name": "USPS COLLECTION BOX - BLUE BOX", "address": {"city": "LEXINGTON", "state": "AL", "street": "101 STEVENS AVE", "postcode": "35648"}}},
{"geometry": {"type": "Point", "coordinates": [-87.3743664409, 34.9652154642]}, "type": "Feature", "properties": {"collection_times": [{"days": "Mon-Fri", "time": "12:00pm"}, {"days": "Sat", "time": "10:00am"}, {"days": "Sun", "time": "Closed"}], "id": "3564800001", "name": "USPS COLLECTION BOX - PO LOBBY", "address": {"city": "LEXINGTON", "state": "AL", "street": "101 STEVENS AVE", "postcode": "35648"}}},
{"geometry": {"type": "Point", "coordinates": [-86.88071, 34.626465]}, "type": "Feature", "properties": {"collection_times": [{"days": "Mon-Fri", "time": "9:00am"}, {"days": "Sat", "time": "10:00am"}, {"days": "Sun", "time": "Closed"}], "id": "3564900000", "name": "USPS COLLECTION BOX - BLUE BOX", "address": {"city": "MOORESVILLE", "state": "AL", "street": "24995 LAUDERDALE ST", "postcode": "35649"}}},
{"geometry": {"type": "Point", "coordinates": [-87.2870502658, 34.4814830974]}, "type": "Feature", "properties": {"collection_times": [{"days": "Mon-Fri", "time": "4:30pm"}, {"days": "Sat", "time": "3:45pm"}, {"days": "Sun", "time": "Closed"}], "id": "3565000000", "name": "USPS COLLECTION BOX - BLUE BOX", "address": {"city": "MOULTON", "state": "AL", "street": "14645 COURT ST", "postcode": "35650"}}},
{"geometry": {"type": "Point", "coordinates": [-87.2870502658, 34.4814830974]}, "type": "Feature", "properties": {"collection_times": [{"days": "Mon-Fri", "time": "4:30pm"}, {"days": "Sat", "time": "3:45pm"}, {"days": "Sun", "time": "Closed"}], "id": "3565000008", "name": "USPS COLLECTION BOX - PO LOBBY", "address": {"city": "MOULTON", "state": "AL", "street": "14645 COURT ST", "postcode": "35650"}}},
{"geometry": {"type": "Point", "coordinates": [-87.48178, 34.45769]}, "type": "Feature", "properties": {"collection_times": [{"days": "Mon-Fri", "time": "11:30am"}, {"days": "Sat", "time": "10:15am"}, {"days": "Sun", "time": "Closed"}], "id": "3565100000", "name": "USPS COLLECTION BOX - BLUE BOX", "address": {"city": "MOUNT HOPE", "state": "AL", "street": "7650 COUNTY ROAD 23", "postcode": "35651"}}},
{"geometry": {"type": "Point", "coordinates": [-87.521479841, 34.4711721275]}, "type": "Feature", "properties": {"collection_times": [{"days": "Mon-Fri", "time": "11:30am"}, {"days": "Sat", "time": "10:15am"}, {"days": "Sun", "time": "Closed"}], "id": "3565100001", "name": "USPS COLLECTION BOX - PO LOBBY", "address": {"city": "MOUNT HOPE", "state": "AL", "street": "7650 COUNTY ROAD 23", "postcode": "35651"}}},
{"geometry": {"type": "Point", "coordinates": [-87.3019612915, 34.8263124458]}, "type": "Feature", "properties": {"collection_times": [{"days": "Mon-Fri", "time": "3:00pm"}, {"days": "Sat", "time": "10:30am"}, {"days": "Sun", "time": "Closed"}], "id": "3565200000", "name": "USPS COLLECTION BOX - BLUE BOX", "address": {"city": "ROGERSVILLE", "state": "AL", "street": "15801 HIGHWAY 72", "postcode": "35652"}}},
{"geometry": {"type": "Point", "coordinates": [-87.3019612915, 34.8263124458]}, "type": "Feature", "properties": {"collection_times": [{"days": "Mon-Fri", "time": "3:00pm"}, {"days": "Sat", "time": "10:30am"}, {"days": "Sun", "time": "Closed"}], "id": "3565200001", "name": "USPS COLLECTION BOX - PO LOBBY", "address": {"city": "ROGERSVILLE", "state": "AL", "street": "15801 HIGHWAY 72", "postcode": "35652"}}},
{"geometry": {"type": "Point", "coordinates": [-87.2933954641, 34.8254350124]}, "type": "Feature", "properties": {"collection_times": [{"days": "Mon-Sat", "time": "12:00pm"}, {"days": "Sun", "time": "Closed"}], "id": "3565200002", "name": "USPS COLLECTION BOX - BLUE BOX", "address": {"city": "ROGERSVILLE", "state": "AL", "street": "1660 LEE ST", "postcode": "35652"}}},
{"geometry": {"type": "Point", "coordinates": [-87.729546, 34.50675]}, "type": "Feature", "properties": {"collection_times": [{"days": "Mon-Fri", "time": "4:45pm"}, {"days": "Sat", "time": "3:45pm"}, {"days": "Sun", "time": "Closed"}], "id": "3565300000", "name": "USPS COLLECTION BOX - BLUE BOX", "address": {"city": "RUSSELLVILLE", "state": "AL", "street": "104 LAUDERDALE ST NW", "postcode": "35653"}}},
{"geometry": {"type": "Point", "coordinates": [-87.7294699232, 34.5067691461]}, "type": "Feature", "properties": {"collection_times": [{"days": "Mon-Fri", "time": "4:45pm"}, {"days": "Sat", "time": "3:45pm"}, {"days": "Sun", "time": "Closed"}], "id": "3565300001", "name": "USPS COLLECTION BOX - BLUE BOX", "address": {"city": "RUSSELLVILLE", "state": "AL", "street": "104 LAUDERDALE ST NW", "postcode": "35653"}}},
{"geometry": {"type": "Point", "coordinates": [-87.7220692528, 34.4974261778]}, "type": "Feature", "properties": {"collection_times": [{"days": "Mon-Sat", "time": "10:15am"}, {"days": "Sun", "time": "Closed"}], "id": "3565300015", "name": "USPS COLLECTION BOX - BLUE BOX", "address": {"city": "RUSSELLVILLE", "state": "AL", "street": "14001 HIGHWAY 43", "postcode": "35653"}}},
{"geometry": {"type": "Point", "coordinates": [-87.7290960597, 34.5075399071]}, "type": "Feature", "properties": {"collection_times": [{"days": "Mon-Fri", "time": "5:00pm"}, {"days": "Sat", "time": "4:00pm"}, {"days": "Sun", "time": "Closed"}], "id": "3565300022", "name": "USPS COLLECTION BOX - PO LOBBY", "address": {"city": "RUSSELLVILLE", "state": "AL", "street": "301 JACKSON AVE N", "postcode": "35653"}}},
{"geometry": {"type": "Point", "coordinates": [-87.6963370754, 34.7606441171]}, "type": "Feature", "properties": {"collection_times": [{"days": "Mon-Fri", "time": "3:00pm"}, {"days": "Sat", "time": "2:00pm"}, {"days": "Sun", "time": "Closed"}], "id": "3566000000", "name": "USPS COLLECTION BOX - BLUE BOX", "address": {"city": "SHEFFIELD", "state": "AL", "street": "210 N COLUMBIA AVE", "postcode": "35660"}}},
{"geometry": {"type": "Point", "coordinates": [-87.6963370754, 34.7606441171]}, "type": "Feature", "properties": {"collection_times": [{"days": "Mon-Fri", "time": "3:00pm"}, {"days": "Sat", "time": "2:00pm"}, {"days": "Sun", "time": "Closed"}], "id": "3566000001", "name": "USPS COLLECTION BOX - BLUE BOX", "address": {"city": "SHEFFIELD", "state": "AL", "street": "210 N COLUMBIA AVE", "postcode": "35660"}}},
{"geometry": {"type": "Point", "coordinates": [-87.6984507853, 34.7629257658]}, "type": "Feature", "properties": {"collection_times": [{"days": "Mon-Fri", "time": "2:30pm"}, {"days": "Sat", "time": "2:00pm"}, {"days": "Sun", "time": "Closed"}], "id": "3566000004", "name": "USPS COLLECTION BOX - BLUE BOX", "address": {"city": "SHEFFIELD", "state": "AL", "street": "500 N MONTGOMERY AVE", "postcode": "35660"}}},
{"geometry": {"type": "Point", "coordinates": [-87.6989601373, 34.746431503]}, "type": "Feature", "properties": {"collection_times": [{"days": "Mon-Fri", "time": "2:30pm"}, {"days": "Sat", "time": "2:00pm"}, {"days": "Sun", "time": "Closed"}], "id": "3566000007", "name": "USPS COLLECTION BOX - BLUE BOX", "address": {"city": "SHEFFIELD", "state": "AL", "street": "1300 S MONTGOMERY AVE", "postcode": "35660"}}},
{"geometry": {"type": "Point", "coordinates": [-87.6963370754, 34.7606441171]}, "type": "Feature", "properties": {"collection_times": [{"days": "Mon-Fri", "time": "3:00pm"}, {"days": "Sat-Sun", "time": "Closed"}], "id": "3566000016", "name": "USPS COLLECTION BOX - PO LOBBY", "address": {"city": "SHEFFIELD", "state": "AL", "street": "210 N COLUMBIA AVE", "postcode": "35660"}}},
{"geometry": {"type": "Point", "coordinates": [-87.6368334542, 34.7442956386]}, "type": "Feature", "properties": {"collection_times": [{"days": "Mon-Fri", "time": "5:00pm"}, {"days": "Sat", "time": "4:00pm"}, {"days": "Sun", "time": "Closed"}], "id": "3566100000", "name": "USPS COLLECTION BOX - BLUE BOX", "address": {"city": "MUSCLE SHOALS", "state": "AL", "street": "2350 AVALON AVE", "postcode": "35661"}}},
{"geometry": {"type": "Point", "coordinates": [-87.6368334542, 34.7442956386]}, "type": "Feature", "properties": {"collection_times": [{"days": "Mon-Fri", "time": "5:00pm"}, {"days": "Sat", "time": "4:00pm"}, {"days": "Sun", "time": "Closed"}], "id": "3566100001", "name": "USPS COLLECTION BOX - BLUE BOX", "address": {"city": "MUSCLE SHOALS", "state": "AL", "street": "2350 AVALON AVE", "postcode": "35661"}}},
{"geometry": {"type": "Point", "coordinates": [-87.693949797, 34.7452319516]}, "type": "Feature", "properties": {"collection_times": [{"days": "Mon-Sat", "time": "9:15am"}, {"days": "Sun", "time": "Closed"}], "id": "3566100004", "name": "USPS COLLECTION BOX - BLUE BOX", "address": {"city": "MUSCLE SHOALS", "state": "AL", "street": "517 AVALON AVE", "postcode": "35661"}}},
{"geometry": {"type": "Point", "coordinates": [-87.6337324395, 34.744254983]}, "type": "Feature", "properties": {"collection_times": [{"days": "Mon-Fri", "time": "12:00pm"}, {"days": "Sat", "time": "11:30am"}, {"days": "Sun", "time": "Closed"}], "id": "3566100008", "name": "USPS COLLECTION BOX - BLUE BOX", "address": {"city": "MUSCLE SHOALS", "state": "AL", "street": "2500 AVALON AVE", "postcode": "35661"}}},
{"geometry": {"type": "Point", "coordinates": [-87.6789386921, 34.730351131]}, "type": "Feature", "properties": {"collection_times": [{"days": "Mon-Fri", "time": "9:45am"}, {"days": "Sat-Sun", "time": "Closed"}], "id": "3566100010", "name": "USPS COLLECTION BOX - BLUE BOX", "address": {"city": "MUSCLE SHOALS", "state": "AL", "street": "800 GEORGE WALLACE BLVD", "postcode": "35661"}}},
{"geometry": {"type": "Point", "coordinates": [-87.6368334542, 34.7442956386]}, "type": "Feature", "properties": {"collection_times": [{"days": "Mon-Fri", "time": "5:00pm"}, {"days": "Sat", "time": "4:00pm"}, {"days": "Sun", "time": "Closed"}], "id": "3566100013", "name": "USPS COLLECTION BOX - PO LOBBY", "address": {"city": "MUSCLE SHOALS", "state": "AL", "street": "2350 AVALON AVE", "postcode": "35661"}}},
{"geometry": {"type": "Point", "coordinates": [-87.695253984, 34.7451562896]}, "type": "Feature", "properties": {"collection_times": [{"days": "Mon-Fri", "time": "10:45am"}, {"days": "Sat", "time": "10:30am"}, {"days": "Sun", "time": "Closed"}], "id": "3566100014", "name": "USPS COLLECTION BOX - BLUE BOX", "address": {"city": "MUSCLE SHOALS", "state": "AL", "street": "406 AVALON AVE", "postcode": "35661"}}},
{"geometry": {"type": "Point", "coordinates": [-87.6323947837, 34.780763333]}, "type": "Feature", "properties": {"collection_times": [{"days": "Mon-Sat", "time": "1:00pm"}, {"days": "Sun", "time": "Closed"}], "id": "3566100015", "name": "USPS COLLECTION BOX - BLUE BOX", "address": {"city": "MUSCLE SHOALS", "state": "AL", "street": "100 RIVER RD", "postcode": "35661"}}},
{"geometry": {"type": "Point", "coordinates": [-87.5290945766, 34.758856142]}, "type": "Feature", "properties": {"collection_times": [{"days": "Mon-Sat", "time": "12:00pm"}, {"days": "Sun", "time": "Closed"}], "id": "3566100017", "name": "USPS COLLECTION BOX - BLUE BOX", "address": {"city": "MUSCLE SHOALS", "state": "AL", "street": "14477 COUNTY LINE RD", "postcode": "35661"}}},
{"geometry": {"type": "Point", "coordinates": [-86.8204213017, 34.4795119528]}, "type": "Feature", "properties": {"collection_times": [{"days": "Mon-Fri", "time": "3:00pm"}, {"days": "Sat", "time": "10:00am"}, {"days": "Sun", "time": "Closed"}], "id": "3567000000", "name": "USPS COLLECTION BOX - BLUE BOX", "address": {"city": "SOMERVILLE", "state": "AL", "street": "3696 HIGHWAY 67 S", "postcode": "35670"}}},
{"geometry": {"type": "Point", "coordinates": [-86.8204213014, 34.4795119531]}, "type": "Feature", "properties": {"collection_times": [{"days": "Mon-Fri", "time": "3:00pm"}, {"days": "Sat", "time": "10:00am"}, {"days": "Sun", "time": "Closed"}], "id": "3567000001", "name": "USPS COLLECTION BOX - PO LOBBY", "address": {"city": "SOMERVILLE", "state": "AL", "street": "3696 HIGHWAY 67 S", "postcode": "35670"}}},
{"geometry": {"type": "Point", "coordinates": [-86.9621323136, 34.7311933134]}, "type": "Feature", "properties": {"collection_times": [{"days": "Mon-Fri", "time": "3:00pm"}, {"days": "Sat", "time": "10:30am"}, {"days": "Sun", "time": "Closed"}], "id": "3567100000", "name": "USPS COLLECTION BOX - BLUE BOX", "address": {"city": "TANNER", "state": "AL", "street": "20236 HUNTSVILLE BROWNSFERRY RD", "postcode": "35671"}}},
{"geometry": {"type": "Point", "coordinates": [-86.9621323136, 34.7311933134]}, "type": "Feature", "properties": {"collection_times": [{"days": "Mon-Fri", "time": "3:00pm"}, {"days": "Sat", "time": "10:30am"}, {"days": "Sun", "time": "Closed"}], "id": "3567100003", "name": "USPS COLLECTION BOX - PO LOBBY", "address": {"city": "TANNER", "state": "AL", "street": "20236 HUNTSVILLE BROWNSFERRY RD", "postcode": "35671"}}},
{"geometry": {"type": "Point", "coordinates": [-87.4025249678, 34.6810869309]}, "type": "Feature", "properties": {"collection_times": [{"days": "Mon-Fri", "time": "3:00pm"}, {"days": "Sat", "time": "7:30am"}, {"days": "Sun", "time": "Closed"}], "id": "3567200000", "name": "USPS COLLECTION BOX - BLUE BOX", "address": {"city": "TOWN CREEK", "state": "AL", "street": "2746 AL HIGHWAY 20", "postcode": "35672"}}},
{"geometry": {"type": "Point", "coordinates": [-87.4025249678, 34.6810869309]}, "type": "Feature", "properties": {"collection_times": [{"days": "Mon-Fri", "time": "3:00pm"}, {"days": "Sat", "time": "7:30am"}, {"days": "Sun", "time": "Closed"}], "id": "3567200002", "name": "USPS COLLECTION BOX - PO LOBBY", "address": {"city": "TOWN CREEK", "state": "AL", "street": "2746 AL HIGHWAY 20", "postcode": "35672"}}},
{"geometry": {"type": "Point", "coordinates": [-87.0889367823, 34.5895903008]}, "type": "Feature", "properties": {"collection_times": [{"days": "Mon-Fri", "time": "12:00pm"}, {"days": "Sat", "time": "11:00am"}, {"days": "Sun", "time": "Closed"}], "id": "3567300000", "name": "USPS COLLECTION BOX - BLUE BOX", "address": {"city": "TRINITY", "state": "AL", "street": "1290 OLD HIGHWAY 24", "postcode": "35673"}}},
{"geometry": {"type": "Point", "coordinates": [-87.0889367823, 34.5895903008]}, "type": "Feature", "properties": {"collection_times": [{"days": "Mon-Fri", "time": "12:00pm"}, {"days": "Sat", "time": "11:00am"}, {"days": "Sun", "time": "Closed"}], "id": "3567300001", "name": "USPS COLLECTION BOX - PO LOBBY", "address": {"city": "TRINITY", "state": "AL", "street": "1290 OLD HIGHWAY 24", "postcode": "35673"}}},
{"geometry": {"type": "Point", "coordinates": [-87.70495, 34.73448]}, "type": "Feature", "properties": {"collection_times": [{"days": "Mon-Fri", "time": "3:00pm"}, {"days": "Sat", "time": "2:00pm"}, {"days": "Sun", "time": "Closed"}], "id": "3567400003", "name": "USPS COLLECTION BOX - BLUE BOX", "address": {"city": "TUSCUMBIA", "state": "AL", "street": "301 N WATER ST", "postcode": "35674"}}},
{"geometry": {"type": "Point", "coordinates": [-87.68803, 34.719517]}, "type": "Feature", "properties": {"collection_times": [{"days": "Mon-Sat", "time": "12:30pm"}, {"days": "Sun", "time": "Closed"}], "id": "3567400009", "name": "USPS COLLECTION BOX - BLUE BOX", "address": {"city": "TUSCUMBIA", "state": "AL", "street": "1100 JOE WHEELER DR", "postcode": "35674"}}},
{"geometry": {"type": "Point", "coordinates": [-87.70496, 34.732525]}, "type": "Feature", "properties": {"collection_times": [{"days": "Mon-Fri", "time": "3:00pm"}, {"days": "Sat", "time": "2:00pm"}, {"days": "Sun", "time": "Closed"}], "id": "3567400011", "name": "USPS COLLECTION BOX - BLUE BOX", "address": {"city": "TUSCUMBIA", "state": "AL", "street": "107 N WATER ST", "postcode": "35674"}}},
{"geometry": {"type": "Point", "coordinates": [-87.70358, 34.73347]}, "type": "Feature", "properties": {"collection_times": [{"days": "Mon-Fri", "time": "3:00pm"}, {"days": "Sat", "time": "2:00pm"}, {"days": "Sun", "time": "Closed"}], "id": "3567400012", "name": "USPS COLLECTION BOX - BLUE BOX", "address": {"city": "TUSCUMBIA", "state": "AL", "street": "201 N MAIN ST", "postcode": "35674"}}},
{"geometry": {"type": "Point", "coordinates": [-87.703545, 34.732246]}, "type": "Feature", "properties": {"collection_times": [{"days": "Mon-Fri", "time": "3:00pm"}, {"days": "Sat", "time": "2:00pm"}, {"days": "Sun", "time": "Closed"}], "id": "3567400013", "name": "USPS COLLECTION BOX - BLUE BOX", "address": {"city": "TUSCUMBIA", "state": "AL", "street": "103 S MAIN ST", "postcode": "35674"}}},
{"geometry": {"type": "Point", "coordinates": [-87.695967174, 34.718863672]}, "type": "Feature", "properties": {"collection_times": [{"days": "Mon-Fri", "time": "9:30am"}, {"days": "Sat", "time": "9:00am"}, {"days": "Sun", "time": "Closed"}], "id": "3567400025", "name": "USPS COLLECTION BOX - BLUE BOX", "address": {"city": "TUSCUMBIA", "state": "AL", "street": "1200 AVENUE A", "postcode": "35674"}}},
{"geometry": {"type": "Point", "coordinates": [-87.687954038, 34.727984257]}, "type": "Feature", "properties": {"collection_times": [{"days": "Mon-Fri", "time": "12:45pm"}, {"days": "Sat", "time": "12:00pm"}, {"days": "Sun", "time": "Closed"}], "id": "3567400026", "name": "USPS COLLECTION BOX - BLUE BOX", "address": {"city": "TUSCUMBIA", "state": "AL", "street": "105 DAVIS CT", "postcode": "35674"}}},
{"geometry": {"type": "Point", "coordinates": [-87.7056015333, 34.7142790584]}, "type": "Feature", "properties": {"collection_times": [{"days": "Mon-Fri", "time": "4:30pm"}, {"days": "Sat", "time": "4:00pm"}, {"days": "Sun", "time": "Closed"}], "id": "3567400028", "name": "USPS COLLECTION BOX - BLUE BOX", "address": {"city": "TUSCUMBIA", "state": "AL", "street": "599 HIGHWAY 72 W", "postcode": "35674"}}},
{"geometry": {"type": "Point", "coordinates": [-86.8402850888, 32.7665445132]}, "type": "Feature", "properties": {"collection_times": [{"days": "Mon-Fri", "time": "4:30pm"}, {"days": "Sat", "time": "4:00pm"}, {"days": "Sun", "time": "Closed"}], "id": "3567400029", "name": "USPS COLLECTION BOX - PO LOBBY", "address": {"city": "TUSCUMBIA", "state": "AL", "street": "599 HIGHWAY 72 W", "postcode": "35674"}}},
{"geometry": {"type": "Point", "coordinates": [-88.0643215558, 34.9100879679]}, "type": "Feature", "properties": {"collection_times": [{"days": "Mon-Fri", "time": "3:00pm"}, {"days": "Sat", "time": "10:30am"}, {"days": "Sun", "time": "Closed"}], "id": "3567700000", "name": "USPS COLLECTION BOX - BLUE BOX", "address": {"city": "WATERLOO", "state": "AL", "street": "536 MAIN ST", "postcode": "35677"}}},
{"geometry": {"type": "Point", "coordinates": [-88.0643215558, 34.9100879679]}, "type": "Feature", "properties": {"collection_times": [{"days": "Mon-Fri", "time": "3:00pm"}, {"days": "Sat", "time": "10:30am"}, {"days": "Sun", "time": "Closed"}], "id": "3567700001", "name": "USPS COLLECTION BOX - PO LOBBY", "address": {"city": "WATERLOO", "state": "AL", "street": "536 MAIN ST", "postcode": "35677"}}},
{"geometry": {"type": "Point", "coordinates": [-87.9649373601, 34.9517536659]}, "type": "Feature", "properties": {"collection_times": [{"days": "Mon-Sat", "time": "12:00pm"}, {"days": "Sun", "time": "Closed"}], "id": "3567700003", "name": "USPS COLLECTION BOX - BLUE BOX", "address": {"city": "WATERLOO", "state": "AL", "street": "19040 HIGHWAY 20", "postcode": "35677"}}}
]}
