{"type": "FeatureCollection", "features": [
{"geometry": {"type": "Point", "coordinates": [-85.72629, 34.940006]}, "type": "Feature", "properties": {"collection_times": [{"days": "Mon-Fri", "time": "3:00pm"}, {"days": "Sat", "time": "10:45am"}, {"days": "Sun", "time": "Closed"}], "id": "3574000000", "name": "USPS COLLECTION BOX - BLUE BOX", "address": {"city": "BRIDGEPORT", "state": "AL", "street": "50450 AL HIGHWAY 277", "postcode": "35740"}}},
{"geometry": {"type": "Point", "coordinates": [-85.7173013214, 34.9467063988]}, "type": "Feature", "properties": {"collection_times": [{"days": "Mon-Sat", "time": "9:30am"}, {"days": "Sun", "time": "Closed"}], "id": "3574000001", "name": "USPS COLLECTION BOX - BLUE BOX", "address": {"city": "BRIDGEPORT", "state": "AL", "street": "1202 7TH ST", "postcode": "35740"}}},
{"geometry": {"type": "Point", "coordinates": [-85.72629, 34.940006]}, "type": "Feature", "properties": {"collection_times": [{"days": "Mon-Fri", "time": "3:00pm"}, {"days": "Sat", "time": "10:45am"}, {"days": "Sun", "time": "Closed"}], "id": "3574000002", "name": "USPS COLLECTION BOX - PO LOBBY", "address": {"city": "BRIDGEPORT", "state": "AL", "street": "50450 AL HIGHWAY 277", "postcode": "35740"}}},
{"geometry": {"type": "Point", "coordinates": [-86.4503582571, 34.7468448009]}, "type": "Feature", "properties": {"collection_times": [{"days": "Mon-Fri", "time": "3:00pm"}, {"days": "Sat", "time": "10:30am"}, {"days": "Sun", "time": "Closed"}], "id": "3574100001", "name": "USPS COLLECTION BOX - PO LOBBY", "address": {"city": "BROWNSBORO", "state": "AL", "street": "121 BROWNSBORO RD", "postcode": "35741"}}},
{"geometry": {"type": "Point", "coordinates": [-86.4501928046, 34.746991095]}, "type": "Feature", "properties": {"collection_times": [{"days": "Mon-Fri", "time": "3:00pm"}, {"days": "Sat", "time": "10:30am"}, {"days": "Sun", "time": "Closed"}], "id": "3574100002", "name": "USPS COLLECTION BOX - BLUE BOX", "address": {"city": "BROWNSBORO", "state": "AL", "street": "121 BROWNSBORO RD", "postcode": "35741"}}},
{"geometry": {"type": "Point", "coordinates": [-86.7859011066, 34.772678097]}, "type": "Feature", "properties": {"collection_times": [{"days": "Mon-Fri", "time": "3:00pm"}, {"days": "Sat", "time": "10:00am"}, {"days": "Sun", "time": "Closed"}], "id": "3574200000", "name": "USPS COLLECTION BOX - BLUE BOX", "address": {"city": "CAPSHAW", "state": "AL", "street": "1108 OLD RAILROAD BED RD", "postcode": "35742"}}},
{"geometry": {"type": "Point", "coordinates": [-86.7859011066, 34.772678097]}, "type": "Feature", "properties": {"collection_times": [{"days": "Mon-Fri", "time": "3:00pm"}, {"days": "Sat", "time": "10:00am"}, {"days": "Sun", "time": "Closed"}], "id": "3574200001", "name": "USPS COLLECTION BOX - PO LOBBY", "address": {"city": "CAPSHAW", "state": "AL", "street": "1108 OLD RAILROAD BED RD", "postcode": "35742"}}},
{"geometry": {"type": "Point", "coordinates": [-86.7859011066, 34.772678097]}, "type": "Feature", "properties": {"collection_times": [{"days": "Mon-Fri", "time": "3:00pm"}, {"days": "Sat", "time": "10:00am"}, {"days": "Sun", "time": "Closed"}], "id": "3574200002", "name": "USPS COLLECTION BOX - PO LOBBY", "address": {"city": "CAPSHAW", "state": "AL", "street": "1108 OLD RAILROAD BED RD", "postcode": "35742"}}},
{"geometry": {"type": "Point", "coordinates": [-85.9081023558, 34.615584237]}, "type": "Feature", "properties": {"collection_times": [{"days": "Mon-Fri", "time": "3:00pm"}, {"days": "Sat", "time": "10:30am"}, {"days": "Sun", "time": "Closed"}], "id": "3574400000", "name": "USPS COLLECTION BOX - BLUE BOX", "address": {"city": "DUTTON", "state": "AL", "street": "4496 AL HIGHWAY 71", "postcode": "35744"}}},
{"geometry": {"type": "Point", "coordinates": [-85.91391, 34.612278]}, "type": "Feature", "properties": {"collection_times": [{"days": "Mon-Fri", "time": "3:00pm"}, {"days": "Sat", "time": "10:30am"}, {"days": "Sun", "time": "Closed"}], "id": "3574400001", "name": "USPS COLLECTION BOX - PO LOBBY", "address": {"city": "DUTTON", "state": "AL", "street": "4496 AL HIGHWAY 71", "postcode": "35744"}}},
{"geometry": {"type": "Point", "coordinates": [-86.2529305774, 34.5264491989]}, "type": "Feature", "properties": {"collection_times": [{"days": "Mon-Fri", "time": "3:00pm"}, {"days": "Sat", "time": "11:00am"}, {"days": "Sun", "time": "Closed"}], "id": "3574700000", "name": "USPS COLLECTION BOX - BLUE BOX", "address": {"city": "GRANT", "state": "AL", "street": "5319 MAIN ST", "postcode": "35747"}}},
{"geometry": {"type": "Point", "coordinates": [-86.2529305774, 34.5264491989]}, "type": "Feature", "properties": {"collection_times": [{"days": "Mon-Fri", "time": "3:00pm"}, {"days": "Sat", "time": "11:00am"}, {"days": "Sun", "time": "Closed"}], "id": "3574700001", "name": "USPS COLLECTION BOX - PO LOBBY", "address": {"city": "GRANT", "state": "AL", "street": "5319 MAIN ST", "postcode": "35747"}}},
{"geometry": {"type": "Point", "coordinates": [-86.3811138739, 34.6986260221]}, "type": "Feature", "properties": {"collection_times": [{"days": "Mon-Fri", "time": "3:00pm"}, {"days": "Sat", "time": "10:15am"}, {"days": "Sun", "time": "Closed"}], "id": "3574800000", "name": "USPS COLLECTION BOX - BLUE BOX", "address": {"city": "GURLEY", "state": "AL", "street": "6051 HIGHWAY 72 E", "postcode": "35748"}}},
{"geometry": {"type": "Point", "coordinates": [-86.3811138739, 34.6986260221]}, "type": "Feature", "properties": {"collection_times": [{"days": "Mon-Fri", "time": "3:00pm"}, {"days": "Sat", "time": "10:00am"}, {"days": "Sun", "time": "Closed"}], "id": "3574800001", "name": "USPS COLLECTION BOX - PO LOBBY", "address": {"city": "GURLEY", "state": "AL", "street": "6051 HIGHWAY 72 E", "postcode": "35748"}}},
{"geometry": {"type": "Point", "coordinates": [-86.7489639688, 34.8588459351]}, "type": "Feature", "properties": {"collection_times": [{"days": "Mon-Fri", "time": "3:00pm"}, {"days": "Sat", "time": "11:30am"}, {"days": "Sun", "time": "Closed"}], "id": "3574900000", "name": "USPS COLLECTION BOX - BLUE BOX", "address": {"city": "HARVEST", "state": "AL", "street": "9157 WALL TRIANA HWY", "postcode": "35749"}}},
{"geometry": {"type": "Point", "coordinates": [-86.7489639688, 34.8588459351]}, "type": "Feature", "properties": {"collection_times": [{"days": "Mon-Fri", "time": "3:00pm"}, {"days": "Sat", "time": "11:30am"}, {"days": "Sun", "time": "Closed"}], "id": "3574900001", "name": "USPS COLLECTION BOX - PO LOBBY", "address": {"city": "HARVEST", "state": "AL", "street": "9157 WALL TRIANA HWY", "postcode": "35749"}}},
{"geometry": {"type": "Point", "coordinates": [-86.5718896828, 34.9374733592]}, "type": "Feature", "properties": {"collection_times": [{"days": "Mon-Fri", "time": "2:00pm"}, {"days": "Sat", "time": "10:30am"}, {"days": "Sun", "time": "Closed"}], "id": "3575000000", "name": "USPS COLLECTION BOX - BLUE BOX", "address": {"city": "HAZEL GREEN", "state": "AL", "street": "14297 HIGHWAY 231 431 N", "postcode": "35750"}}},
{"geometry": {"type": "Point", "coordinates": [-86.5718896828, 34.9374733592]}, "type": "Feature", "properties": {"collection_times": [{"days": "Mon-Fri", "time": "3:00pm"}, {"days": "Sat", "time": "10:30am"}, {"days": "Sun", "time": "Closed"}], "id": "3575000001", "name": "USPS COLLECTION BOX - PO LOBBY", "address": {"city": "HAZEL GREEN", "state": "AL", "street": "14297 HIGHWAY 231 431 N", "postcode": "35750"}}},
{"geometry": {"type": "Point", "coordinates": [-85.9668342951, 34.712932748]}, "type": "Feature", "properties": {"collection_times": [{"days": "Mon-Fri", "time": "3:00pm"}, {"days": "Sat", "time": "10:30am"}, {"days": "Sun", "time": "Closed"}], "id": "3575200000", "name": "USPS COLLECTION BOX - BLUE BOX", "address": {"city": "HOLLYWOOD", "state": "AL", "street": "29206 US HIGHWAY 72", "postcode": "35752"}}},
{"geometry": {"type": "Point", "coordinates": [-85.9668342951, 34.712932748]}, "type": "Feature", "properties": {"collection_times": [{"days": "Mon-Fri", "time": "3:00pm"}, {"days": "Sat", "time": "10:30am"}, {"days": "Sun", "time": "Closed"}], "id": "3575200001", "name": "USPS COLLECTION BOX - PO LOBBY", "address": {"city": "HOLLYWOOD", "state": "AL", "street": "29206 US HIGHWAY 72", "postcode": "35752"}}},
{"geometry": {"type": "Point", "coordinates": [-86.5884463212, 34.5399198497]}, "type": "Feature", "properties": {"collection_times": [{"days": "Mon-Fri", "time": "3:00pm"}, {"days": "Sat", "time": "10:30am"}, {"days": "Sun", "time": "Closed"}], "id": "3575400000", "name": "USPS COLLECTION BOX - BLUE BOX", "address": {"city": "LACEYS SPRING", "state": "AL", "street": "1795 HIGHWAY 231", "postcode": "35754"}}},
{"geometry": {"type": "Point", "coordinates": [-86.5884463212, 34.5399198497]}, "type": "Feature", "properties": {"collection_times": [{"days": "Mon-Fri", "time": "3:00pm"}, {"days": "Sat", "time": "10:30am"}, {"days": "Sun", "time": "Closed"}], "id": "3575400001", "name": "USPS COLLECTION BOX - PO LOBBY", "address": {"city": "LACEYS SPRING", "state": "AL", "street": "1795 HIGHWAY 231", "postcode": "35754"}}},
{"geometry": {"type": "Point", "coordinates": [-86.0629363488, 34.549419779]}, "type": "Feature", "properties": {"collection_times": [{"days": "Mon-Fri", "time": "11:30am"}, {"days": "Sat", "time": "10:00am"}, {"days": "Sun", "time": "Closed"}], "id": "3575500000", "name": "USPS COLLECTION BOX - BLUE BOX", "address": {"city": "LANGSTON", "state": "AL", "street": "8989 COUNTY ROAD 67", "postcode": "35755"}}},
{"geometry": {"type": "Point", "coordinates": [-86.0629363488, 34.549419779]}, "type": "Feature", "properties": {"collection_times": [{"days": "Mon-Fri", "time": "11:30am"}, {"days": "Sat", "time": "10:00am"}, {"days": "Sun", "time": "Closed"}], "id": "3575500001", "name": "USPS COLLECTION BOX - PO LOBBY", "address": {"city": "LANGSTON", "state": "AL", "street": "8989 COUNTY ROAD 67", "postcode": "35755"}}},
{"geometry": {"type": "Point", "coordinates": [-86.7353034502, 34.6920599944]}, "type": "Feature", "properties": {"collection_times": [{"days": "Mon-Sat", "time": "5:30pm"}, {"days": "Sun", "time": "Closed"}], "id": "3575800000", "name": "USPS COLLECTION BOX - BLUE BOX", "address": {"city": "MADISON", "state": "AL", "street": "56 HUGHES RD", "postcode": "35758"}}},
{"geometry": {"type": "Point", "coordinates": [-86.7422962625, 34.7137038496]}, "type": "Feature", "properties": {"collection_times": [{"days": "Mon-Sat", "time": "5:30pm"}, {"days": "Sun", "time": "Closed"}], "id": "3575800001", "name": "USPS COLLECTION BOX - EXPRESS", "address": {"city": "MADISON", "state": "AL", "street": "56 HUGHES RD", "postcode": "35758"}}},
{"geometry": {"type": "Point", "coordinates": [-86.7421123337, 34.7067393506]}, "type": "Feature", "properties": {"collection_times": [{"days": "Mon-Fri", "time": "12:15pm"}, {"days": "Sat", "time": "11:00am"}, {"days": "Sun", "time": "Closed"}], "id": "3575800002", "name": "USPS COLLECTION BOX - BLUE BOX", "address": {"city": "MADISON", "state": "AL", "street": "300 HUGHES RD", "postcode": "35758"}}},
{"geometry": {"type": "Point", "coordinates": [-86.7423106304, 34.6995238478]}, "type": "Feature", "properties": {"collection_times": [{"days": "Mon-Sat", "time": "1:00pm"}, {"days": "Sun", "time": "Closed"}], "id": "3575800005", "name": "USPS COLLECTION BOX - BLUE BOX", "address": {"city": "MADISON", "state": "AL", "street": "100 HUGHES RD", "postcode": "35758"}}},
{"geometry": {"type": "Point", "coordinates": [-86.7520064198, 34.7519233653]}, "type": "Feature", "properties": {"collection_times": [{"days": "Mon-Sat", "time": "3:00pm"}, {"days": "Sun", "time": "Closed"}], "id": "3575800007", "name": "USPS COLLECTION BOX - BLUE BOX", "address": {"city": "MADISON", "state": "AL", "street": "8050 HIGHWAY 72 W", "postcode": "35758"}}},
{"geometry": {"type": "Point", "coordinates": [-86.7353034502, 34.6920599944]}, "type": "Feature", "properties": {"collection_times": [{"days": "Mon-Sat", "time": "5:30pm"}, {"days": "Sun", "time": "Closed"}], "id": "3575800008", "name": "USPS COLLECTION BOX - PO LOBBY", "address": {"city": "MADISON", "state": "AL", "street": "56 HUGHES RD", "postcode": "35758"}}},
{"geometry": {"type": "Point", "coordinates": [-86.7353034502, 34.6920599944]}, "type": "Feature", "properties": {"collection_times": [{"days": "Mon-Sat", "time": "5:30pm"}, {"days": "Sun", "time": "Closed"}], "id": "3575800010", "name": "USPS COLLECTION BOX - APC", "address": {"city": "MADISON", "state": "AL", "street": "56 HUGHES RD", "postcode": "35758"}}},
{"geometry": {"type": "Point", "coordinates": [-86.711487029, 34.7361553916]}, "type": "Feature", "properties": {"collection_times": [{"days": "Mon-Sat", "time": "11:00am"}, {"days": "Sun", "time": "Closed"}], "id": "3575800011", "name": "USPS COLLECTION BOX - BLUE BOX", "address": {"city": "MADISON", "state": "AL", "street": "101 MANITOBA BLVD", "postcode": "35758"}}},
{"geometry": {"type": "Point", "coordinates": [-86.711487029, 34.7361553916]}, "type": "Feature", "properties": {"collection_times": [{"days": "Mon-Sat", "time": "11:00am"}, {"days": "Sun", "time": "Closed"}], "id": "3575800012", "name": "USPS COLLECTION BOX - BLUE BOX", "address": {"city": "MADISON", "state": "AL", "street": "101 MANITOBA BLVD", "postcode": "35758"}}},
{"geometry": {"type": "Point", "coordinates": [-86.571434, 34.850334]}, "type": "Feature", "properties": {"collection_times": [{"days": "Mon-Fri", "time": "3:00pm"}, {"days": "Sat", "time": "10:00am"}, {"days": "Sun", "time": "Closed"}], "id": "3575900001", "name": "USPS COLLECTION BOX - BLUE BOX", "address": {"city": "MERDIANVILLE", "state": "AL", "street": "11639 HIGHWAY 231 431 N", "postcode": "35759"}}},
{"geometry": {"type": "Point", "coordinates": [-86.571434, 34.850334]}, "type": "Feature", "properties": {"collection_times": [{"days": "Mon-Fri", "time": "3:00pm"}, {"days": "Sat", "time": "10:30am"}, {"days": "Sun", "time": "Closed"}], "id": "3575900002", "name": "USPS COLLECTION BOX - PO LOBBY", "address": {"city": "MERDIANVILLE", "state": "AL", "street": "11639 HIGHWAY 231 431 N", "postcode": "35759"}}},
{"geometry": {"type": "Point", "coordinates": [-86.5676096615, 34.8622813583]}, "type": "Feature", "properties": {"collection_times": [{"days": "Mon-Fri", "time": "1:30pm"}, {"days": "Sat-Sun", "time": "Closed"}], "id": "3575900003", "name": "USPS COLLECTION BOX - BLUE BOX", "address": {"city": "MERDIANVILLE", "state": "AL", "street": "12290 HIGHWAY 231 431 N", "postcode": "35759"}}},
{"geometry": {"type": "Point", "coordinates": [-86.3942269608, 34.5380297024]}, "type": "Feature", "properties": {"collection_times": [{"days": "Mon-Fri", "time": "3:00pm"}, {"days": "Sat", "time": "10:30am"}, {"days": "Sun", "time": "Closed"}], "id": "3576000000", "name": "USPS COLLECTION BOX - BLUE BOX", "address": {"city": "NEW HOPE", "state": "AL", "street": "5464 MAIN DR", "postcode": "35760"}}},
{"geometry": {"type": "Point", "coordinates": [-86.3942269608, 34.5380297024]}, "type": "Feature", "properties": {"collection_times": [{"days": "Mon-Fri", "time": "3:00pm"}, {"days": "Sat", "time": "10:30am"}, {"days": "Sun", "time": "Closed"}], "id": "3576000001", "name": "USPS COLLECTION BOX - PO LOBBY", "address": {"city": "NEW HOPE", "state": "AL", "street": "5464 MAIN DR", "postcode": "35760"}}},
{"geometry": {"type": "Point", "coordinates": [-86.42776, 34.910496]}, "type": "Feature", "properties": {"collection_times": [{"days": "Mon-Fri", "time": "11:30am"}, {"days": "Sat", "time": "10:00am"}, {"days": "Sun", "time": "Closed"}], "id": "3576100000", "name": "USPS COLLECTION BOX - BLUE BOX", "address": {"city": "NEW MARKET", "state": "AL", "street": "5516 WINCHESTER RD", "postcode": "35761"}}},
{"geometry": {"type": "Point", "coordinates": [-86.42776, 34.910496]}, "type": "Feature", "properties": {"collection_times": [{"days": "Mon-Fri", "time": "11:30am"}, {"days": "Sat", "time": "10:00am"}, {"days": "Sun", "time": "Closed"}], "id": "3576100001", "name": "USPS COLLECTION BOX - PO LOBBY", "address": {"city": "NEW MARKET", "state": "AL", "street": "5516 WINCHESTER RD", "postcode": "35761"}}},
{"geometry": {"type": "Point", "coordinates": [-86.5945142615, 34.7718171012]}, "type": "Feature", "properties": {"collection_times": [{"days": "Mon-Fri", "time": "3:00pm"}, {"days": "Sat-Sun", "time": "Closed"}], "id": "3576200000", "name": "USPS COLLECTION BOX - BLUE BOX", "address": {"city": "NORMAL", "state": "AL", "street": "100 DRAKE DR", "postcode": "35762"}}},
{"geometry": {"type": "Point", "coordinates": [-86.5945142615, 34.7718171012]}, "type": "Feature", "properties": {"collection_times": [{"days": "Mon-Fri", "time": "3:00pm"}, {"days": "Sat-Sun", "time": "Closed"}], "id": "3576200001", "name": "USPS COLLECTION BOX - PO LOBBY", "address": {"city": "NORMAL", "state": "AL", "street": "100 DRAKE DR", "postcode": "35762"}}},
{"geometry": {"type": "Point", "coordinates": [-86.4546019791, 34.6056322747]}, "type": "Feature", "properties": {"collection_times": [{"days": "Mon-Fri", "time": "3:00pm"}, {"days": "Sat", "time": "11:00am"}, {"days": "Sun", "time": "Closed"}], "id": "3576300000", "name": "USPS COLLECTION BOX - BLUE BOX", "address": {"city": "OWENS X RDS", "state": "AL", "street": "8396 HIGHWAY 431 S", "postcode": "35763"}}},
{"geometry": {"type": "Point", "coordinates": [-86.4546019791, 34.6056322747]}, "type": "Feature", "properties": {"collection_times": [{"days": "Mon-Fri", "time": "3:00pm"}, {"days": "Sat", "time": "11:00am"}, {"days": "Sun", "time": "Closed"}], "id": "3576300001", "name": "USPS COLLECTION BOX - PO LOBBY", "address": {"city": "OWENS X RDS", "state": "AL", "street": "8396 HIGHWAY 431 S", "postcode": "35763"}}},
{"geometry": {"type": "Point", "coordinates": [-86.4821955879, 34.6575233273]}, "type": "Feature", "properties": {"collection_times": [{"days": "Mon-Sat", "time": "12:00pm"}, {"days": "Sun", "time": "Closed"}], "id": "3576300002", "name": "USPS COLLECTION BOX - BLUE BOX", "address": {"city": "OWENS X RDS", "state": "AL", "street": "6707 HIGHWAY 431 S", "postcode": "35763"}}},
{"geometry": {"type": "Point", "coordinates": [-86.328238641, 34.6582129194]}, "type": "Feature", "properties": {"collection_times": [{"days": "Mon-Fri", "time": "11:30am"}, {"days": "Sat", "time": "10:45am"}, {"days": "Sun", "time": "Closed"}], "id": "3576400000", "name": "USPS COLLECTION BOX - BLUE BOX", "address": {"city": "PAINT ROCK", "state": "AL", "street": "3227 US HIGHWAY 72", "postcode": "35764"}}},
{"geometry": {"type": "Point", "coordinates": [-86.328238641, 34.6582129194]}, "type": "Feature", "properties": {"collection_times": [{"days": "Mon-Fri", "time": "11:30am"}, {"days": "Sat", "time": "11:00am"}, {"days": "Sun", "time": "Closed"}], "id": "3576400001", "name": "USPS COLLECTION BOX - PO LOBBY", "address": {"city": "PAINT ROCK", "state": "AL", "street": "3227 US HIGHWAY 72", "postcode": "35764"}}},
{"geometry": {"type": "Point", "coordinates": [-85.8479960873, 34.6826791936]}, "type": "Feature", "properties": {"collection_times": [{"days": "Mon-Fri", "time": "3:00pm"}, {"days": "Sat", "time": "10:15am"}, {"days": "Sun", "time": "Closed"}], "id": "3576500000", "name": "USPS COLLECTION BOX - BLUE BOX", "address": {"city": "PISGAH", "state": "AL", "street": "2324 COUNTY ROAD 58", "postcode": "35765"}}},
{"geometry": {"type": "Point", "coordinates": [-85.8479960873, 34.6826791936]}, "type": "Feature", "properties": {"collection_times": [{"days": "Mon-Fri", "time": "3:00pm"}, {"days": "Sat", "time": "10:15am"}, {"days": "Sun", "time": "Closed"}], "id": "3576500001", "name": "USPS COLLECTION BOX - PO LOBBY", "address": {"city": "PISGAH", "state": "AL", "street": "2324 COUNTY ROAD 58", "postcode": "35765"}}},
{"geometry": {"type": "Point", "coordinates": [-85.7637457451, 34.6997861427]}, "type": "Feature", "properties": {"collection_times": [{"days": "Mon-Sat", "time": "11:00am"}, {"days": "Sun", "time": "Closed"}], "id": "3576500002", "name": "USPS COLLECTION BOX - BLUE BOX", "address": {"city": "PISGAH", "state": "AL", "street": "113 THORNTON ST", "postcode": "35765"}}},
{"geometry": {"type": "Point", "coordinates": [-85.8179658625, 34.7012206488]}, "type": "Feature", "properties": {"collection_times": [{"days": "Mon-Sat", "time": "11:00am"}, {"days": "Sun", "time": "Closed"}], "id": "3576500004", "name": "USPS COLLECTION BOX - BLUE BOX", "address": {"city": "PISGAH", "state": "AL", "street": "14490 AL HIGHWAY 71", "postcode": "35765"}}},
{"geometry": {"type": "Point", "coordinates": [-86.24013, 34.843357]}, "type": "Feature", "properties": {"collection_times": [{"days": "Mon-Sat", "time": "10:30am"}, {"days": "Sun", "time": "Closed"}], "id": "3576600000", "name": "USPS COLLECTION BOX - BLUE BOX", "address": {"city": "PRINCETON", "state": "AL", "street": "14575 AL HIGHWAY 65", "postcode": "35766"}}},
{"geometry": {"type": "Point", "coordinates": [-86.24013, 34.843357]}, "type": "Feature", "properties": {"collection_times": [{"days": "Mon-Sat", "time": "10:30am"}, {"days": "Sun", "time": "Closed"}], "id": "3576600001", "name": "USPS COLLECTION BOX - PO LOBBY", "address": {"city": "PRINCETON", "state": "AL", "street": "14575 AL HIGHWAY 65", "postcode": "35766"}}},
{"geometry": {"type": "Point", "coordinates": [-86.4699341485, 34.7701306294]}, "type": "Feature", "properties": {"collection_times": [{"days": "Mon-Fri", "time": "3:00pm"}, {"days": "Sat", "time": "10:15am"}, {"days": "Sun", "time": "Closed"}], "id": "3576700000", "name": "USPS COLLECTION BOX - BLUE BOX", "address": {"city": "RYLAND", "state": "AL", "street": "370 RYLAND PIKE", "postcode": "35767"}}},
{"geometry": {"type": "Point", "coordinates": [-86.4699341485, 34.7701306294]}, "type": "Feature", "properties": {"collection_times": [{"days": "Mon-Fri", "time": "3:00pm"}, {"days": "Sat", "time": "10:30am"}, {"days": "Sun", "time": "Closed"}], "id": "3576700001", "name": "USPS COLLECTION BOX - PO LOBBY", "address": {"city": "RYLAND", "state": "AL", "street": "370 RYLAND PIKE", "postcode": "35767"}}},
{"geometry": {"type": "Point", "coordinates": [-86.0579970016, 34.7196304835]}, "type": "Feature", "properties": {"collection_times": [{"days": "Mon-Fri", "time": "4:00pm"}, {"days": "Sat", "time": "3:45pm"}, {"days": "Sun", "time": "Closed"}], "id": "3576800000", "name": "USPS COLLECTION BOX - PO LOBBY", "address": {"city": "SCOTTSBORO", "state": "AL", "street": "101 S MARKET ST", "postcode": "35768"}}},
{"geometry": {"type": "Point", "coordinates": [-86.0579970016, 34.7196304835]}, "type": "Feature", "properties": {"collection_times": [{"days": "Mon-Fri", "time": "4:00pm"}, {"days": "Sat", "time": "3:45pm"}, {"days": "Sun", "time": "Closed"}], "id": "3576800001", "name": "USPS COLLECTION BOX - BLUE BOX", "address": {"city": "SCOTTSBORO", "state": "AL", "street": "101 S MARKET ST", "postcode": "35768"}}},
{"geometry": {"type": "Point", "coordinates": [-86.0347022102, 34.6728153347]}, "type": "Feature", "properties": {"collection_times": [{"days": "Mon-Fri", "time": "2:30pm"}, {"days": "Sat", "time": "2:00pm"}, {"days": "Sun", "time": "Closed"}], "id": "3576800010", "name": "USPS COLLECTION BOX - BLUE BOX", "address": {"city": "SCOTTSBORO", "state": "AL", "street": "102 E LAUREL ST", "postcode": "35768"}}},
{"geometry": {"type": "Point", "coordinates": [-86.0579970016, 34.7196304835]}, "type": "Feature", "properties": {"collection_times": [{"days": "Mon-Fri", "time": "4:00pm"}, {"days": "Sat", "time": "3:45pm"}, {"days": "Sun", "time": "Closed"}], "id": "3576800016", "name": "USPS COLLECTION BOX - BLUE BOX", "address": {"city": "SCOTTSBORO", "state": "AL", "street": "101 S MARKET ST", "postcode": "35768"}}},
{"geometry": {"type": "Point", "coordinates": [-85.9853813574, 34.5807983516]}, "type": "Feature", "properties": {"collection_times": [{"days": "Mon-Fri", "time": "3:00pm"}, {"days": "Sat", "time": "11:00am"}, {"days": "Sun", "time": "Closed"}], "id": "3577100000", "name": "USPS COLLECTION BOX - BLUE BOX", "address": {"city": "SECTION", "state": "AL", "street": "52 DUTTON RD", "postcode": "35771"}}},
{"geometry": {"type": "Point", "coordinates": [-85.9853813574, 34.5807983516]}, "type": "Feature", "properties": {"collection_times": [{"days": "Mon-Fri", "time": "3:00pm"}, {"days": "Sat", "time": "11:00am"}, {"days": "Sun", "time": "Closed"}], "id": "3577100001", "name": "USPS COLLECTION BOX - PO LOBBY", "address": {"city": "SECTION", "state": "AL", "street": "52 DUTTON RD", "postcode": "35771"}}},
{"geometry": {"type": "Point", "coordinates": [-85.8369466068, 34.8673775933]}, "type": "Feature", "properties": {"collection_times": [{"days": "Mon-Fri", "time": "3:00pm"}, {"days": "Sat", "time": "11:00am"}, {"days": "Sun", "time": "Closed"}], "id": "3577200000", "name": "USPS COLLECTION BOX - BLUE BOX", "address": {"city": "STEVENSON", "state": "AL", "street": "101 E 2ND ST", "postcode": "35772"}}},
{"geometry": {"type": "Point", "coordinates": [-85.8283151206, 34.8733895279]}, "type": "Feature", "properties": {"collection_times": [{"days": "Mon-Fri", "time": "11:30am"}, {"days": "Sat", "time": "11:00am"}, {"days": "Sun", "time": "Closed"}], "id": "3577200001", "name": "USPS COLLECTION BOX - BLUE BOX", "address": {"city": "STEVENSON", "state": "AL", "street": "1 OLD MOUNT CARMEL RD", "postcode": "35772"}}},
{"geometry": {"type": "Point", "coordinates": [-85.8133980713, 34.871128188]}, "type": "Feature", "properties": {"collection_times": [{"days": "Mon-Fri", "time": "10:30am"}, {"days": "Sat", "time": "10:00am"}, {"days": "Sun", "time": "Closed"}], "id": "3577200004", "name": "USPS COLLECTION BOX - BLUE BOX", "address": {"city": "STEVENSON", "state": "AL", "street": "42950 US HIGHWAY 72", "postcode": "35772"}}},
{"geometry": {"type": "Point", "coordinates": [-85.8352240481, 34.8685227001]}, "type": "Feature", "properties": {"collection_times": [{"days": "Mon-Fri", "time": "3:00pm"}, {"days": "Sat", "time": "11:00am"}, {"days": "Sun", "time": "Closed"}], "id": "3577200006", "name": "USPS COLLECTION BOX - PO LOBBY", "address": {"city": "STEVENSON", "state": "AL", "street": "101 E 2ND ST", "postcode": "35772"}}},
{"geometry": {"type": "Point", "coordinates": [-86.714918415, 34.9018832301]}, "type": "Feature", "properties": {"collection_times": [{"days": "Mon-Fri", "time": "3:00pm"}, {"days": "Sat", "time": "10:30am"}, {"days": "Sun", "time": "Closed"}], "id": "3577300000", "name": "USPS COLLECTION BOX - BLUE BOX", "address": {"city": "TONEY", "state": "AL", "street": "136 TONEY RD", "postcode": "35773"}}},
{"geometry": {"type": "Point", "coordinates": [-86.714918415, 34.9018832301]}, "type": "Feature", "properties": {"collection_times": [{"days": "Mon-Fri", "time": "3:00pm"}, {"days": "Sat", "time": "10:30am"}, {"days": "Sun", "time": "Closed"}], "id": "3577300001", "name": "USPS COLLECTION BOX - PO LOBBY", "address": {"city": "TONEY", "state": "AL", "street": "136 TONEY RD", "postcode": "35773"}}},
{"geometry": {"type": "Point", "coordinates": [-86.6986251249, 34.5502314707]}, "type": "Feature", "properties": {"collection_times": [{"days": "Mon-Fri", "time": "11:30am"}, {"days": "Sat", "time": "10:30am"}, {"days": "Sun", "time": "Closed"}], "id": "3577500000", "name": "USPS COLLECTION BOX - BLUE BOX", "address": {"city": "VALHERMOSO SP", "state": "AL", "street": "7071 HIGHWAY 36 E", "postcode": "35775"}}},
{"geometry": {"type": "Point", "coordinates": [-86.6986251249, 34.5502314707]}, "type": "Feature", "properties": {"collection_times": [{"days": "Mon-Fri", "time": "11:30am"}, {"days": "Sat", "time": "10:30am"}, {"days": "Sun", "time": "Closed"}], "id": "3577500001", "name": "USPS COLLECTION BOX - PO LOBBY", "address": {"city": "VALHERMOSO SP", "state": "AL", "street": "7071 HIGHWAY 36 E", "postcode": "35775"}}},
{"geometry": {"type": "Point", "coordinates": [-86.2788619378, 34.6185614552]}, "type": "Feature", "properties": {"collection_times": [{"days": "Mon-Fri", "time": "3:00pm"}, {"days": "Sat", "time": "10:00am"}, {"days": "Sun", "time": "Closed"}], "id": "3577600000", "name": "USPS COLLECTION BOX - BLUE BOX", "address": {"city": "WOODVILLE", "state": "AL", "street": "30056 AL HIGHWAY 35", "postcode": "35776"}}},
{"geometry": {"type": "Point", "coordinates": [-86.2788619378, 34.6185614552]}, "type": "Feature", "properties": {"collection_times": [{"days": "Mon-Fri", "time": "3:00pm"}, {"days": "Sat", "time": "10:00am"}, {"days": "Sun", "time": "Closed"}], "id": "3577600001", "name": "USPS COLLECTION BOX - PO LOBBY", "address": {"city": "WOODVILLE", "state": "AL", "street": "30056 AL HIGHWAY 35", "postcode": "35776"}}}
]}
