{"type": "FeatureCollection", "features": [
{"geometry": {"type": "Point", "coordinates": [-86.5879263129, 34.7115239821]}, "type": "Feature", "properties": {"collection_times": [{"days": "Mon-Fri", "time": "5:30pm"}, {"days": "Sat", "time": "12:00pm"}, {"days": "Sun", "time": "Closed"}], "id": "3580100001", "name": "USPS COLLECTION BOX - BLUE BOX", "address": {"city": "HUNTSVILLE", "state": "AL", "street": "900 BOB WALLACE AVE SW", "postcode": "35801"}}},
{"geometry": {"type": "Point", "coordinates": [-86.5864957379, 34.7009319968]}, "type": "Feature", "properties": {"collection_times": [{"days": "Mon-Fri", "time": "5:00pm"}, {"days": "Sat", "time": "12:15pm"}, {"days": "Sun", "time": "Closed"}], "id": "3580100005", "name": "USPS COLLECTION BOX - BLUE BOX", "address": {"city": "HUNTSVILLE", "state": "AL", "street": "3322 MEMORIAL PKWY SW", "postcode": "35801"}}},
{"geometry": {"type": "Point", "coordinates": [-86.5864957379, 34.7009319968]}, "type": "Feature", "properties": {"collection_times": [{"days": "Mon-Fri", "time": "5:00pm"}, {"days": "Sat", "time": "12:15pm"}, {"days": "Sun", "time": "Closed"}], "id": "3580100006", "name": "USPS COLLECTION BOX - BLUE BOX", "address": {"city": "HUNTSVILLE", "state": "AL", "street": "3322 MEMORIAL PKWY SW", "postcode": "35801"}}},
{"geometry": {"type": "Point", "coordinates": [-86.5743259958, 34.6940190529]}, "type": "Feature", "properties": {"collection_times": [{"days": "Mon-Fri", "time": "2:15pm"}, {"days": "Sat", "time": "12:00pm"}, {"days": "Sun", "time": "Closed"}], "id": "3580100008", "name": "USPS COLLECTION BOX - BLUE BOX", "address": {"city": "HUNTSVILLE", "state": "AL", "street": "250 CHATEAU DR SW", "postcode": "35801"}}},
{"geometry": {"type": "Point", "coordinates": [-86.585616474, 34.7282340411]}, "type": "Feature", "properties": {"collection_times": [{"days": "Mon-Fri", "time": "5:00pm"}, {"days": "Sat", "time": "12:30pm"}, {"days": "Sun", "time": "Closed"}], "id": "3580100009", "name": "USPS COLLECTION BOX - BLUE BOX", "address": {"city": "HUNTSVILLE", "state": "AL", "street": "310 FOUNTAIN CIR SW", "postcode": "35801"}}},
{"geometry": {"type": "Point", "coordinates": [-86.5810721378, 34.7197946616]}, "type": "Feature", "properties": {"collection_times": [{"days": "Mon-Fri", "time": "10:00am"}, {"days": "Sat", "time": "9:00am"}, {"days": "Sun", "time": "Closed"}], "id": "3580100014", "name": "USPS COLLECTION BOX - BLUE BOX", "address": {"city": "HUNTSVILLE", "state": "AL", "street": "201 GOVERNORS DR SW", "postcode": "35801"}}},
{"geometry": {"type": "Point", "coordinates": [-86.5810721378, 34.7197946616]}, "type": "Feature", "properties": {"collection_times": [{"days": "Mon-Fri", "time": "10:00am"}, {"days": "Sat", "time": "9:00am"}, {"days": "Sun", "time": "Closed"}], "id": "3580100015", "name": "USPS COLLECTION BOX - BLUE BOX", "address": {"city": "HUNTSVILLE", "state": "AL", "street": "201 GOVERNORS DR SW", "postcode": "35801"}}},
{"geometry": {"type": "Point", "coordinates": [-86.5931524607, 34.7276974362]}, "type": "Feature", "properties": {"collection_times": [{"days": "Mon-Fri", "time": "5:00pm"}, {"days": "Sat", "time": "4:45pm"}, {"days": "Sun", "time": "Closed"}], "id": "3580100018", "name": "USPS COLLECTION BOX - BLUE BOX", "address": {"city": "HUNTSVILLE", "state": "AL", "street": "615 CLINTON AVE W", "postcode": "35801"}}},
{"geometry": {"type": "Point", "coordinates": [-86.5931524607, 34.7276974362]}, "type": "Feature", "properties": {"collection_times": [{"days": "Mon-Fri", "time": "5:00pm"}, {"days": "Sat", "time": "4:45pm"}, {"days": "Sun", "time": "Closed"}], "id": "3580100019", "name": "USPS COLLECTION BOX - BLUE BOX", "address": {"city": "HUNTSVILLE", "state": "AL", "street": "615 CLINTON AVE W", "postcode": "35801"}}},
{"geometry": {"type": "Point", "coordinates": [-86.5931524607, 34.7276974362]}, "type": "Feature", "properties": {"collection_times": [{"days": "Mon-Fri", "time": "5:00pm"}, {"days": "Sat", "time": "4:45pm"}, {"days": "Sun", "time": "Closed"}], "id": "3580100020", "name": "USPS COLLECTION BOX - BLUE BOX", "address": {"city": "HUNTSVILLE", "state": "AL", "street": "615 CLINTON AVE W", "postcode": "35801"}}},
{"geometry": {"type": "Point", "coordinates": [-86.5931524607, 34.7276974362]}, "type": "Feature", "properties": {"collection_times": [{"days": "Mon-Fri", "time": "5:00pm"}, {"days": "Sat", "time": "4:45pm"}, {"days": "Sun", "time": "Closed"}], "id": "3580100021", "name": "USPS COLLECTION BOX - BLUE BOX", "address": {"city": "HUNTSVILLE", "state": "AL", "street": "615 CLINTON AVE W", "postcode": "35801"}}},
{"geometry": {"type": "Point", "coordinates": [-86.5931524607, 34.7276974362]}, "type": "Feature", "properties": {"collection_times": [{"days": "Mon-Fri", "time": "5:00pm"}, {"days": "Sat", "time": "4:45pm"}, {"days": "Sun", "time": "Closed"}], "id": "3580100022", "name": "USPS COLLECTION BOX - BLUE BOX", "address": {"city": "HUNTSVILLE", "state": "AL", "street": "615 CLINTON AVE W", "postcode": "35801"}}},
{"geometry": {"type": "Point", "coordinates": [-86.5931524607, 34.7276974362]}, "type": "Feature", "properties": {"collection_times": [{"days": "Mon-Fri", "time": "5:00pm"}, {"days": "Sat", "time": "4:45pm"}, {"days": "Sun", "time": "Closed"}], "id": "3580100023", "name": "USPS COLLECTION BOX - BLUE BOX", "address": {"city": "HUNTSVILLE", "state": "AL", "street": "615 CLINTON AVE W", "postcode": "35801"}}},
{"geometry": {"type": "Point", "coordinates": [-86.5730756783, 34.7264912008]}, "type": "Feature", "properties": {"collection_times": [{"days": "Mon-Fri", "time": "5:00pm"}, {"days": "Sat", "time": "4:45pm"}, {"days": "Sun", "time": "Closed"}], "id": "3580100024", "name": "USPS COLLECTION BOX - EXPRESS", "address": {"city": "HUNTSVILLE", "state": "AL", "street": "615 CLINTON AVE W", "postcode": "35801"}}},
{"geometry": {"type": "Point", "coordinates": [-86.5835460583, 34.729245158]}, "type": "Feature", "properties": {"collection_times": [{"days": "Mon-Fri", "time": "4:00pm"}, {"days": "Sat", "time": "1:45pm"}, {"days": "Sun", "time": "Closed"}], "id": "3580100040", "name": "USPS COLLECTION BOX - BLUE BOX", "address": {"city": "HUNTSVILLE", "state": "AL", "street": "401 FRANKLIN ST SE", "postcode": "35801"}}},
{"geometry": {"type": "Point", "coordinates": [-86.5811490588, 34.71864896]}, "type": "Feature", "properties": {"collection_times": [{"days": "Mon-Fri", "time": "4:45pm"}, {"days": "Sat", "time": "1:00pm"}, {"days": "Sun", "time": "Closed"}], "id": "3580100041", "name": "USPS COLLECTION BOX - BLUE BOX", "address": {"city": "HUNTSVILLE", "state": "AL", "street": "201 LONGWOOD DR SW", "postcode": "35801"}}},
{"geometry": {"type": "Point", "coordinates": [-86.5924371582, 34.7201269294]}, "type": "Feature", "properties": {"collection_times": [{"days": "Mon-Fri", "time": "3:15pm"}, {"days": "Sat", "time": "2:30pm"}, {"days": "Sun", "time": "Closed"}], "id": "3580100045", "name": "USPS COLLECTION BOX - BLUE BOX", "address": {"city": "HUNTSVILLE", "state": "AL", "street": "806 GOVERNORS DR SW", "postcode": "35801"}}},
{"geometry": {"type": "Point", "coordinates": [-86.5762388851, 34.7215260336]}, "type": "Feature", "properties": {"collection_times": [{"days": "Mon-Fri", "time": "4:15pm"}, {"days": "Sat", "time": "1:45pm"}, {"days": "Sun", "time": "Closed"}], "id": "3580100051", "name": "USPS COLLECTION BOX - BLUE BOX", "address": {"city": "HUNTSVILLE", "state": "AL", "street": "401 LOWELL DR SE", "postcode": "35801"}}},
{"geometry": {"type": "Point", "coordinates": [-86.5883927166, 34.7140022121]}, "type": "Feature", "properties": {"collection_times": [{"days": "Mon-Fri", "time": "5:00pm"}, {"days": "Sat", "time": "11:00am"}, {"days": "Sun", "time": "Closed"}], "id": "3580100058", "name": "USPS COLLECTION BOX - BLUE BOX", "address": {"city": "HUNTSVILLE", "state": "AL", "street": "2319 MARKET PL SW", "postcode": "35801"}}},
{"geometry": {"type": "Point", "coordinates": [-86.5883927166, 34.7140022121]}, "type": "Feature", "properties": {"collection_times": [{"days": "Mon-Fri", "time": "5:00pm"}, {"days": "Sat", "time": "11:00am"}, {"days": "Sun", "time": "Closed"}], "id": "3580100059", "name": "USPS COLLECTION BOX - BLUE BOX", "address": {"city": "HUNTSVILLE", "state": "AL", "street": "2319 MARKET PL SW", "postcode": "35801"}}},
{"geometry": {"type": "Point", "coordinates": [-86.5840431958, 34.7205657728]}, "type": "Feature", "properties": {"collection_times": [{"days": "Mon-Fri", "time": "3:00pm"}, {"days": "Sat", "time": "10:00am"}, {"days": "Sun", "time": "Closed"}], "id": "3580100063", "name": "USPS COLLECTION BOX - BLUE BOX", "address": {"city": "HUNTSVILLE", "state": "AL", "street": "401 SIVLEY RD SW", "postcode": "35801"}}},
{"geometry": {"type": "Point", "coordinates": [-86.5859983701, 34.7264910674]}, "type": "Feature", "properties": {"collection_times": [{"days": "Mon-Fri", "time": "5:00pm"}, {"days": "Sat", "time": "9:30am"}, {"days": "Sun", "time": "Closed"}], "id": "3580100067", "name": "USPS COLLECTION BOX - BLUE BOX", "address": {"city": "HUNTSVILLE", "state": "AL", "street": "303 WILLIAMS AVE SW", "postcode": "35801"}}},
{"geometry": {"type": "Point", "coordinates": [-86.5857745331, 34.7304272629]}, "type": "Feature", "properties": {"collection_times": [{"days": "Mon-Fri", "time": "5:00pm"}, {"days": "Sat-Sun", "time": "Closed"}], "id": "3580100079", "name": "USPS COLLECTION BOX - BLUE BOX", "address": {"city": "HUNTSVILLE", "state": "AL", "street": "100 NORTHSIDE SQ", "postcode": "35801"}}},
{"geometry": {"type": "Point", "coordinates": [-86.5706550888, 34.6928255443]}, "type": "Feature", "properties": {"collection_times": [{"days": "Mon-Sat", "time": "10:30am"}, {"days": "Sun", "time": "Closed"}], "id": "3580100088", "name": "USPS COLLECTION BOX - BLUE BOX", "address": {"city": "HUNTSVILLE", "state": "AL", "street": "333 WHITESPORT DR SW", "postcode": "35801"}}},
{"geometry": {"type": "Point", "coordinates": [-86.5523851443, 34.7228298548]}, "type": "Feature", "properties": {"collection_times": [{"days": "Mon-Fri", "time": "5:15pm"}, {"days": "Sat", "time": "10:30am"}, {"days": "Sun", "time": "Closed"}], "id": "3580100089", "name": "USPS COLLECTION BOX - BLUE BOX", "address": {"city": "HUNTSVILLE", "state": "AL", "street": "500 HOSPITAL DR SW", "postcode": "35801"}}},
{"geometry": {"type": "Point", "coordinates": [-86.5730756783, 34.7264912008]}, "type": "Feature", "properties": {"collection_times": [{"days": "Mon-Fri", "time": "5:15pm"}, {"days": "Sat", "time": "10:30am"}, {"days": "Sun", "time": "Closed"}], "id": "3580100090", "name": "USPS COLLECTION BOX - EXPRESS", "address": {"city": "HUNTSVILLE", "state": "AL", "street": "500 HOSPITAL DR SW", "postcode": "35801"}}},
{"geometry": {"type": "Point", "coordinates": [-86.5523851443, 34.7228298548]}, "type": "Feature", "properties": {"collection_times": [{"days": "Mon-Fri", "time": "5:15pm"}, {"days": "Sat", "time": "10:30am"}, {"days": "Sun", "time": "Closed"}], "id": "3580100091", "name": "USPS COLLECTION BOX - BLUE BOX", "address": {"city": "HUNTSVILLE", "state": "AL", "street": "500 HOSPITAL DR SW", "postcode": "35801"}}},
{"geometry": {"type": "Point", "coordinates": [-86.574572271, 34.712588292]}, "type": "Feature", "properties": {"collection_times": [{"days": "Mon-Fri", "time": "5:00pm"}, {"days": "Sat", "time": "9:45am"}, {"days": "Sun", "time": "Closed"}], "id": "3580100092", "name": "USPS COLLECTION BOX - BLUE BOX", "address": {"city": "HUNTSVILLE", "state": "AL", "street": "101 BOB WALLACE AVE SW", "postcode": "35801"}}},
{"geometry": {"type": "Point", "coordinates": [-86.5917506859, 34.6997843914]}, "type": "Feature", "properties": {"collection_times": [{"days": "Mon-Fri", "time": "5:30pm"}, {"days": "Sat", "time": "12:00pm"}, {"days": "Sun", "time": "Closed"}], "id": "3580100093", "name": "USPS COLLECTION BOX - BLUE BOX", "address": {"city": "HUNTSVILLE", "state": "AL", "street": "3077 LEEMAN FERRY RD SW", "postcode": "35801"}}},
{"geometry": {"type": "Point", "coordinates": [-86.5931524607, 34.7276974362]}, "type": "Feature", "properties": {"collection_times": [{"days": "Mon-Fri", "time": "5:00pm"}, {"days": "Sat", "time": "4:45pm"}, {"days": "Sun", "time": "Closed"}], "id": "3580100095", "name": "USPS COLLECTION BOX - PO LOBBY", "address": {"city": "HUNTSVILLE", "state": "AL", "street": "615 CLINTON AVE W", "postcode": "35801"}}},
{"geometry": {"type": "Point", "coordinates": [-86.5931524607, 34.7276974362]}, "type": "Feature", "properties": {"collection_times": [{"days": "Mon-Fri", "time": "5:00pm"}, {"days": "Sat", "time": "4:45pm"}, {"days": "Sun", "time": "Closed"}], "id": "3580100097", "name": "USPS COLLECTION BOX - PO LOBBY", "address": {"city": "HUNTSVILLE", "state": "AL", "street": "615 CLINTON AVE W", "postcode": "35801"}}},
{"geometry": {"type": "Point", "coordinates": [-86.5857745331, 34.7304272629]}, "type": "Feature", "properties": {"collection_times": [{"days": "Mon-Fri", "time": "5:00pm"}, {"days": "Sat-Sun", "time": "Closed"}], "id": "3580100100", "name": "USPS COLLECTION BOX - BLUE BOX", "address": {"city": "HUNTSVILLE", "state": "AL", "street": "100 NORTHSIDE SQ", "postcode": "35801"}}},
{"geometry": {"type": "Point", "coordinates": [-86.5321986408, 34.7386386288]}, "type": "Feature", "properties": {"collection_times": [{"days": "Mon-Sat", "time": "12:00pm"}, {"days": "Sun", "time": "Closed"}], "id": "3580100102", "name": "USPS COLLECTION BOX - BLUE BOX", "address": {"city": "HUNTSVILLE", "state": "AL", "street": "820 MONTE SANO BLVD SE", "postcode": "35801"}}},
{"geometry": {"type": "Point", "coordinates": [-86.5810928945, 34.6959456504]}, "type": "Feature", "properties": {"collection_times": [{"days": "Mon-Fri", "time": "4:30pm"}, {"days": "Sat", "time": "11:00am"}, {"days": "Sun", "time": "Closed"}], "id": "3580100103", "name": "USPS COLLECTION BOX - BLUE BOX", "address": {"city": "HUNTSVILLE", "state": "AL", "street": "1131 EAGLETREE LN SE", "postcode": "35801"}}},
{"geometry": {"type": "Point", "coordinates": [-86.5785539073, 34.722564198]}, "type": "Feature", "properties": {"collection_times": [{"days": "Mon-Fri", "time": "4:00pm"}, {"days": "Sat", "time": "1:00pm"}, {"days": "Sun", "time": "Closed"}], "id": "3580100104", "name": "USPS COLLECTION BOX - BLUE BOX", "address": {"city": "HUNTSVILLE", "state": "AL", "street": "820 FRANKLIN ST SE", "postcode": "35801"}}},
{"geometry": {"type": "Point", "coordinates": [-86.5872185822, 34.7321568216]}, "type": "Feature", "properties": {"collection_times": [{"days": "Mon-Fri", "time": "5:00pm"}, {"days": "Sat", "time": "4:45pm"}, {"days": "Sun", "time": "Closed"}], "id": "3580100107", "name": "USPS COLLECTION BOX - BLUE BOX", "address": {"city": "HUNTSVILLE", "state": "AL", "street": "101 HOLMES AVE W", "postcode": "35801"}}},
{"geometry": {"type": "Point", "coordinates": [-86.5872185822, 34.7321568216]}, "type": "Feature", "properties": {"collection_times": [{"days": "Mon-Fri", "time": "5:00pm"}, {"days": "Sat", "time": "4:45pm"}, {"days": "Sun", "time": "Closed"}], "id": "3580100108", "name": "USPS COLLECTION BOX - BLUE BOX", "address": {"city": "HUNTSVILLE", "state": "AL", "street": "101 HOLMES AVE W", "postcode": "35801"}}},
{"geometry": {"type": "Point", "coordinates": [-86.5400234184, 34.6481059022]}, "type": "Feature", "properties": {"collection_times": [{"days": "Mon-Fri", "time": "5:00pm"}, {"days": "Sat", "time": "4:30pm"}, {"days": "Sun", "time": "Closed"}], "id": "3580200000", "name": "USPS COLLECTION BOX - BLUE BOX", "address": {"city": "HUNTSVILLE", "state": "AL", "street": "9020 BAILEY COVE RD SE", "postcode": "35802"}}},
{"geometry": {"type": "Point", "coordinates": [-86.5773645834, 34.6660334146]}, "type": "Feature", "properties": {"collection_times": [{"days": "Mon-Fri", "time": "5:00pm"}, {"days": "Sat", "time": "11:00am"}, {"days": "Sun", "time": "Closed"}], "id": "3580200001", "name": "USPS COLLECTION BOX - BLUE BOX", "address": {"city": "HUNTSVILLE", "state": "AL", "street": "8020 BENAROYA LN SW", "postcode": "35802"}}},
{"geometry": {"type": "Point", "coordinates": [-86.5618785991, 34.6700235093]}, "type": "Feature", "properties": {"collection_times": [{"days": "Mon-Fri", "time": "5:00pm"}, {"days": "Sat", "time": "11:00am"}, {"days": "Sun", "time": "Closed"}], "id": "3580200003", "name": "USPS COLLECTION BOX - EXPRESS", "address": {"city": "HUNTSVILLE", "state": "AL", "street": "8020 BENAROYA LN SW", "postcode": "35802"}}},
{"geometry": {"type": "Point", "coordinates": [-86.5618785991, 34.6700235093]}, "type": "Feature", "properties": {"collection_times": [{"days": "Mon-Fri", "time": "5:00pm"}, {"days": "Sat", "time": "4:00pm"}, {"days": "Sun", "time": "Closed"}], "id": "3580200006", "name": "USPS COLLECTION BOX - EXPRESS", "address": {"city": "HUNTSVILLE", "state": "AL", "street": "8401 WHITESBURG DR SE", "postcode": "35802"}}},
{"geometry": {"type": "Point", "coordinates": [-86.566191301, 34.6540299933]}, "type": "Feature", "properties": {"collection_times": [{"days": "Mon-Fri", "time": "5:00pm"}, {"days": "Sat", "time": "4:00pm"}, {"days": "Sun", "time": "Closed"}], "id": "3580200007", "name": "USPS COLLECTION BOX - BLUE BOX", "address": {"city": "HUNTSVILLE", "state": "AL", "street": "8401 WHITESBURG DR SE", "postcode": "35802"}}},
{"geometry": {"type": "Point", "coordinates": [-86.566191301, 34.6540299933]}, "type": "Feature", "properties": {"collection_times": [{"days": "Mon-Fri", "time": "5:00pm"}, {"days": "Sat", "time": "4:00pm"}, {"days": "Sun", "time": "Closed"}], "id": "3580200008", "name": "USPS COLLECTION BOX - BLUE BOX", "address": {"city": "HUNTSVILLE", "state": "AL", "street": "8401 WHITESBURG DR SE", "postcode": "35802"}}},
{"geometry": {"type": "Point", "coordinates": [-86.566191301, 34.6540299933]}, "type": "Feature", "properties": {"collection_times": [{"days": "Mon-Fri", "time": "5:00pm"}, {"days": "Sat", "time": "4:00pm"}, {"days": "Sun", "time": "Closed"}], "id": "3580200009", "name": "USPS COLLECTION BOX - BLUE BOX", "address": {"city": "HUNTSVILLE", "state": "AL", "street": "8401 WHITESBURG DR SE", "postcode": "35802"}}},
{"geometry": {"type": "Point", "coordinates": [-86.570016848, 34.6383495421]}, "type": "Feature", "properties": {"collection_times": [{"days": "Mon-Sat", "time": "11:00am"}, {"days": "Sun", "time": "Closed"}], "id": "3580200010", "name": "USPS COLLECTION BOX - BLUE BOX", "address": {"city": "HUNTSVILLE", "state": "AL", "street": "1935 MEADOWBROOK DR SW", "postcode": "35802"}}},
{"geometry": {"type": "Point", "coordinates": [-86.5417306216, 34.6585617867]}, "type": "Feature", "properties": {"collection_times": [{"days": "Mon-Sat", "time": "10:30am"}, {"days": "Sun", "time": "Closed"}], "id": "3580200016", "name": "USPS COLLECTION BOX - BLUE BOX", "address": {"city": "HUNTSVILLE", "state": "AL", "street": "902 WILLOWBROOK DR SE", "postcode": "35802"}}},
{"geometry": {"type": "Point", "coordinates": [-86.5564268982, 34.5953386726]}, "type": "Feature", "properties": {"collection_times": [{"days": "Mon-Sat", "time": "10:00am"}, {"days": "Sun", "time": "Closed"}], "id": "3580200017", "name": "USPS COLLECTION BOX - BLUE BOX", "address": {"city": "HUNTSVILLE", "state": "AL", "street": "325 GREEN COVE RD SE", "postcode": "35802"}}},
{"geometry": {"type": "Point", "coordinates": [-86.5669631677, 34.619288198]}, "type": "Feature", "properties": {"collection_times": [{"days": "Mon-Sat", "time": "11:30am"}, {"days": "Sun", "time": "Closed"}], "id": "3580200018", "name": "USPS COLLECTION BOX - BLUE BOX", "address": {"city": "HUNTSVILLE", "state": "AL", "street": "11575 S MEMORIAL PKWY", "postcode": "35802"}}},
{"geometry": {"type": "Point", "coordinates": [-86.5849768445, 34.7291302012]}, "type": "Feature", "properties": {"collection_times": [{"days": "Mon-Fri", "time": "10:30am"}, {"days": "Sat", "time": "10:00am"}, {"days": "Sun", "time": "Closed"}], "id": "3580200019", "name": "USPS COLLECTION BOX - BLUE BOX", "address": {"city": "HUNTSVILLE", "state": "AL", "street": "11610 S MEMORIAL PKWY", "postcode": "35802"}}},
{"geometry": {"type": "Point", "coordinates": [-86.566191301, 34.6540299933]}, "type": "Feature", "properties": {"collection_times": [{"days": "Mon-Fri", "time": "5:00pm"}, {"days": "Sat", "time": "4:00pm"}, {"days": "Sun", "time": "Closed"}], "id": "3580200020", "name": "USPS COLLECTION BOX - PO LOBBY", "address": {"city": "HUNTSVILLE", "state": "AL", "street": "8401 WHITESBURG DR SE", "postcode": "35802"}}},
{"geometry": {"type": "Point", "coordinates": [-86.5618699094, 34.6701321803]}, "type": "Feature", "properties": {"collection_times": [{"days": "Mon-Sat", "time": "10:30am"}, {"days": "Sun", "time": "Closed"}], "id": "3580200021", "name": "USPS COLLECTION BOX - BLUE BOX", "address": {"city": "HUNTSVILLE", "state": "AL", "street": "12796 BAILEY COVE RD SE", "postcode": "35802"}}},
{"geometry": {"type": "Point", "coordinates": [-86.5683665343, 34.6941783463]}, "type": "Feature", "properties": {"collection_times": [{"days": "Mon-Fri", "time": "2:15pm"}, {"days": "Sat", "time": "12:15pm"}, {"days": "Sun", "time": "Closed"}], "id": "3580200022", "name": "USPS COLLECTION BOX - BLUE BOX", "address": {"city": "HUNTSVILLE", "state": "AL", "street": "4800 WHITESBURG DR SE", "postcode": "35802"}}},
{"geometry": {"type": "Point", "coordinates": [-86.566191301, 34.6540299933]}, "type": "Feature", "properties": {"collection_times": [{"days": "Mon-Fri", "time": "5:00pm"}, {"days": "Sat", "time": "4:00pm"}, {"days": "Sun", "time": "Closed"}], "id": "3580200026", "name": "USPS COLLECTION BOX - APC", "address": {"city": "HUNTSVILLE", "state": "AL", "street": "8401 WHITESBURG DR SE", "postcode": "35802"}}},
{"geometry": {"type": "Point", "coordinates": [-86.5391472662, 34.6694594982]}, "type": "Feature", "properties": {"collection_times": [{"days": "Mon-Sat", "time": "2:45pm"}, {"days": "Sun", "time": "Closed"}], "id": "3580200028", "name": "USPS COLLECTION BOX - BLUE BOX", "address": {"city": "HUNTSVILLE", "state": "AL", "street": "7605 BAILEY COVE RD SE", "postcode": "35802"}}},
{"geometry": {"type": "Point", "coordinates": [-86.655544737, 34.7120411287]}, "type": "Feature", "properties": {"collection_times": [{"days": "Mon-Fri", "time": "4:00pm"}, {"days": "Sat", "time": "4:45pm"}, {"days": "Sun", "time": "Closed"}], "id": "3580500001", "name": "USPS COLLECTION BOX - BLUE BOX", "address": {"city": "HUNTSVILLE", "state": "AL", "street": "1 TRANQUILITY BASE", "postcode": "35805"}}},
{"geometry": {"type": "Point", "coordinates": [-86.5926438152, 34.7110203073]}, "type": "Feature", "properties": {"collection_times": [{"days": "Mon-Fri", "time": "5:30pm"}, {"days": "Sat", "time": "10:30am"}, {"days": "Sun", "time": "Closed"}], "id": "3580500002", "name": "USPS COLLECTION BOX - BLUE BOX", "address": {"city": "HUNTSVILLE", "state": "AL", "street": "2603 ARTIE ST SW", "postcode": "35805"}}},
{"geometry": {"type": "Point", "coordinates": [-86.6563168259, 34.7327503147]}, "type": "Feature", "properties": {"collection_times": [{"days": "Mon-Fri", "time": "4:45pm"}, {"days": "Sat", "time": "10:00am"}, {"days": "Sun", "time": "Closed"}], "id": "3580500006", "name": "USPS COLLECTION BOX - BLUE BOX", "address": {"city": "HUNTSVILLE", "state": "AL", "street": "4955 CORPORATE DR NW", "postcode": "35805"}}},
{"geometry": {"type": "Point", "coordinates": [-86.6563168259, 34.7327503147]}, "type": "Feature", "properties": {"collection_times": [{"days": "Mon-Fri", "time": "4:45pm"}, {"days": "Sat", "time": "10:00am"}, {"days": "Sun", "time": "Closed"}], "id": "3580500007", "name": "USPS COLLECTION BOX - BLUE BOX", "address": {"city": "HUNTSVILLE", "state": "AL", "street": "4955 CORPORATE DR NW", "postcode": "35805"}}},
{"geometry": {"type": "Point", "coordinates": [-86.6020700173, 34.700710989]}, "type": "Feature", "properties": {"collection_times": [{"days": "Mon-Fri", "time": "5:30pm"}, {"days": "Sat", "time": "10:00am"}, {"days": "Sun", "time": "Closed"}], "id": "3580500008", "name": "USPS COLLECTION BOX - BLUE BOX", "address": {"city": "HUNTSVILLE", "state": "AL", "street": "2227 DRAKE AVE SW", "postcode": "35805"}}},
{"geometry": {"type": "Point", "coordinates": [-86.6094552872, 34.7102822833]}, "type": "Feature", "properties": {"collection_times": [{"days": "Mon-Fri", "time": "5:00pm"}, {"days": "Sat", "time": "9:30am"}, {"days": "Sun", "time": "Closed"}], "id": "3580500020", "name": "USPS COLLECTION BOX - BLUE BOX", "address": {"city": "HUNTSVILLE", "state": "AL", "street": "2900 TRIANA BLVD SW", "postcode": "35805"}}},
{"geometry": {"type": "Point", "coordinates": [-86.6029449046, 34.7108517472]}, "type": "Feature", "properties": {"collection_times": [{"days": "Mon-Fri", "time": "2:00pm"}, {"days": "Sat", "time": "10:00am"}, {"days": "Sun", "time": "Closed"}], "id": "3580500033", "name": "USPS COLLECTION BOX - BLUE BOX", "address": {"city": "HUNTSVILLE", "state": "AL", "street": "2905 WESTCORP BLVD SW", "postcode": "35805"}}},
{"geometry": {"type": "Point", "coordinates": [-86.6151125942, 34.7200618765]}, "type": "Feature", "properties": {"collection_times": [{"days": "Mon-Fri", "time": "5:00pm"}, {"days": "Sat", "time": "3:45pm"}, {"days": "Sun", "time": "Closed"}], "id": "3580500038", "name": "USPS COLLECTION BOX - BLUE BOX", "address": {"city": "HUNTSVILLE", "state": "AL", "street": "3605 GOVERNORS DR SW", "postcode": "35805"}}},
{"geometry": {"type": "Point", "coordinates": [-86.6151125942, 34.7200618765]}, "type": "Feature", "properties": {"collection_times": [{"days": "Mon-Fri", "time": "5:00pm"}, {"days": "Sat", "time": "3:45pm"}, {"days": "Sun", "time": "Closed"}], "id": "3580500039", "name": "USPS COLLECTION BOX - BLUE BOX", "address": {"city": "HUNTSVILLE", "state": "AL", "street": "3605 GOVERNORS DR SW", "postcode": "35805"}}},
{"geometry": {"type": "Point", "coordinates": [-86.6151125942, 34.7200618765]}, "type": "Feature", "properties": {"collection_times": [{"days": "Mon-Fri", "time": "5:00pm"}, {"days": "Sat", "time": "3:45pm"}, {"days": "Sun", "time": "Closed"}], "id": "3580500041", "name": "USPS COLLECTION BOX - BLUE BOX", "address": {"city": "HUNTSVILLE", "state": "AL", "street": "3605 GOVERNORS DR SW", "postcode": "35805"}}},
{"geometry": {"type": "Point", "coordinates": [-86.6151125942, 34.7200618765]}, "type": "Feature", "properties": {"collection_times": [{"days": "Mon-Fri", "time": "5:00pm"}, {"days": "Sat", "time": "3:45pm"}, {"days": "Sun", "time": "Closed"}], "id": "3580500042", "name": "USPS COLLECTION BOX - BLUE BOX", "address": {"city": "HUNTSVILLE", "state": "AL", "street": "3605 GOVERNORS DR SW", "postcode": "35805"}}},
{"geometry": {"type": "Point", "coordinates": [-86.6151125942, 34.7200618765]}, "type": "Feature", "properties": {"collection_times": [{"days": "Mon-Fri", "time": "5:00pm"}, {"days": "Sat", "time": "3:45pm"}, {"days": "Sun", "time": "Closed"}], "id": "3580500043", "name": "USPS COLLECTION BOX - BLUE BOX", "address": {"city": "HUNTSVILLE", "state": "AL", "street": "3605 GOVERNORS DR SW", "postcode": "35805"}}},
{"geometry": {"type": "Point", "coordinates": [-86.6151125942, 34.7200618765]}, "type": "Feature", "properties": {"collection_times": [{"days": "Mon-Fri", "time": "5:00pm"}, {"days": "Sat", "time": "3:45pm"}, {"days": "Sun", "time": "Closed"}], "id": "3580500046", "name": "USPS COLLECTION BOX - PO LOBBY", "address": {"city": "HUNTSVILLE", "state": "AL", "street": "3605 GOVERNORS DR SW", "postcode": "35805"}}},
{"geometry": {"type": "Point", "coordinates": [-86.6601576741, 34.7132748462]}, "type": "Feature", "properties": {"collection_times": [{"days": "Mon-Sat", "time": "10:00am"}, {"days": "Sun", "time": "Closed"}], "id": "3580600000", "name": "USPS COLLECTION BOX - BLUE BOX", "address": {"city": "HUNTSVILLE", "state": "AL", "street": "6210 OLD MADISON PIKE NW", "postcode": "35806"}}},
{"geometry": {"type": "Point", "coordinates": [-86.6748966317, 34.7131511558]}, "type": "Feature", "properties": {"collection_times": [{"days": "Mon-Fri", "time": "4:00pm"}, {"days": "Sat-Sun", "time": "Closed"}], "id": "3580600001", "name": "USPS COLLECTION BOX - BLUE BOX", "address": {"city": "HUNTSVILLE", "state": "AL", "street": "6767 OLD MADISON PIKE NW", "postcode": "35806"}}},
{"geometry": {"type": "Point", "coordinates": [-86.6628314844, 34.7349448421]}, "type": "Feature", "properties": {"collection_times": [{"days": "Mon-Fri", "time": "4:30pm"}, {"days": "Sat", "time": "9:30am"}, {"days": "Sun", "time": "Closed"}], "id": "3580600003", "name": "USPS COLLECTION BOX - BLUE BOX", "address": {"city": "HUNTSVILLE", "state": "AL", "street": "930 OLD MONROVIA RD NW", "postcode": "35806"}}},
{"geometry": {"type": "Point", "coordinates": [-86.6641555074, 34.7402674909]}, "type": "Feature", "properties": {"collection_times": [{"days": "Mon-Fri", "time": "4:30pm"}, {"days": "Sat", "time": "10:30am"}, {"days": "Sun", "time": "Closed"}], "id": "3580600005", "name": "USPS COLLECTION BOX - BLUE BOX", "address": {"city": "HUNTSVILLE", "state": "AL", "street": "5901 UNIVERSITY DR NW", "postcode": "35806"}}},
{"geometry": {"type": "Point", "coordinates": [-86.6845785282, 34.7211153023]}, "type": "Feature", "properties": {"collection_times": [{"days": "Mon-Fri", "time": "4:15pm"}, {"days": "Sat-Sun", "time": "Closed"}], "id": "3580600008", "name": "USPS COLLECTION BOX - BLUE BOX", "address": {"city": "HUNTSVILLE", "state": "AL", "street": "904 EXPLORER BLVD NW", "postcode": "35806"}}},
{"geometry": {"type": "Point", "coordinates": [-86.6845785282, 34.7211153023]}, "type": "Feature", "properties": {"collection_times": [{"days": "Mon-Fri", "time": "4:15pm"}, {"days": "Sat-Sun", "time": "Closed"}], "id": "3580600009", "name": "USPS COLLECTION BOX - BLUE BOX", "address": {"city": "HUNTSVILLE", "state": "AL", "street": "904 EXPLORER BLVD NW", "postcode": "35806"}}},
{"geometry": {"type": "Point", "coordinates": [-86.6738776861, 34.7446577657]}, "type": "Feature", "properties": {"collection_times": [{"days": "Mon-Fri", "time": "4:30pm"}, {"days": "Sat-Sun", "time": "Closed"}], "id": "3580600012", "name": "USPS COLLECTION BOX - BLUE BOX", "address": {"city": "HUNTSVILLE", "state": "AL", "street": "1500 PERIMETER PKWY NW", "postcode": "35806"}}},
{"geometry": {"type": "Point", "coordinates": [-86.6776177761, 34.7443113448]}, "type": "Feature", "properties": {"collection_times": [{"days": "Mon-Fri", "time": "4:15pm"}, {"days": "Sat", "time": "9:30am"}, {"days": "Sun", "time": "Closed"}], "id": "3580600014", "name": "USPS COLLECTION BOX - BLUE BOX", "address": {"city": "HUNTSVILLE", "state": "AL", "street": "6140 UNIVERSITY DR NW", "postcode": "35806"}}},
{"geometry": {"type": "Point", "coordinates": [-86.6829782474, 34.7562935935]}, "type": "Feature", "properties": {"collection_times": [{"days": "Mon-Fri", "time": "4:15pm"}, {"days": "Sat-Sun", "time": "Closed"}], "id": "3580600015", "name": "USPS COLLECTION BOX - EXPRESS", "address": {"city": "HUNTSVILLE", "state": "AL", "street": "904 EXPLORER BLVD NW", "postcode": "35806"}}},
{"geometry": {"type": "Point", "coordinates": [-86.6800687947, 34.7131767743]}, "type": "Feature", "properties": {"collection_times": [{"days": "Mon-Fri", "time": "4:00pm"}, {"days": "Sat-Sun", "time": "Closed"}], "id": "3580600016", "name": "USPS COLLECTION BOX - BLUE BOX", "address": {"city": "HUNTSVILLE", "state": "AL", "street": "7047 OLD MADISON PIKE NW", "postcode": "35806"}}},
{"geometry": {"type": "Point", "coordinates": [-86.6350127938, 34.6798482423]}, "type": "Feature", "properties": {"collection_times": [{"days": "Mon-Fri", "time": "4:00pm"}, {"days": "Sat-Sun", "time": "Closed"}], "id": "3580800000", "name": "USPS COLLECTION BOX - BLUE BOX", "address": {"city": "HUNTSVILLE", "state": "AL", "street": "4400 MARTIN RD", "postcode": "35808"}}},
{"geometry": {"type": "Point", "coordinates": [-86.6516085072, 34.6855811341]}, "type": "Feature", "properties": {"collection_times": [{"days": "Mon-Fri", "time": "4:00pm"}, {"days": "Sat-Sun", "time": "Closed"}], "id": "3580800004", "name": "USPS COLLECTION BOX - BLUE BOX", "address": {"city": "HUNTSVILLE", "state": "AL", "street": "1 MAIN PX", "postcode": "35808"}}},
{"geometry": {"type": "Point", "coordinates": [-86.6516085072, 34.6855811341]}, "type": "Feature", "properties": {"collection_times": [{"days": "Mon-Fri", "time": "5:00pm"}, {"days": "Sat-Sun", "time": "Closed"}], "id": "3580800008", "name": "USPS COLLECTION BOX - BLUE BOX", "address": {"city": "HUNTSVILLE", "state": "AL", "street": "1 MAIN PX", "postcode": "35808"}}},
{"geometry": {"type": "Point", "coordinates": [-86.6516085072, 34.6855811341]}, "type": "Feature", "properties": {"collection_times": [{"days": "Mon-Fri", "time": "5:00pm"}, {"days": "Sat-Sun", "time": "Closed"}], "id": "3580800009", "name": "USPS COLLECTION BOX - BLUE BOX", "address": {"city": "HUNTSVILLE", "state": "AL", "street": "3710 AEROBEE RD", "postcode": "35808"}}},
{"geometry": {"type": "Point", "coordinates": [-86.6516085072, 34.6855811341]}, "type": "Feature", "properties": {"collection_times": [{"days": "Mon-Fri", "time": "4:00pm"}, {"days": "Sat-Sun", "time": "Closed"}], "id": "3580800012", "name": "USPS COLLECTION BOX - BLUE BOX", "address": {"city": "HUNTSVILLE", "state": "AL", "street": "5302 SPARKMAN CIR", "postcode": "35808"}}},
{"geometry": {"type": "Point", "coordinates": [-86.6516085072, 34.6855811341]}, "type": "Feature", "properties": {"collection_times": [{"days": "Mon-Fri", "time": "4:00pm"}, {"days": "Sat-Sun", "time": "Closed"}], "id": "3580800013", "name": "USPS COLLECTION BOX - BLUE BOX", "address": {"city": "HUNTSVILLE", "state": "AL", "street": "5302 SPARKMAN CIR", "postcode": "35808"}}},
{"geometry": {"type": "Point", "coordinates": [-86.6516085072, 34.6855811341]}, "type": "Feature", "properties": {"collection_times": [{"days": "Mon-Fri", "time": "4:30pm"}, {"days": "Sat-Sun", "time": "Closed"}], "id": "3580800014", "name": "USPS COLLECTION BOX - PO LOBBY", "address": {"city": "HUNTSVILLE", "state": "AL", "street": "3710 AEROBEE RD", "postcode": "35808"}}},
{"geometry": {"type": "Point", "coordinates": [-86.8402850888, 32.7665445132]}, "type": "Feature", "properties": {"collection_times": [{"days": "Mon-Fri", "time": "4:00pm"}, {"days": "Sat-Sun", "time": "Closed"}], "id": "3580800015", "name": "USPS COLLECTION BOX - BLUE BOX", "address": {"city": "HUNTSVILLE", "state": "AL", "street": "4488 MARTIN RD", "postcode": "35808"}}},
{"geometry": {"type": "Point", "coordinates": [-86.6516085072, 34.6855811341]}, "type": "Feature", "properties": {"collection_times": [{"days": "Mon-Fri", "time": "5:00pm"}, {"days": "Sat-Sun", "time": "Closed"}], "id": "3580800017", "name": "USPS COLLECTION BOX - BLUE BOX", "address": {"city": "HUNTSVILLE", "state": "AL", "street": "4545 FOWLER", "postcode": "35808"}}},
{"geometry": {"type": "Point", "coordinates": [-86.5957884031, 34.7719193628]}, "type": "Feature", "properties": {"collection_times": [{"days": "Mon-Fri", "time": "5:00pm"}, {"days": "Sat", "time": "4:00pm"}, {"days": "Sun", "time": "Closed"}], "id": "3581000001", "name": "USPS COLLECTION BOX - BLUE BOX", "address": {"city": "HUNTSVILLE", "state": "AL", "street": "2501 MASTIN LAKE RD NW", "postcode": "35810"}}},
{"geometry": {"type": "Point", "coordinates": [-86.5957884031, 34.7719193628]}, "type": "Feature", "properties": {"collection_times": [{"days": "Mon-Fri", "time": "5:00pm"}, {"days": "Sat", "time": "4:00pm"}, {"days": "Sun", "time": "Closed"}], "id": "3581000002", "name": "USPS COLLECTION BOX - BLUE BOX", "address": {"city": "HUNTSVILLE", "state": "AL", "street": "2501 MASTIN LAKE RD NW", "postcode": "35810"}}},
{"geometry": {"type": "Point", "coordinates": [-86.5957884031, 34.7719193628]}, "type": "Feature", "properties": {"collection_times": [{"days": "Mon-Fri", "time": "5:00pm"}, {"days": "Sat", "time": "4:00pm"}, {"days": "Sun", "time": "Closed"}], "id": "3581000003", "name": "USPS COLLECTION BOX - BLUE BOX", "address": {"city": "HUNTSVILLE", "state": "AL", "street": "2501 MASTIN LAKE RD NW", "postcode": "35810"}}},
{"geometry": {"type": "Point", "coordinates": [-86.6056762546, 34.7785226416]}, "type": "Feature", "properties": {"collection_times": [{"days": "Mon-Fri", "time": "5:00pm"}, {"days": "Sat", "time": "4:00pm"}, {"days": "Sun", "time": "Closed"}], "id": "3581000004", "name": "USPS COLLECTION BOX - EXPRESS", "address": {"city": "HUNTSVILLE", "state": "AL", "street": "2501 MASTIN LAKE RD NW", "postcode": "35810"}}},
{"geometry": {"type": "Point", "coordinates": [-86.6032313764, 34.7495168164]}, "type": "Feature", "properties": {"collection_times": [{"days": "Mon-Fri", "time": "5:15pm"}, {"days": "Sat-Sun", "time": "Closed"}], "id": "3581000011", "name": "USPS COLLECTION BOX - BLUE BOX", "address": {"city": "HUNTSVILLE", "state": "AL", "street": "2206 OAKWOOD AVE NW", "postcode": "35810"}}},
{"geometry": {"type": "Point", "coordinates": [-86.5957884031, 34.7719193628]}, "type": "Feature", "properties": {"collection_times": [{"days": "Mon-Fri", "time": "5:00pm"}, {"days": "Sat", "time": "4:00pm"}, {"days": "Sun", "time": "Closed"}], "id": "3581000013", "name": "USPS COLLECTION BOX - PO LOBBY", "address": {"city": "HUNTSVILLE", "state": "AL", "street": "2501 MASTIN LAKE RD NW", "postcode": "35810"}}},
{"geometry": {"type": "Point", "coordinates": [-86.6029802215, 34.7494485968]}, "type": "Feature", "properties": {"collection_times": [{"days": "Mon-Fri", "time": "5:15pm"}, {"days": "Sat-Sun", "time": "Closed"}], "id": "3581000014", "name": "USPS COLLECTION BOX - BLUE BOX", "address": {"city": "HUNTSVILLE", "state": "AL", "street": "2206 OAKWOOD AVE NW", "postcode": "35810"}}},
{"geometry": {"type": "Point", "coordinates": [-86.5847662553, 34.7492865806]}, "type": "Feature", "properties": {"collection_times": [{"days": "Mon-Sat", "time": "10:30am"}, {"days": "Sun", "time": "Closed"}], "id": "3581100004", "name": "USPS COLLECTION BOX - BLUE BOX", "address": {"city": "HUNTSVILLE", "state": "AL", "street": "200 OAKWOOD AVE", "postcode": "35811"}}},
{"geometry": {"type": "Point", "coordinates": [-86.6001348921, 34.7403808305]}, "type": "Feature", "properties": {"collection_times": [{"days": "Mon-Fri", "time": "3:00pm"}, {"days": "Sat-Sun", "time": "Closed"}], "id": "3581200000", "name": "USPS COLLECTION BOX - BLUE BOX", "address": {"city": "HUNTSVILLE", "state": "AL", "street": "4200 S MARSHALL ROAD", "postcode": "35812"}}},
{"geometry": {"type": "Point", "coordinates": [-86.7522423179, 34.6676024672]}, "type": "Feature", "properties": {"collection_times": [{"days": "Mon-Fri", "time": "6:30pm"}, {"days": "Sat", "time": "5:30pm"}, {"days": "Sun", "time": "Closed"}], "id": "3581300000", "name": "USPS COLLECTION BOX - PO LOBBY", "address": {"city": "HUNTSVILLE", "state": "AL", "street": "3408 WALL TRIANA HWY", "postcode": "35813"}}},
{"geometry": {"type": "Point", "coordinates": [-86.7522423179, 34.6676024672]}, "type": "Feature", "properties": {"collection_times": [{"days": "Mon-Fri", "time": "6:30pm"}, {"days": "Sat", "time": "5:30pm"}, {"days": "Sun", "time": "Closed"}], "id": "3581300001", "name": "USPS COLLECTION BOX - PO LOBBY", "address": {"city": "HUNTSVILLE", "state": "AL", "street": "3408 WALL TRIANA HWY", "postcode": "35813"}}},
{"geometry": {"type": "Point", "coordinates": [-86.7522423179, 34.6676024672]}, "type": "Feature", "properties": {"collection_times": [{"days": "Mon-Fri", "time": "6:30pm"}, {"days": "Sat", "time": "5:30pm"}, {"days": "Sun", "time": "Closed"}], "id": "3581300003", "name": "USPS COLLECTION BOX - BLUE BOX", "address": {"city": "HUNTSVILLE", "state": "AL", "street": "3408 WALL TRIANA HWY", "postcode": "35813"}}},
{"geometry": {"type": "Point", "coordinates": [-86.7522423179, 34.6676024672]}, "type": "Feature", "properties": {"collection_times": [{"days": "Mon-Fri", "time": "6:30pm"}, {"days": "Sat", "time": "5:30pm"}, {"days": "Sun", "time": "Closed"}], "id": "3581300004", "name": "USPS COLLECTION BOX - BLUE BOX", "address": {"city": "HUNTSVILLE", "state": "AL", "street": "3408 WALL TRIANA HWY", "postcode": "35813"}}},
{"geometry": {"type": "Point", "coordinates": [-86.752168115, 34.6679509417]}, "type": "Feature", "properties": {"collection_times": [{"days": "Mon-Fri", "time": "6:30pm"}, {"days": "Sat", "time": "5:30pm"}, {"days": "Sun", "time": "Closed"}], "id": "3581300005", "name": "USPS COLLECTION BOX - EXPRESS", "address": {"city": "HUNTSVILLE", "state": "AL", "street": "3408 WALL TRIANA HWY", "postcode": "35813"}}},
{"geometry": {"type": "Point", "coordinates": [-86.7522796501, 34.6651360378]}, "type": "Feature", "properties": {"collection_times": [{"days": "Mon-Fri", "time": "6:00pm"}, {"days": "Sat", "time": "4:30pm"}, {"days": "Sun", "time": "Closed"}], "id": "3581300006", "name": "USPS COLLECTION BOX - BLUE BOX", "address": {"city": "HUNTSVILLE", "state": "AL", "street": "8734 MADISON BLVD W", "postcode": "35813"}}},
{"geometry": {"type": "Point", "coordinates": [-86.752168115, 34.6679509417]}, "type": "Feature", "properties": {"collection_times": [{"days": "Mon-Fri", "time": "6:00pm"}, {"days": "Sat", "time": "4:30pm"}, {"days": "Sun", "time": "Closed"}], "id": "3581300007", "name": "USPS COLLECTION BOX - EXPRESS", "address": {"city": "HUNTSVILLE", "state": "AL", "street": "8734 MADISON BLVD W", "postcode": "35813"}}},
{"geometry": {"type": "Point", "coordinates": [-86.7522796501, 34.6651360378]}, "type": "Feature", "properties": {"collection_times": [{"days": "Mon-Fri", "time": "5:00pm"}, {"days": "Sat", "time": "3:15pm"}, {"days": "Sun", "time": "Closed"}], "id": "3581300008", "name": "USPS COLLECTION BOX - BLUE BOX", "address": {"city": "HUNTSVILLE", "state": "AL", "street": "1000 GLENN HEARN BLVD SW", "postcode": "35813"}}},
{"geometry": {"type": "Point", "coordinates": [-86.6528336948, 34.7396795519]}, "type": "Feature", "properties": {"collection_times": [{"days": "Mon-Fri", "time": "5:30pm"}, {"days": "Sat", "time": "4:00pm"}, {"days": "Sun", "time": "Closed"}], "id": "3581600000", "name": "USPS COLLECTION BOX - BLUE BOX", "address": {"city": "HUNTSVILLE", "state": "AL", "street": "645 WYNN DR NW", "postcode": "35816"}}},
{"geometry": {"type": "Point", "coordinates": [-86.6529281962, 34.7380600305]}, "type": "Feature", "properties": {"collection_times": [{"days": "Mon-Fri", "time": "5:30pm"}, {"days": "Sat", "time": "4:00pm"}, {"days": "Sun", "time": "Closed"}], "id": "3581600001", "name": "USPS COLLECTION BOX - BLUE BOX", "address": {"city": "HUNTSVILLE", "state": "AL", "street": "645 WYNN DR NW", "postcode": "35816"}}},
{"geometry": {"type": "Point", "coordinates": [-86.6529281962, 34.7380600305]}, "type": "Feature", "properties": {"collection_times": [{"days": "Mon-Fri", "time": "5:30pm"}, {"days": "Sat", "time": "4:00pm"}, {"days": "Sun", "time": "Closed"}], "id": "3581600002", "name": "USPS COLLECTION BOX - BLUE BOX", "address": {"city": "HUNTSVILLE", "state": "AL", "street": "645 WYNN DR NW", "postcode": "35816"}}},
{"geometry": {"type": "Point", "coordinates": [-86.6302689857, 34.7394002121]}, "type": "Feature", "properties": {"collection_times": [{"days": "Mon-Fri", "time": "5:30pm"}, {"days": "Sat", "time": "4:00pm"}, {"days": "Sun", "time": "Closed"}], "id": "3581600004", "name": "USPS COLLECTION BOX - EXPRESS", "address": {"city": "HUNTSVILLE", "state": "AL", "street": "645 WYNN DR NW", "postcode": "35816"}}},
{"geometry": {"type": "Point", "coordinates": [-86.6413688873, 34.7427326003]}, "type": "Feature", "properties": {"collection_times": [{"days": "Mon-Sat", "time": "10:00am"}, {"days": "Sun", "time": "Closed"}], "id": "3581600006", "name": "USPS COLLECTION BOX - BLUE BOX", "address": {"city": "HUNTSVILLE", "state": "AL", "street": "1500 ASCENT TRL NW", "postcode": "35816"}}},
{"geometry": {"type": "Point", "coordinates": [-86.633081379, 34.7331038775]}, "type": "Feature", "properties": {"collection_times": [{"days": "Mon-Fri", "time": "12:00pm"}, {"days": "Sat", "time": "10:00am"}, {"days": "Sun", "time": "Closed"}], "id": "3581600008", "name": "USPS COLLECTION BOX - BLUE BOX", "address": {"city": "HUNTSVILLE", "state": "AL", "street": "1010 HENDERSON RD NW", "postcode": "35816"}}},
{"geometry": {"type": "Point", "coordinates": [-86.6483253312, 34.7357939057]}, "type": "Feature", "properties": {"collection_times": [{"days": "Mon-Fri", "time": "4:45pm"}, {"days": "Sat", "time": "9:00am"}, {"days": "Sun", "time": "Closed"}], "id": "3581600016", "name": "USPS COLLECTION BOX - BLUE BOX", "address": {"city": "HUNTSVILLE", "state": "AL", "street": "4715 UNIVERSITY DR NW", "postcode": "35816"}}},
{"geometry": {"type": "Point", "coordinates": [-86.6350367187, 34.750375592]}, "type": "Feature", "properties": {"collection_times": [{"days": "Mon-Fri", "time": "5:00pm"}, {"days": "Sat-Sun", "time": "Closed"}], "id": "3581600017", "name": "USPS COLLECTION BOX - BLUE BOX", "address": {"city": "HUNTSVILLE", "state": "AL", "street": "2018 JORDAN LN NW", "postcode": "35816"}}},
{"geometry": {"type": "Point", "coordinates": [-86.6212174678, 34.7318990851]}, "type": "Feature", "properties": {"collection_times": [{"days": "Mon-Sat", "time": "10:00am"}, {"days": "Sun", "time": "Closed"}], "id": "3581600019", "name": "USPS COLLECTION BOX - BLUE BOX", "address": {"city": "HUNTSVILLE", "state": "AL", "street": "1200 JULIA ST NW", "postcode": "35816"}}},
{"geometry": {"type": "Point", "coordinates": [-86.6529281962, 34.7380600305]}, "type": "Feature", "properties": {"collection_times": [{"days": "Mon-Fri", "time": "6:00pm"}, {"days": "Sat", "time": "4:00pm"}, {"days": "Sun", "time": "Closed"}], "id": "3581600026", "name": "USPS COLLECTION BOX - PO LOBBY", "address": {"city": "HUNTSVILLE", "state": "AL", "street": "645 WYNN DR NW", "postcode": "35816"}}},
{"geometry": {"type": "Point", "coordinates": [-86.65495, 34.7412]}, "type": "Feature", "properties": {"collection_times": [{"days": "Mon-Fri", "time": "4:30pm"}, {"days": "Sat-Sun", "time": "Closed"}], "id": "3581600027", "name": "USPS COLLECTION BOX - BLUE BOX", "address": {"city": "HUNTSVILLE", "state": "AL", "street": "4825 UNIVERSITY SQ", "postcode": "35816"}}},
{"geometry": {"type": "Point", "coordinates": [-86.6529281962, 34.7380600305]}, "type": "Feature", "properties": {"collection_times": [{"days": "Mon-Fri", "time": "6:00pm"}, {"days": "Sat", "time": "4:00pm"}, {"days": "Sun", "time": "Closed"}], "id": "3581600028", "name": "USPS COLLECTION BOX - APC", "address": {"city": "HUNTSVILLE", "state": "AL", "street": "645 WYNN DR NW", "postcode": "35816"}}}
]}
