{"type": "FeatureCollection", "features": [
{"geometry": {"type": "Point", "coordinates": [-86.0084623612, 34.0139825716]}, "type": "Feature", "properties": {"collection_times": [{"days": "Mon-Sat", "time": "5:00pm"}, {"days": "Sun", "time": "Closed"}], "id": "3590100000", "name": "USPS COLLECTION BOX - BLUE BOX", "address": {"city": "GADSDEN", "state": "AL", "street": "700 CHESTNUT ST", "postcode": "35901"}}},
{"geometry": {"type": "Point", "coordinates": [-86.0084623612, 34.0139825716]}, "type": "Feature", "properties": {"collection_times": [{"days": "Mon-Sat", "time": "5:00pm"}, {"days": "Sun", "time": "Closed"}], "id": "3590100001", "name": "USPS COLLECTION BOX - BLUE BOX", "address": {"city": "GADSDEN", "state": "AL", "street": "700 CHESTNUT ST", "postcode": "35901"}}},
{"geometry": {"type": "Point", "coordinates": [-86.0084623612, 34.0139825716]}, "type": "Feature", "properties": {"collection_times": [{"days": "Mon-Sat", "time": "5:00pm"}, {"days": "Sun", "time": "Closed"}], "id": "3590100002", "name": "USPS COLLECTION BOX - BLUE BOX", "address": {"city": "GADSDEN", "state": "AL", "street": "700 CHESTNUT ST", "postcode": "35901"}}},
{"geometry": {"type": "Point", "coordinates": [-86.0084623612, 34.0139825716]}, "type": "Feature", "properties": {"collection_times": [{"days": "Mon-Sat", "time": "5:00pm"}, {"days": "Sun", "time": "Closed"}], "id": "3590100003", "name": "USPS COLLECTION BOX - BLUE BOX", "address": {"city": "GADSDEN", "state": "AL", "street": "700 CHESTNUT ST", "postcode": "35901"}}},
{"geometry": {"type": "Point", "coordinates": [-86.0085347998, 34.0140074045]}, "type": "Feature", "properties": {"collection_times": [{"days": "Mon-Sat", "time": "5:00pm"}, {"days": "Sun", "time": "Closed"}], "id": "3590100004", "name": "USPS COLLECTION BOX - EXPRESS", "address": {"city": "GADSDEN", "state": "AL", "street": "700 CHESTNUT ST", "postcode": "35901"}}},
{"geometry": {"type": "Point", "coordinates": [-86.0045132573, 33.9993345062]}, "type": "Feature", "properties": {"collection_times": [{"days": "Mon-Fri", "time": "1:00pm"}, {"days": "Sat", "time": "11:30am"}, {"days": "Sun", "time": "Closed"}], "id": "3590100008", "name": "USPS COLLECTION BOX - BLUE BOX", "address": {"city": "GADSDEN", "state": "AL", "street": "1001 RAINBOW DR", "postcode": "35901"}}},
{"geometry": {"type": "Point", "coordinates": [-85.9996949723, 34.0112050621]}, "type": "Feature", "properties": {"collection_times": [{"days": "Mon-Fri", "time": "3:00pm"}, {"days": "Sat-Sun", "time": "Closed"}], "id": "3590100018", "name": "USPS COLLECTION BOX - BLUE BOX", "address": {"city": "GADSDEN", "state": "AL", "street": "90 BROAD ST", "postcode": "35901"}}},
{"geometry": {"type": "Point", "coordinates": [-86.0146502856, 33.9748319649]}, "type": "Feature", "properties": {"collection_times": [{"days": "Mon-Sat", "time": "2:30pm"}, {"days": "Sun", "time": "Closed"}], "id": "3590100022", "name": "USPS COLLECTION BOX - BLUE BOX", "address": {"city": "GADSDEN", "state": "AL", "street": "2000 RAINBOW DR", "postcode": "35901"}}},
{"geometry": {"type": "Point", "coordinates": [-85.976652813, 34.0316446204]}, "type": "Feature", "properties": {"collection_times": [{"days": "Mon-Sat", "time": "12:00pm"}, {"days": "Sun", "time": "Closed"}], "id": "3590100024", "name": "USPS COLLECTION BOX - BLUE BOX", "address": {"city": "GADSDEN", "state": "AL", "street": "301 PRINCETON AVE", "postcode": "35901"}}},
{"geometry": {"type": "Point", "coordinates": [-85.9871244853, 34.0266611845]}, "type": "Feature", "properties": {"collection_times": [{"days": "Mon-Sat", "time": "2:00pm"}, {"days": "Sun", "time": "Closed"}], "id": "3590100033", "name": "USPS COLLECTION BOX - BLUE BOX", "address": {"city": "GADSDEN", "state": "AL", "street": "720 EWING AVE", "postcode": "35901"}}},
{"geometry": {"type": "Point", "coordinates": [-86.0084623612, 34.0139825716]}, "type": "Feature", "properties": {"collection_times": [{"days": "Mon-Sat", "time": "5:00pm"}, {"days": "Sun", "time": "Closed"}], "id": "3590100040", "name": "USPS COLLECTION BOX - PO LOBBY", "address": {"city": "GADSDEN", "state": "AL", "street": "700 CHESTNUT ST", "postcode": "35901"}}},
{"geometry": {"type": "Point", "coordinates": [-86.0114867404, 34.0157227385]}, "type": "Feature", "properties": {"collection_times": [{"days": "Mon-Fri", "time": "3:00pm"}, {"days": "Sat-Sun", "time": "Closed"}], "id": "3590100041", "name": "USPS COLLECTION BOX - BLUE BOX", "address": {"city": "GADSDEN", "state": "AL", "street": "801 FORREST AVE", "postcode": "35901"}}},
{"geometry": {"type": "Point", "coordinates": [-85.9996949723, 34.0112050621]}, "type": "Feature", "properties": {"collection_times": [{"days": "Mon-Fri", "time": "3:00pm"}, {"days": "Sat-Sun", "time": "Closed"}], "id": "3590100042", "name": "USPS COLLECTION BOX - BLUE BOX", "address": {"city": "GADSDEN", "state": "AL", "street": "90 BROAD ST", "postcode": "35901"}}},
{"geometry": {"type": "Point", "coordinates": [-86.0084623612, 34.0139825716]}, "type": "Feature", "properties": {"collection_times": [{"days": "Mon-Sat", "time": "5:00pm"}, {"days": "Sun", "time": "Closed"}], "id": "3590100043", "name": "USPS COLLECTION BOX - BLUE BOX", "address": {"city": "GADSDEN", "state": "AL", "street": "700 CHESTNUT ST", "postcode": "35901"}}},
{"geometry": {"type": "Point", "coordinates": [-86.0084623612, 34.0139825716]}, "type": "Feature", "properties": {"collection_times": [{"days": "Mon-Sat", "time": "5:00pm"}, {"days": "Sun", "time": "Closed"}], "id": "3590100044", "name": "USPS COLLECTION BOX - APC", "address": {"city": "GADSDEN", "state": "AL", "street": "700 CHESTNUT ST", "postcode": "35901"}}},
{"geometry": {"type": "Point", "coordinates": [-86.0222818898, 33.9187576139]}, "type": "Feature", "properties": {"collection_times": [{"days": "Mon-Sat", "time": "12:30pm"}, {"days": "Sun", "time": "Closed"}], "id": "3590100045", "name": "USPS COLLECTION BOX - BLUE BOX", "address": {"city": "GADSDEN", "state": "AL", "street": "2255 HIGHWAY 77", "postcode": "35901"}}},
{"geometry": {"type": "Point", "coordinates": [-85.9314096111, 34.005420158]}, "type": "Feature", "properties": {"collection_times": [{"days": "Mon-Fri", "time": "4:30pm"}, {"days": "Sat", "time": "2:00pm"}, {"days": "Sun", "time": "Closed"}], "id": "3590300000", "name": "USPS COLLECTION BOX - BLUE BOX", "address": {"city": "GADSDEN", "state": "AL", "street": "1021 PIEDMONT CUTOFF", "postcode": "35903"}}},
{"geometry": {"type": "Point", "coordinates": [-85.9314096111, 34.005420158]}, "type": "Feature", "properties": {"collection_times": [{"days": "Mon-Fri", "time": "4:30pm"}, {"days": "Sat", "time": "2:00pm"}, {"days": "Sun", "time": "Closed"}], "id": "3590300001", "name": "USPS COLLECTION BOX - BLUE BOX", "address": {"city": "GADSDEN", "state": "AL", "street": "1021 PIEDMONT CUTOFF", "postcode": "35903"}}},
{"geometry": {"type": "Point", "coordinates": [-85.9472247827, 33.9648419889]}, "type": "Feature", "properties": {"collection_times": [{"days": "Mon-Sat", "time": "1:30pm"}, {"days": "Sun", "time": "Closed"}], "id": "3590300002", "name": "USPS COLLECTION BOX - BLUE BOX", "address": {"city": "GADSDEN", "state": "AL", "street": "305 W AIR DEPOT RD", "postcode": "35903"}}},
{"geometry": {"type": "Point", "coordinates": [-85.9665435415, 34.0091884982]}, "type": "Feature", "properties": {"collection_times": [{"days": "Mon-Sat", "time": "2:00pm"}, {"days": "Sun", "time": "Closed"}], "id": "3590300014", "name": "USPS COLLECTION BOX - BLUE BOX", "address": {"city": "GADSDEN", "state": "AL", "street": "100 MEDICAL CENTER DR", "postcode": "35903"}}},
{"geometry": {"type": "Point", "coordinates": [-85.9645632956, 34.0082284051]}, "type": "Feature", "properties": {"collection_times": [{"days": "Mon-Sat", "time": "2:00pm"}, {"days": "Sun", "time": "Closed"}], "id": "3590300021", "name": "USPS COLLECTION BOX - BLUE BOX", "address": {"city": "GADSDEN", "state": "AL", "street": "1104 GOODYEAR AVE", "postcode": "35903"}}},
{"geometry": {"type": "Point", "coordinates": [-85.9314096111, 34.005420158]}, "type": "Feature", "properties": {"collection_times": [{"days": "Mon-Fri", "time": "4:30pm"}, {"days": "Sat", "time": "2:00pm"}, {"days": "Sun", "time": "Closed"}], "id": "3590300022", "name": "USPS COLLECTION BOX - PO LOBBY", "address": {"city": "GADSDEN", "state": "AL", "street": "1021 PIEDMONT CUTOFF", "postcode": "35903"}}},
{"geometry": {"type": "Point", "coordinates": [-85.9911490716, 33.9966458251]}, "type": "Feature", "properties": {"collection_times": [{"days": "Mon-Sat", "time": "10:30am"}, {"days": "Sun", "time": "Closed"}], "id": "3590300023", "name": "USPS COLLECTION BOX - BLUE BOX", "address": {"city": "GADSDEN", "state": "AL", "street": "515 GEORGE WALLACE DR", "postcode": "35903"}}},
{"geometry": {"type": "Point", "coordinates": [-85.9643267532, 34.0028267821]}, "type": "Feature", "properties": {"collection_times": [{"days": "Mon-Sat", "time": "1:30pm"}, {"days": "Sun", "time": "Closed"}], "id": "3590300025", "name": "USPS COLLECTION BOX - BLUE BOX", "address": {"city": "GADSDEN", "state": "AL", "street": "100 CAMPBELL CT", "postcode": "35903"}}},
{"geometry": {"type": "Point", "coordinates": [-85.9314096111, 34.005420158]}, "type": "Feature", "properties": {"collection_times": [{"days": "Mon-Fri", "time": "4:30pm"}, {"days": "Sat", "time": "2:00pm"}, {"days": "Sun", "time": "Closed"}], "id": "3590300026", "name": "USPS COLLECTION BOX - PO LOBBY", "address": {"city": "GADSDEN", "state": "AL", "street": "1021 PIEDMONT CUTOFF", "postcode": "35903"}}},
{"geometry": {"type": "Point", "coordinates": [-85.8647340498, 33.9854765678]}, "type": "Feature", "properties": {"collection_times": [{"days": "Mon-Sat", "time": "1:30pm"}, {"days": "Sun", "time": "Closed"}], "id": "3590300029", "name": "USPS COLLECTION BOX - BLUE BOX", "address": {"city": "GADSDEN", "state": "AL", "street": "5702 US HIGHWAY 278 E", "postcode": "35903"}}},
{"geometry": {"type": "Point", "coordinates": [-85.9667420802, 34.0078352643]}, "type": "Feature", "properties": {"collection_times": [{"days": "Mon-Sat", "time": "2:00pm"}, {"days": "Sun", "time": "Closed"}], "id": "3590300030", "name": "USPS COLLECTION BOX - BLUE BOX", "address": {"city": "GADSDEN", "state": "AL", "street": "300 MEDICAL CENTER DR", "postcode": "35903"}}},
{"geometry": {"type": "Point", "coordinates": [-86.0437183319, 34.0208093478]}, "type": "Feature", "properties": {"collection_times": [{"days": "Mon-Fri", "time": "4:30pm"}, {"days": "Sat", "time": "3:00pm"}, {"days": "Sun", "time": "Closed"}], "id": "3590400000", "name": "USPS COLLECTION BOX - BLUE BOX", "address": {"city": "GADSDEN", "state": "AL", "street": "211 N 26TH ST", "postcode": "35904"}}},
{"geometry": {"type": "Point", "coordinates": [-86.0437183319, 34.0208093478]}, "type": "Feature", "properties": {"collection_times": [{"days": "Mon-Fri", "time": "4:30pm"}, {"days": "Sat", "time": "3:00pm"}, {"days": "Sun", "time": "Closed"}], "id": "3590400001", "name": "USPS COLLECTION BOX - BLUE BOX", "address": {"city": "GADSDEN", "state": "AL", "street": "211 N 26TH ST", "postcode": "35904"}}},
{"geometry": {"type": "Point", "coordinates": [-86.0437183319, 34.0208093478]}, "type": "Feature", "properties": {"collection_times": [{"days": "Mon-Fri", "time": "4:30pm"}, {"days": "Sat", "time": "3:00pm"}, {"days": "Sun", "time": "Closed"}], "id": "3590400010", "name": "USPS COLLECTION BOX - PO LOBBY", "address": {"city": "GADSDEN", "state": "AL", "street": "211 N 26TH ST", "postcode": "35904"}}},
{"geometry": {"type": "Point", "coordinates": [-85.9340545958, 33.9558088747]}, "type": "Feature", "properties": {"collection_times": [{"days": "Mon-Fri", "time": "12:00pm"}, {"days": "Sat-Sun", "time": "Closed"}], "id": "3590500000", "name": "USPS COLLECTION BOX - BLUE BOX", "address": {"city": "GADSDEN", "state": "AL", "street": "107 MAIN ST E", "postcode": "35905"}}},
{"geometry": {"type": "Point", "coordinates": [-85.9340545958, 33.9558088747]}, "type": "Feature", "properties": {"collection_times": [{"days": "Mon-Fri", "time": "12:00pm"}, {"days": "Sat-Sun", "time": "Closed"}], "id": "3590500002", "name": "USPS COLLECTION BOX - BLUE BOX", "address": {"city": "GADSDEN", "state": "AL", "street": "107 MAIN ST E", "postcode": "35905"}}},
{"geometry": {"type": "Point", "coordinates": [-85.9340545958, 33.9558088747]}, "type": "Feature", "properties": {"collection_times": [{"days": "Mon-Fri", "time": "12:00pm"}, {"days": "Sat-Sun", "time": "Closed"}], "id": "3590500003", "name": "USPS COLLECTION BOX - PO LOBBY", "address": {"city": "GADSDEN", "state": "AL", "street": "107 MAIN ST E", "postcode": "35905"}}},
{"geometry": {"type": "Point", "coordinates": [-86.0429645404, 33.9531577087]}, "type": "Feature", "properties": {"collection_times": [{"days": "Mon-Fri", "time": "4:00pm"}, {"days": "Sat", "time": "2:00pm"}, {"days": "Sun", "time": "Closed"}], "id": "3590600000", "name": "USPS COLLECTION BOX - BLUE BOX", "address": {"city": "RAINBOW CITY", "state": "AL", "street": "3225 RAINBOW DR", "postcode": "35906"}}},
{"geometry": {"type": "Point", "coordinates": [-86.0429645404, 33.9531577087]}, "type": "Feature", "properties": {"collection_times": [{"days": "Mon-Fri", "time": "4:00pm"}, {"days": "Sat", "time": "2:00pm"}, {"days": "Sun", "time": "Closed"}], "id": "3590600005", "name": "USPS COLLECTION BOX - BLUE BOX", "address": {"city": "RAINBOW CITY", "state": "AL", "street": "3225 RAINBOW DR", "postcode": "35906"}}},
{"geometry": {"type": "Point", "coordinates": [-86.0417983122, 33.9553095961]}, "type": "Feature", "properties": {"collection_times": [{"days": "Mon-Sat", "time": "10:30am"}, {"days": "Sun", "time": "Closed"}], "id": "3590600006", "name": "USPS COLLECTION BOX - BLUE BOX", "address": {"city": "RAINBOW CITY", "state": "AL", "street": "115 W GRAND AVE", "postcode": "35906"}}},
{"geometry": {"type": "Point", "coordinates": [-86.0429645404, 33.9531577087]}, "type": "Feature", "properties": {"collection_times": [{"days": "Mon-Fri", "time": "4:00pm"}, {"days": "Sat", "time": "2:00pm"}, {"days": "Sun", "time": "Closed"}], "id": "3590600008", "name": "USPS COLLECTION BOX - BLUE BOX", "address": {"city": "RAINBOW CITY", "state": "AL", "street": "3225 RAINBOW DR", "postcode": "35906"}}},
{"geometry": {"type": "Point", "coordinates": [-86.2116530236, 34.2676239316]}, "type": "Feature", "properties": {"collection_times": [{"days": "Mon-Fri", "time": "4:30pm"}, {"days": "Sat", "time": "2:15pm"}, {"days": "Sun", "time": "Closed"}], "id": "3595000000", "name": "USPS COLLECTION BOX - BLUE BOX", "address": {"city": "ALBERTVILLE", "state": "AL", "street": "210 S HAMBRICK ST", "postcode": "35950"}}},
{"geometry": {"type": "Point", "coordinates": [-86.2116530236, 34.2676239316]}, "type": "Feature", "properties": {"collection_times": [{"days": "Mon-Fri", "time": "4:30pm"}, {"days": "Sat", "time": "2:15pm"}, {"days": "Sun", "time": "Closed"}], "id": "3595000001", "name": "USPS COLLECTION BOX - BLUE BOX", "address": {"city": "ALBERTVILLE", "state": "AL", "street": "210 S HAMBRICK ST", "postcode": "35950"}}},
{"geometry": {"type": "Point", "coordinates": [-86.2116530236, 34.2676239316]}, "type": "Feature", "properties": {"collection_times": [{"days": "Mon-Fri", "time": "4:30pm"}, {"days": "Sat", "time": "2:15pm"}, {"days": "Sun", "time": "Closed"}], "id": "3595000002", "name": "USPS COLLECTION BOX - BLUE BOX", "address": {"city": "ALBERTVILLE", "state": "AL", "street": "210 S HAMBRICK ST", "postcode": "35950"}}},
{"geometry": {"type": "Point", "coordinates": [-86.2116530236, 34.2676239316]}, "type": "Feature", "properties": {"collection_times": [{"days": "Mon-Fri", "time": "4:30pm"}, {"days": "Sat", "time": "2:15pm"}, {"days": "Sun", "time": "Closed"}], "id": "3595000017", "name": "USPS COLLECTION BOX - PO LOBBY", "address": {"city": "ALBERTVILLE", "state": "AL", "street": "210 S HAMBRICK ST", "postcode": "35950"}}},
{"geometry": {"type": "Point", "coordinates": [-86.3241620544, 34.0276254292]}, "type": "Feature", "properties": {"collection_times": [{"days": "Mon-Sat", "time": "12:00pm"}, {"days": "Sun", "time": "Closed"}], "id": "3595200000", "name": "USPS COLLECTION BOX - BLUE BOX", "address": {"city": "ALTOONA", "state": "AL", "street": "2920 COLLEGE ST", "postcode": "35952"}}},
{"geometry": {"type": "Point", "coordinates": [-86.3937772689, 34.1187144208]}, "type": "Feature", "properties": {"collection_times": [{"days": "Mon-Sat", "time": "11:00am"}, {"days": "Sun", "time": "Closed"}], "id": "3595200001", "name": "USPS COLLECTION BOX - BLUE BOX", "address": {"city": "ALTOONA", "state": "AL", "street": "87352 US HIGHWAY 278", "postcode": "35952"}}},
{"geometry": {"type": "Point", "coordinates": [-86.3241620544, 34.0276254292]}, "type": "Feature", "properties": {"collection_times": [{"days": "Mon-Fri", "time": "12:00pm"}, {"days": "Sat", "time": "11:30am"}, {"days": "Sun", "time": "Closed"}], "id": "3595200002", "name": "USPS COLLECTION BOX - PO LOBBY", "address": {"city": "ALTOONA", "state": "AL", "street": "2920 COLLEGE ST", "postcode": "35952"}}},
{"geometry": {"type": "Point", "coordinates": [-86.2784503461, 33.8526836285]}, "type": "Feature", "properties": {"collection_times": [{"days": "Mon-Fri", "time": "12:00pm"}, {"days": "Sat", "time": "10:15am"}, {"days": "Sun", "time": "Closed"}], "id": "3595300001", "name": "USPS COLLECTION BOX - BLUE BOX", "address": {"city": "ASHVILLE", "state": "AL", "street": "35330 US HIGHWAY 231", "postcode": "35953"}}},
{"geometry": {"type": "Point", "coordinates": [-86.2784503461, 33.8526836285]}, "type": "Feature", "properties": {"collection_times": [{"days": "Mon-Fri", "time": "12:00pm"}, {"days": "Sat", "time": "10:00am"}, {"days": "Sun", "time": "Closed"}], "id": "3595300002", "name": "USPS COLLECTION BOX - PO LOBBY", "address": {"city": "ASHVILLE", "state": "AL", "street": "35330 US HIGHWAY 231", "postcode": "35953"}}},
{"geometry": {"type": "Point", "coordinates": [-86.0904147917, 34.0220203509]}, "type": "Feature", "properties": {"collection_times": [{"days": "Mon-Fri", "time": "12:00pm"}, {"days": "Sat", "time": "11:30am"}, {"days": "Sun", "time": "Closed"}], "id": "3595400000", "name": "USPS COLLECTION BOX - BLUE BOX", "address": {"city": "ATTALLA", "state": "AL", "street": "401 4TH ST NW", "postcode": "35954"}}},
{"geometry": {"type": "Point", "coordinates": [-86.0904147917, 34.0220203509]}, "type": "Feature", "properties": {"collection_times": [{"days": "Mon-Fri", "time": "12:00pm"}, {"days": "Sat", "time": "11:30am"}, {"days": "Sun", "time": "Closed"}], "id": "3595400001", "name": "USPS COLLECTION BOX - BLUE BOX", "address": {"city": "ATTALLA", "state": "AL", "street": "401 4TH ST NW", "postcode": "35954"}}},
{"geometry": {"type": "Point", "coordinates": [-86.0904147917, 34.0220203509]}, "type": "Feature", "properties": {"collection_times": [{"days": "Mon-Fri", "time": "12:00pm"}, {"days": "Sat", "time": "11:30am"}, {"days": "Sun", "time": "Closed"}], "id": "3595400010", "name": "USPS COLLECTION BOX - PO LOBBY", "address": {"city": "ATTALLA", "state": "AL", "street": "401 4TH ST NW", "postcode": "35954"}}},
{"geometry": {"type": "Point", "coordinates": [-86.1657450976, 34.198505882]}, "type": "Feature", "properties": {"collection_times": [{"days": "Mon-Sat", "time": "10:00am"}, {"days": "Sun", "time": "Closed"}], "id": "3595700000", "name": "USPS COLLECTION BOX - BLUE BOX", "address": {"city": "BOAZ", "state": "AL", "street": "112 N BROAD ST", "postcode": "35957"}}},
{"geometry": {"type": "Point", "coordinates": [-86.1522897204, 34.1978580481]}, "type": "Feature", "properties": {"collection_times": [{"days": "Mon-Sat", "time": "3:45pm"}, {"days": "Sun", "time": "Closed"}], "id": "3595700012", "name": "USPS COLLECTION BOX - BLUE BOX", "address": {"city": "BOAZ", "state": "AL", "street": "109 S SNEAD ST", "postcode": "35957"}}},
{"geometry": {"type": "Point", "coordinates": [-86.1522897204, 34.1978580481]}, "type": "Feature", "properties": {"collection_times": [{"days": "Mon-Sat", "time": "3:45pm"}, {"days": "Sun", "time": "Closed"}], "id": "3595700013", "name": "USPS COLLECTION BOX - BLUE BOX", "address": {"city": "BOAZ", "state": "AL", "street": "109 S SNEAD ST", "postcode": "35957"}}},
{"geometry": {"type": "Point", "coordinates": [-86.1522897204, 34.1978580481]}, "type": "Feature", "properties": {"collection_times": [{"days": "Mon-Sat", "time": "3:45pm"}, {"days": "Sun", "time": "Closed"}], "id": "3595700015", "name": "USPS COLLECTION BOX - PO LOBBY", "address": {"city": "BOAZ", "state": "AL", "street": "109 S SNEAD ST", "postcode": "35957"}}},
{"geometry": {"type": "Point", "coordinates": [-85.628886542, 34.9408207715]}, "type": "Feature", "properties": {"collection_times": [{"days": "Mon-Fri", "time": "3:30pm"}, {"days": "Sat", "time": "10:30am"}, {"days": "Sun", "time": "Closed"}], "id": "3595800000", "name": "USPS COLLECTION BOX - BLUE BOX", "address": {"city": "BRYANT", "state": "AL", "street": "6366 AL HIGHWAY 73", "postcode": "35958"}}},
{"geometry": {"type": "Point", "coordinates": [-85.628886542, 34.9408207715]}, "type": "Feature", "properties": {"collection_times": [{"days": "Mon-Fri", "time": "3:30pm"}, {"days": "Sat", "time": "10:30am"}, {"days": "Sun", "time": "Closed"}], "id": "3595800001", "name": "USPS COLLECTION BOX - PO LOBBY", "address": {"city": "BRYANT", "state": "AL", "street": "6366 AL HIGHWAY 73", "postcode": "35958"}}},
{"geometry": {"type": "Point", "coordinates": [-85.633507344, 34.9238934906]}, "type": "Feature", "properties": {"collection_times": [{"days": "Mon-Sat", "time": "12:00pm"}, {"days": "Sun", "time": "Closed"}], "id": "3595800004", "name": "USPS COLLECTION BOX - BLUE BOX", "address": {"city": "BRYANT", "state": "AL", "street": "29811 AL HIGHWAY 71", "postcode": "35958"}}},
{"geometry": {"type": "Point", "coordinates": [-85.6040115302, 34.2197290394]}, "type": "Feature", "properties": {"collection_times": [{"days": "Mon-Fri", "time": "3:30pm"}, {"days": "Sat", "time": "10:30am"}, {"days": "Sun", "time": "Closed"}], "id": "3595900000", "name": "USPS COLLECTION BOX - BLUE BOX", "address": {"city": "CEDAR BLUFF", "state": "AL", "street": "3390 GROVE ST", "postcode": "35959"}}},
{"geometry": {"type": "Point", "coordinates": [-85.6040115302, 34.2197290394]}, "type": "Feature", "properties": {"collection_times": [{"days": "Mon-Fri", "time": "3:30pm"}, {"days": "Sat", "time": "10:30am"}, {"days": "Sun", "time": "Closed"}], "id": "3595900001", "name": "USPS COLLECTION BOX - PO LOBBY", "address": {"city": "CEDAR BLUFF", "state": "AL", "street": "3390 GROVE ST", "postcode": "35959"}}},
{"geometry": {"type": "Point", "coordinates": [-85.6870828071, 34.1543123106]}, "type": "Feature", "properties": {"collection_times": [{"days": "Mon-Sat", "time": "3:00pm"}, {"days": "Sun", "time": "Closed"}], "id": "3596000000", "name": "USPS COLLECTION BOX - BLUE BOX", "address": {"city": "CENTRE", "state": "AL", "street": "850 W MAIN ST", "postcode": "35960"}}},
{"geometry": {"type": "Point", "coordinates": [-85.6870828071, 34.1543123106]}, "type": "Feature", "properties": {"collection_times": [{"days": "Mon-Sat", "time": "3:00pm"}, {"days": "Sun", "time": "Closed"}], "id": "3596000001", "name": "USPS COLLECTION BOX - BLUE BOX", "address": {"city": "CENTRE", "state": "AL", "street": "850 W MAIN ST", "postcode": "35960"}}},
{"geometry": {"type": "Point", "coordinates": [-85.592660497, 34.106700751]}, "type": "Feature", "properties": {"collection_times": [{"days": "Mon-Sat", "time": "12:00pm"}, {"days": "Sun", "time": "Closed"}], "id": "3596000002", "name": "USPS COLLECTION BOX - BLUE BOX", "address": {"city": "CENTRE", "state": "AL", "street": "775 CHEROKEE PLZ", "postcode": "35960"}}},
{"geometry": {"type": "Point", "coordinates": [-85.6793729189, 34.1522249992]}, "type": "Feature", "properties": {"collection_times": [{"days": "Mon-Fri", "time": "2:45pm"}, {"days": "Sat", "time": "1:30pm"}, {"days": "Sun", "time": "Closed"}], "id": "3596000003", "name": "USPS COLLECTION BOX - BLUE BOX", "address": {"city": "CENTRE", "state": "AL", "street": "100 MAIN ST", "postcode": "35960"}}},
{"geometry": {"type": "Point", "coordinates": [-85.6870828071, 34.1543123106]}, "type": "Feature", "properties": {"collection_times": [{"days": "Mon-Sat", "time": "3:00pm"}, {"days": "Sun", "time": "Closed"}], "id": "3596000004", "name": "USPS COLLECTION BOX - PO LOBBY", "address": {"city": "CENTRE", "state": "AL", "street": "850 W MAIN ST", "postcode": "35960"}}},
{"geometry": {"type": "Point", "coordinates": [-85.6783799376, 34.1530776508]}, "type": "Feature", "properties": {"collection_times": [{"days": "Mon-Fri", "time": "2:30pm"}, {"days": "Sat", "time": "1:30pm"}, {"days": "Sun", "time": "Closed"}], "id": "3596000005", "name": "USPS COLLECTION BOX - BLUE BOX", "address": {"city": "CENTRE", "state": "AL", "street": "260 CEDAR BLUFF RD", "postcode": "35960"}}},
{"geometry": {"type": "Point", "coordinates": [-85.8614572267, 34.2649700244]}, "type": "Feature", "properties": {"collection_times": [{"days": "Mon-Fri", "time": "12:00pm"}, {"days": "Sat", "time": "10:00am"}, {"days": "Sun", "time": "Closed"}], "id": "3596100000", "name": "USPS COLLECTION BOX - BLUE BOX", "address": {"city": "COLLINSVILLE", "state": "AL", "street": "10 POST OFFICE ST", "postcode": "35961"}}},
{"geometry": {"type": "Point", "coordinates": [-85.8614572267, 34.2649700244]}, "type": "Feature", "properties": {"collection_times": [{"days": "Mon-Fri", "time": "12:00pm"}, {"days": "Sat", "time": "10:00am"}, {"days": "Sun", "time": "Closed"}], "id": "3596100001", "name": "USPS COLLECTION BOX - PO LOBBY", "address": {"city": "COLLINSVILLE", "state": "AL", "street": "10 POST OFFICE ST", "postcode": "35961"}}},
{"geometry": {"type": "Point", "coordinates": [-85.9810644234, 34.2869906888]}, "type": "Feature", "properties": {"collection_times": [{"days": "Mon-Fri", "time": "3:45pm"}, {"days": "Sat", "time": "10:30am"}, {"days": "Sun", "time": "Closed"}], "id": "3596200000", "name": "USPS COLLECTION BOX - BLUE BOX", "address": {"city": "CROSSVILLE", "state": "AL", "street": "13856 AL HIGHWAY 68", "postcode": "35962"}}},
{"geometry": {"type": "Point", "coordinates": [-86.0358157482, 34.2949539445]}, "type": "Feature", "properties": {"collection_times": [{"days": "Mon-Fri", "time": "4:00pm"}, {"days": "Sat", "time": "10:30am"}, {"days": "Sun", "time": "Closed"}], "id": "3596200001", "name": "USPS COLLECTION BOX - PO LOBBY", "address": {"city": "CROSSVILLE", "state": "AL", "street": "13856 AL HIGHWAY 68", "postcode": "35962"}}},
{"geometry": {"type": "Point", "coordinates": [-85.929518678, 34.3606191861]}, "type": "Feature", "properties": {"collection_times": [{"days": "Mon-Fri", "time": "12:00pm"}, {"days": "Sat", "time": "10:00am"}, {"days": "Sun", "time": "Closed"}], "id": "3596300000", "name": "USPS COLLECTION BOX - BLUE BOX", "address": {"city": "DAWSON", "state": "AL", "street": "59 COUNTY ROAD 57", "postcode": "35963"}}},
{"geometry": {"type": "Point", "coordinates": [-85.929518678, 34.3606191861]}, "type": "Feature", "properties": {"collection_times": [{"days": "Mon-Fri", "time": "12:00pm"}, {"days": "Sat", "time": "10:00am"}, {"days": "Sun", "time": "Closed"}], "id": "3596300001", "name": "USPS COLLECTION BOX - PO LOBBY", "address": {"city": "DAWSON", "state": "AL", "street": "59 COUNTY ROAD 57", "postcode": "35963"}}},
{"geometry": {"type": "Point", "coordinates": [-86.3164712314, 34.1796771093]}, "type": "Feature", "properties": {"collection_times": [{"days": "Mon-Fri", "time": "11:30am"}, {"days": "Sat", "time": "10:30am"}, {"days": "Sun", "time": "Closed"}], "id": "3596400000", "name": "USPS COLLECTION BOX - BLUE BOX", "address": {"city": "DOUGLAS", "state": "AL", "street": "9365 AL HIGHWAY 75", "postcode": "35964"}}},
{"geometry": {"type": "Point", "coordinates": [-86.3235984975, 34.1736022859]}, "type": "Feature", "properties": {"collection_times": [{"days": "Mon-Fri", "time": "11:30am"}, {"days": "Sat", "time": "10:30am"}, {"days": "Sun", "time": "Closed"}], "id": "3596400001", "name": "USPS COLLECTION BOX - PO LOBBY", "address": {"city": "DOUGLAS", "state": "AL", "street": "9365 AL HIGHWAY 75", "postcode": "35964"}}},
{"geometry": {"type": "Point", "coordinates": [-85.6894906183, 34.7792500382]}, "type": "Feature", "properties": {"collection_times": [{"days": "Mon-Fri", "time": "3:30pm"}, {"days": "Sat", "time": "11:00am"}, {"days": "Sun", "time": "Closed"}], "id": "3596600000", "name": "USPS COLLECTION BOX - BLUE BOX", "address": {"city": "FLAT ROCK", "state": "AL", "street": "21447 AL HIGHWAY 71", "postcode": "35966"}}},
{"geometry": {"type": "Point", "coordinates": [-85.6894906183, 34.7792500382]}, "type": "Feature", "properties": {"collection_times": [{"days": "Mon-Fri", "time": "3:30pm"}, {"days": "Sat", "time": "11:00am"}, {"days": "Sun", "time": "Closed"}], "id": "3596600001", "name": "USPS COLLECTION BOX - PO LOBBY", "address": {"city": "FLAT ROCK", "state": "AL", "street": "21447 AL HIGHWAY 71", "postcode": "35966"}}},
{"geometry": {"type": "Point", "coordinates": [-85.7204033292, 34.4396486211]}, "type": "Feature", "properties": {"collection_times": [{"days": "Mon-Fri", "time": "4:45pm"}, {"days": "Sat", "time": "4:15pm"}, {"days": "Sun", "time": "Closed"}], "id": "3596700000", "name": "USPS COLLECTION BOX - BLUE BOX", "address": {"city": "FORT PAYNE", "state": "AL", "street": "301 1ST ST E", "postcode": "35967"}}},
{"geometry": {"type": "Point", "coordinates": [-85.7204033292, 34.4396486211]}, "type": "Feature", "properties": {"collection_times": [{"days": "Mon-Fri", "time": "4:45pm"}, {"days": "Sat", "time": "4:15pm"}, {"days": "Sun", "time": "Closed"}], "id": "3596700001", "name": "USPS COLLECTION BOX - BLUE BOX", "address": {"city": "FORT PAYNE", "state": "AL", "street": "301 1ST ST E", "postcode": "35967"}}},
{"geometry": {"type": "Point", "coordinates": [-85.7250419763, 34.4399425527]}, "type": "Feature", "properties": {"collection_times": [{"days": "Mon-Fri", "time": "10:30am"}, {"days": "Sat-Sun", "time": "Closed"}], "id": "3596700003", "name": "USPS COLLECTION BOX - BLUE BOX", "address": {"city": "FORT PAYNE", "state": "AL", "street": "300 GRAND AVE SW", "postcode": "35967"}}},
{"geometry": {"type": "Point", "coordinates": [-85.7204033292, 34.4396486211]}, "type": "Feature", "properties": {"collection_times": [{"days": "Mon-Fri", "time": "4:45pm"}, {"days": "Sat", "time": "3:45pm"}, {"days": "Sun", "time": "Closed"}], "id": "3596700010", "name": "USPS COLLECTION BOX - PO LOBBY", "address": {"city": "FORT PAYNE", "state": "AL", "street": "301 1ST ST E", "postcode": "35967"}}},
{"geometry": {"type": "Point", "coordinates": [-85.7204033292, 34.4396486211]}, "type": "Feature", "properties": {"collection_times": [{"days": "Mon-Fri", "time": "4:45pm"}, {"days": "Sat", "time": "3:45pm"}, {"days": "Sun", "time": "Closed"}], "id": "3596700011", "name": "USPS COLLECTION BOX - PO LOBBY", "address": {"city": "FORT PAYNE", "state": "AL", "street": "301 1ST ST E", "postcode": "35967"}}},
{"geometry": {"type": "Point", "coordinates": [-85.9096505876, 34.4432246006]}, "type": "Feature", "properties": {"collection_times": [{"days": "Mon-Fri", "time": "3:45pm"}, {"days": "Sat", "time": "10:45am"}, {"days": "Sun", "time": "Closed"}], "id": "3597100000", "name": "USPS COLLECTION BOX - BLUE BOX", "address": {"city": "FYFFE", "state": "AL", "street": "1357 MAIN ST", "postcode": "35971"}}},
{"geometry": {"type": "Point", "coordinates": [-85.9096505876, 34.4432246006]}, "type": "Feature", "properties": {"collection_times": [{"days": "Mon-Fri", "time": "3:45pm"}, {"days": "Sat", "time": "10:45am"}, {"days": "Sun", "time": "Closed"}], "id": "3597100001", "name": "USPS COLLECTION BOX - PO LOBBY", "address": {"city": "FYFFE", "state": "AL", "street": "1357 MAIN ST", "postcode": "35971"}}},
{"geometry": {"type": "Point", "coordinates": [-85.9378793242, 34.4582001461]}, "type": "Feature", "properties": {"collection_times": [{"days": "Mon-Sat", "time": "11:00am"}, {"days": "Sun", "time": "Closed"}], "id": "3597100003", "name": "USPS COLLECTION BOX - BLUE BOX", "address": {"city": "FYFFE", "state": "AL", "street": "44 BLACKWELL ST", "postcode": "35971"}}},
{"geometry": {"type": "Point", "coordinates": [-86.2690506235, 33.9780594418]}, "type": "Feature", "properties": {"collection_times": [{"days": "Mon-Fri", "time": "12:50pm"}, {"days": "Sat", "time": "10:00am"}, {"days": "Sun", "time": "Closed"}], "id": "3597200000", "name": "USPS COLLECTION BOX - BLUE BOX", "address": {"city": "GALLANT", "state": "AL", "street": "9125 GALLANT RD", "postcode": "35972"}}},
{"geometry": {"type": "Point", "coordinates": [-86.2690506235, 33.9780594418]}, "type": "Feature", "properties": {"collection_times": [{"days": "Mon-Fri", "time": "12:50pm"}, {"days": "Sat", "time": "10:00am"}, {"days": "Sun", "time": "Closed"}], "id": "3597200001", "name": "USPS COLLECTION BOX - PO LOBBY", "address": {"city": "GALLANT", "state": "AL", "street": "9125 GALLANT RD", "postcode": "35972"}}},
{"geometry": {"type": "Point", "coordinates": [-85.5595601802, 34.266485914]}, "type": "Feature", "properties": {"collection_times": [{"days": "Mon-Fri", "time": "12:00pm"}, {"days": "Sat", "time": "10:30am"}, {"days": "Sun", "time": "Closed"}], "id": "3597300000", "name": "USPS COLLECTION BOX - BLUE BOX", "address": {"city": "GAYLESVILLE", "state": "AL", "street": "4840 MAIN ST", "postcode": "35973"}}},
{"geometry": {"type": "Point", "coordinates": [-85.5595601802, 34.266485914]}, "type": "Feature", "properties": {"collection_times": [{"days": "Mon-Fri", "time": "12:00pm"}, {"days": "Sat", "time": "10:30am"}, {"days": "Sun", "time": "Closed"}], "id": "3597300001", "name": "USPS COLLECTION BOX - PO LOBBY", "address": {"city": "GAYLESVILLE", "state": "AL", "street": "4840 MAIN ST", "postcode": "35973"}}},
{"geometry": {"type": "Point", "coordinates": [-86.0143267461, 34.3567185928]}, "type": "Feature", "properties": {"collection_times": [{"days": "Mon-Fri", "time": "3:45pm"}, {"days": "Sat", "time": "10:00am"}, {"days": "Sun", "time": "Closed"}], "id": "3597400000", "name": "USPS COLLECTION BOX - BLUE BOX", "address": {"city": "GERALDINE", "state": "AL", "street": "41808 AL HIGHWAY 75", "postcode": "35974"}}},
{"geometry": {"type": "Point", "coordinates": [-86.0102497358, 34.3599204667]}, "type": "Feature", "properties": {"collection_times": [{"days": "Mon-Fri", "time": "3:45pm"}, {"days": "Sat", "time": "10:00am"}, {"days": "Sun", "time": "Closed"}], "id": "3597400001", "name": "USPS COLLECTION BOX - PO LOBBY", "address": {"city": "GERALDINE", "state": "AL", "street": "41808 AL HIGHWAY 75", "postcode": "35974"}}},
{"geometry": {"type": "Point", "coordinates": [-86.2977503474, 34.3509334071]}, "type": "Feature", "properties": {"collection_times": [{"days": "Mon-Sat", "time": "4:30pm"}, {"days": "Sun", "time": "Closed"}], "id": "3597600000", "name": "USPS COLLECTION BOX - BLUE BOX", "address": {"city": "GUNTERSVILLE", "state": "AL", "street": "1021 BLOUNT AVE", "postcode": "35976"}}},
{"geometry": {"type": "Point", "coordinates": [-86.2977503474, 34.3509334071]}, "type": "Feature", "properties": {"collection_times": [{"days": "Mon-Sat", "time": "4:30pm"}, {"days": "Sun", "time": "Closed"}], "id": "3597600001", "name": "USPS COLLECTION BOX - BLUE BOX", "address": {"city": "GUNTERSVILLE", "state": "AL", "street": "1021 BLOUNT AVE", "postcode": "35976"}}},
{"geometry": {"type": "Point", "coordinates": [-86.2977503474, 34.3509334071]}, "type": "Feature", "properties": {"collection_times": [{"days": "Mon-Sat", "time": "4:30pm"}, {"days": "Sun", "time": "Closed"}], "id": "3597600017", "name": "USPS COLLECTION BOX - PO LOBBY", "address": {"city": "GUNTERSVILLE", "state": "AL", "street": "1021 BLOUNT AVE", "postcode": "35976"}}},
{"geometry": {"type": "Point", "coordinates": [-86.2947416012, 34.3579212863]}, "type": "Feature", "properties": {"collection_times": [{"days": "Mon-Sat", "time": "12:00pm"}, {"days": "Sun", "time": "Closed"}], "id": "3597600020", "name": "USPS COLLECTION BOX - BLUE BOX", "address": {"city": "GUNTERSVILLE", "state": "AL", "street": "520 GUNTER AVE", "postcode": "35976"}}},
{"geometry": {"type": "Point", "coordinates": [-85.7476475499, 34.6299172011]}, "type": "Feature", "properties": {"collection_times": [{"days": "Mon-Fri", "time": "3:45pm"}, {"days": "Sat", "time": "10:45am"}, {"days": "Sun", "time": "Closed"}], "id": "3597800000", "name": "USPS COLLECTION BOX - BLUE BOX", "address": {"city": "HENAGAR", "state": "AL", "street": "17136 AL HIGHWAY 75", "postcode": "35978"}}},
{"geometry": {"type": "Point", "coordinates": [-85.7476475499, 34.6299172011]}, "type": "Feature", "properties": {"collection_times": [{"days": "Mon-Fri", "time": "3:45pm"}, {"days": "Sat", "time": "10:45am"}, {"days": "Sun", "time": "Closed"}], "id": "3597800001", "name": "USPS COLLECTION BOX - PO LOBBY", "address": {"city": "HENAGAR", "state": "AL", "street": "17136 AL HIGHWAY 75", "postcode": "35978"}}},
{"geometry": {"type": "Point", "coordinates": [-85.6153004646, 34.8547597143]}, "type": "Feature", "properties": {"collection_times": [{"days": "Mon-Fri", "time": "3:45pm"}, {"days": "Sat", "time": "11:15am"}, {"days": "Sun", "time": "Closed"}], "id": "3597900001", "name": "USPS COLLECTION BOX - PO LOBBY", "address": {"city": "HIGDON", "state": "AL", "street": "29396 AL HIGHWAY 71", "postcode": "35979"}}},
{"geometry": {"type": "Point", "coordinates": [-85.62051, 34.849358]}, "type": "Feature", "properties": {"collection_times": [{"days": "Mon-Fri", "time": "3:45pm"}, {"days": "Sat", "time": "11:15am"}, {"days": "Sun", "time": "Closed"}], "id": "3597900002", "name": "USPS COLLECTION BOX - BLUE BOX", "address": {"city": "HIGDON", "state": "AL", "street": "29396 AL HIGHWAY 71", "postcode": "35979"}}},
{"geometry": {"type": "Point", "coordinates": [-86.295890368, 34.201403819]}, "type": "Feature", "properties": {"collection_times": [{"days": "Mon-Fri", "time": "4:00pm"}, {"days": "Sat", "time": "9:00am"}, {"days": "Sun", "time": "Closed"}], "id": "3598000000", "name": "USPS COLLECTION BOX - BLUE BOX", "address": {"city": "HORTON", "state": "AL", "street": "6396 AL HIGHWAY 75", "postcode": "35980"}}},
{"geometry": {"type": "Point", "coordinates": [-86.295890368, 34.201403819]}, "type": "Feature", "properties": {"collection_times": [{"days": "Mon-Fri", "time": "4:00pm"}, {"days": "Sat", "time": "9:00am"}, {"days": "Sun", "time": "Closed"}], "id": "3598000001", "name": "USPS COLLECTION BOX - PO LOBBY", "address": {"city": "HORTON", "state": "AL", "street": "6396 AL HIGHWAY 75", "postcode": "35980"}}},
{"geometry": {"type": "Point", "coordinates": [-85.670976117, 34.693210243]}, "type": "Feature", "properties": {"collection_times": [{"days": "Mon-Fri", "time": "4:00pm"}, {"days": "Sat", "time": "10:30am"}, {"days": "Sun", "time": "Closed"}], "id": "3598100000", "name": "USPS COLLECTION BOX - BLUE BOX", "address": {"city": "IDER", "state": "AL", "street": "11134 AL HIGHWAY 75", "postcode": "35981"}}},
{"geometry": {"type": "Point", "coordinates": [-85.670976117, 34.693210243]}, "type": "Feature", "properties": {"collection_times": [{"days": "Mon-Fri", "time": "4:00pm"}, {"days": "Sat", "time": "10:30am"}, {"days": "Sun", "time": "Closed"}], "id": "3598100001", "name": "USPS COLLECTION BOX - PO LOBBY", "address": {"city": "IDER", "state": "AL", "street": "11134 AL HIGHWAY 75", "postcode": "35981"}}},
{"geometry": {"type": "Point", "coordinates": [-85.7598126934, 34.1716310319]}, "type": "Feature", "properties": {"collection_times": [{"days": "Mon-Fri", "time": "4:00pm"}, {"days": "Sat", "time": "11:00am"}, {"days": "Sun", "time": "Closed"}], "id": "3598300000", "name": "USPS COLLECTION BOX - BLUE BOX", "address": {"city": "LEESBURG", "state": "AL", "street": "1045 RIVERSIDE ST", "postcode": "35983"}}},
{"geometry": {"type": "Point", "coordinates": [-85.7598126934, 34.1716310319]}, "type": "Feature", "properties": {"collection_times": [{"days": "Mon-Fri", "time": "4:00pm"}, {"days": "Sat", "time": "11:00am"}, {"days": "Sun", "time": "Closed"}], "id": "3598300001", "name": "USPS COLLECTION BOX - PO LOBBY", "address": {"city": "LEESBURG", "state": "AL", "street": "1045 RIVERSIDE ST", "postcode": "35983"}}},
{"geometry": {"type": "Point", "coordinates": [-85.5992144461, 34.570547159]}, "type": "Feature", "properties": {"collection_times": [{"days": "Mon-Fri", "time": "4:00pm"}, {"days": "Sat", "time": "10:15am"}, {"days": "Sun", "time": "Closed"}], "id": "3598400000", "name": "USPS COLLECTION BOX - BLUE BOX", "address": {"city": "MENTONE", "state": "AL", "street": "5809 AL HIGHWAY 117", "postcode": "35984"}}},
{"geometry": {"type": "Point", "coordinates": [-85.58593, 34.578087]}, "type": "Feature", "properties": {"collection_times": [{"days": "Mon-Fri", "time": "4:00pm"}, {"days": "Sat", "time": "10:15am"}, {"days": "Sun", "time": "Closed"}], "id": "3598400001", "name": "USPS COLLECTION BOX - PO LOBBY", "address": {"city": "MENTONE", "state": "AL", "street": "5809 AL HIGHWAY 117", "postcode": "35984"}}},
{"geometry": {"type": "Point", "coordinates": [-85.8526679174, 34.4990512187]}, "type": "Feature", "properties": {"collection_times": [{"days": "Mon-Fri", "time": "4:00pm"}, {"days": "Sat", "time": "12:00pm"}, {"days": "Sun", "time": "Closed"}], "id": "3598600000", "name": "USPS COLLECTION BOX - BLUE BOX", "address": {"city": "RAINSVILLE", "state": "AL", "street": "95 SAM ELLIS DR", "postcode": "35986"}}},
{"geometry": {"type": "Point", "coordinates": [-85.8526679174, 34.4990512187]}, "type": "Feature", "properties": {"collection_times": [{"days": "Mon-Fri", "time": "4:00pm"}, {"days": "Sat", "time": "12:00pm"}, {"days": "Sun", "time": "Closed"}], "id": "3598600002", "name": "USPS COLLECTION BOX - PO LOBBY", "address": {"city": "RAINSVILLE", "state": "AL", "street": "95 SAM ELLIS DR", "postcode": "35986"}}},
{"geometry": {"type": "Point", "coordinates": [-86.1942204439, 33.9487649237]}, "type": "Feature", "properties": {"collection_times": [{"days": "Mon-Fri", "time": "3:45pm"}, {"days": "Sat", "time": "10:00am"}, {"days": "Sun", "time": "Closed"}], "id": "3598700000", "name": "USPS COLLECTION BOX - BLUE BOX", "address": {"city": "STEELE", "state": "AL", "street": "3934 POPE AVE", "postcode": "35987"}}},
{"geometry": {"type": "Point", "coordinates": [-86.1942204439, 33.9487649237]}, "type": "Feature", "properties": {"collection_times": [{"days": "Mon-Fri", "time": "3:45pm"}, {"days": "Sat", "time": "10:00am"}, {"days": "Sun", "time": "Closed"}], "id": "3598700001", "name": "USPS COLLECTION BOX - PO LOBBY", "address": {"city": "STEELE", "state": "AL", "street": "3934 POPE AVE", "postcode": "35987"}}},
{"geometry": {"type": "Point", "coordinates": [-85.7990266785, 34.5602337972]}, "type": "Feature", "properties": {"collection_times": [{"days": "Mon-Fri", "time": "4:00pm"}, {"days": "Sat", "time": "11:00am"}, {"days": "Sun", "time": "Closed"}], "id": "3598800000", "name": "USPS COLLECTION BOX - BLUE BOX", "address": {"city": "SYLVANIA", "state": "AL", "street": "9596 BLUE POND BLVD W", "postcode": "35988"}}},
{"geometry": {"type": "Point", "coordinates": [-85.7990266785, 34.5602337972]}, "type": "Feature", "properties": {"collection_times": [{"days": "Mon-Fri", "time": "3:00pm"}, {"days": "Sat", "time": "11:00am"}, {"days": "Sun", "time": "Closed"}], "id": "3598800001", "name": "USPS COLLECTION BOX - PO LOBBY", "address": {"city": "SYLVANIA", "state": "AL", "street": "9596 BLUE POND BLVD W", "postcode": "35988"}}},
{"geometry": {"type": "Point", "coordinates": [-85.8016199518, 34.5588304735]}, "type": "Feature", "properties": {"collection_times": [{"days": "Mon-Sat", "time": "12:00pm"}, {"days": "Sun", "time": "Closed"}], "id": "3598800003", "name": "USPS COLLECTION BOX - BLUE BOX", "address": {"city": "SYLVANIA", "state": "AL", "street": "14 INDUSTRIAL LN", "postcode": "35988"}}},
{"geometry": {"type": "Point", "coordinates": [-85.6144994573, 34.5699079831]}, "type": "Feature", "properties": {"collection_times": [{"days": "Mon-Fri", "time": "2:30pm"}, {"days": "Sat", "time": "9:00am"}, {"days": "Sun", "time": "Closed"}], "id": "3598900000", "name": "USPS COLLECTION BOX - BLUE BOX", "address": {"city": "VALLEY HEAD", "state": "AL", "street": "36 COMMERCE AVE", "postcode": "35989"}}},
{"geometry": {"type": "Point", "coordinates": [-85.6144994573, 34.5699079831]}, "type": "Feature", "properties": {"collection_times": [{"days": "Mon-Fri", "time": "2:30pm"}, {"days": "Sat", "time": "9:00am"}, {"days": "Sun", "time": "Closed"}], "id": "3598900001", "name": "USPS COLLECTION BOX - PO LOBBY", "address": {"city": "VALLEY HEAD", "state": "AL", "street": "36 COMMERCE AVE", "postcode": "35989"}}},
{"geometry": {"type": "Point", "coordinates": [-85.6433487814, 34.5877942802]}, "type": "Feature", "properties": {"collection_times": [{"days": "Mon-Fri", "time": "3:00pm"}, {"days": "Sat", "time": "10:00am"}, {"days": "Sun", "time": "Closed"}], "id": "3598900003", "name": "USPS COLLECTION BOX - BLUE BOX", "address": {"city": "VALLEY HEAD", "state": "AL", "street": "114 COMMERCE AVE", "postcode": "35989"}}},
{"geometry": {"type": "Point", "coordinates": [-86.3043858733, 34.0651482343]}, "type": "Feature", "properties": {"collection_times": [{"days": "Mon-Fri", "time": "12:20pm"}, {"days": "Sat", "time": "8:30am"}, {"days": "Sun", "time": "Closed"}], "id": "3599000000", "name": "USPS COLLECTION BOX - BLUE BOX", "address": {"city": "WALNUT GROVE", "state": "AL", "street": "4030 GADSDEN BLOUNTSVILLE RD", "postcode": "35990"}}},
{"geometry": {"type": "Point", "coordinates": [-86.3043858733, 34.0651482343]}, "type": "Feature", "properties": {"collection_times": [{"days": "Mon-Fri", "time": "12:20pm"}, {"days": "Sat", "time": "8:30am"}, {"days": "Sun", "time": "Closed"}], "id": "3599000001", "name": "USPS COLLECTION BOX - PO LOBBY", "address": {"city": "WALNUT GROVE", "state": "AL", "street": "4030 GADSDEN BLOUNTSVILLE RD", "postcode": "35990"}}}
]}
