{"type": "FeatureCollection", "features": [
{"geometry": {"type": "Point", "coordinates": [-86.6571895399, 32.4315215648]}, "type": "Feature", "properties": {"collection_times": [{"days": "Mon-Fri", "time": "2:45pm"}, {"days": "Sat", "time": "9:45am"}, {"days": "Sun", "time": "Closed"}], "id": "3600300000", "name": "USPS COLLECTION BOX - BLUE BOX", "address": {"city": "AUTAUGAVILLE", "state": "AL", "street": "105 N TAYLOR ST", "postcode": "36003"}}},
{"geometry": {"type": "Point", "coordinates": [-86.6571895399, 32.4315215648]}, "type": "Feature", "properties": {"collection_times": [{"days": "Mon-Fri", "time": "2:45pm"}, {"days": "Sat", "time": "9:45am"}, {"days": "Sun", "time": "Closed"}], "id": "3600300001", "name": "USPS COLLECTION BOX - PO LOBBY", "address": {"city": "AUTAUGAVILLE", "state": "AL", "street": "105 N TAYLOR ST", "postcode": "36003"}}},
{"geometry": {"type": "Point", "coordinates": [-85.7319301063, 31.8626503877]}, "type": "Feature", "properties": {"collection_times": [{"days": "Mon-Fri", "time": "3:30pm"}, {"days": "Sat", "time": "9:30am"}, {"days": "Sun", "time": "Closed"}], "id": "3600500000", "name": "USPS COLLECTION BOX - BLUE BOX", "address": {"city": "BANKS", "state": "AL", "street": "9378 N US HIGHWAY 29", "postcode": "36005"}}},
{"geometry": {"type": "Point", "coordinates": [-85.7319301063, 31.8626503877]}, "type": "Feature", "properties": {"collection_times": [{"days": "Mon-Fri", "time": "3:30pm"}, {"days": "Sat", "time": "9:30am"}, {"days": "Sun", "time": "Closed"}], "id": "3600500002", "name": "USPS COLLECTION BOX - PO LOBBY", "address": {"city": "BANKS", "state": "AL", "street": "9378 N US HIGHWAY 29", "postcode": "36005"}}},
{"geometry": {"type": "Point", "coordinates": [-86.7184021216, 32.6590868494]}, "type": "Feature", "properties": {"collection_times": [{"days": "Mon-Fri", "time": "10:50am"}, {"days": "Sat", "time": "9:50am"}, {"days": "Sun", "time": "Closed"}], "id": "3600600000", "name": "USPS COLLECTION BOX - BLUE BOX", "address": {"city": "BILLINGSLEY", "state": "AL", "street": "2041 OFFICE ST", "postcode": "36006"}}},
{"geometry": {"type": "Point", "coordinates": [-86.7184021216, 32.6590868494]}, "type": "Feature", "properties": {"collection_times": [{"days": "Mon-Fri", "time": "10:50am"}, {"days": "Sat", "time": "9:50am"}, {"days": "Sun", "time": "Closed"}], "id": "3600600001", "name": "USPS COLLECTION BOX - PO LOBBY", "address": {"city": "BILLINGSLEY", "state": "AL", "street": "2041 OFFICE ST", "postcode": "36006"}}},
{"geometry": {"type": "Point", "coordinates": [-86.2566469277, 31.5814172103]}, "type": "Feature", "properties": {"collection_times": [{"days": "Mon-Fri", "time": "4:00pm"}, {"days": "Sat", "time": "10:30am"}, {"days": "Sun", "time": "Closed"}], "id": "3600900000", "name": "USPS COLLECTION BOX - BLUE BOX", "address": {"city": "BRANTLEY", "state": "AL", "street": "17 MONROE ST", "postcode": "36009"}}},
{"geometry": {"type": "Point", "coordinates": [-86.2566469277, 31.5814172103]}, "type": "Feature", "properties": {"collection_times": [{"days": "Mon-Fri", "time": "4:00pm"}, {"days": "Sat", "time": "10:30am"}, {"days": "Sun", "time": "Closed"}], "id": "3600900001", "name": "USPS COLLECTION BOX - PO LOBBY", "address": {"city": "BRANTLEY", "state": "AL", "street": "17 MONROE ST", "postcode": "36009"}}},
{"geometry": {"type": "Point", "coordinates": [-85.8155983768, 31.7205359089]}, "type": "Feature", "properties": {"collection_times": [{"days": "Mon-Sat", "time": "12:00pm"}, {"days": "Sun", "time": "Closed"}], "id": "3601000000", "name": "USPS COLLECTION BOX - BLUE BOX", "address": {"city": "BRUNDIDGE", "state": "AL", "street": "129 N MAIN ST", "postcode": "36010"}}},
{"geometry": {"type": "Point", "coordinates": [-85.8155983768, 31.7205359089]}, "type": "Feature", "properties": {"collection_times": [{"days": "Mon-Sat", "time": "12:00pm"}, {"days": "Sun", "time": "Closed"}], "id": "3601000004", "name": "USPS COLLECTION BOX - PO LOBBY", "address": {"city": "BRUNDIDGE", "state": "AL", "street": "129 N MAIN ST", "postcode": "36010"}}},
{"geometry": {"type": "Point", "coordinates": [-85.8155983768, 31.7205359089]}, "type": "Feature", "properties": {"collection_times": [{"days": "Mon-Sat", "time": "12:00pm"}, {"days": "Sun", "time": "Closed"}], "id": "3601000005", "name": "USPS COLLECTION BOX - BLUE BOX", "address": {"city": "BRUNDIDGE", "state": "AL", "street": "129 N MAIN ST", "postcode": "36010"}}},
{"geometry": {"type": "Point", "coordinates": [-86.7015263679, 31.6641411473]}, "type": "Feature", "properties": {"collection_times": [{"days": "Mon-Fri", "time": "2:50pm"}, {"days": "Sat-Sun", "time": "Closed"}], "id": "3601500000", "name": "USPS COLLECTION BOX - BLUE BOX", "address": {"city": "CHAPMAN", "state": "AL", "street": "12965 MOBILE RD", "postcode": "36015"}}},
{"geometry": {"type": "Point", "coordinates": [-86.7015263679, 31.6641411473]}, "type": "Feature", "properties": {"collection_times": [{"days": "Mon-Fri", "time": "2:50pm"}, {"days": "Sat-Sun", "time": "Closed"}], "id": "3601500001", "name": "USPS COLLECTION BOX - PO LOBBY", "address": {"city": "CHAPMAN", "state": "AL", "street": "12965 MOBILE RD", "postcode": "36015"}}},
{"geometry": {"type": "Point", "coordinates": [-85.4497245461, 31.8772508499]}, "type": "Feature", "properties": {"collection_times": [{"days": "Mon-Sat", "time": "12:00pm"}, {"days": "Sun", "time": "Closed"}], "id": "3601600000", "name": "USPS COLLECTION BOX - BLUE BOX", "address": {"city": "CLAYTON", "state": "AL", "street": "15 S MIDWAY ST", "postcode": "36016"}}},
{"geometry": {"type": "Point", "coordinates": [-85.4497245461, 31.8772508499]}, "type": "Feature", "properties": {"collection_times": [{"days": "Mon-Sat", "time": "12:00pm"}, {"days": "Sun", "time": "Closed"}], "id": "3601600001", "name": "USPS COLLECTION BOX - PO LOBBY", "address": {"city": "CLAYTON", "state": "AL", "street": "15 S MIDWAY ST", "postcode": "36016"}}},
{"geometry": {"type": "Point", "coordinates": [-85.4497245461, 31.8772508499]}, "type": "Feature", "properties": {"collection_times": [{"days": "Mon-Sat", "time": "12:00pm"}, {"days": "Sun", "time": "Closed"}], "id": "3601600002", "name": "USPS COLLECTION BOX - BLUE BOX", "address": {"city": "CLAYTON", "state": "AL", "street": "15 S MIDWAY ST", "postcode": "36016"}}},
{"geometry": {"type": "Point", "coordinates": [-85.4497245461, 31.8772508499]}, "type": "Feature", "properties": {"collection_times": [{"days": "Mon-Sat", "time": "12:00pm"}, {"days": "Sun", "time": "Closed"}], "id": "3601600003", "name": "USPS COLLECTION BOX - BLUE BOX", "address": {"city": "CLAYTON", "state": "AL", "street": "15 S MIDWAY ST", "postcode": "36016"}}},
{"geometry": {"type": "Point", "coordinates": [-85.6102134969, 31.708670613]}, "type": "Feature", "properties": {"collection_times": [{"days": "Mon-Fri", "time": "4:00pm"}, {"days": "Sat", "time": "11:00am"}, {"days": "Sun", "time": "Closed"}], "id": "3601700000", "name": "USPS COLLECTION BOX - PO LOBBY", "address": {"city": "CLIO", "state": "AL", "street": "1207 BLUE SPRINGS ST", "postcode": "36017"}}},
{"geometry": {"type": "Point", "coordinates": [-85.6102134969, 31.708670613]}, "type": "Feature", "properties": {"collection_times": [{"days": "Mon-Fri", "time": "4:00pm"}, {"days": "Sat", "time": "11:00am"}, {"days": "Sun", "time": "Closed"}], "id": "3601700001", "name": "USPS COLLECTION BOX - BLUE BOX", "address": {"city": "CLIO", "state": "AL", "street": "1207 BLUE SPRINGS ST", "postcode": "36017"}}},
{"geometry": {"type": "Point", "coordinates": [-86.3328993886, 32.4980710396]}, "type": "Feature", "properties": {"collection_times": [{"days": "Mon-Fri", "time": "11:50am"}, {"days": "Sat", "time": "9:30am"}, {"days": "Sun", "time": "Closed"}], "id": "3602000000", "name": "USPS COLLECTION BOX - BLUE BOX", "address": {"city": "COOSADA", "state": "AL", "street": "5798 COOSADA RD", "postcode": "36020"}}},
{"geometry": {"type": "Point", "coordinates": [-86.3328993886, 32.4980710396]}, "type": "Feature", "properties": {"collection_times": [{"days": "Mon-Fri", "time": "11:50am"}, {"days": "Sat", "time": "9:30am"}, {"days": "Sun", "time": "Closed"}], "id": "3602000001", "name": "USPS COLLECTION BOX - PO LOBBY", "address": {"city": "COOSADA", "state": "AL", "street": "5798 COOSADA RD", "postcode": "36020"}}},
{"geometry": {"type": "Point", "coordinates": [-86.3966889147, 32.608075849]}, "type": "Feature", "properties": {"collection_times": [{"days": "Mon-Fri", "time": "12:00pm"}, {"days": "Sat", "time": "10:30am"}, {"days": "Sun", "time": "Closed"}], "id": "3602200000", "name": "USPS COLLECTION BOX - BLUE BOX", "address": {"city": "DEATSVILLE", "state": "AL", "street": "7510 DEATSVILLE HWY", "postcode": "36022"}}},
{"geometry": {"type": "Point", "coordinates": [-86.3966889147, 32.608075849]}, "type": "Feature", "properties": {"collection_times": [{"days": "Mon-Fri", "time": "12:00pm"}, {"days": "Sat", "time": "10:30am"}, {"days": "Sun", "time": "Closed"}], "id": "3602200001", "name": "USPS COLLECTION BOX - PO LOBBY", "address": {"city": "DEATSVILLE", "state": "AL", "street": "7510 DEATSVILLE HWY", "postcode": "36022"}}},
{"geometry": {"type": "Point", "coordinates": [-86.0398116634, 32.6413503812]}, "type": "Feature", "properties": {"collection_times": [{"days": "Mon-Fri", "time": "3:00pm"}, {"days": "Sat", "time": "11:00am"}, {"days": "Sun", "time": "Closed"}], "id": "3602400001", "name": "USPS COLLECTION BOX - PO LOBBY", "address": {"city": "ECLECTIC", "state": "AL", "street": "473 KOWALIGA RD", "postcode": "36024"}}},
{"geometry": {"type": "Point", "coordinates": [-86.0398116634, 32.6413503812]}, "type": "Feature", "properties": {"collection_times": [{"days": "Mon-Fri", "time": "3:00pm"}, {"days": "Sat", "time": "11:00am"}, {"days": "Sun", "time": "Closed"}], "id": "3602400002", "name": "USPS COLLECTION BOX - BLUE BOX", "address": {"city": "ECLECTIC", "state": "AL", "street": "473 KOWALIGA RD", "postcode": "36024"}}},
{"geometry": {"type": "Point", "coordinates": [-86.3148146763, 32.5407349885]}, "type": "Feature", "properties": {"collection_times": [{"days": "Mon-Fri", "time": "2:50pm"}, {"days": "Sat", "time": "10:00am"}, {"days": "Sun", "time": "Closed"}], "id": "3602500000", "name": "USPS COLLECTION BOX - BLUE BOX", "address": {"city": "ELMORE", "state": "AL", "street": "449 JACKSON ST", "postcode": "36025"}}},
{"geometry": {"type": "Point", "coordinates": [-86.3148146763, 32.5407349885]}, "type": "Feature", "properties": {"collection_times": [{"days": "Mon-Fri", "time": "2:50pm"}, {"days": "Sat", "time": "10:00am"}, {"days": "Sun", "time": "Closed"}], "id": "3602500001", "name": "USPS COLLECTION BOX - PO LOBBY", "address": {"city": "ELMORE", "state": "AL", "street": "449 JACKSON ST", "postcode": "36025"}}},
{"geometry": {"type": "Point", "coordinates": [-86.1056790916, 32.8159227623]}, "type": "Feature", "properties": {"collection_times": [{"days": "Mon-Fri", "time": "12:50pm"}, {"days": "Sat", "time": "10:00am"}, {"days": "Sun", "time": "Closed"}], "id": "3602600000", "name": "USPS COLLECTION BOX - PO LOBBY", "address": {"city": "EQUALITY", "state": "AL", "street": "260 AL HIGHWAY 9", "postcode": "36026"}}},
{"geometry": {"type": "Point", "coordinates": [-86.1056790916, 32.8159227623]}, "type": "Feature", "properties": {"collection_times": [{"days": "Mon-Fri", "time": "12:50pm"}, {"days": "Sat", "time": "10:00am"}, {"days": "Sun", "time": "Closed"}], "id": "3602600001", "name": "USPS COLLECTION BOX - BLUE BOX", "address": {"city": "EQUALITY", "state": "AL", "street": "260 AL HIGHWAY 9", "postcode": "36026"}}},
{"geometry": {"type": "Point", "coordinates": [-85.1377395256, 31.8932782547]}, "type": "Feature", "properties": {"collection_times": [{"days": "Mon-Fri", "time": "4:15pm"}, {"days": "Sat", "time": "3:15pm"}, {"days": "Sun", "time": "Closed"}], "id": "3602700001", "name": "USPS COLLECTION BOX - BLUE BOX", "address": {"city": "EUFAULA", "state": "AL", "street": "540 E BROAD ST", "postcode": "36027"}}},
{"geometry": {"type": "Point", "coordinates": [-85.1377395256, 31.8932782547]}, "type": "Feature", "properties": {"collection_times": [{"days": "Mon-Fri", "time": "4:15pm"}, {"days": "Sat", "time": "3:15pm"}, {"days": "Sun", "time": "Closed"}], "id": "3602700002", "name": "USPS COLLECTION BOX - BLUE BOX", "address": {"city": "EUFAULA", "state": "AL", "street": "540 E BROAD ST", "postcode": "36027"}}},
{"geometry": {"type": "Point", "coordinates": [-85.1377395256, 31.8932782547]}, "type": "Feature", "properties": {"collection_times": [{"days": "Mon-Fri", "time": "4:15pm"}, {"days": "Sat", "time": "3:15pm"}, {"days": "Sun", "time": "Closed"}], "id": "3602700003", "name": "USPS COLLECTION BOX - BLUE BOX", "address": {"city": "EUFAULA", "state": "AL", "street": "540 E BROAD ST", "postcode": "36027"}}},
{"geometry": {"type": "Point", "coordinates": [-85.1377395256, 31.8932782547]}, "type": "Feature", "properties": {"collection_times": [{"days": "Mon-Fri", "time": "4:15pm"}, {"days": "Sat", "time": "3:15pm"}, {"days": "Sun", "time": "Closed"}], "id": "3602700019", "name": "USPS COLLECTION BOX - PO LOBBY", "address": {"city": "EUFAULA", "state": "AL", "street": "540 E BROAD ST", "postcode": "36027"}}},
{"geometry": {"type": "Point", "coordinates": [-86.3620610843, 31.4896933323]}, "type": "Feature", "properties": {"collection_times": [{"days": "Mon-Sat", "time": "10:50am"}, {"days": "Sun", "time": "Closed"}], "id": "3602800000", "name": "USPS COLLECTION BOX - BLUE BOX", "address": {"city": "DOZIER", "state": "AL", "street": "7787 S MAIN ST", "postcode": "36028"}}},
{"geometry": {"type": "Point", "coordinates": [-86.3620610843, 31.4896933323]}, "type": "Feature", "properties": {"collection_times": [{"days": "Mon-Sat", "time": "10:50am"}, {"days": "Sun", "time": "Closed"}], "id": "3602800001", "name": "USPS COLLECTION BOX - PO LOBBY", "address": {"city": "DOZIER", "state": "AL", "street": "7787 S MAIN ST", "postcode": "36028"}}},
{"geometry": {"type": "Point", "coordinates": [-85.8911209866, 32.2120583473]}, "type": "Feature", "properties": {"collection_times": [{"days": "Mon-Fri", "time": "11:50am"}, {"days": "Sat", "time": "9:30am"}, {"days": "Sun", "time": "Closed"}], "id": "3602900000", "name": "USPS COLLECTION BOX - BLUE BOX", "address": {"city": "FITZPATRICK", "state": "AL", "street": "9575 HIGHWAY 110", "postcode": "36029"}}},
{"geometry": {"type": "Point", "coordinates": [-85.8911209866, 32.2120583473]}, "type": "Feature", "properties": {"collection_times": [{"days": "Mon-Fri", "time": "11:50am"}, {"days": "Sat", "time": "9:30am"}, {"days": "Sun", "time": "Closed"}], "id": "3602900001", "name": "USPS COLLECTION BOX - PO LOBBY", "address": {"city": "FITZPATRICK", "state": "AL", "street": "9575 HIGHWAY 110", "postcode": "36029"}}},
{"geometry": {"type": "Point", "coordinates": [-86.8242083121, 31.8834961454]}, "type": "Feature", "properties": {"collection_times": [{"days": "Mon-Fri", "time": "12:00pm"}, {"days": "Sat", "time": "10:00am"}, {"days": "Sun", "time": "Closed"}], "id": "3603000000", "name": "USPS COLLECTION BOX - BLUE BOX", "address": {"city": "FOREST HOME", "state": "AL", "street": "7844 FOREST HOME RD", "postcode": "36030"}}},
{"geometry": {"type": "Point", "coordinates": [-86.8242083121, 31.8834961454]}, "type": "Feature", "properties": {"collection_times": [{"days": "Mon-Fri", "time": "12:00pm"}, {"days": "Sat", "time": "10:00am"}, {"days": "Sun", "time": "Closed"}], "id": "3603000001", "name": "USPS COLLECTION BOX - PO LOBBY", "address": {"city": "FOREST HOME", "state": "AL", "street": "7844 FOREST HOME RD", "postcode": "36030"}}},
{"geometry": {"type": "Point", "coordinates": [-86.8442691966, 31.8632716164]}, "type": "Feature", "properties": {"collection_times": [{"days": "Mon-Sat", "time": "10:00am"}, {"days": "Sun", "time": "Closed"}], "id": "3603000003", "name": "USPS COLLECTION BOX - BLUE BOX", "address": {"city": "FOREST HOME", "state": "AL", "street": "12933 PINEAPPLE HWY", "postcode": "36030"}}},
{"geometry": {"type": "Point", "coordinates": [-85.7090756273, 32.2246927279]}, "type": "Feature", "properties": {"collection_times": [{"days": "Mon-Fri", "time": "9:50am"}, {"days": "Sat", "time": "10:00am"}, {"days": "Sun", "time": "Closed"}], "id": "3603100000", "name": "USPS COLLECTION BOX - BLUE BOX", "address": {"city": "FORT DAVIS", "state": "AL", "street": "14125 US HIGHWAY 29 S", "postcode": "36031"}}},
{"geometry": {"type": "Point", "coordinates": [-85.7090756273, 32.2246927279]}, "type": "Feature", "properties": {"collection_times": [{"days": "Mon-Fri", "time": "9:50am"}, {"days": "Sat", "time": "10:00am"}, {"days": "Sun", "time": "Closed"}], "id": "3603100001", "name": "USPS COLLECTION BOX - PO LOBBY", "address": {"city": "FORT DAVIS", "state": "AL", "street": "14125 US HIGHWAY 29 S", "postcode": "36031"}}},
{"geometry": {"type": "Point", "coordinates": [-86.5782277923, 31.9875044565]}, "type": "Feature", "properties": {"collection_times": [{"days": "Mon-Fri", "time": "3:45pm"}, {"days": "Sat", "time": "10:45am"}, {"days": "Sun", "time": "Closed"}], "id": "3603200000", "name": "USPS COLLECTION BOX - BLUE BOX", "address": {"city": "FORT DEPOSIT", "state": "AL", "street": "85 OLD FORT RD W", "postcode": "36032"}}},
{"geometry": {"type": "Point", "coordinates": [-86.5782277923, 31.9875044565]}, "type": "Feature", "properties": {"collection_times": [{"days": "Mon-Fri", "time": "3:45pm"}, {"days": "Sat", "time": "10:45am"}, {"days": "Sun", "time": "Closed"}], "id": "3603200001", "name": "USPS COLLECTION BOX - PO LOBBY", "address": {"city": "FORT DEPOSIT", "state": "AL", "street": "85 OLD FORT RD W", "postcode": "36032"}}},
{"geometry": {"type": "Point", "coordinates": [-86.7426629814, 31.6389815311]}, "type": "Feature", "properties": {"collection_times": [{"days": "Mon-Fri", "time": "12:30pm"}, {"days": "Sat", "time": "11:30am"}, {"days": "Sun", "time": "Closed"}], "id": "3603300001", "name": "USPS COLLECTION BOX - BLUE BOX", "address": {"city": "GEORGIANA", "state": "AL", "street": "248 N MIRANDA AVE", "postcode": "36033"}}},
{"geometry": {"type": "Point", "coordinates": [-86.7426629814, 31.6389815311]}, "type": "Feature", "properties": {"collection_times": [{"days": "Mon-Fri", "time": "12:30pm"}, {"days": "Sat", "time": "11:30am"}, {"days": "Sun", "time": "Closed"}], "id": "3603300002", "name": "USPS COLLECTION BOX - PO LOBBY", "address": {"city": "GEORGIANA", "state": "AL", "street": "248 N MIRANDA AVE", "postcode": "36033"}}},
{"geometry": {"type": "Point", "coordinates": [-86.1712186876, 31.6655745937]}, "type": "Feature", "properties": {"collection_times": [{"days": "Mon-Fri", "time": "11:50am"}, {"days": "Sat", "time": "9:30am"}, {"days": "Sun", "time": "Closed"}], "id": "3603400000", "name": "USPS COLLECTION BOX - BLUE BOX", "address": {"city": "GLENWOOD", "state": "AL", "street": "26 N KING ST", "postcode": "36034"}}},
{"geometry": {"type": "Point", "coordinates": [-86.1712186876, 31.6655745937]}, "type": "Feature", "properties": {"collection_times": [{"days": "Mon-Fri", "time": "11:50am"}, {"days": "Sat", "time": "9:30am"}, {"days": "Sun", "time": "Closed"}], "id": "3603400001", "name": "USPS COLLECTION BOX - PO LOBBY", "address": {"city": "GLENWOOD", "state": "AL", "street": "26 N KING ST", "postcode": "36034"}}},
{"geometry": {"type": "Point", "coordinates": [-86.1205967477, 31.7216519959]}, "type": "Feature", "properties": {"collection_times": [{"days": "Mon-Fri", "time": "11:50am"}, {"days": "Sat", "time": "10:30am"}, {"days": "Sun", "time": "Closed"}], "id": "3603500000", "name": "USPS COLLECTION BOX - BLUE BOX", "address": {"city": "GOSHEN", "state": "AL", "street": "31 GREENVILLE AVE", "postcode": "36035"}}},
{"geometry": {"type": "Point", "coordinates": [-86.1205967477, 31.7216519959]}, "type": "Feature", "properties": {"collection_times": [{"days": "Mon-Fri", "time": "11:50am"}, {"days": "Sat", "time": "10:30am"}, {"days": "Sun", "time": "Closed"}], "id": "3603500001", "name": "USPS COLLECTION BOX - PO LOBBY", "address": {"city": "GOSHEN", "state": "AL", "street": "31 GREENVILLE AVE", "postcode": "36035"}}},
{"geometry": {"type": "Point", "coordinates": [-86.2016469279, 31.9921696865]}, "type": "Feature", "properties": {"collection_times": [{"days": "Mon-Fri", "time": "11:50am"}, {"days": "Sat", "time": "9:00am"}, {"days": "Sun", "time": "Closed"}], "id": "3603600000", "name": "USPS COLLECTION BOX - BLUE BOX", "address": {"city": "GRADY", "state": "AL", "street": "6208 RAMER GRADY RD", "postcode": "36036"}}},
{"geometry": {"type": "Point", "coordinates": [-86.2016469279, 31.9921696865]}, "type": "Feature", "properties": {"collection_times": [{"days": "Mon-Fri", "time": "11:50am"}, {"days": "Sat", "time": "9:00am"}, {"days": "Sun", "time": "Closed"}], "id": "3603600001", "name": "USPS COLLECTION BOX - PO LOBBY", "address": {"city": "GRADY", "state": "AL", "street": "6208 RAMER GRADY RD", "postcode": "36036"}}},
{"geometry": {"type": "Point", "coordinates": [-86.624207692, 31.8296681578]}, "type": "Feature", "properties": {"collection_times": [{"days": "Mon-Sat", "time": "5:00pm"}, {"days": "Sun", "time": "Closed"}], "id": "3603700000", "name": "USPS COLLECTION BOX - BLUE BOX", "address": {"city": "GREENVILLE", "state": "AL", "street": "101 E COMMERCE ST", "postcode": "36037"}}},
{"geometry": {"type": "Point", "coordinates": [-86.624207692, 31.8296681578]}, "type": "Feature", "properties": {"collection_times": [{"days": "Mon-Sat", "time": "5:00pm"}, {"days": "Sun", "time": "Closed"}], "id": "3603700001", "name": "USPS COLLECTION BOX - BLUE BOX", "address": {"city": "GREENVILLE", "state": "AL", "street": "101 E COMMERCE ST", "postcode": "36037"}}},
{"geometry": {"type": "Point", "coordinates": [-86.6403292962, 31.8527598847]}, "type": "Feature", "properties": {"collection_times": [{"days": "Mon-Sat", "time": "9:15am"}, {"days": "Sun", "time": "Closed"}], "id": "3603700008", "name": "USPS COLLECTION BOX - BLUE BOX", "address": {"city": "GREENVILLE", "state": "AL", "street": "145 INTERSTATE DR", "postcode": "36037"}}},
{"geometry": {"type": "Point", "coordinates": [-86.619675222, 31.8297270418]}, "type": "Feature", "properties": {"collection_times": [{"days": "Mon-Sat", "time": "3:30pm"}, {"days": "Sun", "time": "Closed"}], "id": "3603700010", "name": "USPS COLLECTION BOX - BLUE BOX", "address": {"city": "GREENVILLE", "state": "AL", "street": "607 E COMMERCE ST", "postcode": "36037"}}},
{"geometry": {"type": "Point", "coordinates": [-86.624207692, 31.8296681578]}, "type": "Feature", "properties": {"collection_times": [{"days": "Mon-Sat", "time": "5:00pm"}, {"days": "Sun", "time": "Closed"}], "id": "3603700012", "name": "USPS COLLECTION BOX - PO LOBBY", "address": {"city": "GREENVILLE", "state": "AL", "street": "101 E COMMERCE ST", "postcode": "36037"}}},
{"geometry": {"type": "Point", "coordinates": [-86.5781977511, 32.1841014699]}, "type": "Feature", "properties": {"collection_times": [{"days": "Mon-Fri", "time": "3:45pm"}, {"days": "Sat", "time": "10:00am"}, {"days": "Sun", "time": "Closed"}], "id": "3604000000", "name": "USPS COLLECTION BOX - BLUE BOX", "address": {"city": "HAYNEVILLE", "state": "AL", "street": "1 ACADEMY LN", "postcode": "36040"}}},
{"geometry": {"type": "Point", "coordinates": [-86.5781977511, 32.1841014699]}, "type": "Feature", "properties": {"collection_times": [{"days": "Mon-Fri", "time": "3:45pm"}, {"days": "Sat", "time": "10:00am"}, {"days": "Sun", "time": "Closed"}], "id": "3604000001", "name": "USPS COLLECTION BOX - PO LOBBY", "address": {"city": "HAYNEVILLE", "state": "AL", "street": "1 ACADEMY LN", "postcode": "36040"}}},
{"geometry": {"type": "Point", "coordinates": [-86.3152594641, 31.9443058192]}, "type": "Feature", "properties": {"collection_times": [{"days": "Mon-Fri", "time": "3:45pm"}, {"days": "Sat", "time": "9:15am"}, {"days": "Sun", "time": "Closed"}], "id": "3604100000", "name": "USPS COLLECTION BOX - BLUE BOX", "address": {"city": "HIGHLAND HOME", "state": "AL", "street": "17845 MONTGOMERY HWY", "postcode": "36041"}}},
{"geometry": {"type": "Point", "coordinates": [-86.3152594641, 31.9443058192]}, "type": "Feature", "properties": {"collection_times": [{"days": "Mon-Fri", "time": "3:45pm"}, {"days": "Sat", "time": "9:15am"}, {"days": "Sun", "time": "Closed"}], "id": "3604100001", "name": "USPS COLLECTION BOX - PO LOBBY", "address": {"city": "HIGHLAND HOME", "state": "AL", "street": "17845 MONTGOMERY HWY", "postcode": "36041"}}},
{"geometry": {"type": "Point", "coordinates": [-86.4060708874, 31.8508622588]}, "type": "Feature", "properties": {"collection_times": [{"days": "Mon-Fri", "time": "11:50am"}, {"days": "Sat", "time": "9:30am"}, {"days": "Sun", "time": "Closed"}], "id": "3604200000", "name": "USPS COLLECTION BOX - BLUE BOX", "address": {"city": "HONORAVILLE", "state": "AL", "street": "47 POST OFFICE LOOP", "postcode": "36042"}}},
{"geometry": {"type": "Point", "coordinates": [-86.4060708874, 31.8508622588]}, "type": "Feature", "properties": {"collection_times": [{"days": "Mon-Fri", "time": "11:50am"}, {"days": "Sat", "time": "9:30am"}, {"days": "Sun", "time": "Closed"}], "id": "3604200001", "name": "USPS COLLECTION BOX - PO LOBBY", "address": {"city": "HONORAVILLE", "state": "AL", "street": "47 POST OFFICE LOOP", "postcode": "36042"}}},
{"geometry": {"type": "Point", "coordinates": [-86.3668744819, 32.2696586686]}, "type": "Feature", "properties": {"collection_times": [{"days": "Mon-Fri", "time": "3:00pm"}, {"days": "Sat", "time": "9:00am"}, {"days": "Sun", "time": "Closed"}], "id": "3604300000", "name": "USPS COLLECTION BOX - BLUE BOX", "address": {"city": "HOPE HULL", "state": "AL", "street": "275 WASDEN RD", "postcode": "36043"}}},
{"geometry": {"type": "Point", "coordinates": [-86.3668744819, 32.2696586686]}, "type": "Feature", "properties": {"collection_times": [{"days": "Mon-Fri", "time": "3:00pm"}, {"days": "Sat", "time": "9:00am"}, {"days": "Sun", "time": "Closed"}], "id": "3604300001", "name": "USPS COLLECTION BOX - PO LOBBY", "address": {"city": "HOPE HULL", "state": "AL", "street": "275 WASDEN RD", "postcode": "36043"}}},
{"geometry": {"type": "Point", "coordinates": [-86.3668744819, 32.2696586686]}, "type": "Feature", "properties": {"collection_times": [{"days": "Mon-Fri", "time": "3:00pm"}, {"days": "Sat", "time": "9:00am"}, {"days": "Sun", "time": "Closed"}], "id": "3604300002", "name": "USPS COLLECTION BOX - BLUE BOX", "address": {"city": "HOPE HULL", "state": "AL", "street": "275 WASDEN RD", "postcode": "36043"}}},
{"geometry": {"type": "Point", "coordinates": [-86.2849084419, 31.9655974362]}, "type": "Feature", "properties": {"collection_times": [{"days": "Mon-Fri", "time": "3:00pm"}, {"days": "Sat", "time": "9:00am"}, {"days": "Sun", "time": "Closed"}], "id": "3604600000", "name": "USPS COLLECTION BOX - PO LOBBY", "address": {"city": "LAPINE", "state": "AL", "street": "1126 MERIWETHER TRL", "postcode": "36046"}}},
{"geometry": {"type": "Point", "coordinates": [-86.2849084419, 31.9655974362]}, "type": "Feature", "properties": {"collection_times": [{"days": "Mon-Fri", "time": "3:00pm"}, {"days": "Sat", "time": "9:00am"}, {"days": "Sun", "time": "Closed"}], "id": "3604600001", "name": "USPS COLLECTION BOX - BLUE BOX", "address": {"city": "LAPINE", "state": "AL", "street": "1126 MERIWETHER TRL", "postcode": "36046"}}},
{"geometry": {"type": "Point", "coordinates": [-86.4870326158, 32.1306907644]}, "type": "Feature", "properties": {"collection_times": [{"days": "Mon-Fri", "time": "11:50am"}, {"days": "Sat", "time": "9:15am"}, {"days": "Sun", "time": "Closed"}], "id": "3604700000", "name": "USPS COLLECTION BOX - BLUE BOX", "address": {"city": "LETOHATCHEE", "state": "AL", "street": "6142 STATE HIGHWAY 97 S", "postcode": "36047"}}},
{"geometry": {"type": "Point", "coordinates": [-86.4870326158, 32.1306907644]}, "type": "Feature", "properties": {"collection_times": [{"days": "Mon-Fri", "time": "11:50am"}, {"days": "Sat", "time": "9:15am"}, {"days": "Sun", "time": "Closed"}], "id": "3604700001", "name": "USPS COLLECTION BOX - PO LOBBY", "address": {"city": "LETOHATCHEE", "state": "AL", "street": "6142 STATE HIGHWAY 97 S", "postcode": "36047"}}},
{"geometry": {"type": "Point", "coordinates": [-85.5556559725, 31.7831168502]}, "type": "Feature", "properties": {"collection_times": [{"days": "Mon-Fri", "time": "3:45pm"}, {"days": "Sat", "time": "10:45am"}, {"days": "Sun", "time": "Closed"}], "id": "3604800000", "name": "USPS COLLECTION BOX - BLUE BOX", "address": {"city": "LOUISVILLE", "state": "AL", "street": "1968 MAIN ST", "postcode": "36048"}}},
{"geometry": {"type": "Point", "coordinates": [-85.5556559725, 31.7831168502]}, "type": "Feature", "properties": {"collection_times": [{"days": "Mon-Fri", "time": "3:45pm"}, {"days": "Sat", "time": "10:45am"}, {"days": "Sun", "time": "Closed"}], "id": "3604800001", "name": "USPS COLLECTION BOX - PO LOBBY", "address": {"city": "LOUISVILLE", "state": "AL", "street": "1968 MAIN ST", "postcode": "36048"}}},
{"geometry": {"type": "Point", "coordinates": [-86.2633849029, 31.7164053139]}, "type": "Feature", "properties": {"collection_times": [{"days": "Mon-Sat", "time": "12:00pm"}, {"days": "Sun", "time": "Closed"}], "id": "3604900000", "name": "USPS COLLECTION BOX - BLUE BOX", "address": {"city": "LUVERNE", "state": "AL", "street": "29 E 3RD ST", "postcode": "36049"}}},
{"geometry": {"type": "Point", "coordinates": [-86.2633849029, 31.7164053139]}, "type": "Feature", "properties": {"collection_times": [{"days": "Mon-Sat", "time": "12:00pm"}, {"days": "Sun", "time": "Closed"}], "id": "3604900006", "name": "USPS COLLECTION BOX - PO LOBBY", "address": {"city": "LUVERNE", "state": "AL", "street": "29 E 3RD ST", "postcode": "36049"}}},
{"geometry": {"type": "Point", "coordinates": [-86.2633849029, 31.7164053139]}, "type": "Feature", "properties": {"collection_times": [{"days": "Mon-Sat", "time": "12:00pm"}, {"days": "Sun", "time": "Closed"}], "id": "3604900009", "name": "USPS COLLECTION BOX - BLUE BOX", "address": {"city": "LUVERNE", "state": "AL", "street": "29 E 3RD ST", "postcode": "36049"}}},
{"geometry": {"type": "Point", "coordinates": [-86.4709097908, 32.7023955245]}, "type": "Feature", "properties": {"collection_times": [{"days": "Mon-Fri", "time": "11:50am"}, {"days": "Sat", "time": "9:15am"}, {"days": "Sun", "time": "Closed"}], "id": "3605100000", "name": "USPS COLLECTION BOX - BLUE BOX", "address": {"city": "MARBURY", "state": "AL", "street": "3050 AL HIGHWAY 143", "postcode": "36051"}}},
{"geometry": {"type": "Point", "coordinates": [-86.4709097908, 32.7023955245]}, "type": "Feature", "properties": {"collection_times": [{"days": "Mon-Fri", "time": "11:50am"}, {"days": "Sat", "time": "9:15am"}, {"days": "Sun", "time": "Closed"}], "id": "3605100001", "name": "USPS COLLECTION BOX - PO LOBBY", "address": {"city": "MARBURY", "state": "AL", "street": "3050 AL HIGHWAY 143", "postcode": "36051"}}},
{"geometry": {"type": "Point", "coordinates": [-86.0582185966, 32.1856840595]}, "type": "Feature", "properties": {"collection_times": [{"days": "Mon-Sat", "time": "10:00am"}, {"days": "Sun", "time": "Closed"}], "id": "3605200000", "name": "USPS COLLECTION BOX - BLUE BOX", "address": {"city": "PIKE ROAD", "state": "AL", "street": "2671 FLOWERS RD", "postcode": "36052"}}},
{"geometry": {"type": "Point", "coordinates": [-85.4686984255, 32.0772031324]}, "type": "Feature", "properties": {"collection_times": [{"days": "Mon-Fri", "time": "4:00pm"}, {"days": "Sat", "time": "10:30am"}, {"days": "Sun", "time": "Closed"}], "id": "3605300000", "name": "USPS COLLECTION BOX - BLUE BOX", "address": {"city": "MIDWAY", "state": "AL", "street": "32848 HIGHWAY 82", "postcode": "36053"}}},
{"geometry": {"type": "Point", "coordinates": [-85.4686984255, 32.0772031324]}, "type": "Feature", "properties": {"collection_times": [{"days": "Mon-Fri", "time": "4:00pm"}, {"days": "Sat", "time": "10:30am"}, {"days": "Sun", "time": "Closed"}], "id": "3605300002", "name": "USPS COLLECTION BOX - PO LOBBY", "address": {"city": "MIDWAY", "state": "AL", "street": "32848 HIGHWAY 82", "postcode": "36053"}}},
{"geometry": {"type": "Point", "coordinates": [-86.3627277561, 32.4817334459]}, "type": "Feature", "properties": {"collection_times": [{"days": "Mon-Sat", "time": "12:30pm"}, {"days": "Sun", "time": "Closed"}], "id": "3605400001", "name": "USPS COLLECTION BOX - BLUE BOX", "address": {"city": "MILLBROOK", "state": "AL", "street": "3521 MAIN ST", "postcode": "36054"}}},
{"geometry": {"type": "Point", "coordinates": [-86.3661049822, 32.4939875951]}, "type": "Feature", "properties": {"collection_times": [{"days": "Mon-Sat", "time": "12:00pm"}, {"days": "Sun", "time": "Closed"}], "id": "3605400002", "name": "USPS COLLECTION BOX - PO LOBBY", "address": {"city": "MILLBROOK", "state": "AL", "street": "4431 MAIN ST", "postcode": "36054"}}},
{"geometry": {"type": "Point", "coordinates": [-86.3627277561, 32.4817334459]}, "type": "Feature", "properties": {"collection_times": [{"days": "Mon-Sat", "time": "12:30pm"}, {"days": "Sun", "time": "Closed"}], "id": "3605400003", "name": "USPS COLLECTION BOX - BLUE BOX", "address": {"city": "MILLBROOK", "state": "AL", "street": "3521 MAIN ST", "postcode": "36054"}}},
{"geometry": {"type": "Point", "coordinates": [-86.3689864249, 32.4964040929]}, "type": "Feature", "properties": {"collection_times": [{"days": "Mon-Sat", "time": "12:30pm"}, {"days": "Sun", "time": "Closed"}], "id": "3605400004", "name": "USPS COLLECTION BOX - EXPRESS", "address": {"city": "MILLBROOK", "state": "AL", "street": "3521 MAIN ST", "postcode": "36054"}}},
{"geometry": {"type": "Point", "coordinates": [-86.3661049822, 32.4939875951]}, "type": "Feature", "properties": {"collection_times": [{"days": "Mon-Sat", "time": "12:00pm"}, {"days": "Sun", "time": "Closed"}], "id": "3605400006", "name": "USPS COLLECTION BOX - BLUE BOX", "address": {"city": "MILLBROOK", "state": "AL", "street": "4431 MAIN ST", "postcode": "36054"}}},
{"geometry": {"type": "Point", "coordinates": [-86.101898937, 32.362504105]}, "type": "Feature", "properties": {"collection_times": [{"days": "Mon-Fri", "time": "11:00am"}, {"days": "Sat", "time": "9:00am"}, {"days": "Sun", "time": "Closed"}], "id": "3605700000", "name": "USPS COLLECTION BOX - BLUE BOX", "address": {"city": "MOUNT MEIGS", "state": "AL", "street": "100 OLD PIKE RD", "postcode": "36057"}}},
{"geometry": {"type": "Point", "coordinates": [-86.101898937, 32.362504105]}, "type": "Feature", "properties": {"collection_times": [{"days": "Mon-Fri", "time": "11:00am"}, {"days": "Sat", "time": "9:00am"}, {"days": "Sun", "time": "Closed"}], "id": "3605700001", "name": "USPS COLLECTION BOX - PO LOBBY", "address": {"city": "MOUNT MEIGS", "state": "AL", "street": "100 OLD PIKE RD", "postcode": "36057"}}},
{"geometry": {"type": "Point", "coordinates": [-86.0950453299, 32.352711456]}, "type": "Feature", "properties": {"collection_times": [{"days": "Mon-Fri", "time": "3:30pm"}, {"days": "Sat", "time": "10:00am"}, {"days": "Sun", "time": "Closed"}], "id": "3606400000", "name": "USPS COLLECTION BOX - BLUE BOX", "address": {"city": "PIKE ROAD", "state": "AL", "street": "1320 PIKE RD", "postcode": "36064"}}},
{"geometry": {"type": "Point", "coordinates": [-86.0950453299, 32.352711456]}, "type": "Feature", "properties": {"collection_times": [{"days": "Mon-Fri", "time": "3:30pm"}, {"days": "Sat", "time": "10:00am"}, {"days": "Sun", "time": "Closed"}], "id": "3606400001", "name": "USPS COLLECTION BOX - BLUE BOX", "address": {"city": "PIKE ROAD", "state": "AL", "street": "1320 PIKE RD", "postcode": "36064"}}},
{"geometry": {"type": "Point", "coordinates": [-86.085418331, 32.3215219665]}, "type": "Feature", "properties": {"collection_times": [{"days": "Mon-Fri", "time": "3:30pm"}, {"days": "Sat", "time": "10:00am"}, {"days": "Sun", "time": "Closed"}], "id": "3606400002", "name": "USPS COLLECTION BOX - EXPRESS", "address": {"city": "PIKE ROAD", "state": "AL", "street": "1320 PIKE RD", "postcode": "36064"}}},
{"geometry": {"type": "Point", "coordinates": [-86.0950453299, 32.352711456]}, "type": "Feature", "properties": {"collection_times": [{"days": "Mon-Fri", "time": "3:30pm"}, {"days": "Sat", "time": "10:00am"}, {"days": "Sun", "time": "Closed"}], "id": "3606400004", "name": "USPS COLLECTION BOX - PO LOBBY", "address": {"city": "PIKE ROAD", "state": "AL", "street": "1320 PIKE RD", "postcode": "36064"}}},
{"geometry": {"type": "Point", "coordinates": [-86.0883482345, 32.2925330466]}, "type": "Feature", "properties": {"collection_times": [{"days": "Mon-Sat", "time": "10:30am"}, {"days": "Sun", "time": "Closed"}], "id": "3606400006", "name": "USPS COLLECTION BOX - BLUE BOX", "address": {"city": "PIKE ROAD", "state": "AL", "street": "25 BRIDGE ST", "postcode": "36064"}}},
{"geometry": {"type": "Point", "coordinates": [-86.05836825, 32.0679850793]}, "type": "Feature", "properties": {"collection_times": [{"days": "Mon-Fri", "time": "11:30am"}, {"days": "Sat", "time": "10:30am"}, {"days": "Sun", "time": "Closed"}], "id": "3606500000", "name": "USPS COLLECTION BOX - PO LOBBY", "address": {"city": "PINE LEVEL", "state": "AL", "street": "685 PINE LEVEL LOOP", "postcode": "36065"}}},
{"geometry": {"type": "Point", "coordinates": [-86.05836825, 32.0679850793]}, "type": "Feature", "properties": {"collection_times": [{"days": "Mon-Fri", "time": "11:30am"}, {"days": "Sat", "time": "10:30am"}, {"days": "Sun", "time": "Closed"}], "id": "3606500001", "name": "USPS COLLECTION BOX - BLUE BOX", "address": {"city": "PINE LEVEL", "state": "AL", "street": "685 PINE LEVEL LOOP", "postcode": "36065"}}},
{"geometry": {"type": "Point", "coordinates": [-86.472805786, 32.4597563537]}, "type": "Feature", "properties": {"collection_times": [{"days": "Mon-Sat", "time": "11:00am"}, {"days": "Sun", "time": "Closed"}], "id": "3606700001", "name": "USPS COLLECTION BOX - BLUE BOX", "address": {"city": "PRATTVILLE", "state": "AL", "street": "102 W MAIN ST", "postcode": "36067"}}},
{"geometry": {"type": "Point", "coordinates": [-86.472805786, 32.4597563537]}, "type": "Feature", "properties": {"collection_times": [{"days": "Mon-Sat", "time": "11:00am"}, {"days": "Sun", "time": "Closed"}], "id": "3606700002", "name": "USPS COLLECTION BOX - BLUE BOX", "address": {"city": "PRATTVILLE", "state": "AL", "street": "102 W MAIN ST", "postcode": "36067"}}},
{"geometry": {"type": "Point", "coordinates": [-86.501787173, 32.487031916]}, "type": "Feature", "properties": {"collection_times": [{"days": "Mon-Fri", "time": "5:15pm"}, {"days": "Sat", "time": "2:00pm"}, {"days": "Sun", "time": "Closed"}], "id": "3606700003", "name": "USPS COLLECTION BOX - EXPRESS", "address": {"city": "PRATTVILLE", "state": "AL", "street": "502 GREYSTONE WAY", "postcode": "36067"}}},
{"geometry": {"type": "Point", "coordinates": [-86.4504705339, 32.4521627879]}, "type": "Feature", "properties": {"collection_times": [{"days": "Mon-Sat", "time": "10:00am"}, {"days": "Sun", "time": "Closed"}], "id": "3606700004", "name": "USPS COLLECTION BOX - BLUE BOX", "address": {"city": "PRATTVILLE", "state": "AL", "street": "101 DANYA CT", "postcode": "36067"}}},
{"geometry": {"type": "Point", "coordinates": [-86.4510030673, 32.4651566718]}, "type": "Feature", "properties": {"collection_times": [{"days": "Mon-Sat", "time": "9:00am"}, {"days": "Sun", "time": "Closed"}], "id": "3606700005", "name": "USPS COLLECTION BOX - BLUE BOX", "address": {"city": "PRATTVILLE", "state": "AL", "street": "119 N MEMORIAL DR", "postcode": "36067"}}},
{"geometry": {"type": "Point", "coordinates": [-86.435155096, 32.4451946754]}, "type": "Feature", "properties": {"collection_times": [{"days": "Mon-Sat", "time": "10:00am"}, {"days": "Sun", "time": "Closed"}], "id": "3606700007", "name": "USPS COLLECTION BOX - BLUE BOX", "address": {"city": "PRATTVILLE", "state": "AL", "street": "1347 S MEMORIAL DR", "postcode": "36067"}}},
{"geometry": {"type": "Point", "coordinates": [-86.47310347, 32.437048621]}, "type": "Feature", "properties": {"collection_times": [{"days": "Mon-Sat", "time": "10:00am"}, {"days": "Sun", "time": "Closed"}], "id": "3606700008", "name": "USPS COLLECTION BOX - BLUE BOX", "address": {"city": "PRATTVILLE", "state": "AL", "street": "104 GAWAIN DR", "postcode": "36067"}}},
{"geometry": {"type": "Point", "coordinates": [-86.4730177954, 32.4629763262]}, "type": "Feature", "properties": {"collection_times": [{"days": "Mon-Fri", "time": "3:00pm"}, {"days": "Sat", "time": "10:00am"}, {"days": "Sun", "time": "Closed"}], "id": "3606700009", "name": "USPS COLLECTION BOX - BLUE BOX", "address": {"city": "PRATTVILLE", "state": "AL", "street": "140 W 4TH ST", "postcode": "36067"}}},
{"geometry": {"type": "Point", "coordinates": [-86.4545822814, 32.4685512312]}, "type": "Feature", "properties": {"collection_times": [{"days": "Mon-Sat", "time": "9:00am"}, {"days": "Sun", "time": "Closed"}], "id": "3606700010", "name": "USPS COLLECTION BOX - BLUE BOX", "address": {"city": "PRATTVILLE", "state": "AL", "street": "699A E 6TH ST", "postcode": "36067"}}},
{"geometry": {"type": "Point", "coordinates": [-86.4202956282, 32.4795990848]}, "type": "Feature", "properties": {"collection_times": [{"days": "Mon-Sat", "time": "12:00pm"}, {"days": "Sun", "time": "Closed"}], "id": "3606700011", "name": "USPS COLLECTION BOX - BLUE BOX", "address": {"city": "PRATTVILLE", "state": "AL", "street": "1800 STATION DR", "postcode": "36067"}}},
{"geometry": {"type": "Point", "coordinates": [-86.4568282444, 32.4601825512]}, "type": "Feature", "properties": {"collection_times": [{"days": "Mon-Sat", "time": "9:00am"}, {"days": "Sun", "time": "Closed"}], "id": "3606700013", "name": "USPS COLLECTION BOX - BLUE BOX", "address": {"city": "PRATTVILLE", "state": "AL", "street": "705 E MAIN ST", "postcode": "36067"}}},
{"geometry": {"type": "Point", "coordinates": [-86.4190504995, 32.4604205817]}, "type": "Feature", "properties": {"collection_times": [{"days": "Mon-Sat", "time": "9:00am"}, {"days": "Sun", "time": "Closed"}], "id": "3606700014", "name": "USPS COLLECTION BOX - BLUE BOX", "address": {"city": "PRATTVILLE", "state": "AL", "street": "1880 E MAIN ST", "postcode": "36067"}}},
{"geometry": {"type": "Point", "coordinates": [-86.4753425845, 32.4645394653]}, "type": "Feature", "properties": {"collection_times": [{"days": "Mon-Fri", "time": "3:00pm"}, {"days": "Sat", "time": "10:00am"}, {"days": "Sun", "time": "Closed"}], "id": "3606700015", "name": "USPS COLLECTION BOX - BLUE BOX", "address": {"city": "PRATTVILLE", "state": "AL", "street": "203 N COURT ST", "postcode": "36067"}}},
{"geometry": {"type": "Point", "coordinates": [-86.425459409, 32.4629156505]}, "type": "Feature", "properties": {"collection_times": [{"days": "Mon-Fri", "time": "5:15pm"}, {"days": "Sat", "time": "2:00pm"}, {"days": "Sun", "time": "Closed"}], "id": "3606700016", "name": "USPS COLLECTION BOX - BLUE BOX", "address": {"city": "PRATTVILLE", "state": "AL", "street": "502 GREYSTONE WAY", "postcode": "36067"}}},
{"geometry": {"type": "Point", "coordinates": [-86.425459409, 32.4629156505]}, "type": "Feature", "properties": {"collection_times": [{"days": "Mon-Fri", "time": "5:15pm"}, {"days": "Sat", "time": "2:00pm"}, {"days": "Sun", "time": "Closed"}], "id": "3606700017", "name": "USPS COLLECTION BOX - BLUE BOX", "address": {"city": "PRATTVILLE", "state": "AL", "street": "502 GREYSTONE WAY", "postcode": "36067"}}},
{"geometry": {"type": "Point", "coordinates": [-86.3900303639, 32.4604729548]}, "type": "Feature", "properties": {"collection_times": [{"days": "Mon-Sat", "time": "10:00am"}, {"days": "Sun", "time": "Closed"}], "id": "3606700018", "name": "USPS COLLECTION BOX - BLUE BOX", "address": {"city": "PRATTVILLE", "state": "AL", "street": "2759 COBBS FORD RD", "postcode": "36067"}}},
{"geometry": {"type": "Point", "coordinates": [-86.4489274411, 32.4604226621]}, "type": "Feature", "properties": {"collection_times": [{"days": "Mon-Fri", "time": "3:00pm"}, {"days": "Sat", "time": "9:00am"}, {"days": "Sun", "time": "Closed"}], "id": "3606700019", "name": "USPS COLLECTION BOX - BLUE BOX", "address": {"city": "PRATTVILLE", "state": "AL", "street": "959 E MAIN ST", "postcode": "36067"}}},
{"geometry": {"type": "Point", "coordinates": [-86.4177067825, 32.4605789703]}, "type": "Feature", "properties": {"collection_times": [{"days": "Mon-Sat", "time": "10:00am"}, {"days": "Sun", "time": "Closed"}], "id": "3606700020", "name": "USPS COLLECTION BOX - BLUE BOX", "address": {"city": "PRATTVILLE", "state": "AL", "street": "1903 COBBS FORD RD", "postcode": "36067"}}},
{"geometry": {"type": "Point", "coordinates": [-86.4190504995, 32.4604205817]}, "type": "Feature", "properties": {"collection_times": [{"days": "Mon-Sat", "time": "9:00am"}, {"days": "Sun", "time": "Closed"}], "id": "3606700021", "name": "USPS COLLECTION BOX - BLUE BOX", "address": {"city": "PRATTVILLE", "state": "AL", "street": "1880 E MAIN ST", "postcode": "36067"}}},
{"geometry": {"type": "Point", "coordinates": [-86.501787173, 32.487031916]}, "type": "Feature", "properties": {"collection_times": [{"days": "Mon-Sat", "time": "9:00am"}, {"days": "Sun", "time": "Closed"}], "id": "3606700022", "name": "USPS COLLECTION BOX - EXPRESS", "address": {"city": "PRATTVILLE", "state": "AL", "street": "1880 E MAIN ST", "postcode": "36067"}}},
{"geometry": {"type": "Point", "coordinates": [-86.425459409, 32.4629156505]}, "type": "Feature", "properties": {"collection_times": [{"days": "Mon-Fri", "time": "5:15pm"}, {"days": "Sat", "time": "2:00pm"}, {"days": "Sun", "time": "Closed"}], "id": "3606700023", "name": "USPS COLLECTION BOX - PO LOBBY", "address": {"city": "PRATTVILLE", "state": "AL", "street": "502 GREYSTONE WAY", "postcode": "36067"}}},
{"geometry": {"type": "Point", "coordinates": [-86.4202956282, 32.4795990848]}, "type": "Feature", "properties": {"collection_times": [{"days": "Mon-Sat", "time": "12:00pm"}, {"days": "Sun", "time": "Closed"}], "id": "3606700024", "name": "USPS COLLECTION BOX - BLUE BOX", "address": {"city": "PRATTVILLE", "state": "AL", "street": "1800 STATION DR", "postcode": "36067"}}},
{"geometry": {"type": "Point", "coordinates": [-86.425459409, 32.4629156505]}, "type": "Feature", "properties": {"collection_times": [{"days": "Mon-Fri", "time": "5:15pm"}, {"days": "Sat", "time": "2:00pm"}, {"days": "Sun", "time": "Closed"}], "id": "3606700025", "name": "USPS COLLECTION BOX - APC", "address": {"city": "PRATTVILLE", "state": "AL", "street": "502 GREYSTONE WAY", "postcode": "36067"}}},
{"geometry": {"type": "Point", "coordinates": [-86.414996159, 32.4612389949]}, "type": "Feature", "properties": {"collection_times": [{"days": "Mon-Sat", "time": "10:00am"}, {"days": "Sun", "time": "Closed"}], "id": "3606700026", "name": "USPS COLLECTION BOX - BLUE BOX", "address": {"city": "PRATTVILLE", "state": "AL", "street": "2103 VICTORIA PL", "postcode": "36067"}}},
{"geometry": {"type": "Point", "coordinates": [-86.219818802, 32.0501045677]}, "type": "Feature", "properties": {"collection_times": [{"days": "Mon-Fri", "time": "3:15pm"}, {"days": "Sat", "time": "9:45am"}, {"days": "Sun", "time": "Closed"}], "id": "3606900001", "name": "USPS COLLECTION BOX - PO LOBBY", "address": {"city": "RAMER", "state": "AL", "street": "169 MAIN ST", "postcode": "36069"}}},
{"geometry": {"type": "Point", "coordinates": [-86.219818802, 32.0501045677]}, "type": "Feature", "properties": {"collection_times": [{"days": "Mon-Fri", "time": "3:15pm"}, {"days": "Sat", "time": "9:45am"}, {"days": "Sun", "time": "Closed"}], "id": "3606900002", "name": "USPS COLLECTION BOX - BLUE BOX", "address": {"city": "RAMER", "state": "AL", "street": "169 MAIN ST", "postcode": "36069"}}},
{"geometry": {"type": "Point", "coordinates": [-86.3098352392, 31.7304378457]}, "type": "Feature", "properties": {"collection_times": [{"days": "Mon-Fri", "time": "11:50am"}, {"days": "Sat", "time": "9:30am"}, {"days": "Sun", "time": "Closed"}], "id": "3607100000", "name": "USPS COLLECTION BOX - BLUE BOX", "address": {"city": "RUTLEDGE", "state": "AL", "street": "1606 LEE ST", "postcode": "36071"}}},
{"geometry": {"type": "Point", "coordinates": [-86.3098352392, 31.7304378457]}, "type": "Feature", "properties": {"collection_times": [{"days": "Mon-Fri", "time": "11:50am"}, {"days": "Sat", "time": "9:30am"}, {"days": "Sun", "time": "Closed"}], "id": "3607100001", "name": "USPS COLLECTION BOX - PO LOBBY", "address": {"city": "RUTLEDGE", "state": "AL", "street": "1606 LEE ST", "postcode": "36071"}}},
{"geometry": {"type": "Point", "coordinates": [-85.9372926055, 32.3960160368]}, "type": "Feature", "properties": {"collection_times": [{"days": "Mon-Fri", "time": "3:45pm"}, {"days": "Sat", "time": "9:00am"}, {"days": "Sun", "time": "Closed"}], "id": "3607500000", "name": "USPS COLLECTION BOX - BLUE BOX", "address": {"city": "SHORTER", "state": "AL", "street": "2557 OLD FEDERAL RD", "postcode": "36075"}}},
{"geometry": {"type": "Point", "coordinates": [-85.9372926055, 32.3960160368]}, "type": "Feature", "properties": {"collection_times": [{"days": "Mon-Fri", "time": "3:45pm"}, {"days": "Sat", "time": "9:00am"}, {"days": "Sun", "time": "Closed"}], "id": "3607500001", "name": "USPS COLLECTION BOX - PO LOBBY", "address": {"city": "SHORTER", "state": "AL", "street": "2557 OLD FEDERAL RD", "postcode": "36075"}}},
{"geometry": {"type": "Point", "coordinates": [-85.9164796868, 32.5502019869]}, "type": "Feature", "properties": {"collection_times": [{"days": "Mon-Fri", "time": "4:30pm"}, {"days": "Sat", "time": "12:00pm"}, {"days": "Sun", "time": "Closed"}], "id": "3607800000", "name": "USPS COLLECTION BOX - BLUE BOX", "address": {"city": "TALLASSEE", "state": "AL", "street": "1204 GILMER AVE", "postcode": "36078"}}},
{"geometry": {"type": "Point", "coordinates": [-85.9202690169, 32.5564911739]}, "type": "Feature", "properties": {"collection_times": [{"days": "Mon-Fri", "time": "4:30pm"}, {"days": "Sat", "time": "12:00pm"}, {"days": "Sun", "time": "Closed"}], "id": "3607800001", "name": "USPS COLLECTION BOX - EXPRESS", "address": {"city": "TALLASSEE", "state": "AL", "street": "1204 GILMER AVE", "postcode": "36078"}}},
{"geometry": {"type": "Point", "coordinates": [-85.9164796868, 32.5502019869]}, "type": "Feature", "properties": {"collection_times": [{"days": "Mon-Fri", "time": "4:30pm"}, {"days": "Sat", "time": "12:00pm"}, {"days": "Sun", "time": "Closed"}], "id": "3607800005", "name": "USPS COLLECTION BOX - PO LOBBY", "address": {"city": "TALLASSEE", "state": "AL", "street": "1204 GILMER AVE", "postcode": "36078"}}},
{"geometry": {"type": "Point", "coordinates": [-85.8834048149, 32.5339955154]}, "type": "Feature", "properties": {"collection_times": [{"days": "Mon-Sat", "time": "1:30pm"}, {"days": "Sun", "time": "Closed"}], "id": "3607800007", "name": "USPS COLLECTION BOX - BLUE BOX", "address": {"city": "TALLASSEE", "state": "AL", "street": "117 CENTRAL BLVD", "postcode": "36078"}}},
{"geometry": {"type": "Point", "coordinates": [-85.9478788113, 32.6179720458]}, "type": "Feature", "properties": {"collection_times": [{"days": "Mon-Sat", "time": "8:15am"}, {"days": "Sun", "time": "Closed"}], "id": "3607800008", "name": "USPS COLLECTION BOX - BLUE BOX", "address": {"city": "TALLASSEE", "state": "AL", "street": "3408 KENT RD", "postcode": "36078"}}},
{"geometry": {"type": "Point", "coordinates": [-85.832007356, 32.5531137286]}, "type": "Feature", "properties": {"collection_times": [{"days": "Mon-Sat", "time": "8:15am"}, {"days": "Sun", "time": "Closed"}], "id": "3607800010", "name": "USPS COLLECTION BOX - BLUE BOX", "address": {"city": "TALLASSEE", "state": "AL", "street": "4366 NOTASULGA RD", "postcode": "36078"}}},
{"geometry": {"type": "Point", "coordinates": [-86.3185787197, 32.7120824493]}, "type": "Feature", "properties": {"collection_times": [{"days": "Mon-Fri", "time": "1:30pm"}, {"days": "Sat", "time": "9:00am"}, {"days": "Sun", "time": "Closed"}], "id": "3608000000", "name": "USPS COLLECTION BOX - BLUE BOX", "address": {"city": "TITUS", "state": "AL", "street": "5999 TITUS RD", "postcode": "36080"}}},
{"geometry": {"type": "Point", "coordinates": [-86.3185787197, 32.7120824493]}, "type": "Feature", "properties": {"collection_times": [{"days": "Mon-Fri", "time": "1:30pm"}, {"days": "Sat", "time": "9:00am"}, {"days": "Sun", "time": "Closed"}], "id": "3608000001", "name": "USPS COLLECTION BOX - PO LOBBY", "address": {"city": "TITUS", "state": "AL", "street": "5999 TITUS RD", "postcode": "36080"}}},
{"geometry": {"type": "Point", "coordinates": [-86.2841762626, 32.6912906246]}, "type": "Feature", "properties": {"collection_times": [{"days": "Mon-Sat", "time": "10:00am"}, {"days": "Sun", "time": "Closed"}], "id": "3608000003", "name": "USPS COLLECTION BOX - BLUE BOX", "address": {"city": "TITUS", "state": "AL", "street": "44 TITUS RD", "postcode": "36080"}}},
{"geometry": {"type": "Point", "coordinates": [-85.9645123951, 31.7889806301]}, "type": "Feature", "properties": {"collection_times": [{"days": "Mon-Fri", "time": "5:15pm"}, {"days": "Sat", "time": "4:00pm"}, {"days": "Sun", "time": "Closed"}], "id": "3608100000", "name": "USPS COLLECTION BOX - BLUE BOX", "address": {"city": "TROY", "state": "AL", "street": "1300 S BRUNDIDGE ST", "postcode": "36081"}}},
{"geometry": {"type": "Point", "coordinates": [-85.9645123951, 31.7889806301]}, "type": "Feature", "properties": {"collection_times": [{"days": "Mon-Fri", "time": "5:15pm"}, {"days": "Sat", "time": "4:00pm"}, {"days": "Sun", "time": "Closed"}], "id": "3608100001", "name": "USPS COLLECTION BOX - BLUE BOX", "address": {"city": "TROY", "state": "AL", "street": "1300 S BRUNDIDGE ST", "postcode": "36081"}}},
{"geometry": {"type": "Point", "coordinates": [-85.9645123951, 31.7889806301]}, "type": "Feature", "properties": {"collection_times": [{"days": "Mon-Fri", "time": "5:15pm"}, {"days": "Sat", "time": "4:00pm"}, {"days": "Sun", "time": "Closed"}], "id": "3608100002", "name": "USPS COLLECTION BOX - BLUE BOX", "address": {"city": "TROY", "state": "AL", "street": "1300 S BRUNDIDGE ST", "postcode": "36081"}}},
{"geometry": {"type": "Point", "coordinates": [-85.9645123951, 31.7889806301]}, "type": "Feature", "properties": {"collection_times": [{"days": "Mon-Fri", "time": "5:15pm"}, {"days": "Sat", "time": "4:00pm"}, {"days": "Sun", "time": "Closed"}], "id": "3608100003", "name": "USPS COLLECTION BOX - BLUE BOX", "address": {"city": "TROY", "state": "AL", "street": "1300 S BRUNDIDGE ST", "postcode": "36081"}}},
{"geometry": {"type": "Point", "coordinates": [-85.9645123951, 31.7889806301]}, "type": "Feature", "properties": {"collection_times": [{"days": "Mon-Fri", "time": "5:15pm"}, {"days": "Sat", "time": "4:00pm"}, {"days": "Sun", "time": "Closed"}], "id": "3608100019", "name": "USPS COLLECTION BOX - PO LOBBY", "address": {"city": "TROY", "state": "AL", "street": "1300 S BRUNDIDGE ST", "postcode": "36081"}}},
{"geometry": {"type": "Point", "coordinates": [-85.972289801, 31.8080259067]}, "type": "Feature", "properties": {"collection_times": [{"days": "Mon-Fri", "time": "3:00pm"}, {"days": "Sat", "time": "10:00am"}, {"days": "Sun", "time": "Closed"}], "id": "3608100020", "name": "USPS COLLECTION BOX - BLUE BOX", "address": {"city": "TROY", "state": "AL", "street": "101 S 3 NOTCH ST", "postcode": "36081"}}},
{"geometry": {"type": "Point", "coordinates": [-85.6912058565, 32.4244736709]}, "type": "Feature", "properties": {"collection_times": [{"days": "Mon-Sat", "time": "12:00pm"}, {"days": "Sun", "time": "Closed"}], "id": "3608300006", "name": "USPS COLLECTION BOX - BLUE BOX", "address": {"city": "TUSKEGEE", "state": "AL", "street": "101 E ROSA PARKS AVE", "postcode": "36083"}}},
{"geometry": {"type": "Point", "coordinates": [-85.693705742, 32.4254686881]}, "type": "Feature", "properties": {"collection_times": [{"days": "Mon-Fri", "time": "4:30pm"}, {"days": "Sat", "time": "3:00pm"}, {"days": "Sun", "time": "Closed"}], "id": "3608300018", "name": "USPS COLLECTION BOX - PO LOBBY", "address": {"city": "TUSKEGEE", "state": "AL", "street": "401 N ELM ST", "postcode": "36083"}}},
{"geometry": {"type": "Point", "coordinates": [-85.693705742, 32.4254686881]}, "type": "Feature", "properties": {"collection_times": [{"days": "Mon-Fri", "time": "4:30pm"}, {"days": "Sat", "time": "3:00pm"}, {"days": "Sun", "time": "Closed"}], "id": "3608300019", "name": "USPS COLLECTION BOX - BLUE BOX", "address": {"city": "TUSKEGEE", "state": "AL", "street": "401 N ELM ST", "postcode": "36083"}}},
{"geometry": {"type": "Point", "coordinates": [-85.6917782127, 32.3826518489]}, "type": "Feature", "properties": {"collection_times": [{"days": "Mon-Fri", "time": "4:30pm"}, {"days": "Sat", "time": "3:00pm"}, {"days": "Sun", "time": "Closed"}], "id": "3608300021", "name": "USPS COLLECTION BOX - EXPRESS", "address": {"city": "TUSKEGEE", "state": "AL", "street": "401 N ELM ST", "postcode": "36083"}}},
{"geometry": {"type": "Point", "coordinates": [-85.693705742, 32.4254686881]}, "type": "Feature", "properties": {"collection_times": [{"days": "Mon-Fri", "time": "4:30pm"}, {"days": "Sat", "time": "3:00pm"}, {"days": "Sun", "time": "Closed"}], "id": "3608300022", "name": "USPS COLLECTION BOX - BLUE BOX", "address": {"city": "TUSKEGEE", "state": "AL", "street": "401 N ELM ST", "postcode": "36083"}}},
{"geometry": {"type": "Point", "coordinates": [-85.693705742, 32.4254686881]}, "type": "Feature", "properties": {"collection_times": [{"days": "Mon-Fri", "time": "4:30pm"}, {"days": "Sat", "time": "3:00pm"}, {"days": "Sun", "time": "Closed"}], "id": "3608300023", "name": "USPS COLLECTION BOX - PO LOBBY", "address": {"city": "TUSKEGEE", "state": "AL", "street": "401 N ELM ST", "postcode": "36083"}}},
{"geometry": {"type": "Point", "coordinates": [-85.7106339597, 32.4273726482]}, "type": "Feature", "properties": {"collection_times": [{"days": "Mon-Fri", "time": "4:30pm"}, {"days": "Sat-Sun", "time": "Closed"}], "id": "3608700001", "name": "USPS COLLECTION BOX - PO LOBBY", "address": {"city": "TUSKEGEE INST", "state": "AL", "street": "1702 W MONTGOMERY RD", "postcode": "36087"}}},
{"geometry": {"type": "Point", "coordinates": [-85.7106339597, 32.4273726482]}, "type": "Feature", "properties": {"collection_times": [{"days": "Mon-Fri", "time": "4:30pm"}, {"days": "Sat-Sun", "time": "Closed"}], "id": "3608700002", "name": "USPS COLLECTION BOX - BLUE BOX", "address": {"city": "TUSKEGEE INST", "state": "AL", "street": "1702 W MONTGOMERY RD", "postcode": "36087"}}},
{"geometry": {"type": "Point", "coordinates": [-85.7156468461, 32.1448385569]}, "type": "Feature", "properties": {"collection_times": [{"days": "Mon-Sat", "time": "12:00pm"}, {"days": "Sun", "time": "Closed"}], "id": "3608900000", "name": "USPS COLLECTION BOX - BLUE BOX", "address": {"city": "UNION SPRINGS", "state": "AL", "street": "108 HARDAWAY AVE E", "postcode": "36089"}}},
{"geometry": {"type": "Point", "coordinates": [-85.7156468461, 32.1448385569]}, "type": "Feature", "properties": {"collection_times": [{"days": "Mon-Sat", "time": "12:00pm"}, {"days": "Sun", "time": "Closed"}], "id": "3608900001", "name": "USPS COLLECTION BOX - BLUE BOX", "address": {"city": "UNION SPRINGS", "state": "AL", "street": "108 HARDAWAY AVE E", "postcode": "36089"}}},
{"geometry": {"type": "Point", "coordinates": [-85.70150668, 32.1412607233]}, "type": "Feature", "properties": {"collection_times": [{"days": "Mon-Sat", "time": "12:00pm"}, {"days": "Sun", "time": "Closed"}], "id": "3608900002", "name": "USPS COLLECTION BOX - EXPRESS", "address": {"city": "UNION SPRINGS", "state": "AL", "street": "108 HARDAWAY AVE E", "postcode": "36089"}}},
{"geometry": {"type": "Point", "coordinates": [-85.7160611575, 32.141863994]}, "type": "Feature", "properties": {"collection_times": [{"days": "Mon-Sat", "time": "10:30am"}, {"days": "Sun", "time": "Closed"}], "id": "3608900003", "name": "USPS COLLECTION BOX - BLUE BOX", "address": {"city": "UNION SPRINGS", "state": "AL", "street": "217 PRAIRIE ST N", "postcode": "36089"}}},
{"geometry": {"type": "Point", "coordinates": [-85.7161902677, 32.1411690335]}, "type": "Feature", "properties": {"collection_times": [{"days": "Mon-Sat", "time": "10:30am"}, {"days": "Sun", "time": "Closed"}], "id": "3608900004", "name": "USPS COLLECTION BOX - BLUE BOX", "address": {"city": "UNION SPRINGS", "state": "AL", "street": "132 PRAIRIE ST N", "postcode": "36089"}}},
{"geometry": {"type": "Point", "coordinates": [-85.7160611575, 32.141863994]}, "type": "Feature", "properties": {"collection_times": [{"days": "Mon-Sat", "time": "10:30am"}, {"days": "Sun", "time": "Closed"}], "id": "3608900005", "name": "USPS COLLECTION BOX - BLUE BOX", "address": {"city": "UNION SPRINGS", "state": "AL", "street": "217 N PRAIRIE ST", "postcode": "36089"}}},
{"geometry": {"type": "Point", "coordinates": [-85.7146658025, 32.1461042011]}, "type": "Feature", "properties": {"collection_times": [{"days": "Mon-Sat", "time": "10:30am"}, {"days": "Sun", "time": "Closed"}], "id": "3608900006", "name": "USPS COLLECTION BOX - BLUE BOX", "address": {"city": "UNION SPRINGS", "state": "AL", "street": "205 CONECUH AVE E", "postcode": "36089"}}},
{"geometry": {"type": "Point", "coordinates": [-85.7156468461, 32.1448385569]}, "type": "Feature", "properties": {"collection_times": [{"days": "Mon-Sat", "time": "12:00pm"}, {"days": "Sun", "time": "Closed"}], "id": "3608900007", "name": "USPS COLLECTION BOX - PO LOBBY", "address": {"city": "UNION SPRINGS", "state": "AL", "street": "108 HARDAWAY AVE E", "postcode": "36089"}}},
{"geometry": {"type": "Point", "coordinates": [-86.5050370277, 32.7508374193]}, "type": "Feature", "properties": {"collection_times": [{"days": "Mon-Fri", "time": "3:30pm"}, {"days": "Sat", "time": "10:30am"}, {"days": "Sun", "time": "Closed"}], "id": "3609100000", "name": "USPS COLLECTION BOX - BLUE BOX", "address": {"city": "VERBENA", "state": "AL", "street": "3919 US HIGHWAY 31", "postcode": "36091"}}},
{"geometry": {"type": "Point", "coordinates": [-86.5050370277, 32.7508374193]}, "type": "Feature", "properties": {"collection_times": [{"days": "Mon-Fri", "time": "3:30pm"}, {"days": "Sat", "time": "10:30am"}, {"days": "Sun", "time": "Closed"}], "id": "3609100001", "name": "USPS COLLECTION BOX - PO LOBBY", "address": {"city": "VERBENA", "state": "AL", "street": "3919 US HIGHWAY 31", "postcode": "36091"}}},
{"geometry": {"type": "Point", "coordinates": [-86.2061401704, 32.5335053282]}, "type": "Feature", "properties": {"collection_times": [{"days": "Mon-Fri", "time": "2:00pm"}, {"days": "Sat", "time": "1:00pm"}, {"days": "Sun", "time": "Closed"}], "id": "3609200000", "name": "USPS COLLECTION BOX - BLUE BOX", "address": {"city": "WETUMPKA", "state": "AL", "street": "206 E MAIN ST", "postcode": "36092"}}},
{"geometry": {"type": "Point", "coordinates": [-86.2102873118, 32.5126488868]}, "type": "Feature", "properties": {"collection_times": [{"days": "Mon-Fri", "time": "4:15pm"}, {"days": "Sat", "time": "11:00am"}, {"days": "Sun", "time": "Closed"}], "id": "3609200013", "name": "USPS COLLECTION BOX - PO LOBBY", "address": {"city": "WETUMPKA", "state": "AL", "street": "216 W FORT TOULOUSE RD", "postcode": "36092"}}},
{"geometry": {"type": "Point", "coordinates": [-86.2102873118, 32.5126488868]}, "type": "Feature", "properties": {"collection_times": [{"days": "Mon-Fri", "time": "4:15pm"}, {"days": "Sat", "time": "11:00am"}, {"days": "Sun", "time": "Closed"}], "id": "3609200014", "name": "USPS COLLECTION BOX - PO LOBBY", "address": {"city": "WETUMPKA", "state": "AL", "street": "216 W FORT TOULOUSE RD", "postcode": "36092"}}},
{"geometry": {"type": "Point", "coordinates": [-86.2102873118, 32.5126488868]}, "type": "Feature", "properties": {"collection_times": [{"days": "Mon-Fri", "time": "4:15pm"}, {"days": "Sat", "time": "11:00am"}, {"days": "Sun", "time": "Closed"}], "id": "3609200015", "name": "USPS COLLECTION BOX - PO LOBBY", "address": {"city": "WETUMPKA", "state": "AL", "street": "216 W FORT TOULOUSE RD", "postcode": "36092"}}},
{"geometry": {"type": "Point", "coordinates": [-86.2102873118, 32.5126488868]}, "type": "Feature", "properties": {"collection_times": [{"days": "Mon-Fri", "time": "4:15pm"}, {"days": "Sat", "time": "11:00am"}, {"days": "Sun", "time": "Closed"}], "id": "3609200016", "name": "USPS COLLECTION BOX - PO LOBBY", "address": {"city": "WETUMPKA", "state": "AL", "street": "216 W FORT TOULOUSE RD", "postcode": "36092"}}},
{"geometry": {"type": "Point", "coordinates": [-86.216614193, 32.5125657179]}, "type": "Feature", "properties": {"collection_times": [{"days": "Mon-Fri", "time": "4:15pm"}, {"days": "Sat", "time": "11:00am"}, {"days": "Sun", "time": "Closed"}], "id": "3609300000", "name": "USPS COLLECTION BOX - BLUE BOX", "address": {"city": "WETUMPKA", "state": "AL", "street": "216 W FORT TOULOUSE RD", "postcode": "36093"}}},
{"geometry": {"type": "Point", "coordinates": [-86.216614193, 32.5125657179]}, "type": "Feature", "properties": {"collection_times": [{"days": "Mon-Fri", "time": "4:15pm"}, {"days": "Sat", "time": "11:00am"}, {"days": "Sun", "time": "Closed"}], "id": "3609300002", "name": "USPS COLLECTION BOX - BLUE BOX", "address": {"city": "WETUMPKA", "state": "AL", "street": "216 W FORT TOULOUSE RD", "postcode": "36093"}}},
{"geometry": {"type": "Point", "coordinates": [-86.216614193, 32.5125657179]}, "type": "Feature", "properties": {"collection_times": [{"days": "Mon-Fri", "time": "4:15pm"}, {"days": "Sat", "time": "11:00am"}, {"days": "Sun", "time": "Closed"}], "id": "3609300006", "name": "USPS COLLECTION BOX - BLUE BOX", "address": {"city": "WETUMPKA", "state": "AL", "street": "216 W FORT TOULOUSE RD", "postcode": "36093"}}}
]}
