{"type": "FeatureCollection", "features": [
{"geometry": {"type": "Point", "coordinates": [-86.3118325648, 32.3746615485]}, "type": "Feature", "properties": {"collection_times": [{"days": "Mon-Fri", "time": "5:00pm"}, {"days": "Sat", "time": "10:00am"}, {"days": "Sun", "time": "Closed"}], "id": "3610400000", "name": "USPS COLLECTION BOX - BLUE BOX", "address": {"city": "MONTGOMERY", "state": "AL", "street": "135 CATOMA ST", "postcode": "36104"}}},
{"geometry": {"type": "Point", "coordinates": [-86.3118325648, 32.3746615485]}, "type": "Feature", "properties": {"collection_times": [{"days": "Mon-Fri", "time": "5:00pm"}, {"days": "Sat", "time": "10:00am"}, {"days": "Sun", "time": "Closed"}], "id": "3610400001", "name": "USPS COLLECTION BOX - BLUE BOX", "address": {"city": "MONTGOMERY", "state": "AL", "street": "135 CATOMA ST", "postcode": "36104"}}},
{"geometry": {"type": "Point", "coordinates": [-86.3118325648, 32.3746615485]}, "type": "Feature", "properties": {"collection_times": [{"days": "Mon-Fri", "time": "5:00pm"}, {"days": "Sat", "time": "10:00am"}, {"days": "Sun", "time": "Closed"}], "id": "3610400002", "name": "USPS COLLECTION BOX - BLUE BOX", "address": {"city": "MONTGOMERY", "state": "AL", "street": "135 CATOMA ST", "postcode": "36104"}}},
{"geometry": {"type": "Point", "coordinates": [-86.3118325648, 32.3746615485]}, "type": "Feature", "properties": {"collection_times": [{"days": "Mon-Fri", "time": "5:00pm"}, {"days": "Sat", "time": "10:00am"}, {"days": "Sun", "time": "Closed"}], "id": "3610400006", "name": "USPS COLLECTION BOX - BLUE BOX", "address": {"city": "MONTGOMERY", "state": "AL", "street": "135 CATOMA ST", "postcode": "36104"}}},
{"geometry": {"type": "Point", "coordinates": [-86.3118325648, 32.3746615485]}, "type": "Feature", "properties": {"collection_times": [{"days": "Mon-Fri", "time": "5:00pm"}, {"days": "Sat", "time": "10:00am"}, {"days": "Sun", "time": "Closed"}], "id": "3610400007", "name": "USPS COLLECTION BOX - BLUE BOX", "address": {"city": "MONTGOMERY", "state": "AL", "street": "135 CATOMA ST", "postcode": "36104"}}},
{"geometry": {"type": "Point", "coordinates": [-86.3118325648, 32.3746615485]}, "type": "Feature", "properties": {"collection_times": [{"days": "Mon-Fri", "time": "5:00pm"}, {"days": "Sat", "time": "10:00am"}, {"days": "Sun", "time": "Closed"}], "id": "3610400008", "name": "USPS COLLECTION BOX - BLUE BOX", "address": {"city": "MONTGOMERY", "state": "AL", "street": "135 CATOMA ST", "postcode": "36104"}}},
{"geometry": {"type": "Point", "coordinates": [-86.3063159288, 32.3786495783]}, "type": "Feature", "properties": {"collection_times": [{"days": "Mon-Fri", "time": "4:45pm"}, {"days": "Sat-Sun", "time": "Closed"}], "id": "3610400012", "name": "USPS COLLECTION BOX - BLUE BOX", "address": {"city": "MONTGOMERY", "state": "AL", "street": "201 MONROE ST", "postcode": "36104"}}},
{"geometry": {"type": "Point", "coordinates": [-86.3002114602, 32.3753352966]}, "type": "Feature", "properties": {"collection_times": [{"days": "Mon-Fri", "time": "3:00pm"}, {"days": "Sat-Sun", "time": "Closed"}], "id": "3610400013", "name": "USPS COLLECTION BOX - BLUE BOX", "address": {"city": "MONTGOMERY", "state": "AL", "street": "660 ADAMS AVE", "postcode": "36104"}}},
{"geometry": {"type": "Point", "coordinates": [-86.3019396689, 32.3752740362]}, "type": "Feature", "properties": {"collection_times": [{"days": "Mon-Fri", "time": "3:00pm"}, {"days": "Sat-Sun", "time": "Closed"}], "id": "3610400014", "name": "USPS COLLECTION BOX - BLUE BOX", "address": {"city": "MONTGOMERY", "state": "AL", "street": "534 ADAMS AVE", "postcode": "36104"}}},
{"geometry": {"type": "Point", "coordinates": [-86.3037070311, 32.3752235136]}, "type": "Feature", "properties": {"collection_times": [{"days": "Mon-Fri", "time": "3:00pm"}, {"days": "Sat-Sun", "time": "Closed"}], "id": "3610400019", "name": "USPS COLLECTION BOX - BLUE BOX", "address": {"city": "MONTGOMERY", "state": "AL", "street": "200 HULL ST", "postcode": "36104"}}},
{"geometry": {"type": "Point", "coordinates": [-86.3061553179, 32.3751092402]}, "type": "Feature", "properties": {"collection_times": [{"days": "Mon-Fri", "time": "10:00am"}, {"days": "Sat-Sun", "time": "Closed"}], "id": "3610400021", "name": "USPS COLLECTION BOX - BLUE BOX", "address": {"city": "MONTGOMERY", "state": "AL", "street": "200 S LAWRENCE ST", "postcode": "36104"}}},
{"geometry": {"type": "Point", "coordinates": [-86.3092695594, 32.3797272988]}, "type": "Feature", "properties": {"collection_times": [{"days": "Mon-Fri", "time": "10:00am"}, {"days": "Sat-Sun", "time": "Closed"}], "id": "3610400039", "name": "USPS COLLECTION BOX - BLUE BOX", "address": {"city": "MONTGOMERY", "state": "AL", "street": "22 BIBB ST", "postcode": "36104"}}},
{"geometry": {"type": "Point", "coordinates": [-86.3090400871, 32.3772364182]}, "type": "Feature", "properties": {"collection_times": [{"days": "Mon-Fri", "time": "2:15pm"}, {"days": "Sat-Sun", "time": "Closed"}], "id": "3610400052", "name": "USPS COLLECTION BOX - BLUE BOX", "address": {"city": "MONTGOMERY", "state": "AL", "street": "2 DEXTER AVE", "postcode": "36104"}}},
{"geometry": {"type": "Point", "coordinates": [-86.3090400871, 32.3772364182]}, "type": "Feature", "properties": {"collection_times": [{"days": "Mon-Fri", "time": "2:15pm"}, {"days": "Sat-Sun", "time": "Closed"}], "id": "3610400053", "name": "USPS COLLECTION BOX - BLUE BOX", "address": {"city": "MONTGOMERY", "state": "AL", "street": "2 DEXTER AVE", "postcode": "36104"}}},
{"geometry": {"type": "Point", "coordinates": [-86.3087419084, 32.3646076472]}, "type": "Feature", "properties": {"collection_times": [{"days": "Mon-Fri", "time": "2:30pm"}, {"days": "Sat-Sun", "time": "Closed"}], "id": "3610400054", "name": "USPS COLLECTION BOX - BLUE BOX", "address": {"city": "MONTGOMERY", "state": "AL", "street": "880 S COURT ST", "postcode": "36104"}}},
{"geometry": {"type": "Point", "coordinates": [-86.3024632781, 32.3776996311]}, "type": "Feature", "properties": {"collection_times": [{"days": "Mon-Fri", "time": "2:30pm"}, {"days": "Sat-Sun", "time": "Closed"}], "id": "3610400058", "name": "USPS COLLECTION BOX - BLUE BOX", "address": {"city": "MONTGOMERY", "state": "AL", "street": "501 DEXTER AVE", "postcode": "36104"}}},
{"geometry": {"type": "Point", "coordinates": [-86.3023878291, 32.376392499]}, "type": "Feature", "properties": {"collection_times": [{"days": "Mon-Fri", "time": "3:00pm"}, {"days": "Sat-Sun", "time": "Closed"}], "id": "3610400060", "name": "USPS COLLECTION BOX - BLUE BOX", "address": {"city": "MONTGOMERY", "state": "AL", "street": "502 WASHINGTON AVE", "postcode": "36104"}}},
{"geometry": {"type": "Point", "coordinates": [-86.3022518795, 32.3741730988]}, "type": "Feature", "properties": {"collection_times": [{"days": "Mon-Fri", "time": "1:30pm"}, {"days": "Sat-Sun", "time": "Closed"}], "id": "3610400062", "name": "USPS COLLECTION BOX - BLUE BOX", "address": {"city": "MONTGOMERY", "state": "AL", "street": "307 S DECATUR ST", "postcode": "36104"}}},
{"geometry": {"type": "Point", "coordinates": [-86.3022518795, 32.3741730988]}, "type": "Feature", "properties": {"collection_times": [{"days": "Mon-Fri", "time": "1:30pm"}, {"days": "Sat-Sun", "time": "Closed"}], "id": "3610400063", "name": "USPS COLLECTION BOX - BLUE BOX", "address": {"city": "MONTGOMERY", "state": "AL", "street": "307 S DECATUR ST", "postcode": "36104"}}},
{"geometry": {"type": "Point", "coordinates": [-86.3035914954, 32.3776572981]}, "type": "Feature", "properties": {"collection_times": [{"days": "Mon-Fri", "time": "2:30pm"}, {"days": "Sat-Sun", "time": "Closed"}], "id": "3610400064", "name": "USPS COLLECTION BOX - BLUE BOX", "address": {"city": "MONTGOMERY", "state": "AL", "street": "415 DEXTER AVE", "postcode": "36104"}}},
{"geometry": {"type": "Point", "coordinates": [-86.3035914954, 32.3776572981]}, "type": "Feature", "properties": {"collection_times": [{"days": "Mon-Fri", "time": "2:30pm"}, {"days": "Sat-Sun", "time": "Closed"}], "id": "3610400065", "name": "USPS COLLECTION BOX - BLUE BOX", "address": {"city": "MONTGOMERY", "state": "AL", "street": "415 DEXTER AVE", "postcode": "36104"}}},
{"geometry": {"type": "Point", "coordinates": [-86.3062363486, 32.3773353659]}, "type": "Feature", "properties": {"collection_times": [{"days": "Mon-Fri", "time": "2:30pm"}, {"days": "Sat-Sun", "time": "Closed"}], "id": "3610400066", "name": "USPS COLLECTION BOX - BLUE BOX", "address": {"city": "MONTGOMERY", "state": "AL", "street": "200 DEXTER AVE", "postcode": "36104"}}},
{"geometry": {"type": "Point", "coordinates": [-86.3095449372, 32.37773752]}, "type": "Feature", "properties": {"collection_times": [{"days": "Mon-Fri", "time": "4:00pm"}, {"days": "Sat-Sun", "time": "Closed"}], "id": "3610400072", "name": "USPS COLLECTION BOX - BLUE BOX", "address": {"city": "MONTGOMERY", "state": "AL", "street": "8 COMMERCE ST", "postcode": "36104"}}},
{"geometry": {"type": "Point", "coordinates": [-86.3047270462, 32.3700645596]}, "type": "Feature", "properties": {"collection_times": [{"days": "Mon-Fri", "time": "2:45pm"}, {"days": "Sat-Sun", "time": "Closed"}], "id": "3610400078", "name": "USPS COLLECTION BOX - BLUE BOX", "address": {"city": "MONTGOMERY", "state": "AL", "street": "600 S MCDONOUGH ST", "postcode": "36104"}}},
{"geometry": {"type": "Point", "coordinates": [-86.3047270462, 32.3700645596]}, "type": "Feature", "properties": {"collection_times": [{"days": "Mon-Fri", "time": "2:45pm"}, {"days": "Sat-Sun", "time": "Closed"}], "id": "3610400079", "name": "USPS COLLECTION BOX - BLUE BOX", "address": {"city": "MONTGOMERY", "state": "AL", "street": "600 S MCDONOUGH ST", "postcode": "36104"}}},
{"geometry": {"type": "Point", "coordinates": [-86.3070772088, 32.3699048876]}, "type": "Feature", "properties": {"collection_times": [{"days": "Mon-Fri", "time": "2:45pm"}, {"days": "Sat-Sun", "time": "Closed"}], "id": "3610400080", "name": "USPS COLLECTION BOX - BLUE BOX", "address": {"city": "MONTGOMERY", "state": "AL", "street": "605 S PERRY ST", "postcode": "36104"}}},
{"geometry": {"type": "Point", "coordinates": [-86.3190631009, 32.3755559752]}, "type": "Feature", "properties": {"collection_times": [{"days": "Mon-Fri", "time": "3:30pm"}, {"days": "Sat-Sun", "time": "Closed"}], "id": "3610400086", "name": "USPS COLLECTION BOX - BLUE BOX", "address": {"city": "MONTGOMERY", "state": "AL", "street": "225 HANRICK ST", "postcode": "36104"}}},
{"geometry": {"type": "Point", "coordinates": [-86.3190631009, 32.3755559752]}, "type": "Feature", "properties": {"collection_times": [{"days": "Mon-Fri", "time": "3:30pm"}, {"days": "Sat-Sun", "time": "Closed"}], "id": "3610400087", "name": "USPS COLLECTION BOX - BLUE BOX", "address": {"city": "MONTGOMERY", "state": "AL", "street": "225 HANRICK ST", "postcode": "36104"}}},
{"geometry": {"type": "Point", "coordinates": [-86.296537734, 32.3782874735]}, "type": "Feature", "properties": {"collection_times": [{"days": "Mon-Fri", "time": "2:15pm"}, {"days": "Sat-Sun", "time": "Closed"}], "id": "3610400094", "name": "USPS COLLECTION BOX - BLUE BOX", "address": {"city": "MONTGOMERY", "state": "AL", "street": "120 N JACKSON ST", "postcode": "36104"}}},
{"geometry": {"type": "Point", "coordinates": [-86.296537734, 32.3782874735]}, "type": "Feature", "properties": {"collection_times": [{"days": "Mon-Fri", "time": "2:15pm"}, {"days": "Sat-Sun", "time": "Closed"}], "id": "3610400095", "name": "USPS COLLECTION BOX - BLUE BOX", "address": {"city": "MONTGOMERY", "state": "AL", "street": "120 N JACKSON ST", "postcode": "36104"}}},
{"geometry": {"type": "Point", "coordinates": [-86.3058412339, 32.3663470116]}, "type": "Feature", "properties": {"collection_times": [{"days": "Mon-Fri", "time": "2:45pm"}, {"days": "Sat-Sun", "time": "Closed"}], "id": "3610400096", "name": "USPS COLLECTION BOX - BLUE BOX", "address": {"city": "MONTGOMERY", "state": "AL", "street": "808 S LAWRENCE ST", "postcode": "36104"}}},
{"geometry": {"type": "Point", "coordinates": [-86.3058412339, 32.3663470116]}, "type": "Feature", "properties": {"collection_times": [{"days": "Mon-Fri", "time": "2:45pm"}, {"days": "Sat-Sun", "time": "Closed"}], "id": "3610400097", "name": "USPS COLLECTION BOX - BLUE BOX", "address": {"city": "MONTGOMERY", "state": "AL", "street": "808 S LAWRENCE ST", "postcode": "36104"}}},
{"geometry": {"type": "Point", "coordinates": [-86.3046048782, 32.3666877201]}, "type": "Feature", "properties": {"collection_times": [{"days": "Mon-Fri", "time": "2:45pm"}, {"days": "Sat-Sun", "time": "Closed"}], "id": "3610400098", "name": "USPS COLLECTION BOX - BLUE BOX", "address": {"city": "MONTGOMERY", "state": "AL", "street": "770 S MCDONOUGH ST", "postcode": "36104"}}},
{"geometry": {"type": "Point", "coordinates": [-86.3046048782, 32.3666877201]}, "type": "Feature", "properties": {"collection_times": [{"days": "Mon-Fri", "time": "2:45pm"}, {"days": "Sat-Sun", "time": "Closed"}], "id": "3610400099", "name": "USPS COLLECTION BOX - BLUE BOX", "address": {"city": "MONTGOMERY", "state": "AL", "street": "770 S MCDONOUGH ST", "postcode": "36104"}}},
{"geometry": {"type": "Point", "coordinates": [-86.3069206847, 32.3652275815]}, "type": "Feature", "properties": {"collection_times": [{"days": "Mon-Fri", "time": "2:30pm"}, {"days": "Sat-Sun", "time": "Closed"}], "id": "3610400101", "name": "USPS COLLECTION BOX - BLUE BOX", "address": {"city": "MONTGOMERY", "state": "AL", "street": "847 S PERRY ST", "postcode": "36104"}}},
{"geometry": {"type": "Point", "coordinates": [-86.3069206847, 32.3652275815]}, "type": "Feature", "properties": {"collection_times": [{"days": "Mon-Fri", "time": "2:30pm"}, {"days": "Sat-Sun", "time": "Closed"}], "id": "3610400102", "name": "USPS COLLECTION BOX - BLUE BOX", "address": {"city": "MONTGOMERY", "state": "AL", "street": "847 S PERRY ST", "postcode": "36104"}}},
{"geometry": {"type": "Point", "coordinates": [-86.3006505648, 32.3788972249]}, "type": "Feature", "properties": {"collection_times": [{"days": "Mon-Fri", "time": "2:15pm"}, {"days": "Sat-Sun", "time": "Closed"}], "id": "3610400110", "name": "USPS COLLECTION BOX - BLUE BOX", "address": {"city": "MONTGOMERY", "state": "AL", "street": "649 MONROE ST", "postcode": "36104"}}},
{"geometry": {"type": "Point", "coordinates": [-86.3006505648, 32.3788972249]}, "type": "Feature", "properties": {"collection_times": [{"days": "Mon-Fri", "time": "2:15pm"}, {"days": "Sat-Sun", "time": "Closed"}], "id": "3610400111", "name": "USPS COLLECTION BOX - BLUE BOX", "address": {"city": "MONTGOMERY", "state": "AL", "street": "649 MONROE ST", "postcode": "36104"}}},
{"geometry": {"type": "Point", "coordinates": [-86.3063159288, 32.3786495783]}, "type": "Feature", "properties": {"collection_times": [{"days": "Mon-Fri", "time": "4:45pm"}, {"days": "Sat-Sun", "time": "Closed"}], "id": "3610400130", "name": "USPS COLLECTION BOX - BLUE BOX", "address": {"city": "MONTGOMERY", "state": "AL", "street": "201 MONROE ST", "postcode": "36104"}}},
{"geometry": {"type": "Point", "coordinates": [-86.3006505648, 32.3788972249]}, "type": "Feature", "properties": {"collection_times": [{"days": "Mon-Fri", "time": "2:15pm"}, {"days": "Sat-Sun", "time": "Closed"}], "id": "3610400131", "name": "USPS COLLECTION BOX - BLUE BOX", "address": {"city": "MONTGOMERY", "state": "AL", "street": "649 MONROE ST", "postcode": "36104"}}},
{"geometry": {"type": "Point", "coordinates": [-86.3118325648, 32.3746615485]}, "type": "Feature", "properties": {"collection_times": [{"days": "Mon-Fri", "time": "5:00pm"}, {"days": "Sat", "time": "12:00pm"}, {"days": "Sun", "time": "Closed"}], "id": "3610400132", "name": "USPS COLLECTION BOX - PO LOBBY", "address": {"city": "MONTGOMERY", "state": "AL", "street": "135 CATOMA ST", "postcode": "36104"}}},
{"geometry": {"type": "Point", "coordinates": [-86.3063159288, 32.3786495783]}, "type": "Feature", "properties": {"collection_times": [{"days": "Mon-Fri", "time": "4:45pm"}, {"days": "Sat-Sun", "time": "Closed"}], "id": "3610400133", "name": "USPS COLLECTION BOX - BLUE BOX", "address": {"city": "MONTGOMERY", "state": "AL", "street": "201 MONROE ST", "postcode": "36104"}}},
{"geometry": {"type": "Point", "coordinates": [-86.3063159288, 32.3786495783]}, "type": "Feature", "properties": {"collection_times": [{"days": "Mon-Fri", "time": "4:45pm"}, {"days": "Sat-Sun", "time": "Closed"}], "id": "3610400134", "name": "USPS COLLECTION BOX - BLUE BOX", "address": {"city": "MONTGOMERY", "state": "AL", "street": "201 MONROE ST", "postcode": "36104"}}},
{"geometry": {"type": "Point", "coordinates": [-86.3077695588, 32.3255693149]}, "type": "Feature", "properties": {"collection_times": [{"days": "Mon-Fri", "time": "4:15pm"}, {"days": "Sat", "time": "3:30pm"}, {"days": "Sun", "time": "Closed"}], "id": "3610500000", "name": "USPS COLLECTION BOX - BLUE BOX", "address": {"city": "MONTGOMERY", "state": "AL", "street": "4365 S COURT ST", "postcode": "36105"}}},
{"geometry": {"type": "Point", "coordinates": [-86.3077695588, 32.3255693149]}, "type": "Feature", "properties": {"collection_times": [{"days": "Mon-Fri", "time": "4:15pm"}, {"days": "Sat", "time": "3:30pm"}, {"days": "Sun", "time": "Closed"}], "id": "3610500001", "name": "USPS COLLECTION BOX - BLUE BOX", "address": {"city": "MONTGOMERY", "state": "AL", "street": "4365 S COURT ST", "postcode": "36105"}}},
{"geometry": {"type": "Point", "coordinates": [-86.307409007, 32.2862014168]}, "type": "Feature", "properties": {"collection_times": [{"days": "Mon-Fri", "time": "4:15pm"}, {"days": "Sat", "time": "3:30pm"}, {"days": "Sun", "time": "Closed"}], "id": "3610500002", "name": "USPS COLLECTION BOX - EXPRESS", "address": {"city": "MONTGOMERY", "state": "AL", "street": "4365 S COURT ST", "postcode": "36105"}}},
{"geometry": {"type": "Point", "coordinates": [-86.3077695588, 32.3255693149]}, "type": "Feature", "properties": {"collection_times": [{"days": "Mon-Fri", "time": "4:15pm"}, {"days": "Sat", "time": "3:30pm"}, {"days": "Sun", "time": "Closed"}], "id": "3610500003", "name": "USPS COLLECTION BOX - BLUE BOX", "address": {"city": "MONTGOMERY", "state": "AL", "street": "4365 S COURT ST", "postcode": "36105"}}},
{"geometry": {"type": "Point", "coordinates": [-86.2993, 32.33084]}, "type": "Feature", "properties": {"collection_times": [{"days": "Mon-Sat", "time": "9:30am"}, {"days": "Sun", "time": "Closed"}], "id": "3610500008", "name": "USPS COLLECTION BOX - BLUE BOX", "address": {"city": "MONTGOMERY", "state": "AL", "street": "3770 NORMAN BRIDGE RD", "postcode": "36105"}}},
{"geometry": {"type": "Point", "coordinates": [-86.3077695588, 32.3255693149]}, "type": "Feature", "properties": {"collection_times": [{"days": "Mon-Fri", "time": "5:00pm"}, {"days": "Sat", "time": "3:30pm"}, {"days": "Sun", "time": "Closed"}], "id": "3610500018", "name": "USPS COLLECTION BOX - PO LOBBY", "address": {"city": "MONTGOMERY", "state": "AL", "street": "4365 S COURT ST", "postcode": "36105"}}},
{"geometry": {"type": "Point", "coordinates": [-86.291221081, 32.3602556583]}, "type": "Feature", "properties": {"collection_times": [{"days": "Mon-Fri", "time": "4:00pm"}, {"days": "Sat", "time": "9:00am"}, {"days": "Sun", "time": "Closed"}], "id": "3610600000", "name": "USPS COLLECTION BOX - BLUE BOX", "address": {"city": "MONTGOMERY", "state": "AL", "street": "1206 CARTER HILL RD", "postcode": "36106"}}},
{"geometry": {"type": "Point", "coordinates": [-86.291221081, 32.3602556583]}, "type": "Feature", "properties": {"collection_times": [{"days": "Mon-Fri", "time": "4:00pm"}, {"days": "Sat", "time": "9:00am"}, {"days": "Sun", "time": "Closed"}], "id": "3610600001", "name": "USPS COLLECTION BOX - BLUE BOX", "address": {"city": "MONTGOMERY", "state": "AL", "street": "1206 CARTER HILL RD", "postcode": "36106"}}},
{"geometry": {"type": "Point", "coordinates": [-86.2349703131, 32.3600774683]}, "type": "Feature", "properties": {"collection_times": [{"days": "Mon-Fri", "time": "4:00pm"}, {"days": "Sat", "time": "10:00am"}, {"days": "Sun", "time": "Closed"}], "id": "3610600004", "name": "USPS COLLECTION BOX - BLUE BOX", "address": {"city": "MONTGOMERY", "state": "AL", "street": "1401 I85 PKWY", "postcode": "36106"}}},
{"geometry": {"type": "Point", "coordinates": [-86.2349703131, 32.3600774683]}, "type": "Feature", "properties": {"collection_times": [{"days": "Mon-Fri", "time": "4:00pm"}, {"days": "Sat", "time": "10:00am"}, {"days": "Sun", "time": "Closed"}], "id": "3610600005", "name": "USPS COLLECTION BOX - BLUE BOX", "address": {"city": "MONTGOMERY", "state": "AL", "street": "1401 I85 PKWY", "postcode": "36106"}}},
{"geometry": {"type": "Point", "coordinates": [-86.2852847509, 32.352001718]}, "type": "Feature", "properties": {"collection_times": [{"days": "Mon-Sat", "time": "1:30pm"}, {"days": "Sun", "time": "Closed"}], "id": "3610600014", "name": "USPS COLLECTION BOX - BLUE BOX", "address": {"city": "MONTGOMERY", "state": "AL", "street": "1500 E FAIRVIEW AVE", "postcode": "36106"}}},
{"geometry": {"type": "Point", "coordinates": [-86.2843536382, 32.3672327829]}, "type": "Feature", "properties": {"collection_times": [{"days": "Mon-Fri", "time": "4:00pm"}, {"days": "Sat", "time": "12:00pm"}, {"days": "Sun", "time": "Closed"}], "id": "3610600017", "name": "USPS COLLECTION BOX - BLUE BOX", "address": {"city": "MONTGOMERY", "state": "AL", "street": "1235 HAMPTON ST", "postcode": "36106"}}},
{"geometry": {"type": "Point", "coordinates": [-86.2436687651, 32.3551628974]}, "type": "Feature", "properties": {"collection_times": [{"days": "Mon-Sat", "time": "10:00am"}, {"days": "Sun", "time": "Closed"}], "id": "3610600021", "name": "USPS COLLECTION BOX - BLUE BOX", "address": {"city": "MONTGOMERY", "state": "AL", "street": "1611 PERRY HILL RD", "postcode": "36106"}}},
{"geometry": {"type": "Point", "coordinates": [-86.2649079504, 32.3578888919]}, "type": "Feature", "properties": {"collection_times": [{"days": "Mon-Sat", "time": "11:00am"}, {"days": "Sun", "time": "Closed"}], "id": "3610600029", "name": "USPS COLLECTION BOX - BLUE BOX", "address": {"city": "MONTGOMERY", "state": "AL", "street": "2900 ZELDA RD", "postcode": "36106"}}},
{"geometry": {"type": "Point", "coordinates": [-86.2912210809, 32.3602556584]}, "type": "Feature", "properties": {"collection_times": [{"days": "Mon-Fri", "time": "4:30pm"}, {"days": "Sat-Sun", "time": "Closed"}], "id": "3610600034", "name": "USPS COLLECTION BOX - PO LOBBY", "address": {"city": "MONTGOMERY", "state": "AL", "street": "1206 CARTER HILL RD", "postcode": "36106"}}},
{"geometry": {"type": "Point", "coordinates": [-86.220939062, 32.3500395947]}, "type": "Feature", "properties": {"collection_times": [{"days": "Mon-Fri", "time": "4:45pm"}, {"days": "Sat", "time": "1:30pm"}, {"days": "Sun", "time": "Closed"}], "id": "3610600035", "name": "USPS COLLECTION BOX - BLUE BOX", "address": {"city": "MONTGOMERY", "state": "AL", "street": "2500 EASTERN BLVD", "postcode": "36106"}}},
{"geometry": {"type": "Point", "coordinates": [-86.220939062, 32.3500395947]}, "type": "Feature", "properties": {"collection_times": [{"days": "Mon-Fri", "time": "4:45pm"}, {"days": "Sat", "time": "1:30pm"}, {"days": "Sun", "time": "Closed"}], "id": "3610600036", "name": "USPS COLLECTION BOX - BLUE BOX", "address": {"city": "MONTGOMERY", "state": "AL", "street": "2500 EASTERN BLVD", "postcode": "36106"}}},
{"geometry": {"type": "Point", "coordinates": [-86.220939062, 32.3500395947]}, "type": "Feature", "properties": {"collection_times": [{"days": "Mon-Fri", "time": "4:45pm"}, {"days": "Sat", "time": "1:30pm"}, {"days": "Sun", "time": "Closed"}], "id": "3610600037", "name": "USPS COLLECTION BOX - BLUE BOX", "address": {"city": "MONTGOMERY", "state": "AL", "street": "2500 EASTERN BLVD", "postcode": "36106"}}},
{"geometry": {"type": "Point", "coordinates": [-86.2209390621, 32.3500395947]}, "type": "Feature", "properties": {"collection_times": [{"days": "Mon-Fri", "time": "4:45pm"}, {"days": "Sat", "time": "1:30pm"}, {"days": "Sun", "time": "Closed"}], "id": "3610600040", "name": "USPS COLLECTION BOX - PO LOBBY", "address": {"city": "MONTGOMERY", "state": "AL", "street": "2500 EASTERN BLVD", "postcode": "36106"}}},
{"geometry": {"type": "Point", "coordinates": [-86.230146041, 32.35822361]}, "type": "Feature", "properties": {"collection_times": [{"days": "Mon-Fri", "time": "4:00pm"}, {"days": "Sat", "time": "10:00am"}, {"days": "Sun", "time": "Closed"}], "id": "3610600043", "name": "USPS COLLECTION BOX - BLUE BOX", "address": {"city": "MONTGOMERY", "state": "AL", "street": "4274 LOMAC ST", "postcode": "36106"}}},
{"geometry": {"type": "Point", "coordinates": [-86.283117737, 32.3665829174]}, "type": "Feature", "properties": {"collection_times": [{"days": "Mon-Fri", "time": "12:00pm"}, {"days": "Sat", "time": "10:00am"}, {"days": "Sun", "time": "Closed"}], "id": "3610600046", "name": "USPS COLLECTION BOX - BLUE BOX", "address": {"city": "MONTGOMERY", "state": "AL", "street": "1301 MULBERRY ST", "postcode": "36106"}}},
{"geometry": {"type": "Point", "coordinates": [-86.2720258347, 32.3609219026]}, "type": "Feature", "properties": {"collection_times": [{"days": "Mon-Fri", "time": "1:00pm"}, {"days": "Sat", "time": "9:30am"}, {"days": "Sun", "time": "Closed"}], "id": "3610700006", "name": "USPS COLLECTION BOX - BLUE BOX", "address": {"city": "MONTGOMERY", "state": "AL", "street": "2540 E 5TH ST", "postcode": "36107"}}},
{"geometry": {"type": "Point", "coordinates": [-86.3467054263, 32.3561472971]}, "type": "Feature", "properties": {"collection_times": [{"days": "Mon-Fri", "time": "4:45pm"}, {"days": "Sat", "time": "3:00pm"}, {"days": "Sun", "time": "Closed"}], "id": "3610800000", "name": "USPS COLLECTION BOX - BLUE BOX", "address": {"city": "MONTGOMERY", "state": "AL", "street": "3100 TINE AVE", "postcode": "36108"}}},
{"geometry": {"type": "Point", "coordinates": [-86.3632857777, 32.3463623629]}, "type": "Feature", "properties": {"collection_times": [{"days": "Mon-Fri", "time": "4:45pm"}, {"days": "Sat", "time": "3:00pm"}, {"days": "Sun", "time": "Closed"}], "id": "3610800001", "name": "USPS COLLECTION BOX - EXPRESS", "address": {"city": "MONTGOMERY", "state": "AL", "street": "3100 TINE AVE", "postcode": "36108"}}},
{"geometry": {"type": "Point", "coordinates": [-86.3632857777, 32.3463623629]}, "type": "Feature", "properties": {"collection_times": [{"days": "Mon-Sat", "time": "11:00am"}, {"days": "Sun", "time": "Closed"}], "id": "3610800004", "name": "USPS COLLECTION BOX - EXPRESS", "address": {"city": "MONTGOMERY", "state": "AL", "street": "4437 SELMA HWY", "postcode": "36108"}}},
{"geometry": {"type": "Point", "coordinates": [-86.3496214395, 32.3054320411]}, "type": "Feature", "properties": {"collection_times": [{"days": "Mon-Sat", "time": "12:00pm"}, {"days": "Sun", "time": "Closed"}], "id": "3610800014", "name": "USPS COLLECTION BOX - BLUE BOX", "address": {"city": "MONTGOMERY", "state": "AL", "street": "108 SOUTHLAWN DR", "postcode": "36108"}}},
{"geometry": {"type": "Point", "coordinates": [-86.3467054263, 32.3561472971]}, "type": "Feature", "properties": {"collection_times": [{"days": "Mon-Fri", "time": "4:45pm"}, {"days": "Sat", "time": "3:00pm"}, {"days": "Sun", "time": "Closed"}], "id": "3610800017", "name": "USPS COLLECTION BOX - BLUE BOX", "address": {"city": "MONTGOMERY", "state": "AL", "street": "3100 TINE AVE", "postcode": "36108"}}},
{"geometry": {"type": "Point", "coordinates": [-86.3467054263, 32.3561472971]}, "type": "Feature", "properties": {"collection_times": [{"days": "Mon-Fri", "time": "4:45pm"}, {"days": "Sat", "time": "3:00pm"}, {"days": "Sun", "time": "Closed"}], "id": "3610800021", "name": "USPS COLLECTION BOX - PO LOBBY", "address": {"city": "MONTGOMERY", "state": "AL", "street": "3100 TINE AVE", "postcode": "36108"}}},
{"geometry": {"type": "Point", "coordinates": [-86.3632857777, 32.3463623629]}, "type": "Feature", "properties": {"collection_times": [{"days": "Mon-Fri", "time": "10:00am"}, {"days": "Sat-Sun", "time": "Closed"}], "id": "3610800027", "name": "USPS COLLECTION BOX - BLUE BOX", "address": {"city": "MONTGOMERY", "state": "AL", "street": "5187 SELMA HWY", "postcode": "36108"}}},
{"geometry": {"type": "Point", "coordinates": [-86.2577123871, 32.3902021136]}, "type": "Feature", "properties": {"collection_times": [{"days": "Mon-Sat", "time": "2:00pm"}, {"days": "Sun", "time": "Closed"}], "id": "3610900003", "name": "USPS COLLECTION BOX - BLUE BOX", "address": {"city": "MONTGOMERY", "state": "AL", "street": "411 COLISEUM BLVD", "postcode": "36109"}}},
{"geometry": {"type": "Point", "coordinates": [-86.2577123871, 32.3902021136]}, "type": "Feature", "properties": {"collection_times": [{"days": "Mon-Sat", "time": "2:00pm"}, {"days": "Sun", "time": "Closed"}], "id": "3610900004", "name": "USPS COLLECTION BOX - BLUE BOX", "address": {"city": "MONTGOMERY", "state": "AL", "street": "411 COLISEUM BLVD", "postcode": "36109"}}},
{"geometry": {"type": "Point", "coordinates": [-86.2577038136, 32.3850818253]}, "type": "Feature", "properties": {"collection_times": [{"days": "Mon-Sat", "time": "12:00pm"}, {"days": "Sun", "time": "Closed"}], "id": "3610900010", "name": "USPS COLLECTION BOX - BLUE BOX", "address": {"city": "MONTGOMERY", "state": "AL", "street": "3458 ATLANTA HWY", "postcode": "36109"}}},
{"geometry": {"type": "Point", "coordinates": [-86.2434088295, 32.3622984175]}, "type": "Feature", "properties": {"collection_times": [{"days": "Mon-Sat", "time": "12:00pm"}, {"days": "Sun", "time": "Closed"}], "id": "3610900015", "name": "USPS COLLECTION BOX - BLUE BOX", "address": {"city": "MONTGOMERY", "state": "AL", "street": "100 INTERSTATE PARK DR", "postcode": "36109"}}},
{"geometry": {"type": "Point", "coordinates": [-86.2434088295, 32.3622984175]}, "type": "Feature", "properties": {"collection_times": [{"days": "Mon-Sat", "time": "12:00pm"}, {"days": "Sun", "time": "Closed"}], "id": "3610900016", "name": "USPS COLLECTION BOX - BLUE BOX", "address": {"city": "MONTGOMERY", "state": "AL", "street": "100 INTERSTATE PARK DR", "postcode": "36109"}}},
{"geometry": {"type": "Point", "coordinates": [-86.2416082437, 32.3821434832]}, "type": "Feature", "properties": {"collection_times": [{"days": "Mon-Sat", "time": "12:00pm"}, {"days": "Sun", "time": "Closed"}], "id": "3610900017", "name": "USPS COLLECTION BOX - EXPRESS", "address": {"city": "MONTGOMERY", "state": "AL", "street": "100 INTERSTATE PARK DR", "postcode": "36109"}}},
{"geometry": {"type": "Point", "coordinates": [-86.2417697416, 32.3614640786]}, "type": "Feature", "properties": {"collection_times": [{"days": "Mon-Sat", "time": "12:00pm"}, {"days": "Sun", "time": "Closed"}], "id": "3610900018", "name": "USPS COLLECTION BOX - BLUE BOX", "address": {"city": "MONTGOMERY", "state": "AL", "street": "500 INTERSTATE PARK DR", "postcode": "36109"}}},
{"geometry": {"type": "Point", "coordinates": [-86.2417697416, 32.3614640786]}, "type": "Feature", "properties": {"collection_times": [{"days": "Mon-Sat", "time": "12:00pm"}, {"days": "Sun", "time": "Closed"}], "id": "3610900019", "name": "USPS COLLECTION BOX - BLUE BOX", "address": {"city": "MONTGOMERY", "state": "AL", "street": "500 INTERSTATE PARK DR", "postcode": "36109"}}},
{"geometry": {"type": "Point", "coordinates": [-86.2468427139, 32.36707416]}, "type": "Feature", "properties": {"collection_times": [{"days": "Mon-Fri", "time": "2:00pm"}, {"days": "Sat", "time": "12:30pm"}, {"days": "Sun", "time": "Closed"}], "id": "3610900026", "name": "USPS COLLECTION BOX - BLUE BOX", "address": {"city": "MONTGOMERY", "state": "AL", "street": "3800 HARRISON RD", "postcode": "36109"}}},
{"geometry": {"type": "Point", "coordinates": [-86.2577123871, 32.3902021136]}, "type": "Feature", "properties": {"collection_times": [{"days": "Mon-Fri", "time": "4:30pm"}, {"days": "Sat-Sun", "time": "Closed"}], "id": "3610900032", "name": "USPS COLLECTION BOX - PO LOBBY", "address": {"city": "MONTGOMERY", "state": "AL", "street": "411 COLISEUM BLVD", "postcode": "36109"}}},
{"geometry": {"type": "Point", "coordinates": [-86.2577123871, 32.3902021136]}, "type": "Feature", "properties": {"collection_times": [{"days": "Mon-Sat", "time": "2:00pm"}, {"days": "Sun", "time": "Closed"}], "id": "3610900035", "name": "USPS COLLECTION BOX - BLUE BOX", "address": {"city": "MONTGOMERY", "state": "AL", "street": "411 COLISEUM BLVD", "postcode": "36109"}}},
{"geometry": {"type": "Point", "coordinates": [-86.2770201778, 32.4264136488]}, "type": "Feature", "properties": {"collection_times": [{"days": "Mon-Fri", "time": "1:00pm"}, {"days": "Sat", "time": "12:00pm"}, {"days": "Sun", "time": "Closed"}], "id": "3611000000", "name": "USPS COLLECTION BOX - BLUE BOX", "address": {"city": "MONTGOMERY", "state": "AL", "street": "510 JOHNSON AVE", "postcode": "36110"}}},
{"geometry": {"type": "Point", "coordinates": [-86.2687775631, 32.4251112426]}, "type": "Feature", "properties": {"collection_times": [{"days": "Mon-Fri", "time": "1:00pm"}, {"days": "Sat", "time": "12:00pm"}, {"days": "Sun", "time": "Closed"}], "id": "3611000001", "name": "USPS COLLECTION BOX - EXPRESS", "address": {"city": "MONTGOMERY", "state": "AL", "street": "510 JOHNSON AVE", "postcode": "36110"}}},
{"geometry": {"type": "Point", "coordinates": [-86.2583835225, 32.4480337038]}, "type": "Feature", "properties": {"collection_times": [{"days": "Mon-Sat", "time": "10:30am"}, {"days": "Sun", "time": "Closed"}], "id": "3611000002", "name": "USPS COLLECTION BOX - BLUE BOX", "address": {"city": "MONTGOMERY", "state": "AL", "street": "1000 NEWELL PKWY", "postcode": "36110"}}},
{"geometry": {"type": "Point", "coordinates": [-86.2583835225, 32.4480337038]}, "type": "Feature", "properties": {"collection_times": [{"days": "Mon-Sat", "time": "11:00am"}, {"days": "Sun", "time": "Closed"}], "id": "3611000003", "name": "USPS COLLECTION BOX - BLUE BOX", "address": {"city": "MONTGOMERY", "state": "AL", "street": "1000 NEWELL PKWY", "postcode": "36110"}}},
{"geometry": {"type": "Point", "coordinates": [-86.286186397, 32.4152930839]}, "type": "Feature", "properties": {"collection_times": [{"days": "Mon-Sat", "time": "11:00am"}, {"days": "Sun", "time": "Closed"}], "id": "3611000005", "name": "USPS COLLECTION BOX - BLUE BOX", "address": {"city": "MONTGOMERY", "state": "AL", "street": "24 W PARK AVE", "postcode": "36110"}}},
{"geometry": {"type": "Point", "coordinates": [-86.2687775631, 32.4251112426]}, "type": "Feature", "properties": {"collection_times": [{"days": "Mon-Sat", "time": "11:00am"}, {"days": "Sun", "time": "Closed"}], "id": "3611000006", "name": "USPS COLLECTION BOX - EXPRESS", "address": {"city": "MONTGOMERY", "state": "AL", "street": "24 W PARK AVE", "postcode": "36110"}}},
{"geometry": {"type": "Point", "coordinates": [-86.2583835225, 32.4480337038]}, "type": "Feature", "properties": {"collection_times": [{"days": "Mon-Sat", "time": "10:30am"}, {"days": "Sun", "time": "Closed"}], "id": "3611000007", "name": "USPS COLLECTION BOX - BLUE BOX", "address": {"city": "MONTGOMERY", "state": "AL", "street": "231 HWY HWY N", "postcode": "36110"}}},
{"geometry": {"type": "Point", "coordinates": [-86.2685574685, 32.4248495602]}, "type": "Feature", "properties": {"collection_times": [{"days": "Mon-Sat", "time": "11:30am"}, {"days": "Sun", "time": "Closed"}], "id": "3611000008", "name": "USPS COLLECTION BOX - BLUE BOX", "address": {"city": "MONTGOMERY", "state": "AL", "street": "2055 COLISEUM BLVD", "postcode": "36110"}}},
{"geometry": {"type": "Point", "coordinates": [-86.2626807393, 32.3377744295]}, "type": "Feature", "properties": {"collection_times": [{"days": "Mon-Fri", "time": "4:30pm"}, {"days": "Sat", "time": "2:30pm"}, {"days": "Sun", "time": "Closed"}], "id": "3611100000", "name": "USPS COLLECTION BOX - BLUE BOX", "address": {"city": "MONTGOMERY", "state": "AL", "street": "2901 MCGEHEE RD", "postcode": "36111"}}},
{"geometry": {"type": "Point", "coordinates": [-86.2626807393, 32.3377744295]}, "type": "Feature", "properties": {"collection_times": [{"days": "Mon-Fri", "time": "4:30pm"}, {"days": "Sat", "time": "2:30pm"}, {"days": "Sun", "time": "Closed"}], "id": "3611100001", "name": "USPS COLLECTION BOX - BLUE BOX", "address": {"city": "MONTGOMERY", "state": "AL", "street": "2901 MCGEHEE RD", "postcode": "36111"}}},
{"geometry": {"type": "Point", "coordinates": [-86.2626807393, 32.3377744295]}, "type": "Feature", "properties": {"collection_times": [{"days": "Mon-Fri", "time": "4:30pm"}, {"days": "Sat", "time": "2:30pm"}, {"days": "Sun", "time": "Closed"}], "id": "3611100002", "name": "USPS COLLECTION BOX - BLUE BOX", "address": {"city": "MONTGOMERY", "state": "AL", "street": "2901 MCGEHEE RD", "postcode": "36111"}}},
{"geometry": {"type": "Point", "coordinates": [-86.2626807393, 32.3377744295]}, "type": "Feature", "properties": {"collection_times": [{"days": "Mon-Fri", "time": "4:30pm"}, {"days": "Sat", "time": "2:30pm"}, {"days": "Sun", "time": "Closed"}], "id": "3611100003", "name": "USPS COLLECTION BOX - BLUE BOX", "address": {"city": "MONTGOMERY", "state": "AL", "street": "2901 MCGEHEE RD", "postcode": "36111"}}},
{"geometry": {"type": "Point", "coordinates": [-86.2682865775, 32.3374724817]}, "type": "Feature", "properties": {"collection_times": [{"days": "Mon-Fri", "time": "4:30pm"}, {"days": "Sat", "time": "2:30pm"}, {"days": "Sun", "time": "Closed"}], "id": "3611100004", "name": "USPS COLLECTION BOX - EXPRESS", "address": {"city": "MONTGOMERY", "state": "AL", "street": "2901 MCGEHEE RD", "postcode": "36111"}}},
{"geometry": {"type": "Point", "coordinates": [-86.2415894993, 32.3325444637]}, "type": "Feature", "properties": {"collection_times": [{"days": "Mon-Sat", "time": "11:00am"}, {"days": "Sun", "time": "Closed"}], "id": "3611100005", "name": "USPS COLLECTION BOX - BLUE BOX", "address": {"city": "MONTGOMERY", "state": "AL", "street": "3600 DEBBY DR", "postcode": "36111"}}},
{"geometry": {"type": "Point", "coordinates": [-86.2805154868, 32.3287007623]}, "type": "Feature", "properties": {"collection_times": [{"days": "Mon-Fri", "time": "1:45pm"}, {"days": "Sat", "time": "10:00am"}, {"days": "Sun", "time": "Closed"}], "id": "3611100007", "name": "USPS COLLECTION BOX - BLUE BOX", "address": {"city": "MONTGOMERY", "state": "AL", "street": "2055 NORMANDIE DR", "postcode": "36111"}}},
{"geometry": {"type": "Point", "coordinates": [-86.2805154868, 32.3287007623]}, "type": "Feature", "properties": {"collection_times": [{"days": "Mon-Fri", "time": "1:45pm"}, {"days": "Sat", "time": "10:00am"}, {"days": "Sun", "time": "Closed"}], "id": "3611100008", "name": "USPS COLLECTION BOX - BLUE BOX", "address": {"city": "MONTGOMERY", "state": "AL", "street": "2055 NORMANDIE DR", "postcode": "36111"}}},
{"geometry": {"type": "Point", "coordinates": [-86.2487215238, 32.3334427753]}, "type": "Feature", "properties": {"collection_times": [{"days": "Mon-Sat", "time": "10:00am"}, {"days": "Sun", "time": "Closed"}], "id": "3611100016", "name": "USPS COLLECTION BOX - BLUE BOX", "address": {"city": "MONTGOMERY", "state": "AL", "street": "3800 GOVERNORS DR", "postcode": "36111"}}},
{"geometry": {"type": "Point", "coordinates": [-86.2626807393, 32.3377744295]}, "type": "Feature", "properties": {"collection_times": [{"days": "Mon-Fri", "time": "4:30pm"}, {"days": "Sat", "time": "9:00am"}, {"days": "Sun", "time": "Closed"}], "id": "3611100017", "name": "USPS COLLECTION BOX - PO LOBBY", "address": {"city": "MONTGOMERY", "state": "AL", "street": "2901 MCGEHEE RD", "postcode": "36111"}}},
{"geometry": {"type": "Point", "coordinates": [-86.3398882755, 32.3812695953]}, "type": "Feature", "properties": {"collection_times": [{"days": "Mon-Fri", "time": "4:30pm"}, {"days": "Sat-Sun", "time": "Closed"}], "id": "3611300010", "name": "USPS COLLECTION BOX - BLUE BOX", "address": {"city": "MONTGOMERY", "state": "AL", "street": "550 E MITCHELL BLVD", "postcode": "36113"}}},
{"geometry": {"type": "Point", "coordinates": [-86.2428458176, 32.4068636165]}, "type": "Feature", "properties": {"collection_times": [{"days": "Mon-Sat", "time": "10:00am"}, {"days": "Sun", "time": "Closed"}], "id": "3611500004", "name": "USPS COLLECTION BOX - BLUE BOX", "address": {"city": "MONTGOMERY", "state": "AL", "street": "856 BLDG GAFB", "postcode": "36115"}}},
{"geometry": {"type": "Point", "coordinates": [-86.2428458176, 32.4068636165]}, "type": "Feature", "properties": {"collection_times": [{"days": "Mon-Sat", "time": "10:00am"}, {"days": "Sun", "time": "Closed"}], "id": "3611500008", "name": "USPS COLLECTION BOX - BLUE BOX", "address": {"city": "MONTGOMERY", "state": "AL", "street": "826 BLDG", "postcode": "36115"}}},
{"geometry": {"type": "Point", "coordinates": [-86.2086276313, 32.2577692789]}, "type": "Feature", "properties": {"collection_times": [{"days": "Mon-Fri", "time": "5:00pm"}, {"days": "Sat", "time": "3:00pm"}, {"days": "Sun", "time": "Closed"}], "id": "3611600001", "name": "USPS COLLECTION BOX - BLUE BOX", "address": {"city": "MONTGOMERY", "state": "AL", "street": "2837 EAST BLVD", "postcode": "36116"}}},
{"geometry": {"type": "Point", "coordinates": [-86.2086276313, 32.2577692789]}, "type": "Feature", "properties": {"collection_times": [{"days": "Mon-Fri", "time": "5:00pm"}, {"days": "Sat", "time": "3:00pm"}, {"days": "Sun", "time": "Closed"}], "id": "3611600002", "name": "USPS COLLECTION BOX - BLUE BOX", "address": {"city": "MONTGOMERY", "state": "AL", "street": "2837 EAST BLVD", "postcode": "36116"}}},
{"geometry": {"type": "Point", "coordinates": [-86.2086276313, 32.2577692789]}, "type": "Feature", "properties": {"collection_times": [{"days": "Mon-Fri", "time": "5:00pm"}, {"days": "Sat", "time": "3:00pm"}, {"days": "Sun", "time": "Closed"}], "id": "3611600003", "name": "USPS COLLECTION BOX - BLUE BOX", "address": {"city": "MONTGOMERY", "state": "AL", "street": "2837 EAST BLVD", "postcode": "36116"}}},
{"geometry": {"type": "Point", "coordinates": [-86.2351993606, 32.3151434984]}, "type": "Feature", "properties": {"collection_times": [{"days": "Mon-Fri", "time": "5:00pm"}, {"days": "Sat", "time": "3:00pm"}, {"days": "Sun", "time": "Closed"}], "id": "3611600004", "name": "USPS COLLECTION BOX - EXPRESS", "address": {"city": "MONTGOMERY", "state": "AL", "street": "2837 EAST BLVD", "postcode": "36116"}}},
{"geometry": {"type": "Point", "coordinates": [-86.2383124463, 32.3190073299]}, "type": "Feature", "properties": {"collection_times": [{"days": "Mon-Sat", "time": "12:30pm"}, {"days": "Sun", "time": "Closed"}], "id": "3611600006", "name": "USPS COLLECTION BOX - BLUE BOX", "address": {"city": "MONTGOMERY", "state": "AL", "street": "7925 VAUGHN RD", "postcode": "36116"}}},
{"geometry": {"type": "Point", "coordinates": [-86.2759804784, 32.3270678729]}, "type": "Feature", "properties": {"collection_times": [{"days": "Mon-Fri", "time": "3:45pm"}, {"days": "Sat", "time": "10:00am"}, {"days": "Sun", "time": "Closed"}], "id": "3611600008", "name": "USPS COLLECTION BOX - BLUE BOX", "address": {"city": "MONTGOMERY", "state": "AL", "street": "2105 E SOUTH BLVD", "postcode": "36116"}}},
{"geometry": {"type": "Point", "coordinates": [-86.2086276313, 32.2577692789]}, "type": "Feature", "properties": {"collection_times": [{"days": "Mon-Fri", "time": "3:45pm"}, {"days": "Sat", "time": "10:00am"}, {"days": "Sun", "time": "Closed"}], "id": "3611600011", "name": "USPS COLLECTION BOX - BLUE BOX", "address": {"city": "MONTGOMERY", "state": "AL", "street": "3500 EASTERN BLVD", "postcode": "36116"}}},
{"geometry": {"type": "Point", "coordinates": [-86.2286308772, 32.3294081145]}, "type": "Feature", "properties": {"collection_times": [{"days": "Mon-Sat", "time": "1:00pm"}, {"days": "Sun", "time": "Closed"}], "id": "3611600012", "name": "USPS COLLECTION BOX - BLUE BOX", "address": {"city": "MONTGOMERY", "state": "AL", "street": "5701 CALMAR DR", "postcode": "36116"}}},
{"geometry": {"type": "Point", "coordinates": [-86.2307672333, 32.3294463176]}, "type": "Feature", "properties": {"collection_times": [{"days": "Mon-Sat", "time": "1:30pm"}, {"days": "Sun", "time": "Closed"}], "id": "3611600013", "name": "USPS COLLECTION BOX - BLUE BOX", "address": {"city": "MONTGOMERY", "state": "AL", "street": "5070 VAUGHN RD", "postcode": "36116"}}},
{"geometry": {"type": "Point", "coordinates": [-86.2334524402, 32.3318834462]}, "type": "Feature", "properties": {"collection_times": [{"days": "Mon-Fri", "time": "3:45pm"}, {"days": "Sat", "time": "10:00am"}, {"days": "Sun", "time": "Closed"}], "id": "3611600024", "name": "USPS COLLECTION BOX - BLUE BOX", "address": {"city": "MONTGOMERY", "state": "AL", "street": "4520 EXECUTIVE PARK DR", "postcode": "36116"}}},
{"geometry": {"type": "Point", "coordinates": [-86.2334524402, 32.3318834462]}, "type": "Feature", "properties": {"collection_times": [{"days": "Mon-Fri", "time": "3:45pm"}, {"days": "Sat", "time": "10:00am"}, {"days": "Sun", "time": "Closed"}], "id": "3611600025", "name": "USPS COLLECTION BOX - BLUE BOX", "address": {"city": "MONTGOMERY", "state": "AL", "street": "4520 EXECUTIVE PARK DR", "postcode": "36116"}}},
{"geometry": {"type": "Point", "coordinates": [-86.2270158729, 32.3332333381]}, "type": "Feature", "properties": {"collection_times": [{"days": "Mon-Fri", "time": "3:45pm"}, {"days": "Sat", "time": "10:00am"}, {"days": "Sun", "time": "Closed"}], "id": "3611600033", "name": "USPS COLLECTION BOX - BLUE BOX", "address": {"city": "MONTGOMERY", "state": "AL", "street": "3500 EASTERN BLVD", "postcode": "36116"}}},
{"geometry": {"type": "Point", "coordinates": [-86.2820033939, 32.3228492777]}, "type": "Feature", "properties": {"collection_times": [{"days": "Mon-Sat", "time": "10:00am"}, {"days": "Sun", "time": "Closed"}], "id": "3611600034", "name": "USPS COLLECTION BOX - BLUE BOX", "address": {"city": "MONTGOMERY", "state": "AL", "street": "4401 NARROW LANE RD", "postcode": "36116"}}},
{"geometry": {"type": "Point", "coordinates": [-86.2209118488, 32.3104138831]}, "type": "Feature", "properties": {"collection_times": [{"days": "Mon-Sat", "time": "11:00am"}, {"days": "Sun", "time": "Closed"}], "id": "3611600035", "name": "USPS COLLECTION BOX - BLUE BOX", "address": {"city": "MONTGOMERY", "state": "AL", "street": "4590 TROY HWY", "postcode": "36116"}}},
{"geometry": {"type": "Point", "coordinates": [-86.2559072628, 32.3237366725]}, "type": "Feature", "properties": {"collection_times": [{"days": "Mon-Fri", "time": "10:00am"}, {"days": "Sat", "time": "11:00am"}, {"days": "Sun", "time": "Closed"}], "id": "3611600038", "name": "USPS COLLECTION BOX - BLUE BOX", "address": {"city": "MONTGOMERY", "state": "AL", "street": "2921 MARTI LN", "postcode": "36116"}}},
{"geometry": {"type": "Point", "coordinates": [-86.2694992303, 32.3269164605]}, "type": "Feature", "properties": {"collection_times": [{"days": "Mon-Fri", "time": "3:30pm"}, {"days": "Sat", "time": "10:00am"}, {"days": "Sun", "time": "Closed"}], "id": "3611600040", "name": "USPS COLLECTION BOX - BLUE BOX", "address": {"city": "MONTGOMERY", "state": "AL", "street": "3032 WOODLEY RD", "postcode": "36116"}}},
{"geometry": {"type": "Point", "coordinates": [-86.2092734855, 32.2991145676]}, "type": "Feature", "properties": {"collection_times": [{"days": "Mon-Fri", "time": "3:00pm"}, {"days": "Sat", "time": "10:00am"}, {"days": "Sun", "time": "Closed"}], "id": "3611600045", "name": "USPS COLLECTION BOX - BLUE BOX", "address": {"city": "MONTGOMERY", "state": "AL", "street": "6030 PERIMETER PKWY", "postcode": "36116"}}},
{"geometry": {"type": "Point", "coordinates": [-86.2064885548, 32.3020667896]}, "type": "Feature", "properties": {"collection_times": [{"days": "Mon-Fri", "time": "3:00pm"}, {"days": "Sat", "time": "10:00am"}, {"days": "Sun", "time": "Closed"}], "id": "3611600046", "name": "USPS COLLECTION BOX - BLUE BOX", "address": {"city": "MONTGOMERY", "state": "AL", "street": "6030 PERIMETER PKWY", "postcode": "36116"}}},
{"geometry": {"type": "Point", "coordinates": [-86.2323444738, 32.3213893077]}, "type": "Feature", "properties": {"collection_times": [{"days": "Mon-Sat", "time": "1:30pm"}, {"days": "Sun", "time": "Closed"}], "id": "3611600047", "name": "USPS COLLECTION BOX - BLUE BOX", "address": {"city": "MONTGOMERY", "state": "AL", "street": "8157 VAUGHN RD", "postcode": "36116"}}},
{"geometry": {"type": "Point", "coordinates": [-86.1838928384, 32.3384903802]}, "type": "Feature", "properties": {"collection_times": [{"days": "Mon-Sat", "time": "11:30am"}, {"days": "Sun", "time": "Closed"}], "id": "3611600048", "name": "USPS COLLECTION BOX - BLUE BOX", "address": {"city": "MONTGOMERY", "state": "AL", "street": "7928 VAUGHN RD", "postcode": "36116"}}},
{"geometry": {"type": "Point", "coordinates": [-86.1838928384, 32.3384903802]}, "type": "Feature", "properties": {"collection_times": [{"days": "Mon-Sat", "time": "11:30am"}, {"days": "Sun", "time": "Closed"}], "id": "3611600049", "name": "USPS COLLECTION BOX - BLUE BOX", "address": {"city": "MONTGOMERY", "state": "AL", "street": "7928 VAUGHN RD", "postcode": "36116"}}},
{"geometry": {"type": "Point", "coordinates": [-86.2268599858, 32.338666859]}, "type": "Feature", "properties": {"collection_times": [{"days": "Mon-Sat", "time": "10:00am"}, {"days": "Sun", "time": "Closed"}], "id": "3611600055", "name": "USPS COLLECTION BOX - BLUE BOX", "address": {"city": "MONTGOMERY", "state": "AL", "street": "5600 CARRIAGE HILLS DR", "postcode": "36116"}}},
{"geometry": {"type": "Point", "coordinates": [-86.24948594, 32.3274689935]}, "type": "Feature", "properties": {"collection_times": [{"days": "Mon-Fri", "time": "5:00pm"}, {"days": "Sat", "time": "3:00pm"}, {"days": "Sun", "time": "Closed"}], "id": "3611600059", "name": "USPS COLLECTION BOX - PO LOBBY", "address": {"city": "MONTGOMERY", "state": "AL", "street": "2837 E SOUTH BLVD", "postcode": "36116"}}},
{"geometry": {"type": "Point", "coordinates": [-86.1952552662, 32.3417309827]}, "type": "Feature", "properties": {"collection_times": [{"days": "Mon-Sat", "time": "1:00pm"}, {"days": "Sun", "time": "Closed"}], "id": "3611700006", "name": "USPS COLLECTION BOX - BLUE BOX", "address": {"city": "MONTGOMERY", "state": "AL", "street": "2701 BELL RD", "postcode": "36117"}}},
{"geometry": {"type": "Point", "coordinates": [-86.1952552662, 32.3417309827]}, "type": "Feature", "properties": {"collection_times": [{"days": "Mon-Sat", "time": "1:00pm"}, {"days": "Sun", "time": "Closed"}], "id": "3611700007", "name": "USPS COLLECTION BOX - BLUE BOX", "address": {"city": "MONTGOMERY", "state": "AL", "street": "2701 BELL RD", "postcode": "36117"}}},
{"geometry": {"type": "Point", "coordinates": [-86.21737, 32.34931]}, "type": "Feature", "properties": {"collection_times": [{"days": "Mon-Fri", "time": "11:00am"}, {"days": "Sat-Sun", "time": "Closed"}], "id": "3611700012", "name": "USPS COLLECTION BOX - BLUE BOX", "address": {"city": "MONTGOMERY", "state": "AL", "street": "1 ARBOR STATION RD", "postcode": "36117"}}},
{"geometry": {"type": "Point", "coordinates": [-86.2053075024, 32.3722988131]}, "type": "Feature", "properties": {"collection_times": [{"days": "Mon-Sat", "time": "11:00am"}, {"days": "Sun", "time": "Closed"}], "id": "3611700014", "name": "USPS COLLECTION BOX - BLUE BOX", "address": {"city": "MONTGOMERY", "state": "AL", "street": "500 EASTDALE RD S", "postcode": "36117"}}},
{"geometry": {"type": "Point", "coordinates": [-86.2045438196, 32.375938462]}, "type": "Feature", "properties": {"collection_times": [{"days": "Mon-Sat", "time": "11:00am"}, {"days": "Sun", "time": "Closed"}], "id": "3611700019", "name": "USPS COLLECTION BOX - BLUE BOX", "address": {"city": "MONTGOMERY", "state": "AL", "street": "255 EASTDALE RD S", "postcode": "36117"}}},
{"geometry": {"type": "Point", "coordinates": [-86.2051109917, 32.370496891]}, "type": "Feature", "properties": {"collection_times": [{"days": "Mon-Sat", "time": "11:00am"}, {"days": "Sun", "time": "Closed"}], "id": "3611700024", "name": "USPS COLLECTION BOX - BLUE BOX", "address": {"city": "MONTGOMERY", "state": "AL", "street": "5701 E SHIRLEY LN", "postcode": "36117"}}},
{"geometry": {"type": "Point", "coordinates": [-86.193554065, 32.3831383237]}, "type": "Feature", "properties": {"collection_times": [{"days": "Mon-Sat", "time": "2:30pm"}, {"days": "Sun", "time": "Closed"}], "id": "3611700025", "name": "USPS COLLECTION BOX - BLUE BOX", "address": {"city": "MONTGOMERY", "state": "AL", "street": "155 SYLVEST DR", "postcode": "36117"}}},
{"geometry": {"type": "Point", "coordinates": [-86.2096343092, 32.3736516549]}, "type": "Feature", "properties": {"collection_times": [{"days": "Mon-Sat", "time": "1:30pm"}, {"days": "Sun", "time": "Closed"}], "id": "3611700027", "name": "USPS COLLECTION BOX - BLUE BOX", "address": {"city": "MONTGOMERY", "state": "AL", "street": "500 EASTERN BLVD", "postcode": "36117"}}},
{"geometry": {"type": "Point", "coordinates": [-86.1991045737, 32.3819296527]}, "type": "Feature", "properties": {"collection_times": [{"days": "Mon-Sat", "time": "11:00am"}, {"days": "Sun", "time": "Closed"}], "id": "3611700034", "name": "USPS COLLECTION BOX - BLUE BOX", "address": {"city": "MONTGOMERY", "state": "AL", "street": "101 S BURBANK DR", "postcode": "36117"}}},
{"geometry": {"type": "Point", "coordinates": [-86.1370934938, 32.3717960966]}, "type": "Feature", "properties": {"collection_times": [{"days": "Mon-Fri", "time": "11:00am"}, {"days": "Sat-Sun", "time": "Closed"}], "id": "3611700044", "name": "USPS COLLECTION BOX - BLUE BOX", "address": {"city": "MONTGOMERY", "state": "AL", "street": "75 TECHNACENTER DR", "postcode": "36117"}}},
{"geometry": {"type": "Point", "coordinates": [-86.1370934938, 32.3717960966]}, "type": "Feature", "properties": {"collection_times": [{"days": "Mon-Fri", "time": "11:00am"}, {"days": "Sat-Sun", "time": "Closed"}], "id": "3611700045", "name": "USPS COLLECTION BOX - BLUE BOX", "address": {"city": "MONTGOMERY", "state": "AL", "street": "75 TECHNACENTER DR", "postcode": "36117"}}},
{"geometry": {"type": "Point", "coordinates": [-86.2114155544, 32.3599875179]}, "type": "Feature", "properties": {"collection_times": [{"days": "Mon-Sat", "time": "12:00pm"}, {"days": "Sun", "time": "Closed"}], "id": "3611700046", "name": "USPS COLLECTION BOX - BLUE BOX", "address": {"city": "MONTGOMERY", "state": "AL", "street": "5675 CARMICHAEL PKWY", "postcode": "36117"}}},
{"geometry": {"type": "Point", "coordinates": [-86.2114155544, 32.3599875179]}, "type": "Feature", "properties": {"collection_times": [{"days": "Mon-Sat", "time": "11:00am"}, {"days": "Sun", "time": "Closed"}], "id": "3611700047", "name": "USPS COLLECTION BOX - BLUE BOX", "address": {"city": "MONTGOMERY", "state": "AL", "street": "5675 CARMICHAEL PKWY", "postcode": "36117"}}},
{"geometry": {"type": "Point", "coordinates": [-86.1799205699, 32.3779757525]}, "type": "Feature", "properties": {"collection_times": [{"days": "Mon-Sat", "time": "7:30pm"}, {"days": "Sun", "time": "Closed"}], "id": "3611900001", "name": "USPS COLLECTION BOX - BLUE BOX", "address": {"city": "MONTGOMERY", "state": "AL", "street": "6701 WINTON BLOUNT BLVD", "postcode": "36119"}}},
{"geometry": {"type": "Point", "coordinates": [-86.1799205699, 32.3779757525]}, "type": "Feature", "properties": {"collection_times": [{"days": "Mon-Sat", "time": "7:30pm"}, {"days": "Sun", "time": "Closed"}], "id": "3611900002", "name": "USPS COLLECTION BOX - BLUE BOX", "address": {"city": "MONTGOMERY", "state": "AL", "street": "6701 WINTON BLOUNT BLVD", "postcode": "36119"}}},
{"geometry": {"type": "Point", "coordinates": [-86.1799205699, 32.3779757525]}, "type": "Feature", "properties": {"collection_times": [{"days": "Mon-Sat", "time": "7:30pm"}, {"days": "Sun", "time": "Closed"}], "id": "3611900003", "name": "USPS COLLECTION BOX - BLUE BOX", "address": {"city": "MONTGOMERY", "state": "AL", "street": "6701 WINTON BLOUNT BLVD", "postcode": "36119"}}},
{"geometry": {"type": "Point", "coordinates": [-86.1799205699, 32.3779757525]}, "type": "Feature", "properties": {"collection_times": [{"days": "Mon-Sat", "time": "7:30pm"}, {"days": "Sun", "time": "Closed"}], "id": "3611900004", "name": "USPS COLLECTION BOX - BLUE BOX", "address": {"city": "MONTGOMERY", "state": "AL", "street": "6701 WINTON BLOUNT BLVD", "postcode": "36119"}}},
{"geometry": {"type": "Point", "coordinates": [-86.1799178556, 32.3779331729]}, "type": "Feature", "properties": {"collection_times": [{"days": "Mon-Sat", "time": "7:30pm"}, {"days": "Sun", "time": "Closed"}], "id": "3611900005", "name": "USPS COLLECTION BOX - EXPRESS", "address": {"city": "MONTGOMERY", "state": "AL", "street": "6701 WINTON BLOUNT BLVD", "postcode": "36119"}}},
{"geometry": {"type": "Point", "coordinates": [-86.1799178556, 32.3779331729]}, "type": "Feature", "properties": {"collection_times": [{"days": "Mon-Sat", "time": "7:30pm"}, {"days": "Sun", "time": "Closed"}], "id": "3611900006", "name": "USPS COLLECTION BOX - EXPRESS", "address": {"city": "MONTGOMERY", "state": "AL", "street": "6701 WINTON BLOUNT BLVD", "postcode": "36119"}}},
{"geometry": {"type": "Point", "coordinates": [-86.1799205699, 32.3779757525]}, "type": "Feature", "properties": {"collection_times": [{"days": "Mon-Sat", "time": "7:30pm"}, {"days": "Sun", "time": "Closed"}], "id": "3611900007", "name": "USPS COLLECTION BOX - PO LOBBY", "address": {"city": "MONTGOMERY", "state": "AL", "street": "6701 WINTON BLOUNT BLVD", "postcode": "36119"}}},
{"geometry": {"type": "Point", "coordinates": [-86.1799205699, 32.3779757525]}, "type": "Feature", "properties": {"collection_times": [{"days": "Mon-Sat", "time": "7:30pm"}, {"days": "Sun", "time": "Closed"}], "id": "3611900008", "name": "USPS COLLECTION BOX - PO LOBBY", "address": {"city": "MONTGOMERY", "state": "AL", "street": "6701 WINTON BLOUNT BLVD", "postcode": "36119"}}},
{"geometry": {"type": "Point", "coordinates": [-86.1799205699, 32.3779757525]}, "type": "Feature", "properties": {"collection_times": [{"days": "Mon-Sat", "time": "7:30pm"}, {"days": "Sun", "time": "Closed"}], "id": "3611900009", "name": "USPS COLLECTION BOX - PO LOBBY", "address": {"city": "MONTGOMERY", "state": "AL", "street": "6701 WINTON BLOUNT BLVD", "postcode": "36119"}}},
{"geometry": {"type": "Point", "coordinates": [-86.1799205699, 32.3779757525]}, "type": "Feature", "properties": {"collection_times": [{"days": "Mon-Sat", "time": "7:30pm"}, {"days": "Sun", "time": "Closed"}], "id": "3611900011", "name": "USPS COLLECTION BOX - APC", "address": {"city": "MONTGOMERY", "state": "AL", "street": "6701 WINTON BLOUNT BLVD", "postcode": "36119"}}},
{"geometry": {"type": "Point", "coordinates": [-86.2101348437, 32.3995937298]}, "type": "Feature", "properties": {"collection_times": [{"days": "Mon-Fri", "time": "5:00pm"}, {"days": "Sat", "time": "4:00pm"}, {"days": "Sun", "time": "Closed"}], "id": "3612100000", "name": "USPS COLLECTION BOX - BLUE BOX", "address": {"city": "MONTGOMERY", "state": "AL", "street": "560 GEORGE TODD DR", "postcode": "36121"}}},
{"geometry": {"type": "Point", "coordinates": [-86.2101348437, 32.3995937298]}, "type": "Feature", "properties": {"collection_times": [{"days": "Mon-Fri", "time": "5:00pm"}, {"days": "Sat", "time": "4:00pm"}, {"days": "Sun", "time": "Closed"}], "id": "3612100003", "name": "USPS COLLECTION BOX - BLUE BOX", "address": {"city": "MONTGOMERY", "state": "AL", "street": "560 GEORGE TODD DR", "postcode": "36121"}}},
{"geometry": {"type": "Point", "coordinates": [-86.2101348437, 32.3995937298]}, "type": "Feature", "properties": {"collection_times": [{"days": "Mon-Fri", "time": "5:00pm"}, {"days": "Sat", "time": "4:00pm"}, {"days": "Sun", "time": "Closed"}], "id": "3612100006", "name": "USPS COLLECTION BOX - PO LOBBY", "address": {"city": "MONTGOMERY", "state": "AL", "street": "560 GEORGE TODD DR", "postcode": "36121"}}}
]}
