{"type": "FeatureCollection", "features": [
{"geometry": {"type": "Point", "coordinates": [-85.826534128, 33.6584778652]}, "type": "Feature", "properties": {"collection_times": [{"days": "Mon-Sat", "time": "5:30pm"}, {"days": "Sun", "time": "Closed"}], "id": "3620100000", "name": "USPS COLLECTION BOX - BLUE BOX", "address": {"city": "ANNISTON", "state": "AL", "street": "1101 QUINTARD AVE", "postcode": "36201"}}},
{"geometry": {"type": "Point", "coordinates": [-85.826534128, 33.6584778652]}, "type": "Feature", "properties": {"collection_times": [{"days": "Mon-Sat", "time": "5:30pm"}, {"days": "Sun", "time": "Closed"}], "id": "3620100001", "name": "USPS COLLECTION BOX - BLUE BOX", "address": {"city": "ANNISTON", "state": "AL", "street": "1101 QUINTARD AVE", "postcode": "36201"}}},
{"geometry": {"type": "Point", "coordinates": [-85.826534128, 33.6584778652]}, "type": "Feature", "properties": {"collection_times": [{"days": "Mon-Sat", "time": "5:30pm"}, {"days": "Sun", "time": "Closed"}], "id": "3620100003", "name": "USPS COLLECTION BOX - BLUE BOX", "address": {"city": "ANNISTON", "state": "AL", "street": "1101 QUINTARD AVE", "postcode": "36201"}}},
{"geometry": {"type": "Point", "coordinates": [-85.85950846, 33.6565422864]}, "type": "Feature", "properties": {"collection_times": [{"days": "Mon-Sat", "time": "5:30pm"}, {"days": "Sun", "time": "Closed"}], "id": "3620100006", "name": "USPS COLLECTION BOX - EXPRESS", "address": {"city": "ANNISTON", "state": "AL", "street": "1101 QUINTARD AVE", "postcode": "36201"}}},
{"geometry": {"type": "Point", "coordinates": [-85.85950846, 33.6565422864]}, "type": "Feature", "properties": {"collection_times": [{"days": "Mon-Fri", "time": "3:00pm"}, {"days": "Sat", "time": "10:00am"}, {"days": "Sun", "time": "Closed"}], "id": "3620100013", "name": "USPS COLLECTION BOX - BLUE BOX", "address": {"city": "ANNISTON", "state": "AL", "street": "931 NOBLE ST", "postcode": "36201"}}},
{"geometry": {"type": "Point", "coordinates": [-85.8268767611, 33.6588600737]}, "type": "Feature", "properties": {"collection_times": [{"days": "Mon-Fri", "time": "3:00pm"}, {"days": "Sat", "time": "10:00am"}, {"days": "Sun", "time": "Closed"}], "id": "3620100015", "name": "USPS COLLECTION BOX - BLUE BOX", "address": {"city": "ANNISTON", "state": "AL", "street": "1130 QUINTARD AVE REAR", "postcode": "36201"}}},
{"geometry": {"type": "Point", "coordinates": [-85.8298628491, 33.666422086]}, "type": "Feature", "properties": {"collection_times": [{"days": "Mon-Fri", "time": "3:00pm"}, {"days": "Sat", "time": "10:00am"}, {"days": "Sun", "time": "Closed"}], "id": "3620100017", "name": "USPS COLLECTION BOX - BLUE BOX", "address": {"city": "ANNISTON", "state": "AL", "street": "1702 NOBLE ST", "postcode": "36201"}}},
{"geometry": {"type": "Point", "coordinates": [-85.8305013362, 33.6585069422]}, "type": "Feature", "properties": {"collection_times": [{"days": "Mon-Fri", "time": "3:00pm"}, {"days": "Sat", "time": "10:00am"}, {"days": "Sun", "time": "Closed"}], "id": "3620100028", "name": "USPS COLLECTION BOX - BLUE BOX", "address": {"city": "ANNISTON", "state": "AL", "street": "25 W 11TH ST", "postcode": "36201"}}},
{"geometry": {"type": "Point", "coordinates": [-85.8617817534, 33.6476015078]}, "type": "Feature", "properties": {"collection_times": [{"days": "Mon-Fri", "time": "2:30pm"}, {"days": "Sat", "time": "1:00pm"}, {"days": "Sun", "time": "Closed"}], "id": "3620100035", "name": "USPS COLLECTION BOX - BLUE BOX", "address": {"city": "ANNISTON", "state": "AL", "street": "2427 AL HIGHWAY 202", "postcode": "36201"}}},
{"geometry": {"type": "Point", "coordinates": [-85.826534128, 33.6584778652]}, "type": "Feature", "properties": {"collection_times": [{"days": "Mon-Sat", "time": "5:30pm"}, {"days": "Sun", "time": "Closed"}], "id": "3620100039", "name": "USPS COLLECTION BOX - PO LOBBY", "address": {"city": "ANNISTON", "state": "AL", "street": "1101 QUINTARD AVE", "postcode": "36201"}}},
{"geometry": {"type": "Point", "coordinates": [-85.826534128, 33.6584778652]}, "type": "Feature", "properties": {"collection_times": [{"days": "Mon-Sat", "time": "5:30pm"}, {"days": "Sun", "time": "Closed"}], "id": "3620100041", "name": "USPS COLLECTION BOX - PO LOBBY", "address": {"city": "ANNISTON", "state": "AL", "street": "1101 QUINTARD AVE", "postcode": "36201"}}},
{"geometry": {"type": "Point", "coordinates": [-85.826534128, 33.6584778652]}, "type": "Feature", "properties": {"collection_times": [{"days": "Mon-Sat", "time": "5:30pm"}, {"days": "Sun", "time": "Closed"}], "id": "3620100042", "name": "USPS COLLECTION BOX - PO LOBBY", "address": {"city": "ANNISTON", "state": "AL", "street": "1101 QUINTARD AVE", "postcode": "36201"}}},
{"geometry": {"type": "Point", "coordinates": [-85.8349821665, 33.6007540633]}, "type": "Feature", "properties": {"collection_times": [{"days": "Mon-Fri", "time": "5:00pm"}, {"days": "Sat", "time": "3:30pm"}, {"days": "Sun", "time": "Closed"}], "id": "3620300000", "name": "USPS COLLECTION BOX - BLUE BOX", "address": {"city": "OXFORD", "state": "AL", "street": "90 PLAZA LN", "postcode": "36203"}}},
{"geometry": {"type": "Point", "coordinates": [-85.8445486061, 33.5963900303]}, "type": "Feature", "properties": {"collection_times": [{"days": "Mon-Fri", "time": "5:00pm"}, {"days": "Sat", "time": "3:30pm"}, {"days": "Sun", "time": "Closed"}], "id": "3620300001", "name": "USPS COLLECTION BOX - EXPRESS", "address": {"city": "OXFORD", "state": "AL", "street": "90 PLAZA LN", "postcode": "36203"}}},
{"geometry": {"type": "Point", "coordinates": [-85.8349821665, 33.6007540633]}, "type": "Feature", "properties": {"collection_times": [{"days": "Mon-Fri", "time": "5:00pm"}, {"days": "Sat", "time": "3:30pm"}, {"days": "Sun", "time": "Closed"}], "id": "3620300010", "name": "USPS COLLECTION BOX - PO LOBBY", "address": {"city": "OXFORD", "state": "AL", "street": "90 PLAZA LN", "postcode": "36203"}}},
{"geometry": {"type": "Point", "coordinates": [-85.8349821665, 33.6007540633]}, "type": "Feature", "properties": {"collection_times": [{"days": "Mon-Fri", "time": "5:00pm"}, {"days": "Sat", "time": "3:30pm"}, {"days": "Sun", "time": "Closed"}], "id": "3620300011", "name": "USPS COLLECTION BOX - BLUE BOX", "address": {"city": "OXFORD", "state": "AL", "street": "90 PLAZA LN", "postcode": "36203"}}},
{"geometry": {"type": "Point", "coordinates": [-85.8245042936, 33.6823304287]}, "type": "Feature", "properties": {"collection_times": [{"days": "Mon-Fri", "time": "4:30pm"}, {"days": "Sat", "time": "10:00am"}, {"days": "Sun", "time": "Closed"}], "id": "3620400001", "name": "USPS COLLECTION BOX - BLUE BOX", "address": {"city": "ANNISTON", "state": "AL", "street": "3104 MCCLELLAN BLVD", "postcode": "36204"}}},
{"geometry": {"type": "Point", "coordinates": [-85.823106004, 33.6888908523]}, "type": "Feature", "properties": {"collection_times": [{"days": "Mon-Fri", "time": "4:30pm"}, {"days": "Sat", "time": "10:00am"}, {"days": "Sun", "time": "Closed"}], "id": "3620400002", "name": "USPS COLLECTION BOX - EXPRESS", "address": {"city": "ANNISTON", "state": "AL", "street": "3104 MCCLELLAN BLVD", "postcode": "36204"}}},
{"geometry": {"type": "Point", "coordinates": [-85.8245042936, 33.6823304287]}, "type": "Feature", "properties": {"collection_times": [{"days": "Mon-Fri", "time": "4:30pm"}, {"days": "Sat-Sun", "time": "Closed"}], "id": "3620400003", "name": "USPS COLLECTION BOX - PO LOBBY", "address": {"city": "ANNISTON", "state": "AL", "street": "3104 MCCLELLAN BLVD", "postcode": "36204"}}},
{"geometry": {"type": "Point", "coordinates": [-85.830800295, 33.702605152]}, "type": "Feature", "properties": {"collection_times": [{"days": "Mon-Sat", "time": "10:00am"}, {"days": "Sun", "time": "Closed"}], "id": "3620600000", "name": "USPS COLLECTION BOX - BLUE BOX", "address": {"city": "ANNISTON", "state": "AL", "street": "1000 US HIGHWAY 431", "postcode": "36206"}}},
{"geometry": {"type": "Point", "coordinates": [-85.817953573, 33.7193761861]}, "type": "Feature", "properties": {"collection_times": [{"days": "Mon-Sat", "time": "3:00pm"}, {"days": "Sun", "time": "Closed"}], "id": "3620600003", "name": "USPS COLLECTION BOX - BLUE BOX", "address": {"city": "ANNISTON", "state": "AL", "street": "5560 MCCLELLAN BLVD", "postcode": "36206"}}},
{"geometry": {"type": "Point", "coordinates": [-85.8567329566, 33.7155743823]}, "type": "Feature", "properties": {"collection_times": [{"days": "Mon-Sat", "time": "10:00am"}, {"days": "Sun", "time": "Closed"}], "id": "3620600004", "name": "USPS COLLECTION BOX - BLUE BOX", "address": {"city": "ANNISTON", "state": "AL", "street": "2499 US HIGHWAY 431", "postcode": "36206"}}},
{"geometry": {"type": "Point", "coordinates": [-85.7645787799, 33.6471701095]}, "type": "Feature", "properties": {"collection_times": [{"days": "Mon-Fri", "time": "3:00pm"}, {"days": "Sat", "time": "10:00am"}, {"days": "Sun", "time": "Closed"}], "id": "3620700001", "name": "USPS COLLECTION BOX - BLUE BOX", "address": {"city": "ANNISTON", "state": "AL", "street": "1702 NOBLE ST", "postcode": "36207"}}},
{"geometry": {"type": "Point", "coordinates": [-85.8249702243, 33.6677603154]}, "type": "Feature", "properties": {"collection_times": [{"days": "Mon-Fri", "time": "3:00pm"}, {"days": "Sat", "time": "12:00pm"}, {"days": "Sun", "time": "Closed"}], "id": "3620700004", "name": "USPS COLLECTION BOX - BLUE BOX", "address": {"city": "ANNISTON", "state": "AL", "street": "301 E 18TH ST", "postcode": "36207"}}},
{"geometry": {"type": "Point", "coordinates": [-85.8262284941, 33.6570637401]}, "type": "Feature", "properties": {"collection_times": [{"days": "Mon-Fri", "time": "3:00pm"}, {"days": "Sat", "time": "12:00pm"}, {"days": "Sun", "time": "Closed"}], "id": "3620700006", "name": "USPS COLLECTION BOX - BLUE BOX", "address": {"city": "ANNISTON", "state": "AL", "street": "220 E 10TH ST", "postcode": "36207"}}},
{"geometry": {"type": "Point", "coordinates": [-85.8925086368, 33.7666001451]}, "type": "Feature", "properties": {"collection_times": [{"days": "Mon-Fri", "time": "3:30pm"}, {"days": "Sat", "time": "10:30am"}, {"days": "Sun", "time": "Closed"}], "id": "3625000000", "name": "USPS COLLECTION BOX - BLUE BOX", "address": {"city": "ALEXANDRIA", "state": "AL", "street": "6582 US HIGHWAY 431", "postcode": "36250"}}},
{"geometry": {"type": "Point", "coordinates": [-85.8925086368, 33.7666001451]}, "type": "Feature", "properties": {"collection_times": [{"days": "Mon-Fri", "time": "3:30pm"}, {"days": "Sat", "time": "10:30am"}, {"days": "Sun", "time": "Closed"}], "id": "3625000001", "name": "USPS COLLECTION BOX - PO LOBBY", "address": {"city": "ALEXANDRIA", "state": "AL", "street": "6582 US HIGHWAY 431", "postcode": "36250"}}},
{"geometry": {"type": "Point", "coordinates": [-85.8339669914, 33.2738232485]}, "type": "Feature", "properties": {"collection_times": [{"days": "Mon-Fri", "time": "4:00pm"}, {"days": "Sat", "time": "11:00am"}, {"days": "Sun", "time": "Closed"}], "id": "3625100000", "name": "USPS COLLECTION BOX - BLUE BOX", "address": {"city": "ASHLAND", "state": "AL", "street": "83280 HIGHWAY 9", "postcode": "36251"}}},
{"geometry": {"type": "Point", "coordinates": [-85.8339669914, 33.2738232485]}, "type": "Feature", "properties": {"collection_times": [{"days": "Mon-Fri", "time": "4:30pm"}, {"days": "Sat", "time": "11:00am"}, {"days": "Sun", "time": "Closed"}], "id": "3625100001", "name": "USPS COLLECTION BOX - PO LOBBY", "address": {"city": "ASHLAND", "state": "AL", "street": "83280 HIGHWAY 9", "postcode": "36251"}}},
{"geometry": {"type": "Point", "coordinates": [-85.8339669914, 33.2738232485]}, "type": "Feature", "properties": {"collection_times": [{"days": "Mon-Fri", "time": "4:30pm"}, {"days": "Sat", "time": "11:00am"}, {"days": "Sun", "time": "Closed"}], "id": "3625100003", "name": "USPS COLLECTION BOX - PO LOBBY", "address": {"city": "ASHLAND", "state": "AL", "street": "83280 HIGHWAY 9", "postcode": "36251"}}},
{"geometry": {"type": "Point", "coordinates": [-85.9525772714, 33.6165798999]}, "type": "Feature", "properties": {"collection_times": [{"days": "Mon-Fri", "time": "4:00pm"}, {"days": "Sat", "time": "11:30am"}, {"days": "Sun", "time": "Closed"}], "id": "3625300001", "name": "USPS COLLECTION BOX - BLUE BOX", "address": {"city": "BYNUM", "state": "AL", "street": "2045 BYNUM BLVD", "postcode": "36253"}}},
{"geometry": {"type": "Point", "coordinates": [-85.9525772714, 33.6165798999]}, "type": "Feature", "properties": {"collection_times": [{"days": "Mon-Fri", "time": "4:00pm"}, {"days": "Sat", "time": "11:30am"}, {"days": "Sun", "time": "Closed"}], "id": "3625300002", "name": "USPS COLLECTION BOX - PO LOBBY", "address": {"city": "BYNUM", "state": "AL", "street": "2045 BYNUM BLVD", "postcode": "36253"}}},
{"geometry": {"type": "Point", "coordinates": [-85.7024459757, 33.6514954408]}, "type": "Feature", "properties": {"collection_times": [{"days": "Mon-Fri", "time": "4:00pm"}, {"days": "Sat", "time": "11:00am"}, {"days": "Sun", "time": "Closed"}], "id": "3625400000", "name": "USPS COLLECTION BOX - BLUE BOX", "address": {"city": "CHOCCOLOCCO", "state": "AL", "street": "28 MILLIGAN ST", "postcode": "36254"}}},
{"geometry": {"type": "Point", "coordinates": [-85.7024459757, 33.6514954408]}, "type": "Feature", "properties": {"collection_times": [{"days": "Mon-Fri", "time": "4:00pm"}, {"days": "Sat", "time": "11:00am"}, {"days": "Sun", "time": "Closed"}], "id": "3625400001", "name": "USPS COLLECTION BOX - PO LOBBY", "address": {"city": "CHOCCOLOCCO", "state": "AL", "street": "28 MILLIGAN ST", "postcode": "36254"}}},
{"geometry": {"type": "Point", "coordinates": [-85.6782290008, 33.2546900946]}, "type": "Feature", "properties": {"collection_times": [{"days": "Mon-Fri", "time": "11:50am"}, {"days": "Sat", "time": "10:45am"}, {"days": "Sun", "time": "Closed"}], "id": "3625500000", "name": "USPS COLLECTION BOX - BLUE BOX", "address": {"city": "CRAGFORD", "state": "AL", "street": "11304 CRAGFORD RD", "postcode": "36255"}}},
{"geometry": {"type": "Point", "coordinates": [-85.6782290008, 33.2546900946]}, "type": "Feature", "properties": {"collection_times": [{"days": "Mon-Fri", "time": "11:50am"}, {"days": "Sat", "time": "10:45am"}, {"days": "Sun", "time": "Closed"}], "id": "3625500001", "name": "USPS COLLECTION BOX - PO LOBBY", "address": {"city": "CRAGFORD", "state": "AL", "street": "11304 CRAGFORD RD", "postcode": "36255"}}},
{"geometry": {"type": "Point", "coordinates": [-85.6281560981, 33.05480981]}, "type": "Feature", "properties": {"collection_times": [{"days": "Mon-Fri", "time": "3:45pm"}, {"days": "Sat", "time": "11:00am"}, {"days": "Sun", "time": "Closed"}], "id": "3625600000", "name": "USPS COLLECTION BOX - BLUE BOX", "address": {"city": "DAVISTON", "state": "AL", "street": "22960 HIGHWAY 22 E", "postcode": "36256"}}},
{"geometry": {"type": "Point", "coordinates": [-85.6281560981, 33.05480981]}, "type": "Feature", "properties": {"collection_times": [{"days": "Mon-Fri", "time": "3:45pm"}, {"days": "Sat", "time": "11:00am"}, {"days": "Sun", "time": "Closed"}], "id": "3625600001", "name": "USPS COLLECTION BOX - PO LOBBY", "address": {"city": "DAVISTON", "state": "AL", "street": "22960 HIGHWAY 22 E", "postcode": "36256"}}},
{"geometry": {"type": "Point", "coordinates": [-85.7518144883, 33.6257747657]}, "type": "Feature", "properties": {"collection_times": [{"days": "Mon-Fri", "time": "3:50pm"}, {"days": "Sat", "time": "9:45am"}, {"days": "Sun", "time": "Closed"}], "id": "3625700000", "name": "USPS COLLECTION BOX - BLUE BOX", "address": {"city": "DE ARMANVILLE", "state": "AL", "street": "661 DE ARMANVILLE RD", "postcode": "36257"}}},
{"geometry": {"type": "Point", "coordinates": [-85.7518144883, 33.6257747657]}, "type": "Feature", "properties": {"collection_times": [{"days": "Mon-Fri", "time": "3:50pm"}, {"days": "Sat", "time": "9:45am"}, {"days": "Sun", "time": "Closed"}], "id": "3625700001", "name": "USPS COLLECTION BOX - PO LOBBY", "address": {"city": "DE ARMANVILLE", "state": "AL", "street": "661 DE ARMANVILLE RD", "postcode": "36257"}}},
{"geometry": {"type": "Point", "coordinates": [-85.6376696825, 33.5236247663]}, "type": "Feature", "properties": {"collection_times": [{"days": "Mon-Fri", "time": "11:50am"}, {"days": "Sat", "time": "10:30am"}, {"days": "Sun", "time": "Closed"}], "id": "3625800000", "name": "USPS COLLECTION BOX - BLUE BOX", "address": {"city": "DELTA", "state": "AL", "street": "99145 HIGHWAY 9", "postcode": "36258"}}},
{"geometry": {"type": "Point", "coordinates": [-85.6376696825, 33.5236247663]}, "type": "Feature", "properties": {"collection_times": [{"days": "Mon-Fri", "time": "11:50am"}, {"days": "Sat", "time": "10:30am"}, {"days": "Sun", "time": "Closed"}], "id": "3625800001", "name": "USPS COLLECTION BOX - PO LOBBY", "address": {"city": "DELTA", "state": "AL", "street": "99145 HIGHWAY 9", "postcode": "36258"}}},
{"geometry": {"type": "Point", "coordinates": [-86.0204859689, 33.6040149842]}, "type": "Feature", "properties": {"collection_times": [{"days": "Mon-Fri", "time": "4:00pm"}, {"days": "Sat", "time": "10:00am"}, {"days": "Sun", "time": "Closed"}], "id": "3626000000", "name": "USPS COLLECTION BOX - BLUE BOX", "address": {"city": "EASTABOGA", "state": "AL", "street": "10329 US HIGHWAY 78 W", "postcode": "36260"}}},
{"geometry": {"type": "Point", "coordinates": [-86.0204859689, 33.6040149842]}, "type": "Feature", "properties": {"collection_times": [{"days": "Mon-Fri", "time": "4:00pm"}, {"days": "Sat", "time": "10:00am"}, {"days": "Sun", "time": "Closed"}], "id": "3626000003", "name": "USPS COLLECTION BOX - PO LOBBY", "address": {"city": "EASTABOGA", "state": "AL", "street": "10329 US HIGHWAY 78 W", "postcode": "36260"}}},
{"geometry": {"type": "Point", "coordinates": [-85.5106379022, 33.707501475]}, "type": "Feature", "properties": {"collection_times": [{"days": "Mon-Fri", "time": "9:50am"}, {"days": "Sat", "time": "12:30pm"}, {"days": "Sun", "time": "Closed"}], "id": "3626100000", "name": "USPS COLLECTION BOX - BLUE BOX", "address": {"city": "EDWARDSVILLE", "state": "AL", "street": "4024 TALLAPOOSA ST", "postcode": "36261"}}},
{"geometry": {"type": "Point", "coordinates": [-85.5106379022, 33.707501475]}, "type": "Feature", "properties": {"collection_times": [{"days": "Mon-Fri", "time": "9:50am"}, {"days": "Sat", "time": "12:30pm"}, {"days": "Sun", "time": "Closed"}], "id": "3626100001", "name": "USPS COLLECTION BOX - PO LOBBY", "address": {"city": "EDWARDSVILLE", "state": "AL", "street": "4024 TALLAPOOSA ST", "postcode": "36261"}}},
{"geometry": {"type": "Point", "coordinates": [-85.4281318474, 33.7333343316]}, "type": "Feature", "properties": {"collection_times": [{"days": "Mon-Fri", "time": "2:50pm"}, {"days": "Sat", "time": "9:00am"}, {"days": "Sun", "time": "Closed"}], "id": "3626200000", "name": "USPS COLLECTION BOX - BLUE BOX", "address": {"city": "FRUITHURST", "state": "AL", "street": "16205 HIGHWAY 78", "postcode": "36262"}}},
{"geometry": {"type": "Point", "coordinates": [-85.4281318474, 33.7333343316]}, "type": "Feature", "properties": {"collection_times": [{"days": "Mon-Fri", "time": "2:50pm"}, {"days": "Sat", "time": "9:00am"}, {"days": "Sun", "time": "Closed"}], "id": "3626200001", "name": "USPS COLLECTION BOX - PO LOBBY", "address": {"city": "FRUITHURST", "state": "AL", "street": "16205 HIGHWAY 78", "postcode": "36262"}}},
{"geometry": {"type": "Point", "coordinates": [-85.4341299292, 33.730721978]}, "type": "Feature", "properties": {"collection_times": [{"days": "Mon-Sat", "time": "1:30pm"}, {"days": "Sun", "time": "Closed"}], "id": "3626200003", "name": "USPS COLLECTION BOX - BLUE BOX", "address": {"city": "FRUITHURST", "state": "AL", "street": "15995 HIGHWAY 78", "postcode": "36262"}}},
{"geometry": {"type": "Point", "coordinates": [-85.3192250182, 33.4579427485]}, "type": "Feature", "properties": {"collection_times": [{"days": "Mon-Fri", "time": "11:50am"}, {"days": "Sat", "time": "10:30am"}, {"days": "Sun", "time": "Closed"}], "id": "3626300000", "name": "USPS COLLECTION BOX - BLUE BOX", "address": {"city": "GRAHAM", "state": "AL", "street": "32877 HIGHWAY 48", "postcode": "36263"}}},
{"geometry": {"type": "Point", "coordinates": [-85.3192250182, 33.4579427485]}, "type": "Feature", "properties": {"collection_times": [{"days": "Mon-Fri", "time": "11:50am"}, {"days": "Sat", "time": "10:30am"}, {"days": "Sun", "time": "Closed"}], "id": "3626300001", "name": "USPS COLLECTION BOX - PO LOBBY", "address": {"city": "GRAHAM", "state": "AL", "street": "32877 HIGHWAY 48", "postcode": "36263"}}},
{"geometry": {"type": "Point", "coordinates": [-85.5932729221, 33.6325407305]}, "type": "Feature", "properties": {"collection_times": [{"days": "Mon-Sat", "time": "12:00pm"}, {"days": "Sun", "time": "Closed"}], "id": "3626400000", "name": "USPS COLLECTION BOX - PO LOBBY", "address": {"city": "HEFLIN", "state": "AL", "street": "1519 ALMON ST", "postcode": "36264"}}},
{"geometry": {"type": "Point", "coordinates": [-85.5932729221, 33.6325407305]}, "type": "Feature", "properties": {"collection_times": [{"days": "Mon-Sat", "time": "12:00pm"}, {"days": "Sun", "time": "Closed"}], "id": "3626400001", "name": "USPS COLLECTION BOX - PO LOBBY", "address": {"city": "HEFLIN", "state": "AL", "street": "1519 ALMON ST", "postcode": "36264"}}},
{"geometry": {"type": "Point", "coordinates": [-85.5878464542, 33.65052132]}, "type": "Feature", "properties": {"collection_times": [{"days": "Mon-Sat", "time": "12:00pm"}, {"days": "Sun", "time": "Closed"}], "id": "3626400003", "name": "USPS COLLECTION BOX - BLUE BOX", "address": {"city": "HEFLIN", "state": "AL", "street": "120 VICKERY ST", "postcode": "36264"}}},
{"geometry": {"type": "Point", "coordinates": [-85.5932729221, 33.6325407305]}, "type": "Feature", "properties": {"collection_times": [{"days": "Mon-Sat", "time": "12:00pm"}, {"days": "Sun", "time": "Closed"}], "id": "3626400007", "name": "USPS COLLECTION BOX - BLUE BOX", "address": {"city": "HEFLIN", "state": "AL", "street": "1519 ALMON ST", "postcode": "36264"}}},
{"geometry": {"type": "Point", "coordinates": [-85.761516284, 33.8195828766]}, "type": "Feature", "properties": {"collection_times": [{"days": "Mon-Fri", "time": "4:30pm"}, {"days": "Sat", "time": "12:00pm"}, {"days": "Sun", "time": "Closed"}], "id": "3626500000", "name": "USPS COLLECTION BOX - BLUE BOX", "address": {"city": "JACKSONVILLE", "state": "AL", "street": "421 PELHAM RD N", "postcode": "36265"}}},
{"geometry": {"type": "Point", "coordinates": [-85.761516284, 33.8195828766]}, "type": "Feature", "properties": {"collection_times": [{"days": "Mon-Fri", "time": "4:30pm"}, {"days": "Sat", "time": "12:00pm"}, {"days": "Sun", "time": "Closed"}], "id": "3626500001", "name": "USPS COLLECTION BOX - BLUE BOX", "address": {"city": "JACKSONVILLE", "state": "AL", "street": "421 PELHAM RD N", "postcode": "36265"}}},
{"geometry": {"type": "Point", "coordinates": [-85.761516284, 33.8195828766]}, "type": "Feature", "properties": {"collection_times": [{"days": "Mon-Fri", "time": "4:30pm"}, {"days": "Sat", "time": "12:00pm"}, {"days": "Sun", "time": "Closed"}], "id": "3626500013", "name": "USPS COLLECTION BOX - PO LOBBY", "address": {"city": "JACKSONVILLE", "state": "AL", "street": "421 PELHAM RD N", "postcode": "36265"}}},
{"geometry": {"type": "Point", "coordinates": [-85.7543771623, 33.3136838942]}, "type": "Feature", "properties": {"collection_times": [{"days": "Mon-Fri", "time": "4:30pm"}, {"days": "Sat", "time": "2:00pm"}, {"days": "Sun", "time": "Closed"}], "id": "3626600000", "name": "USPS COLLECTION BOX - BLUE BOX", "address": {"city": "LINEVILLE", "state": "AL", "street": "60035 HIGHWAY 49", "postcode": "36266"}}},
{"geometry": {"type": "Point", "coordinates": [-85.7543771623, 33.3136838942]}, "type": "Feature", "properties": {"collection_times": [{"days": "Mon-Fri", "time": "4:30pm"}, {"days": "Sat", "time": "2:00pm"}, {"days": "Sun", "time": "Closed"}], "id": "3626600001", "name": "USPS COLLECTION BOX - PO LOBBY", "address": {"city": "LINEVILLE", "state": "AL", "street": "60035 HIGHWAY 49", "postcode": "36266"}}},
{"geometry": {"type": "Point", "coordinates": [-85.9502351119, 33.5294997625]}, "type": "Feature", "properties": {"collection_times": [{"days": "Mon-Fri", "time": "4:15pm"}, {"days": "Sat", "time": "10:30am"}, {"days": "Sun", "time": "Closed"}], "id": "3626800000", "name": "USPS COLLECTION BOX - BLUE BOX", "address": {"city": "MUNFORD", "state": "AL", "street": "33 CEDARS RD", "postcode": "36268"}}},
{"geometry": {"type": "Point", "coordinates": [-85.9502351119, 33.5294997625]}, "type": "Feature", "properties": {"collection_times": [{"days": "Mon-Fri", "time": "4:15pm"}, {"days": "Sat", "time": "10:30am"}, {"days": "Sun", "time": "Closed"}], "id": "3626800001", "name": "USPS COLLECTION BOX - PO LOBBY", "address": {"city": "MUNFORD", "state": "AL", "street": "33 CEDARS RD", "postcode": "36268"}}},
{"geometry": {"type": "Point", "coordinates": [-85.3867158364, 33.7312865121]}, "type": "Feature", "properties": {"collection_times": [{"days": "Mon-Fri", "time": "11:50am"}, {"days": "Sat", "time": "10:15am"}, {"days": "Sun", "time": "Closed"}], "id": "3626900000", "name": "USPS COLLECTION BOX - BLUE BOX", "address": {"city": "MUSCADINE", "state": "AL", "street": "37 COUNTY ROAD 267", "postcode": "36269"}}},
{"geometry": {"type": "Point", "coordinates": [-85.3867158364, 33.7312865121]}, "type": "Feature", "properties": {"collection_times": [{"days": "Mon-Fri", "time": "11:50am"}, {"days": "Sat", "time": "10:15am"}, {"days": "Sun", "time": "Closed"}], "id": "3626900001", "name": "USPS COLLECTION BOX - PO LOBBY", "address": {"city": "MUSCADINE", "state": "AL", "street": "37 COUNTY ROAD 267", "postcode": "36269"}}},
{"geometry": {"type": "Point", "coordinates": [-86.0414911114, 33.7659892776]}, "type": "Feature", "properties": {"collection_times": [{"days": "Mon-Fri", "time": "3:45pm"}, {"days": "Sat", "time": "10:00am"}, {"days": "Sun", "time": "Closed"}], "id": "3627100000", "name": "USPS COLLECTION BOX - BLUE BOX", "address": {"city": "OHATCHEE", "state": "AL", "street": "7847 AL HIGHWAY 77", "postcode": "36271"}}},
{"geometry": {"type": "Point", "coordinates": [-86.0414911114, 33.7659892776]}, "type": "Feature", "properties": {"collection_times": [{"days": "Mon-Fri", "time": "3:45pm"}, {"days": "Sat", "time": "10:00am"}, {"days": "Sun", "time": "Closed"}], "id": "3627100001", "name": "USPS COLLECTION BOX - PO LOBBY", "address": {"city": "OHATCHEE", "state": "AL", "street": "7847 AL HIGHWAY 77", "postcode": "36271"}}},
{"geometry": {"type": "Point", "coordinates": [-85.6110662337, 33.9234444223]}, "type": "Feature", "properties": {"collection_times": [{"days": "Mon-Fri", "time": "4:30pm"}, {"days": "Sat", "time": "3:30pm"}, {"days": "Sun", "time": "Closed"}], "id": "3627200000", "name": "USPS COLLECTION BOX - BLUE BOX", "address": {"city": "PIEDMONT", "state": "AL", "street": "111 E LADIGA ST", "postcode": "36272"}}},
{"geometry": {"type": "Point", "coordinates": [-85.6110662337, 33.9234444223]}, "type": "Feature", "properties": {"collection_times": [{"days": "Mon-Fri", "time": "4:30pm"}, {"days": "Sat", "time": "3:30pm"}, {"days": "Sun", "time": "Closed"}], "id": "3627200001", "name": "USPS COLLECTION BOX - BLUE BOX", "address": {"city": "PIEDMONT", "state": "AL", "street": "111 E LADIGA ST", "postcode": "36272"}}},
{"geometry": {"type": "Point", "coordinates": [-85.6110662337, 33.9234444223]}, "type": "Feature", "properties": {"collection_times": [{"days": "Mon-Fri", "time": "4:30pm"}, {"days": "Sat", "time": "3:30pm"}, {"days": "Sun", "time": "Closed"}], "id": "3627200009", "name": "USPS COLLECTION BOX - PO LOBBY", "address": {"city": "PIEDMONT", "state": "AL", "street": "111 E LADIGA ST", "postcode": "36272"}}},
{"geometry": {"type": "Point", "coordinates": [-85.3420385742, 33.5255466871]}, "type": "Feature", "properties": {"collection_times": [{"days": "Mon-Fri", "time": "3:30pm"}, {"days": "Sat", "time": "11:00am"}, {"days": "Sun", "time": "Closed"}], "id": "3627300000", "name": "USPS COLLECTION BOX - PO LOBBY", "address": {"city": "RANBURNE", "state": "AL", "street": "21371 MAIN ST", "postcode": "36273"}}},
{"geometry": {"type": "Point", "coordinates": [-85.3420385742, 33.5255466871]}, "type": "Feature", "properties": {"collection_times": [{"days": "Mon-Fri", "time": "3:30pm"}, {"days": "Sat", "time": "11:00am"}, {"days": "Sun", "time": "Closed"}], "id": "3627300001", "name": "USPS COLLECTION BOX - BLUE BOX", "address": {"city": "RANBURNE", "state": "AL", "street": "21371 MAIN ST", "postcode": "36273"}}},
{"geometry": {"type": "Point", "coordinates": [-85.422770271, 33.2260754969]}, "type": "Feature", "properties": {"collection_times": [{"days": "Mon-Sat", "time": "4:30pm"}, {"days": "Sun", "time": "Closed"}], "id": "3627400006", "name": "USPS COLLECTION BOX - PO LOBBY", "address": {"city": "ROANOKE", "state": "AL", "street": "3078 HIGHWAY 431", "postcode": "36274"}}},
{"geometry": {"type": "Point", "coordinates": [-85.422770271, 33.2260754969]}, "type": "Feature", "properties": {"collection_times": [{"days": "Mon-Sat", "time": "4:30pm"}, {"days": "Sun", "time": "Closed"}], "id": "3627400007", "name": "USPS COLLECTION BOX - BLUE BOX", "address": {"city": "ROANOKE", "state": "AL", "street": "3078 HIGHWAY 431", "postcode": "36274"}}},
{"geometry": {"type": "Point", "coordinates": [-85.422770271, 33.2260754969]}, "type": "Feature", "properties": {"collection_times": [{"days": "Mon-Sat", "time": "4:30pm"}, {"days": "Sun", "time": "Closed"}], "id": "3627400008", "name": "USPS COLLECTION BOX - BLUE BOX", "address": {"city": "ROANOKE", "state": "AL", "street": "3078 HIGHWAY 431", "postcode": "36274"}}},
{"geometry": {"type": "Point", "coordinates": [-85.3710168717, 33.1694541348]}, "type": "Feature", "properties": {"collection_times": [{"days": "Mon-Sat", "time": "4:30pm"}, {"days": "Sun", "time": "Closed"}], "id": "3627400009", "name": "USPS COLLECTION BOX - EXPRESS", "address": {"city": "ROANOKE", "state": "AL", "street": "3078 HIGHWAY 431", "postcode": "36274"}}},
{"geometry": {"type": "Point", "coordinates": [-85.6878957164, 34.1543382517]}, "type": "Feature", "properties": {"collection_times": [{"days": "Mon-Fri", "time": "4:00pm"}, {"days": "Sat", "time": "9:00am"}, {"days": "Sun", "time": "Closed"}], "id": "3627500000", "name": "USPS COLLECTION BOX - BLUE BOX", "address": {"city": "SPRING GARDEN", "state": "AL", "street": "1325 COUNTY ROAD 29", "postcode": "36275"}}},
{"geometry": {"type": "Point", "coordinates": [-85.6878957164, 34.1543382517]}, "type": "Feature", "properties": {"collection_times": [{"days": "Mon-Fri", "time": "4:00pm"}, {"days": "Sat", "time": "9:00am"}, {"days": "Sun", "time": "Closed"}], "id": "3627500001", "name": "USPS COLLECTION BOX - PO LOBBY", "address": {"city": "SPRING GARDEN", "state": "AL", "street": "1325 COUNTY ROAD 29", "postcode": "36275"}}},
{"geometry": {"type": "Point", "coordinates": [-85.5645890229, 33.1200242886]}, "type": "Feature", "properties": {"collection_times": [{"days": "Mon-Fri", "time": "3:45pm"}, {"days": "Sat", "time": "12:00pm"}, {"days": "Sun", "time": "Closed"}], "id": "3627600000", "name": "USPS COLLECTION BOX - BLUE BOX", "address": {"city": "WADLEY", "state": "AL", "street": "150 MAIN ST", "postcode": "36276"}}},
{"geometry": {"type": "Point", "coordinates": [-85.5645890229, 33.1200242886]}, "type": "Feature", "properties": {"collection_times": [{"days": "Mon-Fri", "time": "3:45pm"}, {"days": "Sat", "time": "12:00pm"}, {"days": "Sun", "time": "Closed"}], "id": "3627600001", "name": "USPS COLLECTION BOX - PO LOBBY", "address": {"city": "WADLEY", "state": "AL", "street": "150 MAIN ST", "postcode": "36276"}}},
{"geometry": {"type": "Point", "coordinates": [-85.8134634584, 33.7529256815]}, "type": "Feature", "properties": {"collection_times": [{"days": "Mon-Fri", "time": "4:00pm"}, {"days": "Sat", "time": "11:00am"}, {"days": "Sun", "time": "Closed"}], "id": "3627700000", "name": "USPS COLLECTION BOX - BLUE BOX", "address": {"city": "WEAVER", "state": "AL", "street": "300 ALEXANDRIA RD", "postcode": "36277"}}},
{"geometry": {"type": "Point", "coordinates": [-85.8134634584, 33.7529256815]}, "type": "Feature", "properties": {"collection_times": [{"days": "Mon-Fri", "time": "4:00pm"}, {"days": "Sat", "time": "11:00am"}, {"days": "Sun", "time": "Closed"}], "id": "3627700002", "name": "USPS COLLECTION BOX - PO LOBBY", "address": {"city": "WEAVER", "state": "AL", "street": "300 ALEXANDRIA RD", "postcode": "36277"}}},
{"geometry": {"type": "Point", "coordinates": [-85.4916839689, 33.3598683222]}, "type": "Feature", "properties": {"collection_times": [{"days": "Mon-Fri", "time": "4:15pm"}, {"days": "Sat", "time": "11:45am"}, {"days": "Sun", "time": "Closed"}], "id": "3627800000", "name": "USPS COLLECTION BOX - BLUE BOX", "address": {"city": "WEDOWEE", "state": "AL", "street": "17697 HIGHWAY 431", "postcode": "36278"}}},
{"geometry": {"type": "Point", "coordinates": [-85.4916839689, 33.3598683222]}, "type": "Feature", "properties": {"collection_times": [{"days": "Mon-Fri", "time": "4:15pm"}, {"days": "Sat", "time": "11:45am"}, {"days": "Sun", "time": "Closed"}], "id": "3627800001", "name": "USPS COLLECTION BOX - PO LOBBY", "address": {"city": "WEDOWEE", "state": "AL", "street": "17697 HIGHWAY 431", "postcode": "36278"}}},
{"geometry": {"type": "Point", "coordinates": [-85.9087908276, 33.8246674478]}, "type": "Feature", "properties": {"collection_times": [{"days": "Mon-Fri", "time": "11:50am"}, {"days": "Sat", "time": "9:45am"}, {"days": "Sun", "time": "Closed"}], "id": "3627900000", "name": "USPS COLLECTION BOX - BLUE BOX", "address": {"city": "WELLINGTON", "state": "AL", "street": "50 WELLINGTON DR", "postcode": "36279"}}},
{"geometry": {"type": "Point", "coordinates": [-85.9087908276, 33.8246674478]}, "type": "Feature", "properties": {"collection_times": [{"days": "Mon-Fri", "time": "11:50am"}, {"days": "Sat", "time": "9:35am"}, {"days": "Sun", "time": "Closed"}], "id": "3627900001", "name": "USPS COLLECTION BOX - PO LOBBY", "address": {"city": "WELLINGTON", "state": "AL", "street": "50 WELLINGTON DR", "postcode": "36279"}}},
{"geometry": {"type": "Point", "coordinates": [-85.3987399538, 33.374493408]}, "type": "Feature", "properties": {"collection_times": [{"days": "Mon-Fri", "time": "4:00pm"}, {"days": "Sat", "time": "10:30am"}, {"days": "Sun", "time": "Closed"}], "id": "3628000000", "name": "USPS COLLECTION BOX - BLUE BOX", "address": {"city": "WOODLAND", "state": "AL", "street": "148 WOODLAND DR", "postcode": "36280"}}},
{"geometry": {"type": "Point", "coordinates": [-85.3987399538, 33.374493408]}, "type": "Feature", "properties": {"collection_times": [{"days": "Mon-Fri", "time": "4:00pm"}, {"days": "Sat", "time": "10:30am"}, {"days": "Sun", "time": "Closed"}], "id": "3628000002", "name": "USPS COLLECTION BOX - PO LOBBY", "address": {"city": "WOODLAND", "state": "AL", "street": "148 WOODLAND DR", "postcode": "36280"}}}
]}
