{"type": "FeatureCollection", "features": [
{"geometry": {"type": "Point", "coordinates": [-85.4030593061, 31.1911235248]}, "type": "Feature", "properties": {"collection_times": [{"days": "Mon-Fri", "time": "12:00pm"}, {"days": "Sat", "time": "10:00am"}, {"days": "Sun", "time": "Closed"}], "id": "3630100003", "name": "USPS COLLECTION BOX - BLUE BOX", "address": {"city": "TAYLOR", "state": "AL", "street": "2214 ROSS CLARK CIR", "postcode": "36301"}}},
{"geometry": {"type": "Point", "coordinates": [-85.3887844315, 31.2192781806]}, "type": "Feature", "properties": {"collection_times": [{"days": "Mon-Sat", "time": "12:00pm"}, {"days": "Sun", "time": "Closed"}], "id": "3630100007", "name": "USPS COLLECTION BOX - BLUE BOX", "address": {"city": "TAYLOR", "state": "AL", "street": "403 S APPLETREE ST", "postcode": "36301"}}},
{"geometry": {"type": "Point", "coordinates": [-85.3919312204, 31.2231815797]}, "type": "Feature", "properties": {"collection_times": [{"days": "Mon-Fri", "time": "3:00pm"}, {"days": "Sat", "time": "10:00am"}, {"days": "Sun", "time": "Closed"}], "id": "3630100008", "name": "USPS COLLECTION BOX - BLUE BOX", "address": {"city": "TAYLOR", "state": "AL", "street": "119 S FOSTER ST", "postcode": "36301"}}},
{"geometry": {"type": "Point", "coordinates": [-85.3984139067, 31.1898363759]}, "type": "Feature", "properties": {"collection_times": [{"days": "Mon-Fri", "time": "3:00pm"}, {"days": "Sat", "time": "10:30am"}, {"days": "Sun", "time": "Closed"}], "id": "3630100012", "name": "USPS COLLECTION BOX - BLUE BOX", "address": {"city": "TAYLOR", "state": "AL", "street": "2109 ROSS CLARK CIR", "postcode": "36301"}}},
{"geometry": {"type": "Point", "coordinates": [-85.3751585126, 31.194923394]}, "type": "Feature", "properties": {"collection_times": [{"days": "Mon-Sat", "time": "2:00pm"}, {"days": "Sun", "time": "Closed"}], "id": "3630100015", "name": "USPS COLLECTION BOX - BLUE BOX", "address": {"city": "TAYLOR", "state": "AL", "street": "1699 ROSS CLARK CIR", "postcode": "36301"}}},
{"geometry": {"type": "Point", "coordinates": [-85.432248431, 31.22269255]}, "type": "Feature", "properties": {"collection_times": [{"days": "Mon-Fri", "time": "1:00pm"}, {"days": "Sat", "time": "12:00pm"}, {"days": "Sun", "time": "Closed"}], "id": "3630100022", "name": "USPS COLLECTION BOX - BLUE BOX", "address": {"city": "TAYLOR", "state": "AL", "street": "2998 ROSS CLARK CIR", "postcode": "36301"}}},
{"geometry": {"type": "Point", "coordinates": [-85.4130109852, 31.2147251848]}, "type": "Feature", "properties": {"collection_times": [{"days": "Mon-Sat", "time": "3:00pm"}, {"days": "Sun", "time": "Closed"}], "id": "3630100037", "name": "USPS COLLECTION BOX - BLUE BOX", "address": {"city": "TAYLOR", "state": "AL", "street": "1357 FORTNER ST", "postcode": "36301"}}},
{"geometry": {"type": "Point", "coordinates": [-85.404772499, 31.21592128]}, "type": "Feature", "properties": {"collection_times": [{"days": "Mon-Sat", "time": "12:00pm"}, {"days": "Sun", "time": "Closed"}], "id": "3630100040", "name": "USPS COLLECTION BOX - BLUE BOX", "address": {"city": "TAYLOR", "state": "AL", "street": "1000 S EDGEWOOD DR", "postcode": "36301"}}},
{"geometry": {"type": "Point", "coordinates": [-85.4042967574, 31.2262208657]}, "type": "Feature", "properties": {"collection_times": [{"days": "Mon-Fri", "time": "3:00pm"}, {"days": "Sat", "time": "1:00pm"}, {"days": "Sun", "time": "Closed"}], "id": "3630100041", "name": "USPS COLLECTION BOX - BLUE BOX", "address": {"city": "TAYLOR", "state": "AL", "street": "1000 W MAIN ST", "postcode": "36301"}}},
{"geometry": {"type": "Point", "coordinates": [-85.416853415, 31.2279821239]}, "type": "Feature", "properties": {"collection_times": [{"days": "Mon-Fri", "time": "3:00pm"}, {"days": "Sat", "time": "2:00pm"}, {"days": "Sun", "time": "Closed"}], "id": "3630100042", "name": "USPS COLLECTION BOX - BLUE BOX", "address": {"city": "TAYLOR", "state": "AL", "street": "1837 W MAIN ST", "postcode": "36301"}}},
{"geometry": {"type": "Point", "coordinates": [-85.398718366, 31.2192304562]}, "type": "Feature", "properties": {"collection_times": [{"days": "Mon-Fri", "time": "3:00pm"}, {"days": "Sat", "time": "9:00am"}, {"days": "Sun", "time": "Closed"}], "id": "3630100048", "name": "USPS COLLECTION BOX - BLUE BOX", "address": {"city": "TAYLOR", "state": "AL", "street": "279 FORTNER ST", "postcode": "36301"}}},
{"geometry": {"type": "Point", "coordinates": [-85.468907853, 31.1641138899]}, "type": "Feature", "properties": {"collection_times": [{"days": "Mon-Sat", "time": "10:30am"}, {"days": "Sun", "time": "Closed"}], "id": "3630100050", "name": "USPS COLLECTION BOX - BLUE BOX", "address": {"city": "TAYLOR", "state": "AL", "street": "30 TRILLIUM CIR", "postcode": "36301"}}},
{"geometry": {"type": "Point", "coordinates": [-85.398831649, 31.187114182]}, "type": "Feature", "properties": {"collection_times": [{"days": "Mon-Sat", "time": "10:30am"}, {"days": "Sun", "time": "Closed"}], "id": "3630100051", "name": "USPS COLLECTION BOX - BLUE BOX", "address": {"city": "TAYLOR", "state": "AL", "street": "17 TRILLIUM CIR", "postcode": "36301"}}},
{"geometry": {"type": "Point", "coordinates": [-85.405110055, 31.177252677]}, "type": "Feature", "properties": {"collection_times": [{"days": "Mon-Sat", "time": "9:30am"}, {"days": "Sun", "time": "Closed"}], "id": "3630100057", "name": "USPS COLLECTION BOX - BLUE BOX", "address": {"city": "TAYLOR", "state": "AL", "street": "401 W INEZ RD", "postcode": "36301"}}},
{"geometry": {"type": "Point", "coordinates": [-85.432128806, 31.226729017]}, "type": "Feature", "properties": {"collection_times": [{"days": "Mon-Fri", "time": "1:00pm"}, {"days": "Sat", "time": "12:00pm"}, {"days": "Sun", "time": "Closed"}], "id": "3630100058", "name": "USPS COLLECTION BOX - BLUE BOX", "address": {"city": "TAYLOR", "state": "AL", "street": "3074 ROSS CLARK CIR", "postcode": "36301"}}},
{"geometry": {"type": "Point", "coordinates": [-85.3639159018, 31.2183075007]}, "type": "Feature", "properties": {"collection_times": [{"days": "Mon-Fri", "time": "3:00pm"}, {"days": "Sat", "time": "11:30am"}, {"days": "Sun", "time": "Closed"}], "id": "3630100064", "name": "USPS COLLECTION BOX - BLUE BOX", "address": {"city": "TAYLOR", "state": "AL", "street": "1815 E MAIN ST", "postcode": "36301"}}},
{"geometry": {"type": "Point", "coordinates": [-85.4263969808, 31.2096308669]}, "type": "Feature", "properties": {"collection_times": [{"days": "Mon-Fri", "time": "12:00pm"}, {"days": "Sat", "time": "11:00am"}, {"days": "Sun", "time": "Closed"}], "id": "3630100065", "name": "USPS COLLECTION BOX - BLUE BOX", "address": {"city": "TAYLOR", "state": "AL", "street": "2733 ROSS CLARK CIR", "postcode": "36301"}}},
{"geometry": {"type": "Point", "coordinates": [-85.4018657861, 31.186641146]}, "type": "Feature", "properties": {"collection_times": [{"days": "Mon-Fri", "time": "1:00pm"}, {"days": "Sat", "time": "10:00am"}, {"days": "Sun", "time": "Closed"}], "id": "3630100069", "name": "USPS COLLECTION BOX - BLUE BOX", "address": {"city": "TAYLOR", "state": "AL", "street": "3300 S OATES ST", "postcode": "36301"}}},
{"geometry": {"type": "Point", "coordinates": [-85.432523215, 31.223419778]}, "type": "Feature", "properties": {"collection_times": [{"days": "Mon-Fri", "time": "3:00pm"}, {"days": "Sat", "time": "12:00pm"}, {"days": "Sun", "time": "Closed"}], "id": "3630100072", "name": "USPS COLLECTION BOX - BLUE BOX", "address": {"city": "TAYLOR", "state": "AL", "street": "2999 ROSS CLARK CIR", "postcode": "36301"}}},
{"geometry": {"type": "Point", "coordinates": [-85.4315942611, 31.2187608466]}, "type": "Feature", "properties": {"collection_times": [{"days": "Mon-Fri", "time": "1:00pm"}, {"days": "Sat", "time": "12:00pm"}, {"days": "Sun", "time": "Closed"}], "id": "3630100073", "name": "USPS COLLECTION BOX - BLUE BOX", "address": {"city": "TAYLOR", "state": "AL", "street": "2942 ROSS CLARK CIR", "postcode": "36301"}}},
{"geometry": {"type": "Point", "coordinates": [-85.3988327971, 31.1777313413]}, "type": "Feature", "properties": {"collection_times": [{"days": "Mon-Fri", "time": "11:00am"}, {"days": "Sat-Sun", "time": "Closed"}], "id": "3630100075", "name": "USPS COLLECTION BOX - BLUE BOX", "address": {"city": "TAYLOR", "state": "AL", "street": "1378 HODGESVILLE RD", "postcode": "36301"}}},
{"geometry": {"type": "Point", "coordinates": [-85.3921125851, 31.2088261926]}, "type": "Feature", "properties": {"collection_times": [{"days": "Mon-Fri", "time": "3:00pm"}, {"days": "Sat-Sun", "time": "Closed"}], "id": "3630100076", "name": "USPS COLLECTION BOX - BLUE BOX", "address": {"city": "TAYLOR", "state": "AL", "street": "112 W COTTONWOOD RD", "postcode": "36301"}}},
{"geometry": {"type": "Point", "coordinates": [-85.4229224763, 31.2282383684]}, "type": "Feature", "properties": {"collection_times": [{"days": "Mon-Sat", "time": "10:00am"}, {"days": "Sun", "time": "Closed"}], "id": "3630100078", "name": "USPS COLLECTION BOX - BLUE BOX", "address": {"city": "TAYLOR", "state": "AL", "street": "2323 W MAIN ST", "postcode": "36301"}}},
{"geometry": {"type": "Point", "coordinates": [-85.3616329876, 31.2146040126]}, "type": "Feature", "properties": {"collection_times": [{"days": "Mon-Fri", "time": "2:00pm"}, {"days": "Sat", "time": "10:00am"}, {"days": "Sun", "time": "Closed"}], "id": "3630100080", "name": "USPS COLLECTION BOX - BLUE BOX", "address": {"city": "TAYLOR", "state": "AL", "street": "1108 ROSS CLARK CIR", "postcode": "36301"}}},
{"geometry": {"type": "Point", "coordinates": [-85.3616329876, 31.2146040126]}, "type": "Feature", "properties": {"collection_times": [{"days": "Mon-Fri", "time": "2:00pm"}, {"days": "Sat", "time": "10:00am"}, {"days": "Sun", "time": "Closed"}], "id": "3630100081", "name": "USPS COLLECTION BOX - BLUE BOX", "address": {"city": "TAYLOR", "state": "AL", "street": "1108 ROSS CLARK CIR", "postcode": "36301"}}},
{"geometry": {"type": "Point", "coordinates": [-85.432523215, 31.223419778]}, "type": "Feature", "properties": {"collection_times": [{"days": "Mon-Fri", "time": "3:00pm"}, {"days": "Sat", "time": "12:00pm"}, {"days": "Sun", "time": "Closed"}], "id": "3630100082", "name": "USPS COLLECTION BOX - BLUE BOX", "address": {"city": "TAYLOR", "state": "AL", "street": "2999 ROSS CLARK CIR", "postcode": "36301"}}},
{"geometry": {"type": "Point", "coordinates": [-85.4008527715, 31.1904996349]}, "type": "Feature", "properties": {"collection_times": [{"days": "Mon-Sat", "time": "10:00am"}, {"days": "Sun", "time": "Closed"}], "id": "3630100083", "name": "USPS COLLECTION BOX - BLUE BOX", "address": {"city": "TAYLOR", "state": "AL", "street": "2190 ROSS CLARK CIR", "postcode": "36301"}}},
{"geometry": {"type": "Point", "coordinates": [-85.39846, 31.179611]}, "type": "Feature", "properties": {"collection_times": [{"days": "Mon-Fri", "time": "11:30am"}, {"days": "Sat", "time": "11:00am"}, {"days": "Sun", "time": "Closed"}], "id": "3630100085", "name": "USPS COLLECTION BOX - BLUE BOX", "address": {"city": "TAYLOR", "state": "AL", "street": "1469 S STATE HIGHWAY 605", "postcode": "36301"}}},
{"geometry": {"type": "Point", "coordinates": [-85.394001807, 31.2276164628]}, "type": "Feature", "properties": {"collection_times": [{"days": "Mon-Sat", "time": "5:00pm"}, {"days": "Sun", "time": "Closed"}], "id": "3630200001", "name": "USPS COLLECTION BOX - PO LOBBY", "address": {"city": "DOTHAN", "state": "AL", "street": "379 N OATES ST", "postcode": "36302"}}},
{"geometry": {"type": "Point", "coordinates": [-85.394001807, 31.2276164628]}, "type": "Feature", "properties": {"collection_times": [{"days": "Mon-Sat", "time": "5:00pm"}, {"days": "Sun", "time": "Closed"}], "id": "3630200002", "name": "USPS COLLECTION BOX - PO LOBBY", "address": {"city": "DOTHAN", "state": "AL", "street": "379 N OATES ST", "postcode": "36302"}}},
{"geometry": {"type": "Point", "coordinates": [-85.394001807, 31.2276164628]}, "type": "Feature", "properties": {"collection_times": [{"days": "Mon-Sat", "time": "5:00pm"}, {"days": "Sun", "time": "Closed"}], "id": "3630200003", "name": "USPS COLLECTION BOX - PO LOBBY", "address": {"city": "DOTHAN", "state": "AL", "street": "379 N OATES ST", "postcode": "36302"}}},
{"geometry": {"type": "Point", "coordinates": [-85.394001807, 31.2276164628]}, "type": "Feature", "properties": {"collection_times": [{"days": "Mon-Sat", "time": "5:00pm"}, {"days": "Sun", "time": "Closed"}], "id": "3630200004", "name": "USPS COLLECTION BOX - PO LOBBY", "address": {"city": "DOTHAN", "state": "AL", "street": "379 N OATES ST", "postcode": "36302"}}},
{"geometry": {"type": "Point", "coordinates": [-85.394001807, 31.2276164628]}, "type": "Feature", "properties": {"collection_times": [{"days": "Mon-Sat", "time": "5:00pm"}, {"days": "Sun", "time": "Closed"}], "id": "3630200005", "name": "USPS COLLECTION BOX - PO LOBBY", "address": {"city": "DOTHAN", "state": "AL", "street": "379 N OATES ST", "postcode": "36302"}}},
{"geometry": {"type": "Point", "coordinates": [-85.394001807, 31.2276164628]}, "type": "Feature", "properties": {"collection_times": [{"days": "Mon-Sat", "time": "5:00pm"}, {"days": "Sun", "time": "Closed"}], "id": "3630200006", "name": "USPS COLLECTION BOX - PO LOBBY", "address": {"city": "DOTHAN", "state": "AL", "street": "379 N OATES ST", "postcode": "36302"}}},
{"geometry": {"type": "Point", "coordinates": [-85.3942503345, 31.227997183]}, "type": "Feature", "properties": {"collection_times": [{"days": "Mon-Sat", "time": "3:00pm"}, {"days": "Sun", "time": "Closed"}], "id": "3630300003", "name": "USPS COLLECTION BOX - BLUE BOX", "address": {"city": "DOTHAN", "state": "AL", "street": "212 W BURDESHAW ST", "postcode": "36303"}}},
{"geometry": {"type": "Point", "coordinates": [-85.3942503345, 31.227997183]}, "type": "Feature", "properties": {"collection_times": [{"days": "Mon-Sat", "time": "3:00pm"}, {"days": "Sun", "time": "Closed"}], "id": "3630300004", "name": "USPS COLLECTION BOX - BLUE BOX", "address": {"city": "DOTHAN", "state": "AL", "street": "212 W BURDESHAW ST", "postcode": "36303"}}},
{"geometry": {"type": "Point", "coordinates": [-85.3942503345, 31.227997183]}, "type": "Feature", "properties": {"collection_times": [{"days": "Mon-Sat", "time": "3:00pm"}, {"days": "Sun", "time": "Closed"}], "id": "3630300005", "name": "USPS COLLECTION BOX - BLUE BOX", "address": {"city": "DOTHAN", "state": "AL", "street": "212 W BURDESHAW ST", "postcode": "36303"}}},
{"geometry": {"type": "Point", "coordinates": [-85.4397612284, 31.2306025836]}, "type": "Feature", "properties": {"collection_times": [{"days": "Mon-Sat", "time": "9:30am"}, {"days": "Sun", "time": "Closed"}], "id": "3630300018", "name": "USPS COLLECTION BOX - BLUE BOX", "address": {"city": "DOTHAN", "state": "AL", "street": "100 CASTLE DR", "postcode": "36303"}}},
{"geometry": {"type": "Point", "coordinates": [-85.440882699, 31.231098527]}, "type": "Feature", "properties": {"collection_times": [{"days": "Mon-Sat", "time": "9:30am"}, {"days": "Sun", "time": "Closed"}], "id": "3630300019", "name": "USPS COLLECTION BOX - BLUE BOX", "address": {"city": "DOTHAN", "state": "AL", "street": "100 KNIGHT CT", "postcode": "36303"}}},
{"geometry": {"type": "Point", "coordinates": [-85.435590836, 31.24239165]}, "type": "Feature", "properties": {"collection_times": [{"days": "Mon-Sat", "time": "9:00am"}, {"days": "Sun", "time": "Closed"}], "id": "3630300020", "name": "USPS COLLECTION BOX - BLUE BOX", "address": {"city": "DOTHAN", "state": "AL", "street": "671 WESTGATE PKWY", "postcode": "36303"}}},
{"geometry": {"type": "Point", "coordinates": [-85.4377716843, 31.2432030244]}, "type": "Feature", "properties": {"collection_times": [{"days": "Mon-Sat", "time": "9:30am"}, {"days": "Sun", "time": "Closed"}], "id": "3630300021", "name": "USPS COLLECTION BOX - BLUE BOX", "address": {"city": "DOTHAN", "state": "AL", "street": "601 WHATLEY DR", "postcode": "36303"}}},
{"geometry": {"type": "Point", "coordinates": [-85.4318988924, 31.2304498343]}, "type": "Feature", "properties": {"collection_times": [{"days": "Mon-Fri", "time": "11:00am"}, {"days": "Sat", "time": "10:00am"}, {"days": "Sun", "time": "Closed"}], "id": "3630300022", "name": "USPS COLLECTION BOX - BLUE BOX", "address": {"city": "DOTHAN", "state": "AL", "street": "3116 ROSS CLARK CIR", "postcode": "36303"}}},
{"geometry": {"type": "Point", "coordinates": [-85.3900551059, 31.2499762291]}, "type": "Feature", "properties": {"collection_times": [{"days": "Mon-Sat", "time": "2:30pm"}, {"days": "Sun", "time": "Closed"}], "id": "3630300029", "name": "USPS COLLECTION BOX - BLUE BOX", "address": {"city": "DOTHAN", "state": "AL", "street": "1924 REEVES ST", "postcode": "36303"}}},
{"geometry": {"type": "Point", "coordinates": [-85.4341171795, 31.2561787254]}, "type": "Feature", "properties": {"collection_times": [{"days": "Mon-Sat", "time": "9:30am"}, {"days": "Sun", "time": "Closed"}], "id": "3630300034", "name": "USPS COLLECTION BOX - BLUE BOX", "address": {"city": "DOTHAN", "state": "AL", "street": "1461 WESTGATE PKWY", "postcode": "36303"}}},
{"geometry": {"type": "Point", "coordinates": [-85.4275603896, 31.251550802]}, "type": "Feature", "properties": {"collection_times": [{"days": "Mon-Sat", "time": "12:00pm"}, {"days": "Sun", "time": "Closed"}], "id": "3630300036", "name": "USPS COLLECTION BOX - BLUE BOX", "address": {"city": "DOTHAN", "state": "AL", "street": "3051 MONTGOMERY HWY", "postcode": "36303"}}},
{"geometry": {"type": "Point", "coordinates": [-85.4161051682, 31.2528386284]}, "type": "Feature", "properties": {"collection_times": [{"days": "Mon-Fri", "time": "4:30pm"}, {"days": "Sat", "time": "3:30pm"}, {"days": "Sun", "time": "Closed"}], "id": "3630300041", "name": "USPS COLLECTION BOX - PO LOBBY", "address": {"city": "DOTHAN", "state": "AL", "street": "3741 ROSS CLARK CIR", "postcode": "36303"}}},
{"geometry": {"type": "Point", "coordinates": [-85.4161051682, 31.2528386284]}, "type": "Feature", "properties": {"collection_times": [{"days": "Mon-Fri", "time": "4:30pm"}, {"days": "Sat", "time": "3:30pm"}, {"days": "Sun", "time": "Closed"}], "id": "3630300042", "name": "USPS COLLECTION BOX - BLUE BOX", "address": {"city": "DOTHAN", "state": "AL", "street": "3741 ROSS CLARK CIR", "postcode": "36303"}}},
{"geometry": {"type": "Point", "coordinates": [-85.4161051682, 31.2528386284]}, "type": "Feature", "properties": {"collection_times": [{"days": "Mon-Fri", "time": "4:30pm"}, {"days": "Sat", "time": "3:30pm"}, {"days": "Sun", "time": "Closed"}], "id": "3630300043", "name": "USPS COLLECTION BOX - BLUE BOX", "address": {"city": "DOTHAN", "state": "AL", "street": "3741 ROSS CLARK CIR", "postcode": "36303"}}},
{"geometry": {"type": "Point", "coordinates": [-85.4161051682, 31.2528386284]}, "type": "Feature", "properties": {"collection_times": [{"days": "Mon-Fri", "time": "4:30pm"}, {"days": "Sat", "time": "3:30pm"}, {"days": "Sun", "time": "Closed"}], "id": "3630300045", "name": "USPS COLLECTION BOX - BLUE BOX", "address": {"city": "DOTHAN", "state": "AL", "street": "3741 ROSS CLARK CIR", "postcode": "36303"}}},
{"geometry": {"type": "Point", "coordinates": [-85.422588387, 31.262063508]}, "type": "Feature", "properties": {"collection_times": [{"days": "Mon-Sat", "time": "11:00am"}, {"days": "Sun", "time": "Closed"}], "id": "3630300047", "name": "USPS COLLECTION BOX - BLUE BOX", "address": {"city": "DOTHAN", "state": "AL", "street": "2233 WESTGATE PKWY", "postcode": "36303"}}},
{"geometry": {"type": "Point", "coordinates": [-85.412058986, 31.255882074]}, "type": "Feature", "properties": {"collection_times": [{"days": "Mon-Sat", "time": "9:00am"}, {"days": "Sun", "time": "Closed"}], "id": "3630300050", "name": "USPS COLLECTION BOX - BLUE BOX", "address": {"city": "DOTHAN", "state": "AL", "street": "2168 DENTON RD", "postcode": "36303"}}},
{"geometry": {"type": "Point", "coordinates": [-85.4059026968, 31.2390395003]}, "type": "Feature", "properties": {"collection_times": [{"days": "Mon-Fri", "time": "12:00pm"}, {"days": "Sat", "time": "10:00am"}, {"days": "Sun", "time": "Closed"}], "id": "3630300066", "name": "USPS COLLECTION BOX - BLUE BOX", "address": {"city": "DOTHAN", "state": "AL", "street": "1558 MONTGOMERY HWY", "postcode": "36303"}}},
{"geometry": {"type": "Point", "coordinates": [-85.4161051682, 31.2528386284]}, "type": "Feature", "properties": {"collection_times": [{"days": "Mon-Fri", "time": "4:30pm"}, {"days": "Sat", "time": "3:30pm"}, {"days": "Sun", "time": "Closed"}], "id": "3630300067", "name": "USPS COLLECTION BOX - APC", "address": {"city": "DOTHAN", "state": "AL", "street": "3741 ROSS CLARK CIR", "postcode": "36303"}}},
{"geometry": {"type": "Point", "coordinates": [-85.4352163975, 31.2007524102]}, "type": "Feature", "properties": {"collection_times": [{"days": "Mon-Sat", "time": "10:00am"}, {"days": "Sun", "time": "Closed"}], "id": "3630500000", "name": "USPS COLLECTION BOX - BLUE BOX", "address": {"city": "DOTHAN", "state": "AL", "street": "1910 HONEYSUCKLE RD", "postcode": "36305"}}},
{"geometry": {"type": "Point", "coordinates": [-85.4321291993, 31.2211043363]}, "type": "Feature", "properties": {"collection_times": [{"days": "Mon-Fri", "time": "2:00pm"}, {"days": "Sat", "time": "1:00pm"}, {"days": "Sun", "time": "Closed"}], "id": "3630500001", "name": "USPS COLLECTION BOX - BLUE BOX", "address": {"city": "DOTHAN", "state": "AL", "street": "3119 WESLEY WAY", "postcode": "36305"}}},
{"geometry": {"type": "Point", "coordinates": [-85.4321291993, 31.2211043363]}, "type": "Feature", "properties": {"collection_times": [{"days": "Mon-Fri", "time": "2:00pm"}, {"days": "Sat", "time": "1:00pm"}, {"days": "Sun", "time": "Closed"}], "id": "3630500002", "name": "USPS COLLECTION BOX - BLUE BOX", "address": {"city": "DOTHAN", "state": "AL", "street": "3119 WESLEY WAY", "postcode": "36305"}}},
{"geometry": {"type": "Point", "coordinates": [-85.455448646, 31.228575512]}, "type": "Feature", "properties": {"collection_times": [{"days": "Mon-Sat", "time": "9:30am"}, {"days": "Sun", "time": "Closed"}], "id": "3630500003", "name": "USPS COLLECTION BOX - BLUE BOX", "address": {"city": "DOTHAN", "state": "AL", "street": "141 S WOODBURN DR", "postcode": "36305"}}},
{"geometry": {"type": "Point", "coordinates": [-85.4349266471, 31.217066252]}, "type": "Feature", "properties": {"collection_times": [{"days": "Mon-Sat", "time": "10:00am"}, {"days": "Sun", "time": "Closed"}], "id": "3630500004", "name": "USPS COLLECTION BOX - BLUE BOX", "address": {"city": "DOTHAN", "state": "AL", "street": "927 HONEYSUCKLE RD", "postcode": "36305"}}},
{"geometry": {"type": "Point", "coordinates": [-85.4564799594, 31.2356226214]}, "type": "Feature", "properties": {"collection_times": [{"days": "Mon-Fri", "time": "2:30pm"}, {"days": "Sat", "time": "10:30am"}, {"days": "Sun", "time": "Closed"}], "id": "3630500005", "name": "USPS COLLECTION BOX - BLUE BOX", "address": {"city": "DOTHAN", "state": "AL", "street": "4300 W MAIN ST", "postcode": "36305"}}},
{"geometry": {"type": "Point", "coordinates": [-85.4564799594, 31.2356226214]}, "type": "Feature", "properties": {"collection_times": [{"days": "Mon-Fri", "time": "2:30pm"}, {"days": "Sat", "time": "10:30am"}, {"days": "Sun", "time": "Closed"}], "id": "3630500006", "name": "USPS COLLECTION BOX - BLUE BOX", "address": {"city": "DOTHAN", "state": "AL", "street": "4300 W MAIN ST", "postcode": "36305"}}},
{"geometry": {"type": "Point", "coordinates": [-85.4564799594, 31.2356226214]}, "type": "Feature", "properties": {"collection_times": [{"days": "Mon-Fri", "time": "2:30pm"}, {"days": "Sat", "time": "10:30am"}, {"days": "Sun", "time": "Closed"}], "id": "3630500007", "name": "USPS COLLECTION BOX - BLUE BOX", "address": {"city": "DOTHAN", "state": "AL", "street": "4300 W MAIN ST", "postcode": "36305"}}},
{"geometry": {"type": "Point", "coordinates": [-85.4384791002, 31.2288153724]}, "type": "Feature", "properties": {"collection_times": [{"days": "Mon-Sat", "time": "9:00am"}, {"days": "Sun", "time": "Closed"}], "id": "3630500010", "name": "USPS COLLECTION BOX - BLUE BOX", "address": {"city": "DOTHAN", "state": "AL", "street": "3124 W MAIN ST", "postcode": "36305"}}},
{"geometry": {"type": "Point", "coordinates": [-85.4528945104, 31.2345332975]}, "type": "Feature", "properties": {"collection_times": [{"days": "Mon-Fri", "time": "2:30pm"}, {"days": "Sat", "time": "10:30am"}, {"days": "Sun", "time": "Closed"}], "id": "3630500011", "name": "USPS COLLECTION BOX - BLUE BOX", "address": {"city": "DOTHAN", "state": "AL", "street": "4030 W MAIN ST", "postcode": "36305"}}},
{"geometry": {"type": "Point", "coordinates": [-85.4528945104, 31.2345332975]}, "type": "Feature", "properties": {"collection_times": [{"days": "Mon-Fri", "time": "2:30pm"}, {"days": "Sat", "time": "10:30am"}, {"days": "Sun", "time": "Closed"}], "id": "3630500012", "name": "USPS COLLECTION BOX - BLUE BOX", "address": {"city": "DOTHAN", "state": "AL", "street": "4030 W MAIN ST", "postcode": "36305"}}},
{"geometry": {"type": "Point", "coordinates": [-85.4528945104, 31.2345332975]}, "type": "Feature", "properties": {"collection_times": [{"days": "Mon-Fri", "time": "2:30pm"}, {"days": "Sat", "time": "10:30am"}, {"days": "Sun", "time": "Closed"}], "id": "3630500013", "name": "USPS COLLECTION BOX - BLUE BOX", "address": {"city": "DOTHAN", "state": "AL", "street": "4030 W MAIN ST", "postcode": "36305"}}},
{"geometry": {"type": "Point", "coordinates": [-85.2492859785, 31.5716926476]}, "type": "Feature", "properties": {"collection_times": [{"days": "Mon-Fri", "time": "4:00pm"}, {"days": "Sat", "time": "12:00pm"}, {"days": "Sun", "time": "Closed"}], "id": "3631000001", "name": "USPS COLLECTION BOX - BLUE BOX", "address": {"city": "ABBEVILLE", "state": "AL", "street": "110 E WASHINGTON ST", "postcode": "36310"}}},
{"geometry": {"type": "Point", "coordinates": [-85.2492859785, 31.5716926476]}, "type": "Feature", "properties": {"collection_times": [{"days": "Mon-Fri", "time": "4:00pm"}, {"days": "Sat", "time": "12:00pm"}, {"days": "Sun", "time": "Closed"}], "id": "3631000003", "name": "USPS COLLECTION BOX - PO LOBBY", "address": {"city": "ABBEVILLE", "state": "AL", "street": "110 E WASHINGTON ST", "postcode": "36310"}}},
{"geometry": {"type": "Point", "coordinates": [-85.2492859785, 31.5716926476]}, "type": "Feature", "properties": {"collection_times": [{"days": "Mon-Fri", "time": "4:00pm"}, {"days": "Sat", "time": "12:00pm"}, {"days": "Sun", "time": "Closed"}], "id": "3631000004", "name": "USPS COLLECTION BOX - BLUE BOX", "address": {"city": "ABBEVILLE", "state": "AL", "street": "110 E WASHINGTON ST", "postcode": "36310"}}},
{"geometry": {"type": "Point", "coordinates": [-85.7176711994, 31.600397133]}, "type": "Feature", "properties": {"collection_times": [{"days": "Mon-Fri", "time": "4:00pm"}, {"days": "Sat", "time": "11:00am"}, {"days": "Sun", "time": "Closed"}], "id": "3631100001", "name": "USPS COLLECTION BOX - PO LOBBY", "address": {"city": "ARITON", "state": "AL", "street": "52 PEA RIVER RD", "postcode": "36311"}}},
{"geometry": {"type": "Point", "coordinates": [-85.7176711994, 31.600397133]}, "type": "Feature", "properties": {"collection_times": [{"days": "Mon-Fri", "time": "4:00pm"}, {"days": "Sat", "time": "11:00am"}, {"days": "Sun", "time": "Closed"}], "id": "3631100002", "name": "USPS COLLECTION BOX - BLUE BOX", "address": {"city": "ARITON", "state": "AL", "street": "52 PEA RIVER RD", "postcode": "36311"}}},
{"geometry": {"type": "Point", "coordinates": [-85.7176711994, 31.600397133]}, "type": "Feature", "properties": {"collection_times": [{"days": "Mon-Fri", "time": "4:00pm"}, {"days": "Sat", "time": "11:00am"}, {"days": "Sun", "time": "Closed"}], "id": "3631100004", "name": "USPS COLLECTION BOX - PO LOBBY", "address": {"city": "ARITON", "state": "AL", "street": "52 PEA RIVER RD", "postcode": "36311"}}},
{"geometry": {"type": "Point", "coordinates": [-85.2868200045, 31.1819787764]}, "type": "Feature", "properties": {"collection_times": [{"days": "Mon-Fri", "time": "3:45pm"}, {"days": "Sat", "time": "10:45am"}, {"days": "Sun", "time": "Closed"}], "id": "3631200002", "name": "USPS COLLECTION BOX - BLUE BOX", "address": {"city": "ASHFORD", "state": "AL", "street": "603 N BROADWAY ST", "postcode": "36312"}}},
{"geometry": {"type": "Point", "coordinates": [-85.2868200045, 31.1819787764]}, "type": "Feature", "properties": {"collection_times": [{"days": "Mon-Fri", "time": "3:45pm"}, {"days": "Sat", "time": "10:45am"}, {"days": "Sun", "time": "Closed"}], "id": "3631200003", "name": "USPS COLLECTION BOX - BLUE BOX", "address": {"city": "ASHFORD", "state": "AL", "street": "603 N BROADWAY ST", "postcode": "36312"}}},
{"geometry": {"type": "Point", "coordinates": [-85.2868200045, 31.1819787764]}, "type": "Feature", "properties": {"collection_times": [{"days": "Mon-Fri", "time": "3:45pm"}, {"days": "Sat", "time": "10:45am"}, {"days": "Sun", "time": "Closed"}], "id": "3631200006", "name": "USPS COLLECTION BOX - PO LOBBY", "address": {"city": "ASHFORD", "state": "AL", "street": "603 N BROADWAY ST", "postcode": "36312"}}},
{"geometry": {"type": "Point", "coordinates": [-85.7934287856, 31.1729928179]}, "type": "Feature", "properties": {"collection_times": [{"days": "Mon-Fri", "time": "11:50am"}, {"days": "Sat", "time": "10:15am"}, {"days": "Sun", "time": "Closed"}], "id": "3631300001", "name": "USPS COLLECTION BOX - BLUE BOX", "address": {"city": "BELLWOOD", "state": "AL", "street": "4940 COUNTY ROAD 45", "postcode": "36313"}}},
{"geometry": {"type": "Point", "coordinates": [-85.7934287856, 31.1729928179]}, "type": "Feature", "properties": {"collection_times": [{"days": "Mon-Fri", "time": "11:50am"}, {"days": "Sat", "time": "10:15am"}, {"days": "Sun", "time": "Closed"}], "id": "3631300002", "name": "USPS COLLECTION BOX - PO LOBBY", "address": {"city": "BELLWOOD", "state": "AL", "street": "4940 COUNTY ROAD 45", "postcode": "36313"}}},
{"geometry": {"type": "Point", "coordinates": [-85.743835448, 31.0111048751]}, "type": "Feature", "properties": {"collection_times": [{"days": "Mon-Fri", "time": "11:50am"}, {"days": "Sat", "time": "11:00am"}, {"days": "Sun", "time": "Closed"}], "id": "3631400001", "name": "USPS COLLECTION BOX - BLUE BOX", "address": {"city": "BLACK", "state": "AL", "street": "128 N MAIN ST", "postcode": "36314"}}},
{"geometry": {"type": "Point", "coordinates": [-85.743835448, 31.0111048751]}, "type": "Feature", "properties": {"collection_times": [{"days": "Mon-Fri", "time": "11:50am"}, {"days": "Sat", "time": "11:00am"}, {"days": "Sun", "time": "Closed"}], "id": "3631400002", "name": "USPS COLLECTION BOX - PO LOBBY", "address": {"city": "BLACK", "state": "AL", "street": "128 N MAIN ST", "postcode": "36314"}}},
{"geometry": {"type": "Point", "coordinates": [-85.8671817356, 31.1840664163]}, "type": "Feature", "properties": {"collection_times": [{"days": "Mon-Fri", "time": "3:45pm"}, {"days": "Sat", "time": "10:15am"}, {"days": "Sun", "time": "Closed"}], "id": "3631600001", "name": "USPS COLLECTION BOX - PO LOBBY", "address": {"city": "CHANCELLOR", "state": "AL", "street": "10701 N STATE HIGHWAY 27", "postcode": "36316"}}},
{"geometry": {"type": "Point", "coordinates": [-85.9567963294, 31.1753129598]}, "type": "Feature", "properties": {"collection_times": [{"days": "Mon-Fri", "time": "12:00pm"}, {"days": "Sat", "time": "10:00am"}, {"days": "Sun", "time": "Closed"}], "id": "3631800001", "name": "USPS COLLECTION BOX - PO LOBBY", "address": {"city": "COFFEE SPRINGS", "state": "AL", "street": "147 N MAIN ST", "postcode": "36318"}}},
{"geometry": {"type": "Point", "coordinates": [-85.1115046691, 31.2929189974]}, "type": "Feature", "properties": {"collection_times": [{"days": "Mon-Fri", "time": "3:45pm"}, {"days": "Sat", "time": "10:45am"}, {"days": "Sun", "time": "Closed"}], "id": "3631900001", "name": "USPS COLLECTION BOX - BLUE BOX", "address": {"city": "COLUMBIA", "state": "AL", "street": "106 N MAIN ST", "postcode": "36319"}}},
{"geometry": {"type": "Point", "coordinates": [-85.1115046691, 31.2929189974]}, "type": "Feature", "properties": {"collection_times": [{"days": "Mon-Fri", "time": "3:45pm"}, {"days": "Sat", "time": "10:45am"}, {"days": "Sun", "time": "Closed"}], "id": "3631900002", "name": "USPS COLLECTION BOX - PO LOBBY", "address": {"city": "COLUMBIA", "state": "AL", "street": "106 N MAIN ST", "postcode": "36319"}}},
{"geometry": {"type": "Point", "coordinates": [-85.3164343165, 31.048154122]}, "type": "Feature", "properties": {"collection_times": [{"days": "Mon-Fri", "time": "11:30am"}, {"days": "Sat", "time": "11:00am"}, {"days": "Sun", "time": "Closed"}], "id": "3632000001", "name": "USPS COLLECTION BOX - PO LOBBY", "address": {"city": "COTTONWOOD", "state": "AL", "street": "53 JOE COOK ST", "postcode": "36320"}}},
{"geometry": {"type": "Point", "coordinates": [-85.3164343165, 31.048154122]}, "type": "Feature", "properties": {"collection_times": [{"days": "Mon-Fri", "time": "11:30am"}, {"days": "Sat", "time": "11:00am"}, {"days": "Sun", "time": "Closed"}], "id": "3632000002", "name": "USPS COLLECTION BOX - BLUE BOX", "address": {"city": "COTTONWOOD", "state": "AL", "street": "53 JOE COOK ST", "postcode": "36320"}}},
{"geometry": {"type": "Point", "coordinates": [-85.3021659145, 31.2001933621]}, "type": "Feature", "properties": {"collection_times": [{"days": "Mon-Fri", "time": "3:30pm"}, {"days": "Sat", "time": "10:30am"}, {"days": "Sun", "time": "Closed"}], "id": "3632100001", "name": "USPS COLLECTION BOX - BLUE BOX", "address": {"city": "COWARTS", "state": "AL", "street": "2935 JORDON AVE", "postcode": "36321"}}},
{"geometry": {"type": "Point", "coordinates": [-85.304079764, 31.2003376422]}, "type": "Feature", "properties": {"collection_times": [{"days": "Mon-Fri", "time": "3:30pm"}, {"days": "Sat", "time": "10:30am"}, {"days": "Sun", "time": "Closed"}], "id": "3632100002", "name": "USPS COLLECTION BOX - PO LOBBY", "address": {"city": "COWARTS", "state": "AL", "street": "2935 JORDON AVE", "postcode": "36321"}}},
{"geometry": {"type": "Point", "coordinates": [-85.7269718845, 31.301243787]}, "type": "Feature", "properties": {"collection_times": [{"days": "Mon-Fri", "time": "4:15pm"}, {"days": "Sat", "time": "3:30pm"}, {"days": "Sun", "time": "Closed"}], "id": "3632200001", "name": "USPS COLLECTION BOX - PO LOBBY", "address": {"city": "DALEVILLE", "state": "AL", "street": "100 VIRGINIA AVE", "postcode": "36322"}}},
{"geometry": {"type": "Point", "coordinates": [-85.7269718845, 31.301243787]}, "type": "Feature", "properties": {"collection_times": [{"days": "Mon-Fri", "time": "4:15pm"}, {"days": "Sat", "time": "3:30pm"}, {"days": "Sun", "time": "Closed"}], "id": "3632200002", "name": "USPS COLLECTION BOX - PO LOBBY", "address": {"city": "DALEVILLE", "state": "AL", "street": "100 VIRGINIA AVE", "postcode": "36322"}}},
{"geometry": {"type": "Point", "coordinates": [-85.7269718845, 31.301243787]}, "type": "Feature", "properties": {"collection_times": [{"days": "Mon-Fri", "time": "4:15pm"}, {"days": "Sat", "time": "3:30pm"}, {"days": "Sun", "time": "Closed"}], "id": "3632200005", "name": "USPS COLLECTION BOX - BLUE BOX", "address": {"city": "DALEVILLE", "state": "AL", "street": "100 VIRGINIA AVE", "postcode": "36322"}}},
{"geometry": {"type": "Point", "coordinates": [-85.7269718845, 31.301243787]}, "type": "Feature", "properties": {"collection_times": [{"days": "Mon-Fri", "time": "4:15pm"}, {"days": "Sat", "time": "3:30pm"}, {"days": "Sun", "time": "Closed"}], "id": "3632200006", "name": "USPS COLLECTION BOX - BLUE BOX", "address": {"city": "DALEVILLE", "state": "AL", "street": "100 VIRGINIA AVE", "postcode": "36322"}}},
{"geometry": {"type": "Point", "coordinates": [-86.0672511642, 31.4163592339]}, "type": "Feature", "properties": {"collection_times": [{"days": "Mon-Sat", "time": "12:00pm"}, {"days": "Sun", "time": "Closed"}], "id": "3632300009", "name": "USPS COLLECTION BOX - BLUE BOX", "address": {"city": "ELBA", "state": "AL", "street": "469 CLAXTON AVE N", "postcode": "36323"}}},
{"geometry": {"type": "Point", "coordinates": [-86.0672511642, 31.4163592339]}, "type": "Feature", "properties": {"collection_times": [{"days": "Mon-Sat", "time": "12:00pm"}, {"days": "Sun", "time": "Closed"}], "id": "3632300010", "name": "USPS COLLECTION BOX - BLUE BOX", "address": {"city": "ELBA", "state": "AL", "street": "469 CLAXTON AVE N", "postcode": "36323"}}},
{"geometry": {"type": "Point", "coordinates": [-86.0672511642, 31.4163592339]}, "type": "Feature", "properties": {"collection_times": [{"days": "Mon-Sat", "time": "12:00pm"}, {"days": "Sun", "time": "Closed"}], "id": "3632300011", "name": "USPS COLLECTION BOX - PO LOBBY", "address": {"city": "ELBA", "state": "AL", "street": "469 CLAXTON AVE N", "postcode": "36323"}}},
{"geometry": {"type": "Point", "coordinates": [-86.0672511642, 31.4163592339]}, "type": "Feature", "properties": {"collection_times": [{"days": "Mon-Sat", "time": "12:00pm"}, {"days": "Sun", "time": "Closed"}], "id": "3632300012", "name": "USPS COLLECTION BOX - PO LOBBY", "address": {"city": "ELBA", "state": "AL", "street": "469 CLAXTON AVE N", "postcode": "36323"}}},
{"geometry": {"type": "Point", "coordinates": [-85.8396836466, 31.3203854212]}, "type": "Feature", "properties": {"collection_times": [{"days": "Mon-Sat", "time": "4:30pm"}, {"days": "Sun", "time": "Closed"}], "id": "3633000001", "name": "USPS COLLECTION BOX - PO LOBBY", "address": {"city": "ENTERPRISE", "state": "AL", "street": "616 GLOVER AVE", "postcode": "36330"}}},
{"geometry": {"type": "Point", "coordinates": [-85.8405406952, 31.3204826105]}, "type": "Feature", "properties": {"collection_times": [{"days": "Mon-Fri", "time": "5:00pm"}, {"days": "Sat", "time": "4:30pm"}, {"days": "Sun", "time": "Closed"}], "id": "3633000002", "name": "USPS COLLECTION BOX - BLUE BOX", "address": {"city": "ENTERPRISE", "state": "AL", "street": "616 GLOVER AVE", "postcode": "36330"}}},
{"geometry": {"type": "Point", "coordinates": [-85.8405406952, 31.3204826105]}, "type": "Feature", "properties": {"collection_times": [{"days": "Mon-Fri", "time": "5:00pm"}, {"days": "Sat", "time": "4:30pm"}, {"days": "Sun", "time": "Closed"}], "id": "3633000003", "name": "USPS COLLECTION BOX - BLUE BOX", "address": {"city": "ENTERPRISE", "state": "AL", "street": "616 GLOVER AVE", "postcode": "36330"}}},
{"geometry": {"type": "Point", "coordinates": [-85.8405406952, 31.3204826105]}, "type": "Feature", "properties": {"collection_times": [{"days": "Mon-Fri", "time": "5:00pm"}, {"days": "Sat", "time": "4:30pm"}, {"days": "Sun", "time": "Closed"}], "id": "3633000004", "name": "USPS COLLECTION BOX - BLUE BOX", "address": {"city": "ENTERPRISE", "state": "AL", "street": "616 GLOVER AVE", "postcode": "36330"}}},
{"geometry": {"type": "Point", "coordinates": [-85.8405406952, 31.3204826105]}, "type": "Feature", "properties": {"collection_times": [{"days": "Mon-Fri", "time": "4:30pm"}, {"days": "Sat", "time": "12:30pm"}, {"days": "Sun", "time": "Closed"}], "id": "3633000005", "name": "USPS COLLECTION BOX - EXPRESS", "address": {"city": "ENTERPRISE", "state": "AL", "street": "616 GLOVER AVE", "postcode": "36330"}}},
{"geometry": {"type": "Point", "coordinates": [-85.8396836466, 31.3203854212]}, "type": "Feature", "properties": {"collection_times": [{"days": "Mon-Fri", "time": "5:00pm"}, {"days": "Sat", "time": "4:30pm"}, {"days": "Sun", "time": "Closed"}], "id": "3633000041", "name": "USPS COLLECTION BOX - APC", "address": {"city": "ENTERPRISE", "state": "AL", "street": "616 GLOVER AVE", "postcode": "36330"}}},
{"geometry": {"type": "Point", "coordinates": [-85.8405406952, 31.3204826105]}, "type": "Feature", "properties": {"collection_times": [{"days": "Mon-Fri", "time": "5:00pm"}, {"days": "Sat", "time": "4:30pm"}, {"days": "Sun", "time": "Closed"}], "id": "3633000042", "name": "USPS COLLECTION BOX - BLUE BOX", "address": {"city": "ENTERPRISE", "state": "AL", "street": "616 GLOVER AVE", "postcode": "36330"}}},
{"geometry": {"type": "Point", "coordinates": [-85.8655555352, 31.0349085685]}, "type": "Feature", "properties": {"collection_times": [{"days": "Mon-Fri", "time": "4:15pm"}, {"days": "Sat", "time": "11:45am"}, {"days": "Sun", "time": "Closed"}], "id": "3634000001", "name": "USPS COLLECTION BOX - PO LOBBY", "address": {"city": "GENEVA", "state": "AL", "street": "800 E CHURCH AVE", "postcode": "36340"}}},
{"geometry": {"type": "Point", "coordinates": [-85.8655555352, 31.0349085685]}, "type": "Feature", "properties": {"collection_times": [{"days": "Mon-Fri", "time": "4:15pm"}, {"days": "Sat", "time": "11:45am"}, {"days": "Sun", "time": "Closed"}], "id": "3634000002", "name": "USPS COLLECTION BOX - BLUE BOX", "address": {"city": "GENEVA", "state": "AL", "street": "800 E CHURCH AVE", "postcode": "36340"}}},
{"geometry": {"type": "Point", "coordinates": [-85.866199018, 31.040087938]}, "type": "Feature", "properties": {"collection_times": [{"days": "Mon-Fri", "time": "3:00pm"}, {"days": "Sat-Sun", "time": "Closed"}], "id": "3634000005", "name": "USPS COLLECTION BOX - BLUE BOX", "address": {"city": "GENEVA", "state": "AL", "street": "200 N COMMERCE ST", "postcode": "36340"}}},
{"geometry": {"type": "Point", "coordinates": [-85.1377987015, 31.0608316557]}, "type": "Feature", "properties": {"collection_times": [{"days": "Mon-Fri", "time": "11:50am"}, {"days": "Sat", "time": "10:30am"}, {"days": "Sun", "time": "Closed"}], "id": "3634300002", "name": "USPS COLLECTION BOX - PO LOBBY", "address": {"city": "GORDON", "state": "AL", "street": "1950 N COUNTY ROAD 95", "postcode": "36343"}}},
{"geometry": {"type": "Point", "coordinates": [-85.6976647457, 31.102226809]}, "type": "Feature", "properties": {"collection_times": [{"days": "Mon-Fri", "time": "4:15pm"}, {"days": "Sat", "time": "11:15am"}, {"days": "Sun", "time": "Closed"}], "id": "3634400003", "name": "USPS COLLECTION BOX - BLUE BOX", "address": {"city": "HARTFORD", "state": "AL", "street": "201 W MAIN ST", "postcode": "36344"}}},
{"geometry": {"type": "Point", "coordinates": [-85.6976647457, 31.102226809]}, "type": "Feature", "properties": {"collection_times": [{"days": "Mon-Fri", "time": "4:15pm"}, {"days": "Sat", "time": "11:15am"}, {"days": "Sun", "time": "Closed"}], "id": "3634400004", "name": "USPS COLLECTION BOX - PO LOBBY", "address": {"city": "HARTFORD", "state": "AL", "street": "201 W MAIN ST", "postcode": "36344"}}},
{"geometry": {"type": "Point", "coordinates": [-85.3356114773, 31.3397794185]}, "type": "Feature", "properties": {"collection_times": [{"days": "Mon-Fri", "time": "12:00pm"}, {"days": "Sat", "time": "11:00am"}, {"days": "Sun", "time": "Closed"}], "id": "3634500003", "name": "USPS COLLECTION BOX - BLUE BOX", "address": {"city": "HEADLAND", "state": "AL", "street": "711 MITCHELL ST", "postcode": "36345"}}},
{"geometry": {"type": "Point", "coordinates": [-85.3356114773, 31.3397794185]}, "type": "Feature", "properties": {"collection_times": [{"days": "Mon-Fri", "time": "12:00pm"}, {"days": "Sat", "time": "11:00am"}, {"days": "Sun", "time": "Closed"}], "id": "3634500006", "name": "USPS COLLECTION BOX - BLUE BOX", "address": {"city": "HEADLAND", "state": "AL", "street": "711 MITCHELL ST", "postcode": "36345"}}},
{"geometry": {"type": "Point", "coordinates": [-85.3356114773, 31.3397794185]}, "type": "Feature", "properties": {"collection_times": [{"days": "Mon-Fri", "time": "12:00pm"}, {"days": "Sat", "time": "11:00am"}, {"days": "Sun", "time": "Closed"}], "id": "3634500008", "name": "USPS COLLECTION BOX - PO LOBBY", "address": {"city": "HEADLAND", "state": "AL", "street": "711 MITCHELL ST", "postcode": "36345"}}},
{"geometry": {"type": "Point", "coordinates": [-85.997567898, 31.579308647]}, "type": "Feature", "properties": {"collection_times": [{"days": "Mon-Sat", "time": "12:00pm"}, {"days": "Sun", "time": "Closed"}], "id": "3634600001", "name": "USPS COLLECTION BOX - BLUE BOX", "address": {"city": "JACK", "state": "AL", "street": "29950 HIGHWAY 87", "postcode": "36346"}}},
{"geometry": {"type": "Point", "coordinates": [-85.997567898, 31.579308647]}, "type": "Feature", "properties": {"collection_times": [{"days": "Mon-Sat", "time": "12:00pm"}, {"days": "Sun", "time": "Closed"}], "id": "3634600002", "name": "USPS COLLECTION BOX - PO LOBBY", "address": {"city": "JACK", "state": "AL", "street": "29950 HIGHWAY 87", "postcode": "36346"}}},
{"geometry": {"type": "Point", "coordinates": [-85.4979644604, 31.3181375936]}, "type": "Feature", "properties": {"collection_times": [{"days": "Mon-Fri", "time": "3:45pm"}, {"days": "Sat", "time": "9:45am"}, {"days": "Sun", "time": "Closed"}], "id": "3635000001", "name": "USPS COLLECTION BOX - BLUE BOX", "address": {"city": "MIDLAND CITY", "state": "AL", "street": "167 KELLY AVE", "postcode": "36350"}}},
{"geometry": {"type": "Point", "coordinates": [-85.4979644604, 31.3181375936]}, "type": "Feature", "properties": {"collection_times": [{"days": "Mon-Fri", "time": "3:45pm"}, {"days": "Sat", "time": "9:45am"}, {"days": "Sun", "time": "Closed"}], "id": "3635000002", "name": "USPS COLLECTION BOX - BLUE BOX", "address": {"city": "MIDLAND CITY", "state": "AL", "street": "167 KELLY AVE", "postcode": "36350"}}},
{"geometry": {"type": "Point", "coordinates": [-85.4979644604, 31.3181375936]}, "type": "Feature", "properties": {"collection_times": [{"days": "Mon-Fri", "time": "3:45pm"}, {"days": "Sat", "time": "9:45am"}, {"days": "Sun", "time": "Closed"}], "id": "3635000003", "name": "USPS COLLECTION BOX - PO LOBBY", "address": {"city": "MIDLAND CITY", "state": "AL", "street": "167 KELLY AVE", "postcode": "36350"}}},
{"geometry": {"type": "Point", "coordinates": [-85.9309077841, 31.3845134022]}, "type": "Feature", "properties": {"collection_times": [{"days": "Mon-Fri", "time": "3:45pm"}, {"days": "Sat", "time": "11:45am"}, {"days": "Sun", "time": "Closed"}], "id": "3635100001", "name": "USPS COLLECTION BOX - BLUE BOX", "address": {"city": "NEW BROCKTON", "state": "AL", "street": "311 S JOHN ST", "postcode": "36351"}}},
{"geometry": {"type": "Point", "coordinates": [-85.9308207128, 31.3844776475]}, "type": "Feature", "properties": {"collection_times": [{"days": "Mon-Fri", "time": "3:45pm"}, {"days": "Sat", "time": "11:45am"}, {"days": "Sun", "time": "Closed"}], "id": "3635100002", "name": "USPS COLLECTION BOX - PO LOBBY", "address": {"city": "NEW BROCKTON", "state": "AL", "street": "311 S JOHN ST", "postcode": "36351"}}},
{"geometry": {"type": "Point", "coordinates": [-85.5954811194, 31.3276703886]}, "type": "Feature", "properties": {"collection_times": [{"days": "Mon-Fri", "time": "4:00pm"}, {"days": "Sat", "time": "10:00am"}, {"days": "Sun", "time": "Closed"}], "id": "3635200001", "name": "USPS COLLECTION BOX - BLUE BOX", "address": {"city": "NEWTON", "state": "AL", "street": "715 S COLLEGE ST", "postcode": "36352"}}},
{"geometry": {"type": "Point", "coordinates": [-85.5954811194, 31.3276703886]}, "type": "Feature", "properties": {"collection_times": [{"days": "Mon-Fri", "time": "4:00pm"}, {"days": "Sat", "time": "10:00am"}, {"days": "Sun", "time": "Closed"}], "id": "3635200002", "name": "USPS COLLECTION BOX - PO LOBBY", "address": {"city": "NEWTON", "state": "AL", "street": "715 S COLLEGE ST", "postcode": "36352"}}},
{"geometry": {"type": "Point", "coordinates": [-85.3358404724, 31.4216383109]}, "type": "Feature", "properties": {"collection_times": [{"days": "Mon-Fri", "time": "11:50am"}, {"days": "Sat", "time": "9:00am"}, {"days": "Sun", "time": "Closed"}], "id": "3635300001", "name": "USPS COLLECTION BOX - BLUE BOX", "address": {"city": "NEWVILLE", "state": "AL", "street": "182 N BROAD ST", "postcode": "36353"}}},
{"geometry": {"type": "Point", "coordinates": [-85.3358404724, 31.4216383109]}, "type": "Feature", "properties": {"collection_times": [{"days": "Mon-Fri", "time": "11:50am"}, {"days": "Sat", "time": "9:00am"}, {"days": "Sun", "time": "Closed"}], "id": "3635300002", "name": "USPS COLLECTION BOX - PO LOBBY", "address": {"city": "NEWVILLE", "state": "AL", "street": "182 N BROAD ST", "postcode": "36353"}}},
{"geometry": {"type": "Point", "coordinates": [-85.6492803832, 31.4537931648]}, "type": "Feature", "properties": {"collection_times": [{"days": "Mon-Sat", "time": "4:00pm"}, {"days": "Sun", "time": "Closed"}], "id": "3636000002", "name": "USPS COLLECTION BOX - BLUE BOX", "address": {"city": "OZARK", "state": "AL", "street": "537 ANDREWS AVE", "postcode": "36360"}}},
{"geometry": {"type": "Point", "coordinates": [-85.6492803832, 31.4537931648]}, "type": "Feature", "properties": {"collection_times": [{"days": "Mon-Sat", "time": "4:00pm"}, {"days": "Sun", "time": "Closed"}], "id": "3636000003", "name": "USPS COLLECTION BOX - BLUE BOX", "address": {"city": "OZARK", "state": "AL", "street": "537 ANDREWS AVE", "postcode": "36360"}}},
{"geometry": {"type": "Point", "coordinates": [-85.6492803832, 31.4537931648]}, "type": "Feature", "properties": {"collection_times": [{"days": "Mon-Sat", "time": "4:00pm"}, {"days": "Sun", "time": "Closed"}], "id": "3636000004", "name": "USPS COLLECTION BOX - BLUE BOX", "address": {"city": "OZARK", "state": "AL", "street": "537 ANDREWS AVE", "postcode": "36360"}}},
{"geometry": {"type": "Point", "coordinates": [-85.6492803832, 31.4537931648]}, "type": "Feature", "properties": {"collection_times": [{"days": "Mon-Sat", "time": "4:00pm"}, {"days": "Sun", "time": "Closed"}], "id": "3636000023", "name": "USPS COLLECTION BOX - PO LOBBY", "address": {"city": "OZARK", "state": "AL", "street": "537 ANDREWS AVE", "postcode": "36360"}}},
{"geometry": {"type": "Point", "coordinates": [-85.70802, 31.347143]}, "type": "Feature", "properties": {"collection_times": [{"days": "Mon-Fri", "time": "4:30pm"}, {"days": "Sat", "time": "9:30am"}, {"days": "Sun", "time": "Closed"}], "id": "3636200021", "name": "USPS COLLECTION BOX - PO LOBBY", "address": {"city": "FORT RUCKER", "state": "AL", "street": "9000 5TH AVE", "postcode": "36362"}}},
{"geometry": {"type": "Point", "coordinates": [-85.70802, 31.347143]}, "type": "Feature", "properties": {"collection_times": [{"days": "Mon-Fri", "time": "4:30pm"}, {"days": "Sat", "time": "9:30am"}, {"days": "Sun", "time": "Closed"}], "id": "3636200024", "name": "USPS COLLECTION BOX - BLUE BOX", "address": {"city": "FORT RUCKER", "state": "AL", "street": "9000 5TH AVE", "postcode": "36362"}}},
{"geometry": {"type": "Point", "coordinates": [-85.7128, 31.325172]}, "type": "Feature", "properties": {"collection_times": [{"days": "Mon-Sat", "time": "1:30pm"}, {"days": "Sun", "time": "Closed"}], "id": "3636200027", "name": "USPS COLLECTION BOX - BLUE BOX", "address": {"city": "FORT RUCKER", "state": "AL", "street": "6201 ANDREWS AVE", "postcode": "36362"}}},
{"geometry": {"type": "Point", "coordinates": [-85.7068638201, 31.3308107044]}, "type": "Feature", "properties": {"collection_times": [{"days": "Mon-Sat", "time": "1:30pm"}, {"days": "Sun", "time": "Closed"}], "id": "3636200028", "name": "USPS COLLECTION BOX - BLUE BOX", "address": {"city": "FORT RUCKER", "state": "AL", "street": "8360 3RD AVE", "postcode": "36362"}}},
{"geometry": {"type": "Point", "coordinates": [-85.7244681434, 31.3910435354]}, "type": "Feature", "properties": {"collection_times": [{"days": "Mon-Sat", "time": "1:30pm"}, {"days": "Sun", "time": "Closed"}], "id": "3636200029", "name": "USPS COLLECTION BOX - BLUE BOX", "address": {"city": "FORT RUCKER", "state": "AL", "street": "453 S NOVASEL ST BLDG 5700", "postcode": "36362"}}},
{"geometry": {"type": "Point", "coordinates": [-85.1716190266, 31.1505521486]}, "type": "Feature", "properties": {"collection_times": [{"days": "Mon-Fri", "time": "11:50am"}, {"days": "Sat", "time": "10:15am"}, {"days": "Sun", "time": "Closed"}], "id": "3637000001", "name": "USPS COLLECTION BOX - PO LOBBY", "address": {"city": "PANSEY", "state": "AL", "street": "14021 E US 84", "postcode": "36370"}}},
{"geometry": {"type": "Point", "coordinates": [-85.1716190266, 31.1505521486]}, "type": "Feature", "properties": {"collection_times": [{"days": "Mon-Fri", "time": "11:50am"}, {"days": "Sat", "time": "10:15am"}, {"days": "Sun", "time": "Closed"}], "id": "3637000002", "name": "USPS COLLECTION BOX - BLUE BOX", "address": {"city": "PANSEY", "state": "AL", "street": "14021 E US 84", "postcode": "36370"}}},
{"geometry": {"type": "Point", "coordinates": [-85.5475392066, 31.3114866786]}, "type": "Feature", "properties": {"collection_times": [{"days": "Mon-Fri", "time": "4:00pm"}, {"days": "Sat", "time": "10:30am"}, {"days": "Sun", "time": "Closed"}], "id": "3637100001", "name": "USPS COLLECTION BOX - BLUE BOX", "address": {"city": "PINCKARD", "state": "AL", "street": "1313 HIGHWAY 134", "postcode": "36371"}}},
{"geometry": {"type": "Point", "coordinates": [-85.5475392066, 31.3114866786]}, "type": "Feature", "properties": {"collection_times": [{"days": "Mon-Fri", "time": "4:00pm"}, {"days": "Sat", "time": "10:30am"}, {"days": "Sun", "time": "Closed"}], "id": "3637100002", "name": "USPS COLLECTION BOX - PO LOBBY", "address": {"city": "PINCKARD", "state": "AL", "street": "1313 HIGHWAY 134", "postcode": "36371"}}},
{"geometry": {"type": "Point", "coordinates": [-85.1113354752, 31.5185589902]}, "type": "Feature", "properties": {"collection_times": [{"days": "Mon-Fri", "time": "10:50am"}, {"days": "Sat", "time": "10:30am"}, {"days": "Sun", "time": "Closed"}], "id": "3637300001", "name": "USPS COLLECTION BOX - BLUE BOX", "address": {"city": "SHORTERVILLE", "state": "AL", "street": "315 COUNTY ROAD 65", "postcode": "36373"}}},
{"geometry": {"type": "Point", "coordinates": [-85.1113354752, 31.5185589902]}, "type": "Feature", "properties": {"collection_times": [{"days": "Mon-Fri", "time": "10:50am"}, {"days": "Sat", "time": "10:30am"}, {"days": "Sun", "time": "Closed"}], "id": "3637300002", "name": "USPS COLLECTION BOX - PO LOBBY", "address": {"city": "SHORTERVILLE", "state": "AL", "street": "315 COUNTY ROAD 65", "postcode": "36373"}}},
{"geometry": {"type": "Point", "coordinates": [-85.5729461107, 31.5139421133]}, "type": "Feature", "properties": {"collection_times": [{"days": "Mon-Fri", "time": "11:50am"}, {"days": "Sat", "time": "10:30am"}, {"days": "Sun", "time": "Closed"}], "id": "3637400001", "name": "USPS COLLECTION BOX - BLUE BOX", "address": {"city": "SKIPPERVILLE", "state": "AL", "street": "5093 HIGHWAY 105", "postcode": "36374"}}},
{"geometry": {"type": "Point", "coordinates": [-85.5729461107, 31.5139421133]}, "type": "Feature", "properties": {"collection_times": [{"days": "Mon-Fri", "time": "11:50am"}, {"days": "Sat", "time": "10:30am"}, {"days": "Sun", "time": "Closed"}], "id": "3637400002", "name": "USPS COLLECTION BOX - PO LOBBY", "address": {"city": "SKIPPERVILLE", "state": "AL", "street": "5093 HIGHWAY 105", "postcode": "36374"}}},
{"geometry": {"type": "Point", "coordinates": [-85.5711643652, 31.1215861631]}, "type": "Feature", "properties": {"collection_times": [{"days": "Mon-Fri", "time": "11:30am"}, {"days": "Sat", "time": "11:00am"}, {"days": "Sun", "time": "Closed"}], "id": "3637500001", "name": "USPS COLLECTION BOX - BLUE BOX", "address": {"city": "SLOCOMB", "state": "AL", "street": "957 W LAWRENCE HARRIS HWY", "postcode": "36375"}}},
{"geometry": {"type": "Point", "coordinates": [-85.5711643652, 31.1215861631]}, "type": "Feature", "properties": {"collection_times": [{"days": "Mon-Fri", "time": "11:30am"}, {"days": "Sat", "time": "11:00am"}, {"days": "Sun", "time": "Closed"}], "id": "3637500003", "name": "USPS COLLECTION BOX - PO LOBBY", "address": {"city": "SLOCOMB", "state": "AL", "street": "957 W LAWRENCE HARRIS HWY", "postcode": "36375"}}},
{"geometry": {"type": "Point", "coordinates": [-85.274140538, 31.2612861669]}, "type": "Feature", "properties": {"collection_times": [{"days": "Mon-Fri", "time": "2:50pm"}, {"days": "Sat", "time": "9:30am"}, {"days": "Sun", "time": "Closed"}], "id": "3637600001", "name": "USPS COLLECTION BOX - BLUE BOX", "address": {"city": "WEBB", "state": "AL", "street": "175 KIRKLAND ST", "postcode": "36376"}}},
{"geometry": {"type": "Point", "coordinates": [-85.274140538, 31.2612861669]}, "type": "Feature", "properties": {"collection_times": [{"days": "Mon-Fri", "time": "2:50pm"}, {"days": "Sat", "time": "9:30am"}, {"days": "Sun", "time": "Closed"}], "id": "3637600002", "name": "USPS COLLECTION BOX - PO LOBBY", "address": {"city": "WEBB", "state": "AL", "street": "175 KIRKLAND ST", "postcode": "36376"}}}
]}
