{"type": "FeatureCollection", "features": [
{"geometry": {"type": "Point", "coordinates": [-86.9568855221, 31.4359775055]}, "type": "Feature", "properties": {"collection_times": [{"days": "Mon-Sat", "time": "4:30pm"}, {"days": "Sun", "time": "Closed"}], "id": "3640100002", "name": "USPS COLLECTION BOX - PO LOBBY", "address": {"city": "EVERGREEN", "state": "AL", "street": "200 RURAL ST", "postcode": "36401"}}},
{"geometry": {"type": "Point", "coordinates": [-86.9568855221, 31.4359775055]}, "type": "Feature", "properties": {"collection_times": [{"days": "Mon-Sat", "time": "4:30pm"}, {"days": "Sun", "time": "Closed"}], "id": "3640100003", "name": "USPS COLLECTION BOX - BLUE BOX", "address": {"city": "EVERGREEN", "state": "AL", "street": "200 RURAL ST", "postcode": "36401"}}},
{"geometry": {"type": "Point", "coordinates": [-86.9568855221, 31.4359775055]}, "type": "Feature", "properties": {"collection_times": [{"days": "Mon-Sat", "time": "4:30pm"}, {"days": "Sun", "time": "Closed"}], "id": "3640100004", "name": "USPS COLLECTION BOX - BLUE BOX", "address": {"city": "EVERGREEN", "state": "AL", "street": "200 RURAL ST", "postcode": "36401"}}},
{"geometry": {"type": "Point", "coordinates": [-86.9549195848, 31.4345025876]}, "type": "Feature", "properties": {"collection_times": [{"days": "Mon-Sat", "time": "11:00am"}, {"days": "Sun", "time": "Closed"}], "id": "3640100008", "name": "USPS COLLECTION BOX - BLUE BOX", "address": {"city": "EVERGREEN", "state": "AL", "street": "100 JACKSON ST", "postcode": "36401"}}},
{"geometry": {"type": "Point", "coordinates": [-86.9082633743, 31.4849247466]}, "type": "Feature", "properties": {"collection_times": [{"days": "Mon-Sat", "time": "7:00am"}, {"days": "Sun", "time": "Closed"}], "id": "3640100024", "name": "USPS COLLECTION BOX - BLUE BOX", "address": {"city": "EVERGREEN", "state": "AL", "street": "140 EVERGREEN RETIREMENT RD", "postcode": "36401"}}},
{"geometry": {"type": "Point", "coordinates": [-86.9510088511, 31.437252617]}, "type": "Feature", "properties": {"collection_times": [{"days": "Mon-Sat", "time": "2:00pm"}, {"days": "Sun", "time": "Closed"}], "id": "3640100025", "name": "USPS COLLECTION BOX - BLUE BOX", "address": {"city": "EVERGREEN", "state": "AL", "street": "1 W FRONT ST", "postcode": "36401"}}},
{"geometry": {"type": "Point", "coordinates": [-86.4766454181, 31.3083050028]}, "type": "Feature", "properties": {"collection_times": [{"days": "Mon-Sat", "time": "4:45pm"}, {"days": "Sun", "time": "Closed"}], "id": "3642000001", "name": "USPS COLLECTION BOX - PO LOBBY", "address": {"city": "ANDALUSIA", "state": "AL", "street": "520 E THREE NOTCH ST", "postcode": "36420"}}},
{"geometry": {"type": "Point", "coordinates": [-86.4766454181, 31.3083050028]}, "type": "Feature", "properties": {"collection_times": [{"days": "Mon-Sat", "time": "4:45pm"}, {"days": "Sun", "time": "Closed"}], "id": "3642000002", "name": "USPS COLLECTION BOX - BLUE BOX", "address": {"city": "ANDALUSIA", "state": "AL", "street": "520 E THREE NOTCH ST", "postcode": "36420"}}},
{"geometry": {"type": "Point", "coordinates": [-86.4766454181, 31.3083050028]}, "type": "Feature", "properties": {"collection_times": [{"days": "Mon-Sat", "time": "4:45pm"}, {"days": "Sun", "time": "Closed"}], "id": "3642000003", "name": "USPS COLLECTION BOX - BLUE BOX", "address": {"city": "ANDALUSIA", "state": "AL", "street": "520 E THREE NOTCH ST", "postcode": "36420"}}},
{"geometry": {"type": "Point", "coordinates": [-86.4766454181, 31.3083050028]}, "type": "Feature", "properties": {"collection_times": [{"days": "Mon-Sat", "time": "4:45pm"}, {"days": "Sun", "time": "Closed"}], "id": "3642000004", "name": "USPS COLLECTION BOX - BLUE BOX", "address": {"city": "ANDALUSIA", "state": "AL", "street": "520 E THREE NOTCH ST", "postcode": "36420"}}},
{"geometry": {"type": "Point", "coordinates": [-86.4820817892, 31.3083985421]}, "type": "Feature", "properties": {"collection_times": [{"days": "Mon-Fri", "time": "3:30pm"}, {"days": "Sat", "time": "2:30pm"}, {"days": "Sun", "time": "Closed"}], "id": "3642000023", "name": "USPS COLLECTION BOX - BLUE BOX", "address": {"city": "ANDALUSIA", "state": "AL", "street": "1 N COURT SQ", "postcode": "36420"}}},
{"geometry": {"type": "Point", "coordinates": [-86.490707409, 31.2584425058]}, "type": "Feature", "properties": {"collection_times": [{"days": "Mon-Sat", "time": "4:45pm"}, {"days": "Sun", "time": "Closed"}], "id": "3642000030", "name": "USPS COLLECTION BOX - EXPRESS", "address": {"city": "ANDALUSIA", "state": "AL", "street": "520 E THREE NOTCH ST", "postcode": "36420"}}},
{"geometry": {"type": "Point", "coordinates": [-87.2098823941, 31.73342223]}, "type": "Feature", "properties": {"collection_times": [{"days": "Mon-Fri", "time": "3:45pm"}, {"days": "Sat", "time": "10:45am"}, {"days": "Sun", "time": "Closed"}], "id": "3642500001", "name": "USPS COLLECTION BOX - BLUE BOX", "address": {"city": "BEATRICE", "state": "AL", "street": "291 MOORE ST", "postcode": "36425"}}},
{"geometry": {"type": "Point", "coordinates": [-87.2098823941, 31.73342223]}, "type": "Feature", "properties": {"collection_times": [{"days": "Mon-Fri", "time": "3:45pm"}, {"days": "Sat", "time": "10:45am"}, {"days": "Sun", "time": "Closed"}], "id": "3642500002", "name": "USPS COLLECTION BOX - PO LOBBY", "address": {"city": "BEATRICE", "state": "AL", "street": "291 MOORE ST", "postcode": "36425"}}},
{"geometry": {"type": "Point", "coordinates": [-87.07189322, 31.106924116]}, "type": "Feature", "properties": {"collection_times": [{"days": "Mon-Fri", "time": "4:30pm"}, {"days": "Sat", "time": "12:00pm"}, {"days": "Sun", "time": "Closed"}], "id": "3642600001", "name": "USPS COLLECTION BOX - BLUE BOX", "address": {"city": "BREWTON", "state": "AL", "street": "323 BELLEVILLE AVE", "postcode": "36426"}}},
{"geometry": {"type": "Point", "coordinates": [-87.07189322, 31.106924116]}, "type": "Feature", "properties": {"collection_times": [{"days": "Mon-Fri", "time": "4:30pm"}, {"days": "Sat", "time": "12:00pm"}, {"days": "Sun", "time": "Closed"}], "id": "3642600002", "name": "USPS COLLECTION BOX - BLUE BOX", "address": {"city": "BREWTON", "state": "AL", "street": "323 BELLEVILLE AVE", "postcode": "36426"}}},
{"geometry": {"type": "Point", "coordinates": [-87.07189322, 31.106924116]}, "type": "Feature", "properties": {"collection_times": [{"days": "Mon-Fri", "time": "4:30pm"}, {"days": "Sat", "time": "12:00pm"}, {"days": "Sun", "time": "Closed"}], "id": "3642600003", "name": "USPS COLLECTION BOX - BLUE BOX", "address": {"city": "BREWTON", "state": "AL", "street": "323 BELLEVILLE AVE", "postcode": "36426"}}},
{"geometry": {"type": "Point", "coordinates": [-87.0643411058, 31.0974960437]}, "type": "Feature", "properties": {"collection_times": [{"days": "Mon-Fri", "time": "2:00pm"}, {"days": "Sat", "time": "1:00pm"}, {"days": "Sun", "time": "Closed"}], "id": "3642600007", "name": "USPS COLLECTION BOX - BLUE BOX", "address": {"city": "BREWTON", "state": "AL", "street": "505 FORREST AVE", "postcode": "36426"}}},
{"geometry": {"type": "Point", "coordinates": [-87.07189322, 31.106924116]}, "type": "Feature", "properties": {"collection_times": [{"days": "Mon-Fri", "time": "4:30pm"}, {"days": "Sat", "time": "12:00pm"}, {"days": "Sun", "time": "Closed"}], "id": "3642600013", "name": "USPS COLLECTION BOX - PO LOBBY", "address": {"city": "BREWTON", "state": "AL", "street": "323 BELLEVILLE AVE", "postcode": "36426"}}},
{"geometry": {"type": "Point", "coordinates": [-87.0643411058, 31.0974960437]}, "type": "Feature", "properties": {"collection_times": [{"days": "Mon-Fri", "time": "11:00am"}, {"days": "Sat", "time": "9:00am"}, {"days": "Sun", "time": "Closed"}], "id": "3642600017", "name": "USPS COLLECTION BOX - PO LOBBY", "address": {"city": "BREWTON", "state": "AL", "street": "505 FORREST AVE", "postcode": "36426"}}},
{"geometry": {"type": "Point", "coordinates": [-87.0162316689, 31.361121803]}, "type": "Feature", "properties": {"collection_times": [{"days": "Mon-Fri", "time": "3:00pm"}, {"days": "Sat", "time": "10:45am"}, {"days": "Sun", "time": "Closed"}], "id": "3643200002", "name": "USPS COLLECTION BOX - PO LOBBY", "address": {"city": "CASTLEBERRY", "state": "AL", "street": "2742 S JACKSON ST", "postcode": "36432"}}},
{"geometry": {"type": "Point", "coordinates": [-87.0162316689, 31.361121803]}, "type": "Feature", "properties": {"collection_times": [{"days": "Mon-Fri", "time": "3:00pm"}, {"days": "Sat", "time": "10:45am"}, {"days": "Sun", "time": "Closed"}], "id": "3643200003", "name": "USPS COLLECTION BOX - BLUE BOX", "address": {"city": "CASTLEBERRY", "state": "AL", "street": "2742 S JACKSON ST", "postcode": "36432"}}},
{"geometry": {"type": "Point", "coordinates": [-87.0162316689, 31.361121803]}, "type": "Feature", "properties": {"collection_times": [{"days": "Mon-Fri", "time": "3:00pm"}, {"days": "Sat", "time": "10:45am"}, {"days": "Sun", "time": "Closed"}], "id": "3643200004", "name": "USPS COLLECTION BOX - PO LOBBY", "address": {"city": "CASTLEBERRY", "state": "AL", "street": "2742 S JACKSON ST", "postcode": "36432"}}},
{"geometry": {"type": "Point", "coordinates": [-87.3870466117, 31.8692129937]}, "type": "Feature", "properties": {"collection_times": [{"days": "Mon-Fri", "time": "11:50am"}, {"days": "Sat", "time": "10:00am"}, {"days": "Sun", "time": "Closed"}], "id": "3643500001", "name": "USPS COLLECTION BOX - BLUE BOX", "address": {"city": "COY", "state": "AL", "street": "5092 J M BROOKS RD", "postcode": "36435"}}},
{"geometry": {"type": "Point", "coordinates": [-87.3870466117, 31.8692129937]}, "type": "Feature", "properties": {"collection_times": [{"days": "Mon-Fri", "time": "11:50am"}, {"days": "Sat", "time": "10:00am"}, {"days": "Sun", "time": "Closed"}], "id": "3643500002", "name": "USPS COLLECTION BOX - PO LOBBY", "address": {"city": "COY", "state": "AL", "street": "5092 J M BROOKS RD", "postcode": "36435"}}},
{"geometry": {"type": "Point", "coordinates": [-87.3417138992, 31.4278270829]}, "type": "Feature", "properties": {"collection_times": [{"days": "Mon-Fri", "time": "4:00pm"}, {"days": "Sat", "time": "11:00am"}, {"days": "Sun", "time": "Closed"}], "id": "3643900001", "name": "USPS COLLECTION BOX - PO LOBBY", "address": {"city": "EXCEL", "state": "AL", "street": "10 MAIN ST", "postcode": "36439"}}},
{"geometry": {"type": "Point", "coordinates": [-87.3417138992, 31.4278270829]}, "type": "Feature", "properties": {"collection_times": [{"days": "Mon-Fri", "time": "4:00pm"}, {"days": "Sat", "time": "11:00am"}, {"days": "Sun", "time": "Closed"}], "id": "3643900002", "name": "USPS COLLECTION BOX - BLUE BOX", "address": {"city": "EXCEL", "state": "AL", "street": "10 MAIN ST", "postcode": "36439"}}},
{"geometry": {"type": "Point", "coordinates": [-87.2598602083, 31.0011652742]}, "type": "Feature", "properties": {"collection_times": [{"days": "Mon-Fri", "time": "11:50am"}, {"days": "Sat", "time": "11:30am"}, {"days": "Sun", "time": "Closed"}], "id": "3644100003", "name": "USPS COLLECTION BOX - BLUE BOX", "address": {"city": "FLOMATON", "state": "AL", "street": "417 PALAFOX ST", "postcode": "36441"}}},
{"geometry": {"type": "Point", "coordinates": [-87.2598602083, 31.0011652742]}, "type": "Feature", "properties": {"collection_times": [{"days": "Mon-Fri", "time": "11:50am"}, {"days": "Sat", "time": "11:30am"}, {"days": "Sun", "time": "Closed"}], "id": "3644100004", "name": "USPS COLLECTION BOX - PO LOBBY", "address": {"city": "FLOMATON", "state": "AL", "street": "417 PALAFOX ST", "postcode": "36441"}}},
{"geometry": {"type": "Point", "coordinates": [-86.3152029251, 30.9999779525]}, "type": "Feature", "properties": {"collection_times": [{"days": "Mon-Fri", "time": "11:00am"}, {"days": "Sat", "time": "10:45am"}, {"days": "Sun", "time": "Closed"}], "id": "3644200007", "name": "USPS COLLECTION BOX - PO LOBBY", "address": {"city": "FLORALA", "state": "AL", "street": "1045 5TH ST", "postcode": "36442"}}},
{"geometry": {"type": "Point", "coordinates": [-86.3152029251, 30.9999779525]}, "type": "Feature", "properties": {"collection_times": [{"days": "Mon-Fri", "time": "11:00am"}, {"days": "Sat", "time": "10:45am"}, {"days": "Sun", "time": "Closed"}], "id": "3644200008", "name": "USPS COLLECTION BOX - BLUE BOX", "address": {"city": "FLORALA", "state": "AL", "street": "1045 5TH ST", "postcode": "36442"}}},
{"geometry": {"type": "Point", "coordinates": [-87.41448129, 31.709248028]}, "type": "Feature", "properties": {"collection_times": [{"days": "Mon-Fri", "time": "11:45am"}, {"days": "Sat", "time": "8:00am"}, {"days": "Sun", "time": "Closed"}], "id": "3644400001", "name": "USPS COLLECTION BOX - BLUE BOX", "address": {"city": "FRANKLIN", "state": "AL", "street": "102 MAIN ST", "postcode": "36444"}}},
{"geometry": {"type": "Point", "coordinates": [-87.39931, 31.43511]}, "type": "Feature", "properties": {"collection_times": [{"days": "Mon-Fri", "time": "4:30pm"}, {"days": "Sat", "time": "10:30am"}, {"days": "Sun", "time": "Closed"}], "id": "3644500002", "name": "USPS COLLECTION BOX - PO LOBBY", "address": {"city": "FRISCO CITY", "state": "AL", "street": "27 CHURCH ST", "postcode": "36445"}}},
{"geometry": {"type": "Point", "coordinates": [-87.5537444756, 31.7624822028]}, "type": "Feature", "properties": {"collection_times": [{"days": "Mon-Fri", "time": "4:00pm"}, {"days": "Sat", "time": "12:15pm"}, {"days": "Sun", "time": "Closed"}], "id": "3644600001", "name": "USPS COLLECTION BOX - PO LOBBY", "address": {"city": "FULTON", "state": "AL", "street": "152 MAIN ST", "postcode": "36446"}}},
{"geometry": {"type": "Point", "coordinates": [-87.5537444756, 31.7624822028]}, "type": "Feature", "properties": {"collection_times": [{"days": "Mon-Fri", "time": "3:00pm"}, {"days": "Sat", "time": "12:15pm"}, {"days": "Sun", "time": "Closed"}], "id": "3644600004", "name": "USPS COLLECTION BOX - BLUE BOX", "address": {"city": "FULTON", "state": "AL", "street": "152 MAIN ST", "postcode": "36446"}}},
{"geometry": {"type": "Point", "coordinates": [-87.7752703096, 31.7088022853]}, "type": "Feature", "properties": {"collection_times": [{"days": "Mon-Fri", "time": "4:00pm"}, {"days": "Sat", "time": "11:30am"}, {"days": "Sun", "time": "Closed"}], "id": "3645100002", "name": "USPS COLLECTION BOX - BLUE BOX", "address": {"city": "GROVE HILL", "state": "AL", "street": "102 MAIN ST", "postcode": "36451"}}},
{"geometry": {"type": "Point", "coordinates": [-87.7752703096, 31.7088022853]}, "type": "Feature", "properties": {"collection_times": [{"days": "Mon-Fri", "time": "4:00pm"}, {"days": "Sat", "time": "11:30am"}, {"days": "Sun", "time": "Closed"}], "id": "3645100003", "name": "USPS COLLECTION BOX - PO LOBBY", "address": {"city": "GROVE HILL", "state": "AL", "street": "102 MAIN ST", "postcode": "36451"}}},
{"geometry": {"type": "Point", "coordinates": [-86.1704806354, 31.217483886]}, "type": "Feature", "properties": {"collection_times": [{"days": "Mon-Fri", "time": "3:45pm"}, {"days": "Sat", "time": "11:30am"}, {"days": "Sun", "time": "Closed"}], "id": "3645300001", "name": "USPS COLLECTION BOX - BLUE BOX", "address": {"city": "KINSTON", "state": "AL", "street": "216 N MAIN ST", "postcode": "36453"}}},
{"geometry": {"type": "Point", "coordinates": [-86.1704806354, 31.217483886]}, "type": "Feature", "properties": {"collection_times": [{"days": "Mon-Fri", "time": "3:45pm"}, {"days": "Sat", "time": "11:30am"}, {"days": "Sun", "time": "Closed"}], "id": "3645300002", "name": "USPS COLLECTION BOX - PO LOBBY", "address": {"city": "KINSTON", "state": "AL", "street": "216 N MAIN ST", "postcode": "36453"}}},
{"geometry": {"type": "Point", "coordinates": [-86.3118632911, 30.9998502732]}, "type": "Feature", "properties": {"collection_times": [{"days": "Mon-Sat", "time": "4:00pm"}, {"days": "Sun", "time": "Closed"}], "id": "3645500002", "name": "USPS COLLECTION BOX - PO LOBBY", "address": {"city": "LOCKHART", "state": "AL", "street": "1550 CHIPPEWAY ST", "postcode": "36455"}}},
{"geometry": {"type": "Point", "coordinates": [-86.714314998, 31.5434960449]}, "type": "Feature", "properties": {"collection_times": [{"days": "Mon-Fri", "time": "11:45am"}, {"days": "Sat", "time": "10:30am"}, {"days": "Sun", "time": "Closed"}], "id": "3645600001", "name": "USPS COLLECTION BOX - BLUE BOX", "address": {"city": "MCKENZIE", "state": "AL", "street": "83 N GARLAND RD", "postcode": "36456"}}},
{"geometry": {"type": "Point", "coordinates": [-86.714314998, 31.5434960449]}, "type": "Feature", "properties": {"collection_times": [{"days": "Mon-Fri", "time": "11:45am"}, {"days": "Sat", "time": "10:30am"}, {"days": "Sun", "time": "Closed"}], "id": "3645600002", "name": "USPS COLLECTION BOX - PO LOBBY", "address": {"city": "MCKENZIE", "state": "AL", "street": "83 N GARLAND RD", "postcode": "36456"}}},
{"geometry": {"type": "Point", "coordinates": [-87.3886293662, 31.5072552247]}, "type": "Feature", "properties": {"collection_times": [{"days": "Mon-Fri", "time": "1:45pm"}, {"days": "Sat", "time": "11:30am"}, {"days": "Sun", "time": "Closed"}], "id": "3645800001", "name": "USPS COLLECTION BOX - BLUE BOX", "address": {"city": "MEXIA", "state": "AL", "street": "4891 HIGHWAY 47 S", "postcode": "36458"}}},
{"geometry": {"type": "Point", "coordinates": [-87.3886293662, 31.5072552247]}, "type": "Feature", "properties": {"collection_times": [{"days": "Mon-Fri", "time": "1:45pm"}, {"days": "Sat", "time": "11:30am"}, {"days": "Sun", "time": "Closed"}], "id": "3645800002", "name": "USPS COLLECTION BOX - PO LOBBY", "address": {"city": "MEXIA", "state": "AL", "street": "4891 HIGHWAY 47 S", "postcode": "36458"}}},
{"geometry": {"type": "Point", "coordinates": [-87.3238035114, 31.5267289403]}, "type": "Feature", "properties": {"collection_times": [{"days": "Mon-Fri", "time": "4:45pm"}, {"days": "Sat", "time": "12:00pm"}, {"days": "Sun", "time": "Closed"}], "id": "3646000001", "name": "USPS COLLECTION BOX - PO LOBBY", "address": {"city": "MONROEVILLE", "state": "AL", "street": "16 N ALABAMA AVE", "postcode": "36460"}}},
{"geometry": {"type": "Point", "coordinates": [-87.322875289, 31.526547538]}, "type": "Feature", "properties": {"collection_times": [{"days": "Mon-Fri", "time": "4:45pm"}, {"days": "Sat", "time": "12:00pm"}, {"days": "Sun", "time": "Closed"}], "id": "3646000002", "name": "USPS COLLECTION BOX - BLUE BOX", "address": {"city": "MONROEVILLE", "state": "AL", "street": "107 E CLAIBORNE ST", "postcode": "36460"}}},
{"geometry": {"type": "Point", "coordinates": [-86.221923265, 31.2808381816]}, "type": "Feature", "properties": {"collection_times": [{"days": "Mon-Fri", "time": "4:45pm"}, {"days": "Sat", "time": "3:00pm"}, {"days": "Sun", "time": "Closed"}], "id": "3646700018", "name": "USPS COLLECTION BOX - PO LOBBY", "address": {"city": "OPP", "state": "AL", "street": "710 OLD PERRY STORE RD", "postcode": "36467"}}},
{"geometry": {"type": "Point", "coordinates": [-86.221923265, 31.2808381816]}, "type": "Feature", "properties": {"collection_times": [{"days": "Mon-Fri", "time": "4:30pm"}, {"days": "Sat", "time": "3:00pm"}, {"days": "Sun", "time": "Closed"}], "id": "3646700019", "name": "USPS COLLECTION BOX - BLUE BOX", "address": {"city": "OPP", "state": "AL", "street": "710 OLD PERRY STORE RD", "postcode": "36467"}}},
{"geometry": {"type": "Point", "coordinates": [-86.221923265, 31.2808381816]}, "type": "Feature", "properties": {"collection_times": [{"days": "Mon-Fri", "time": "4:30pm"}, {"days": "Sat", "time": "3:00pm"}, {"days": "Sun", "time": "Closed"}], "id": "3646700020", "name": "USPS COLLECTION BOX - BLUE BOX", "address": {"city": "OPP", "state": "AL", "street": "710 OLD PERRY STORE RD", "postcode": "36467"}}},
{"geometry": {"type": "Point", "coordinates": [-86.221923265, 31.2808381816]}, "type": "Feature", "properties": {"collection_times": [{"days": "Mon-Fri", "time": "4:30pm"}, {"days": "Sat", "time": "3:00pm"}, {"days": "Sun", "time": "Closed"}], "id": "3646700021", "name": "USPS COLLECTION BOX - BLUE BOX", "address": {"city": "OPP", "state": "AL", "street": "710 OLD PERRY STORE RD", "postcode": "36467"}}},
{"geometry": {"type": "Point", "coordinates": [-87.49483, 31.515015]}, "type": "Feature", "properties": {"collection_times": [{"days": "Mon-Fri", "time": "11:45am"}, {"days": "Sat-Sun", "time": "Closed"}], "id": "3647000001", "name": "USPS COLLECTION BOX - BLUE BOX", "address": {"city": "PERDUE HILL", "state": "AL", "street": "10115 US HIGHWAY 84 W", "postcode": "36470"}}},
{"geometry": {"type": "Point", "coordinates": [-87.2604317526, 31.5827933189]}, "type": "Feature", "properties": {"collection_times": [{"days": "Mon-Fri", "time": "11:45am"}, {"days": "Sat", "time": "11:00am"}, {"days": "Sun", "time": "Closed"}], "id": "3647100001", "name": "USPS COLLECTION BOX - BLUE BOX", "address": {"city": "PETERMAN", "state": "AL", "street": "885 OLD PETERMAN HWY", "postcode": "36471"}}},
{"geometry": {"type": "Point", "coordinates": [-87.2598108064, 31.5838471303]}, "type": "Feature", "properties": {"collection_times": [{"days": "Mon-Fri", "time": "11:45am"}, {"days": "Sat", "time": "11:00am"}, {"days": "Sun", "time": "Closed"}], "id": "3647100002", "name": "USPS COLLECTION BOX - PO LOBBY", "address": {"city": "PETERMAN", "state": "AL", "street": "885 OLD PETERMAN HWY", "postcode": "36471"}}},
{"geometry": {"type": "Point", "coordinates": [-86.5991630701, 31.4551351473]}, "type": "Feature", "properties": {"collection_times": [{"days": "Mon-Fri", "time": "2:00pm"}, {"days": "Sat", "time": "10:00am"}, {"days": "Sun", "time": "Closed"}], "id": "3647400001", "name": "USPS COLLECTION BOX - BLUE BOX", "address": {"city": "RED LEVEL", "state": "AL", "street": "28906 SMILEY ST", "postcode": "36474"}}},
{"geometry": {"type": "Point", "coordinates": [-86.5991630701, 31.4551351473]}, "type": "Feature", "properties": {"collection_times": [{"days": "Mon-Fri", "time": "2:00pm"}, {"days": "Sat", "time": "10:00am"}, {"days": "Sun", "time": "Closed"}], "id": "3647400002", "name": "USPS COLLECTION BOX - PO LOBBY", "address": {"city": "RED LEVEL", "state": "AL", "street": "28906 SMILEY ST", "postcode": "36474"}}},
{"geometry": {"type": "Point", "coordinates": [-87.2331558788, 31.3910520737]}, "type": "Feature", "properties": {"collection_times": [{"days": "Mon-Fri", "time": "2:45pm"}, {"days": "Sat", "time": "10:45am"}, {"days": "Sun", "time": "Closed"}], "id": "3647500002", "name": "USPS COLLECTION BOX - BLUE BOX", "address": {"city": "REPTON", "state": "AL", "street": "1801 CONALY ST", "postcode": "36475"}}},
{"geometry": {"type": "Point", "coordinates": [-87.2331558788, 31.3910520737]}, "type": "Feature", "properties": {"collection_times": [{"days": "Mon-Fri", "time": "2:45pm"}, {"days": "Sat", "time": "10:45am"}, {"days": "Sun", "time": "Closed"}], "id": "3647500003", "name": "USPS COLLECTION BOX - PO LOBBY", "address": {"city": "REPTON", "state": "AL", "street": "1801 CONALY ST", "postcode": "36475"}}},
{"geometry": {"type": "Point", "coordinates": [-86.4738754061, 31.3085286042]}, "type": "Feature", "properties": {"collection_times": [{"days": "Mon-Fri", "time": "4:15pm"}, {"days": "Sat", "time": "11:00am"}, {"days": "Sun", "time": "Closed"}], "id": "3647600002", "name": "USPS COLLECTION BOX - PO LOBBY", "address": {"city": "RIVER FALLS", "state": "AL", "street": "24805 COVINGTON ST", "postcode": "36476"}}},
{"geometry": {"type": "Point", "coordinates": [-86.048872906, 31.1120875898]}, "type": "Feature", "properties": {"collection_times": [{"days": "Mon-Sat", "time": "12:15pm"}, {"days": "Sun", "time": "Closed"}], "id": "3647700001", "name": "USPS COLLECTION BOX - PO LOBBY", "address": {"city": "SAMSON", "state": "AL", "street": "33 S BROAD ST", "postcode": "36477"}}},
{"geometry": {"type": "Point", "coordinates": [-86.048872906, 31.1120875898]}, "type": "Feature", "properties": {"collection_times": [{"days": "Mon-Sat", "time": "12:15pm"}, {"days": "Sun", "time": "Closed"}], "id": "3647700002", "name": "USPS COLLECTION BOX - BLUE BOX", "address": {"city": "SAMSON", "state": "AL", "street": "33 S BROAD ST", "postcode": "36477"}}},
{"geometry": {"type": "Point", "coordinates": [-87.5027991508, 31.3048112994]}, "type": "Feature", "properties": {"collection_times": [{"days": "Mon-Fri", "time": "2:50pm"}, {"days": "Sat", "time": "10:45am"}, {"days": "Sun", "time": "Closed"}], "id": "3648000001", "name": "USPS COLLECTION BOX - BLUE BOX", "address": {"city": "URIAH", "state": "AL", "street": "77 CEMETERY ST", "postcode": "36480"}}},
{"geometry": {"type": "Point", "coordinates": [-87.5027991508, 31.3048112994]}, "type": "Feature", "properties": {"collection_times": [{"days": "Mon-Fri", "time": "2:50pm"}, {"days": "Sat", "time": "10:45am"}, {"days": "Sun", "time": "Closed"}], "id": "3648000002", "name": "USPS COLLECTION BOX - PO LOBBY", "address": {"city": "URIAH", "state": "AL", "street": "77 CEMETERY ST", "postcode": "36480"}}},
{"geometry": {"type": "Point", "coordinates": [-87.3717888014, 31.6881225776]}, "type": "Feature", "properties": {"collection_times": [{"days": "Mon-Fri", "time": "11:45am"}, {"days": "Sat", "time": "9:00am"}, {"days": "Sun", "time": "Closed"}], "id": "3648100001", "name": "USPS COLLECTION BOX - BLUE BOX", "address": {"city": "VREDENBURGH", "state": "AL", "street": "34 CHURCH ST", "postcode": "36481"}}},
{"geometry": {"type": "Point", "coordinates": [-87.3717888014, 31.6881225776]}, "type": "Feature", "properties": {"collection_times": [{"days": "Mon-Fri", "time": "11:45am"}, {"days": "Sat", "time": "9:00am"}, {"days": "Sun", "time": "Closed"}], "id": "3648100002", "name": "USPS COLLECTION BOX - PO LOBBY", "address": {"city": "VREDENBURGH", "state": "AL", "street": "34 CHURCH ST", "postcode": "36481"}}},
{"geometry": {"type": "Point", "coordinates": [-87.6226894892, 31.6735566896]}, "type": "Feature", "properties": {"collection_times": [{"days": "Mon-Fri", "time": "1:45pm"}, {"days": "Sat-Sun", "time": "Closed"}], "id": "3648200001", "name": "USPS COLLECTION BOX - BLUE BOX", "address": {"city": "WHATLEY", "state": "AL", "street": "1009 MAIN ST", "postcode": "36482"}}},
{"geometry": {"type": "Point", "coordinates": [-87.6226894892, 31.6735566896]}, "type": "Feature", "properties": {"collection_times": [{"days": "Mon-Fri", "time": "1:45pm"}, {"days": "Sat-Sun", "time": "Closed"}], "id": "3648200002", "name": "USPS COLLECTION BOX - PO LOBBY", "address": {"city": "WHATLEY", "state": "AL", "street": "1009 MAIN ST", "postcode": "36482"}}},
{"geometry": {"type": "Point", "coordinates": [-86.6174869344, 31.098564995]}, "type": "Feature", "properties": {"collection_times": [{"days": "Mon-Sat", "time": "11:15am"}, {"days": "Sun", "time": "Closed"}], "id": "3648300001", "name": "USPS COLLECTION BOX - BLUE BOX", "address": {"city": "WING", "state": "AL", "street": "2989 AL HIGHWAY 137", "postcode": "36483"}}},
{"geometry": {"type": "Point", "coordinates": [-86.6174869344, 31.098564995]}, "type": "Feature", "properties": {"collection_times": [{"days": "Mon-Fri", "time": "11:15am"}, {"days": "Sat", "time": "11:30am"}, {"days": "Sun", "time": "Closed"}], "id": "3648300002", "name": "USPS COLLECTION BOX - PO LOBBY", "address": {"city": "WING", "state": "AL", "street": "2989 AL HIGHWAY 137", "postcode": "36483"}}}
]}
