{"type": "FeatureCollection", "features": [
{"geometry": {"type": "Point", "coordinates": [-87.4937165916, 31.024432789]}, "type": "Feature", "properties": {"collection_times": [{"days": "Mon-Fri", "time": "4:15pm"}, {"days": "Sat", "time": "3:15pm"}, {"days": "Sun", "time": "Closed"}], "id": "3650200001", "name": "USPS COLLECTION BOX - PO LOBBY", "address": {"city": "ATMORE", "state": "AL", "street": "114 N MAIN ST", "postcode": "36502"}}},
{"geometry": {"type": "Point", "coordinates": [-87.4937165916, 31.024432789]}, "type": "Feature", "properties": {"collection_times": [{"days": "Mon-Fri", "time": "4:15pm"}, {"days": "Sat", "time": "3:15pm"}, {"days": "Sun", "time": "Closed"}], "id": "3650200002", "name": "USPS COLLECTION BOX - BLUE BOX", "address": {"city": "ATMORE", "state": "AL", "street": "114 N MAIN ST", "postcode": "36502"}}},
{"geometry": {"type": "Point", "coordinates": [-87.4915477756, 31.0243190726]}, "type": "Feature", "properties": {"collection_times": [{"days": "Mon-Sat", "time": "3:30pm"}, {"days": "Sun", "time": "Closed"}], "id": "3650200006", "name": "USPS COLLECTION BOX - BLUE BOX", "address": {"city": "ATMORE", "state": "AL", "street": "201 E LOUISVILLE AVE", "postcode": "36502"}}},
{"geometry": {"type": "Point", "coordinates": [-87.4937165916, 31.024432789]}, "type": "Feature", "properties": {"collection_times": [{"days": "Mon-Fri", "time": "3:15pm"}, {"days": "Sat", "time": "11:30am"}, {"days": "Sun", "time": "Closed"}], "id": "3650200007", "name": "USPS COLLECTION BOX - BLUE BOX", "address": {"city": "ATMORE", "state": "AL", "street": "114 N MAIN ST", "postcode": "36502"}}},
{"geometry": {"type": "Point", "coordinates": [-87.4937165916, 31.024432789]}, "type": "Feature", "properties": {"collection_times": [{"days": "Mon-Fri", "time": "4:15pm"}, {"days": "Sat", "time": "4:00pm"}, {"days": "Sun", "time": "Closed"}], "id": "3650200008", "name": "USPS COLLECTION BOX - BLUE BOX", "address": {"city": "ATMORE", "state": "AL", "street": "114 N MAIN ST", "postcode": "36502"}}},
{"geometry": {"type": "Point", "coordinates": [-87.4796927638, 31.0183415838]}, "type": "Feature", "properties": {"collection_times": [{"days": "Mon-Sat", "time": "3:15pm"}, {"days": "Sun", "time": "Closed"}], "id": "3650200009", "name": "USPS COLLECTION BOX - BLUE BOX", "address": {"city": "ATMORE", "state": "AL", "street": "406 MEDICAL PARK DR", "postcode": "36502"}}},
{"geometry": {"type": "Point", "coordinates": [-88.0274213949, 30.9293442746]}, "type": "Feature", "properties": {"collection_times": [{"days": "Mon-Fri", "time": "11:50am"}, {"days": "Sat", "time": "10:30am"}, {"days": "Sun", "time": "Closed"}], "id": "3650500001", "name": "USPS COLLECTION BOX - BLUE BOX", "address": {"city": "AXIS", "state": "AL", "street": "11436 OLD HIGHWAY 43", "postcode": "36505"}}},
{"geometry": {"type": "Point", "coordinates": [-88.0274213949, 30.9293442746]}, "type": "Feature", "properties": {"collection_times": [{"days": "Mon-Fri", "time": "11:50am"}, {"days": "Sat", "time": "10:30am"}, {"days": "Sun", "time": "Closed"}], "id": "3650500002", "name": "USPS COLLECTION BOX - PO LOBBY", "address": {"city": "AXIS", "state": "AL", "street": "11436 OLD HIGHWAY 43", "postcode": "36505"}}},
{"geometry": {"type": "Point", "coordinates": [-87.7873251678, 30.8831883178]}, "type": "Feature", "properties": {"collection_times": [{"days": "Mon-Fri", "time": "4:45pm"}, {"days": "Sat", "time": "3:00pm"}, {"days": "Sun", "time": "Closed"}], "id": "3650700001", "name": "USPS COLLECTION BOX - PO LOBBY", "address": {"city": "BAY MINETTE", "state": "AL", "street": "601 MCMEANS AVE", "postcode": "36507"}}},
{"geometry": {"type": "Point", "coordinates": [-87.7873251678, 30.8831883178]}, "type": "Feature", "properties": {"collection_times": [{"days": "Mon-Fri", "time": "4:45pm"}, {"days": "Sat", "time": "3:00pm"}, {"days": "Sun", "time": "Closed"}], "id": "3650700007", "name": "USPS COLLECTION BOX - BLUE BOX", "address": {"city": "BAY MINETTE", "state": "AL", "street": "601 MCMEANS AVE", "postcode": "36507"}}},
{"geometry": {"type": "Point", "coordinates": [-87.7873251678, 30.8831883178]}, "type": "Feature", "properties": {"collection_times": [{"days": "Mon-Fri", "time": "4:45pm"}, {"days": "Sat", "time": "3:00pm"}, {"days": "Sun", "time": "Closed"}], "id": "3650700009", "name": "USPS COLLECTION BOX - BLUE BOX", "address": {"city": "BAY MINETTE", "state": "AL", "street": "601 MCMEANS AVE", "postcode": "36507"}}},
{"geometry": {"type": "Point", "coordinates": [-88.2463394959, 30.4118338132]}, "type": "Feature", "properties": {"collection_times": [{"days": "Mon-Fri", "time": "12:30pm"}, {"days": "Sat", "time": "11:00am"}, {"days": "Sun", "time": "Closed"}], "id": "3650900001", "name": "USPS COLLECTION BOX - BLUE BOX", "address": {"city": "BAYOU LA BATRE", "state": "AL", "street": "8761 W RABBY ST", "postcode": "36509"}}},
{"geometry": {"type": "Point", "coordinates": [-88.2538416368, 30.3997221979]}, "type": "Feature", "properties": {"collection_times": [{"days": "Mon-Fri", "time": "12:30pm"}, {"days": "Sat", "time": "11:00am"}, {"days": "Sun", "time": "Closed"}], "id": "3650900002", "name": "USPS COLLECTION BOX - BLUE BOX", "address": {"city": "BAYOU LA BATRE", "state": "AL", "street": "8761 W RABBY ST", "postcode": "36509"}}},
{"geometry": {"type": "Point", "coordinates": [-88.2538416368, 30.3997221979]}, "type": "Feature", "properties": {"collection_times": [{"days": "Mon-Fri", "time": "12:30pm"}, {"days": "Sat", "time": "11:00am"}, {"days": "Sun", "time": "Closed"}], "id": "3650900003", "name": "USPS COLLECTION BOX - PO LOBBY", "address": {"city": "BAYOU LA BATRE", "state": "AL", "street": "8761 W RABBY ST", "postcode": "36509"}}},
{"geometry": {"type": "Point", "coordinates": [-87.7285357517, 30.3172953723]}, "type": "Feature", "properties": {"collection_times": [{"days": "Mon-Fri", "time": "3:15pm"}, {"days": "Sat", "time": "11:30am"}, {"days": "Sun", "time": "Closed"}], "id": "3651100001", "name": "USPS COLLECTION BOX - PO LOBBY", "address": {"city": "BON SECOUR", "state": "AL", "street": "6419 BON SECOUR HWY", "postcode": "36511"}}},
{"geometry": {"type": "Point", "coordinates": [-88.0242502196, 31.0296370309]}, "type": "Feature", "properties": {"collection_times": [{"days": "Mon-Fri", "time": "3:45pm"}, {"days": "Sat-Sun", "time": "Closed"}], "id": "3651200001", "name": "USPS COLLECTION BOX - BLUE BOX", "address": {"city": "BUCKS", "state": "AL", "street": "15260 HIGHWAY 43", "postcode": "36512"}}},
{"geometry": {"type": "Point", "coordinates": [-88.0242502196, 31.0296370309]}, "type": "Feature", "properties": {"collection_times": [{"days": "Mon-Fri", "time": "4:00pm"}, {"days": "Sat-Sun", "time": "Closed"}], "id": "3651200002", "name": "USPS COLLECTION BOX - PO LOBBY", "address": {"city": "BUCKS", "state": "AL", "street": "15260 HIGHWAY 43", "postcode": "36512"}}},
{"geometry": {"type": "Point", "coordinates": [-88.0101688193, 31.155089506]}, "type": "Feature", "properties": {"collection_times": [{"days": "Mon-Fri", "time": "11:00am"}, {"days": "Sat", "time": "9:45am"}, {"days": "Sun", "time": "Closed"}], "id": "3651300001", "name": "USPS COLLECTION BOX - BLUE BOX", "address": {"city": "CALVERT", "state": "AL", "street": "170 HIGHWAY 43 N", "postcode": "36513"}}},
{"geometry": {"type": "Point", "coordinates": [-88.0101688193, 31.155089506]}, "type": "Feature", "properties": {"collection_times": [{"days": "Mon-Fri", "time": "11:00am"}, {"days": "Sat", "time": "9:45am"}, {"days": "Sun", "time": "Closed"}], "id": "3651300002", "name": "USPS COLLECTION BOX - PO LOBBY", "address": {"city": "CALVERT", "state": "AL", "street": "170 HIGHWAY 43 N", "postcode": "36513"}}},
{"geometry": {"type": "Point", "coordinates": [-88.20846, 31.453114]}, "type": "Feature", "properties": {"collection_times": [{"days": "Mon-Fri", "time": "3:45pm"}, {"days": "Sat", "time": "11:00am"}, {"days": "Sun", "time": "Closed"}], "id": "3651800001", "name": "USPS COLLECTION BOX - BLUE BOX", "address": {"city": "CHATOM", "state": "AL", "street": "13486 SAINT STEPHENS AVE", "postcode": "36518"}}},
{"geometry": {"type": "Point", "coordinates": [-88.20846, 31.453114]}, "type": "Feature", "properties": {"collection_times": [{"days": "Mon-Fri", "time": "3:45pm"}, {"days": "Sat", "time": "11:00am"}, {"days": "Sun", "time": "Closed"}], "id": "3651800002", "name": "USPS COLLECTION BOX - PO LOBBY", "address": {"city": "CHATOM", "state": "AL", "street": "13486 SAINT STEPHENS AVE", "postcode": "36518"}}},
{"geometry": {"type": "Point", "coordinates": [-88.1990104404, 30.9221999009]}, "type": "Feature", "properties": {"collection_times": [{"days": "Mon-Fri", "time": "4:00pm"}, {"days": "Sat", "time": "11:00am"}, {"days": "Sun", "time": "Closed"}], "id": "3652100001", "name": "USPS COLLECTION BOX - BLUE BOX", "address": {"city": "CHUNCHULA", "state": "AL", "street": "11105 ROBERTS RD", "postcode": "36521"}}},
{"geometry": {"type": "Point", "coordinates": [-88.1990104404, 30.9221999009]}, "type": "Feature", "properties": {"collection_times": [{"days": "Mon-Fri", "time": "4:00pm"}, {"days": "Sat", "time": "11:00am"}, {"days": "Sun", "time": "Closed"}], "id": "3652100002", "name": "USPS COLLECTION BOX - PO LOBBY", "address": {"city": "CHUNCHULA", "state": "AL", "street": "11105 ROBERTS RD", "postcode": "36521"}}},
{"geometry": {"type": "Point", "coordinates": [-88.237122134, 31.10362693]}, "type": "Feature", "properties": {"collection_times": [{"days": "Mon-Sat", "time": "11:30am"}, {"days": "Sun", "time": "Closed"}], "id": "3652200004", "name": "USPS COLLECTION BOX - BLUE BOX", "address": {"city": "CITRONELLE", "state": "AL", "street": "8165 FORREST ST", "postcode": "36522"}}},
{"geometry": {"type": "Point", "coordinates": [-88.237122134, 31.10362693]}, "type": "Feature", "properties": {"collection_times": [{"days": "Mon-Sat", "time": "11:30am"}, {"days": "Sun", "time": "Closed"}], "id": "3652200006", "name": "USPS COLLECTION BOX - PO LOBBY", "address": {"city": "CITRONELLE", "state": "AL", "street": "8165 FORREST ST", "postcode": "36522"}}},
{"geometry": {"type": "Point", "coordinates": [-88.2344888957, 30.3817162057]}, "type": "Feature", "properties": {"collection_times": [{"days": "Mon-Fri", "time": "2:30pm"}, {"days": "Sat", "time": "10:00am"}, {"days": "Sun", "time": "Closed"}], "id": "3652300002", "name": "USPS COLLECTION BOX - PO LOBBY", "address": {"city": "CODEN", "state": "AL", "street": "7970 HIGHWAY 188", "postcode": "36523"}}},
{"geometry": {"type": "Point", "coordinates": [-88.0886148619, 31.7583234197]}, "type": "Feature", "properties": {"collection_times": [{"days": "Mon-Fri", "time": "11:45am"}, {"days": "Sat", "time": "10:45am"}, {"days": "Sun", "time": "Closed"}], "id": "3652400001", "name": "USPS COLLECTION BOX - PO LOBBY", "address": {"city": "COFFEEVILLE", "state": "AL", "street": "57 RIVER ST E", "postcode": "36524"}}},
{"geometry": {"type": "Point", "coordinates": [-88.0379168407, 30.8952723533]}, "type": "Feature", "properties": {"collection_times": [{"days": "Mon-Fri", "time": "4:30pm"}, {"days": "Sat", "time": "11:00am"}, {"days": "Sun", "time": "Closed"}], "id": "3652500001", "name": "USPS COLLECTION BOX - BLUE BOX", "address": {"city": "CREOLA", "state": "AL", "street": "9617 OLD HIGHWAY 43", "postcode": "36525"}}},
{"geometry": {"type": "Point", "coordinates": [-88.0379168407, 30.8952723533]}, "type": "Feature", "properties": {"collection_times": [{"days": "Mon-Fri", "time": "4:30pm"}, {"days": "Sat", "time": "11:00am"}, {"days": "Sun", "time": "Closed"}], "id": "3652500002", "name": "USPS COLLECTION BOX - PO LOBBY", "address": {"city": "CREOLA", "state": "AL", "street": "9617 OLD HIGHWAY 43", "postcode": "36525"}}},
{"geometry": {"type": "Point", "coordinates": [-87.9009040987, 30.6038598751]}, "type": "Feature", "properties": {"collection_times": [{"days": "Mon-Fri", "time": "5:00pm"}, {"days": "Sat", "time": "12:30pm"}, {"days": "Sun", "time": "Closed"}], "id": "3652600001", "name": "USPS COLLECTION BOX - PO LOBBY", "address": {"city": "DAPHNE", "state": "AL", "street": "808 DAPHNE AVE", "postcode": "36526"}}},
{"geometry": {"type": "Point", "coordinates": [-87.9009040987, 30.6038598751]}, "type": "Feature", "properties": {"collection_times": [{"days": "Mon-Fri", "time": "5:00pm"}, {"days": "Sat", "time": "12:30pm"}, {"days": "Sun", "time": "Closed"}], "id": "3652600002", "name": "USPS COLLECTION BOX - PO LOBBY", "address": {"city": "DAPHNE", "state": "AL", "street": "808 DAPHNE AVE", "postcode": "36526"}}},
{"geometry": {"type": "Point", "coordinates": [-87.8979637921, 30.5765277948]}, "type": "Feature", "properties": {"collection_times": [{"days": "Mon-Fri", "time": "10:00am"}, {"days": "Sat", "time": "9:30am"}, {"days": "Sun", "time": "Closed"}], "id": "3652600006", "name": "USPS COLLECTION BOX - BLUE BOX", "address": {"city": "DAPHNE", "state": "AL", "street": "27955 US HIGHWAY 98", "postcode": "36526"}}},
{"geometry": {"type": "Point", "coordinates": [-87.8778764849, 30.619444272]}, "type": "Feature", "properties": {"collection_times": [{"days": "Mon-Sat", "time": "12:00pm"}, {"days": "Sun", "time": "Closed"}], "id": "3652600007", "name": "USPS COLLECTION BOX - BLUE BOX", "address": {"city": "DAPHNE", "state": "AL", "street": "2200 E BAY DR", "postcode": "36526"}}},
{"geometry": {"type": "Point", "coordinates": [-87.8985537023, 30.5805626463]}, "type": "Feature", "properties": {"collection_times": [{"days": "Mon-Sat", "time": "10:30am"}, {"days": "Sun", "time": "Closed"}], "id": "3652600010", "name": "USPS COLLECTION BOX - BLUE BOX", "address": {"city": "DAPHNE", "state": "AL", "street": "29000 US HIGHWAY 98", "postcode": "36526"}}},
{"geometry": {"type": "Point", "coordinates": [-87.8957993564, 30.6506800573]}, "type": "Feature", "properties": {"collection_times": [{"days": "Mon-Sat", "time": "11:00am"}, {"days": "Sun", "time": "Closed"}], "id": "3652600011", "name": "USPS COLLECTION BOX - BLUE BOX", "address": {"city": "DAPHNE", "state": "AL", "street": "133 LAKE FRONT DR", "postcode": "36526"}}},
{"geometry": {"type": "Point", "coordinates": [-87.8605587367, 30.6086527486]}, "type": "Feature", "properties": {"collection_times": [{"days": "Mon-Sat", "time": "11:00am"}, {"days": "Sun", "time": "Closed"}], "id": "3652600012", "name": "USPS COLLECTION BOX - BLUE BOX", "address": {"city": "DAPHNE", "state": "AL", "street": "6845 US HIGHWAY 90", "postcode": "36526"}}},
{"geometry": {"type": "Point", "coordinates": [-87.8605587367, 30.6086527486]}, "type": "Feature", "properties": {"collection_times": [{"days": "Mon-Fri", "time": "11:00am"}, {"days": "Sat", "time": "10:00am"}, {"days": "Sun", "time": "Closed"}], "id": "3652600020", "name": "USPS COLLECTION BOX - BLUE BOX", "address": {"city": "DAPHNE", "state": "AL", "street": "500 JACKSON ST", "postcode": "36526"}}},
{"geometry": {"type": "Point", "coordinates": [-87.8970633601, 30.5749767746]}, "type": "Feature", "properties": {"collection_times": [{"days": "Mon-Sat", "time": "10:00am"}, {"days": "Sun", "time": "Closed"}], "id": "3652600021", "name": "USPS COLLECTION BOX - BLUE BOX", "address": {"city": "DAPHNE", "state": "AL", "street": "27520 US HIGHWAY 98", "postcode": "36526"}}},
{"geometry": {"type": "Point", "coordinates": [-87.8987306121, 30.579625724]}, "type": "Feature", "properties": {"collection_times": [{"days": "Mon-Sat", "time": "11:00am"}, {"days": "Sun", "time": "Closed"}], "id": "3652600022", "name": "USPS COLLECTION BOX - BLUE BOX", "address": {"city": "DAPHNE", "state": "AL", "street": "28765 US HIGHWAY 98", "postcode": "36526"}}},
{"geometry": {"type": "Point", "coordinates": [-87.910605302, 30.622098254]}, "type": "Feature", "properties": {"collection_times": [{"days": "Mon-Sat", "time": "10:00am"}, {"days": "Sun", "time": "Closed"}], "id": "3652600023", "name": "USPS COLLECTION BOX - BLUE BOX", "address": {"city": "DAPHNE", "state": "AL", "street": "6600 JACKSON SQ", "postcode": "36526"}}},
{"geometry": {"type": "Point", "coordinates": [-87.9106531355, 30.6430877136]}, "type": "Feature", "properties": {"collection_times": [{"days": "Mon-Fri", "time": "12:00pm"}, {"days": "Sat", "time": "11:15am"}, {"days": "Sun", "time": "Closed"}], "id": "3652600024", "name": "USPS COLLECTION BOX - BLUE BOX", "address": {"city": "DAPHNE", "state": "AL", "street": "28685 N MAIN ST", "postcode": "36526"}}},
{"geometry": {"type": "Point", "coordinates": [-87.8519757481, 30.6602251554]}, "type": "Feature", "properties": {"collection_times": [{"days": "Mon-Sat", "time": "12:00pm"}, {"days": "Sun", "time": "Closed"}], "id": "3652600026", "name": "USPS COLLECTION BOX - BLUE BOX", "address": {"city": "DAPHNE", "state": "AL", "street": "29640 HIGHWAY 181", "postcode": "36526"}}},
{"geometry": {"type": "Point", "coordinates": [-87.898470794, 30.5799546971]}, "type": "Feature", "properties": {"collection_times": [{"days": "Mon-Sat", "time": "11:00am"}, {"days": "Sun", "time": "Closed"}], "id": "3652600027", "name": "USPS COLLECTION BOX - BLUE BOX", "address": {"city": "DAPHNE", "state": "AL", "street": "28850 US HIGHWAY 98", "postcode": "36526"}}},
{"geometry": {"type": "Point", "coordinates": [-87.8669571156, 30.6403050519]}, "type": "Feature", "properties": {"collection_times": [{"days": "Mon-Sat", "time": "10:00am"}, {"days": "Sun", "time": "Closed"}], "id": "3652600028", "name": "USPS COLLECTION BOX - BLUE BOX", "address": {"city": "DAPHNE", "state": "AL", "street": "9091 LAWSON RD", "postcode": "36526"}}},
{"geometry": {"type": "Point", "coordinates": [-87.874303634, 30.605320348]}, "type": "Feature", "properties": {"collection_times": [{"days": "Mon-Sat", "time": "11:00am"}, {"days": "Sun", "time": "Closed"}], "id": "3652600029", "name": "USPS COLLECTION BOX - BLUE BOX", "address": {"city": "DAPHNE", "state": "AL", "street": "26148 CAPITAL DR", "postcode": "36526"}}},
{"geometry": {"type": "Point", "coordinates": [-87.9009040987, 30.6038598751]}, "type": "Feature", "properties": {"collection_times": [{"days": "Mon-Fri", "time": "5:00pm"}, {"days": "Sat", "time": "12:30pm"}, {"days": "Sun", "time": "Closed"}], "id": "3652600030", "name": "USPS COLLECTION BOX - BLUE BOX", "address": {"city": "DAPHNE", "state": "AL", "street": "808 DAPHNE AVE", "postcode": "36526"}}},
{"geometry": {"type": "Point", "coordinates": [-87.900288148, 30.7009284728]}, "type": "Feature", "properties": {"collection_times": [{"days": "Mon-Sat", "time": "10:00am"}, {"days": "Sun", "time": "Closed"}], "id": "3652700001", "name": "USPS COLLECTION BOX - BLUE BOX", "address": {"city": "SPANISH FORT", "state": "AL", "street": "30500 STATE HIGHWAY 181", "postcode": "36527"}}},
{"geometry": {"type": "Point", "coordinates": [-87.8491333838, 30.6660984618]}, "type": "Feature", "properties": {"collection_times": [{"days": "Mon-Sat", "time": "10:00am"}, {"days": "Sun", "time": "Closed"}], "id": "3652700002", "name": "USPS COLLECTION BOX - BLUE BOX", "address": {"city": "SPANISH FORT", "state": "AL", "street": "10200 EASTERN SHORE BLVD", "postcode": "36527"}}},
{"geometry": {"type": "Point", "coordinates": [-87.8935612547, 30.670640872]}, "type": "Feature", "properties": {"collection_times": [{"days": "Mon-Sat", "time": "12:00pm"}, {"days": "Sun", "time": "Closed"}], "id": "3652700003", "name": "USPS COLLECTION BOX - BLUE BOX", "address": {"city": "SPANISH FORT", "state": "AL", "street": "6729 SPANISH FORT BLVD STE D", "postcode": "36527"}}},
{"geometry": {"type": "Point", "coordinates": [-87.9110079646, 30.667152956]}, "type": "Feature", "properties": {"collection_times": [{"days": "Mon-Fri", "time": "4:30pm"}, {"days": "Sat", "time": "12:00pm"}, {"days": "Sun", "time": "Closed"}], "id": "3652700004", "name": "USPS COLLECTION BOX - BLUE BOX", "address": {"city": "SPANISH FORT", "state": "AL", "street": "6450 US HIGHWAY 90 STE A", "postcode": "36527"}}},
{"geometry": {"type": "Point", "coordinates": [-87.9049884595, 30.6704053493]}, "type": "Feature", "properties": {"collection_times": [{"days": "Mon-Sat", "time": "11:00am"}, {"days": "Sun", "time": "Closed"}], "id": "3652700005", "name": "USPS COLLECTION BOX - BLUE BOX", "address": {"city": "SPANISH FORT", "state": "AL", "street": "500 SPANISH FORT BLVD", "postcode": "36527"}}},
{"geometry": {"type": "Point", "coordinates": [-87.9110079646, 30.667152956]}, "type": "Feature", "properties": {"collection_times": [{"days": "Mon-Sat", "time": "11:00am"}, {"days": "Sun", "time": "Closed"}], "id": "3652700006", "name": "USPS COLLECTION BOX - BLUE BOX", "address": {"city": "SPANISH FORT", "state": "AL", "street": "6450 US HIGHWAY 90 STE L", "postcode": "36527"}}},
{"geometry": {"type": "Point", "coordinates": [-88.1342630239, 30.2513338427]}, "type": "Feature", "properties": {"collection_times": [{"days": "Mon-Fri", "time": "3:45pm"}, {"days": "Sat", "time": "11:00am"}, {"days": "Sun", "time": "Closed"}], "id": "3652800001", "name": "USPS COLLECTION BOX - BLUE BOX", "address": {"city": "DAUPHIN ISLAND", "state": "AL", "street": "423 LA VENTE ST", "postcode": "36528"}}},
{"geometry": {"type": "Point", "coordinates": [-88.1342630239, 30.2513338427]}, "type": "Feature", "properties": {"collection_times": [{"days": "Mon-Fri", "time": "3:45pm"}, {"days": "Sat", "time": "11:00am"}, {"days": "Sun", "time": "Closed"}], "id": "3652800002", "name": "USPS COLLECTION BOX - PO LOBBY", "address": {"city": "DAUPHIN ISLAND", "state": "AL", "street": "423 LA VENTE ST", "postcode": "36528"}}},
{"geometry": {"type": "Point", "coordinates": [-88.2973563563, 31.1941880887]}, "type": "Feature", "properties": {"collection_times": [{"days": "Mon-Fri", "time": "11:50am"}, {"days": "Sat", "time": "10:30am"}, {"days": "Sun", "time": "Closed"}], "id": "3652900001", "name": "USPS COLLECTION BOX - PO LOBBY", "address": {"city": "DEER PARK", "state": "AL", "street": "342 DEER PARK BURBANK RD", "postcode": "36529"}}},
{"geometry": {"type": "Point", "coordinates": [-87.6039134666, 30.414208173]}, "type": "Feature", "properties": {"collection_times": [{"days": "Mon-Fri", "time": "3:30pm"}, {"days": "Sat", "time": "10:45am"}, {"days": "Sun", "time": "Closed"}], "id": "3653000001", "name": "USPS COLLECTION BOX - BLUE BOX", "address": {"city": "ELBERTA", "state": "AL", "street": "24750 STATE ST", "postcode": "36530"}}},
{"geometry": {"type": "Point", "coordinates": [-87.6039134666, 30.414208173]}, "type": "Feature", "properties": {"collection_times": [{"days": "Mon-Fri", "time": "3:30pm"}, {"days": "Sat", "time": "10:45am"}, {"days": "Sun", "time": "Closed"}], "id": "3653000002", "name": "USPS COLLECTION BOX - PO LOBBY", "address": {"city": "ELBERTA", "state": "AL", "street": "24750 STATE ST", "postcode": "36530"}}},
{"geometry": {"type": "Point", "coordinates": [-87.9016230734, 30.5231088627]}, "type": "Feature", "properties": {"collection_times": [{"days": "Mon-Fri", "time": "4:30pm"}, {"days": "Sat", "time": "3:30pm"}, {"days": "Sun", "time": "Closed"}], "id": "3653200001", "name": "USPS COLLECTION BOX - BLUE BOX", "address": {"city": "FAIRHOPE", "state": "AL", "street": "509 FAIRHOPE AVE", "postcode": "36532"}}},
{"geometry": {"type": "Point", "coordinates": [-87.9016230734, 30.5231088627]}, "type": "Feature", "properties": {"collection_times": [{"days": "Mon-Fri", "time": "4:30pm"}, {"days": "Sat", "time": "3:30pm"}, {"days": "Sun", "time": "Closed"}], "id": "3653200002", "name": "USPS COLLECTION BOX - BLUE BOX", "address": {"city": "FAIRHOPE", "state": "AL", "street": "509 FAIRHOPE AVE", "postcode": "36532"}}},
{"geometry": {"type": "Point", "coordinates": [-87.8623489259, 30.4802379368]}, "type": "Feature", "properties": {"collection_times": [{"days": "Mon-Fri", "time": "9:30am"}, {"days": "Sat", "time": "9:15am"}, {"days": "Sun", "time": "Closed"}], "id": "3653200004", "name": "USPS COLLECTION BOX - BLUE BOX", "address": {"city": "FAIRHOPE", "state": "AL", "street": "120 EASTERN SHORE SHOPPING CTR", "postcode": "36532"}}},
{"geometry": {"type": "Point", "coordinates": [-87.8516322938, 30.5235661122]}, "type": "Feature", "properties": {"collection_times": [{"days": "Mon-Sat", "time": "12:00pm"}, {"days": "Sun", "time": "Closed"}], "id": "3653200005", "name": "USPS COLLECTION BOX - BLUE BOX", "address": {"city": "FAIRHOPE", "state": "AL", "street": "10040 COUNTY ROAD 48", "postcode": "36532"}}},
{"geometry": {"type": "Point", "coordinates": [-87.9016230734, 30.5231088627]}, "type": "Feature", "properties": {"collection_times": [{"days": "Mon-Fri", "time": "4:30pm"}, {"days": "Sat", "time": "3:30pm"}, {"days": "Sun", "time": "Closed"}], "id": "3653200007", "name": "USPS COLLECTION BOX - BLUE BOX", "address": {"city": "FAIRHOPE", "state": "AL", "street": "509 FAIRHOPE AVE", "postcode": "36532"}}},
{"geometry": {"type": "Point", "coordinates": [-87.9016230734, 30.5231088627]}, "type": "Feature", "properties": {"collection_times": [{"days": "Mon-Fri", "time": "4:30pm"}, {"days": "Sat", "time": "3:30pm"}, {"days": "Sun", "time": "Closed"}], "id": "3653200008", "name": "USPS COLLECTION BOX - PO LOBBY", "address": {"city": "FAIRHOPE", "state": "AL", "street": "509 FAIRHOPE AVE", "postcode": "36532"}}},
{"geometry": {"type": "Point", "coordinates": [-87.682997137, 30.4063268761]}, "type": "Feature", "properties": {"collection_times": [{"days": "Mon-Fri", "time": "4:30pm"}, {"days": "Sat", "time": "4:15pm"}, {"days": "Sun", "time": "Closed"}], "id": "3653500001", "name": "USPS COLLECTION BOX - BLUE BOX", "address": {"city": "FOLEY", "state": "AL", "street": "150 E LAUREL AVE", "postcode": "36535"}}},
{"geometry": {"type": "Point", "coordinates": [-87.682997137, 30.4063268761]}, "type": "Feature", "properties": {"collection_times": [{"days": "Mon-Fri", "time": "4:30pm"}, {"days": "Sat", "time": "4:15pm"}, {"days": "Sun", "time": "Closed"}], "id": "3653500011", "name": "USPS COLLECTION BOX - BLUE BOX", "address": {"city": "FOLEY", "state": "AL", "street": "150 E LAUREL AVE", "postcode": "36535"}}},
{"geometry": {"type": "Point", "coordinates": [-87.7018081721, 30.3893805757]}, "type": "Feature", "properties": {"collection_times": [{"days": "Mon-Fri", "time": "4:00pm"}, {"days": "Sat", "time": "11:00am"}, {"days": "Sun", "time": "Closed"}], "id": "3653500012", "name": "USPS COLLECTION BOX - EXPRESS", "address": {"city": "FOLEY", "state": "AL", "street": "150 E LAUREL AVE", "postcode": "36535"}}},
{"geometry": {"type": "Point", "coordinates": [-87.682997137, 30.4063268761]}, "type": "Feature", "properties": {"collection_times": [{"days": "Mon-Fri", "time": "4:45pm"}, {"days": "Sat", "time": "4:15pm"}, {"days": "Sun", "time": "Closed"}], "id": "3653500015", "name": "USPS COLLECTION BOX - PO LOBBY", "address": {"city": "FOLEY", "state": "AL", "street": "150 E LAUREL AVE", "postcode": "36535"}}},
{"geometry": {"type": "Point", "coordinates": [-88.1342076133, 31.6570699003]}, "type": "Feature", "properties": {"collection_times": [{"days": "Mon-Fri", "time": "11:00am"}, {"days": "Sat-Sun", "time": "Closed"}], "id": "3653800001", "name": "USPS COLLECTION BOX - BLUE BOX", "address": {"city": "FRANKVILLE", "state": "AL", "street": "2323 COUNTY ROAD 31", "postcode": "36538"}}},
{"geometry": {"type": "Point", "coordinates": [-88.1342076133, 31.6570699003]}, "type": "Feature", "properties": {"collection_times": [{"days": "Mon-Fri", "time": "11:00am"}, {"days": "Sat-Sun", "time": "Closed"}], "id": "3653800002", "name": "USPS COLLECTION BOX - PO LOBBY", "address": {"city": "FRANKVILLE", "state": "AL", "street": "2323 COUNTY ROAD 31", "postcode": "36538"}}},
{"geometry": {"type": "Point", "coordinates": [-88.4091146324, 31.3418713455]}, "type": "Feature", "properties": {"collection_times": [{"days": "Mon-Fri", "time": "11:30am"}, {"days": "Sat", "time": "11:00am"}, {"days": "Sun", "time": "Closed"}], "id": "3653900001", "name": "USPS COLLECTION BOX - BLUE BOX", "address": {"city": "FRUITDALE", "state": "AL", "street": "46 GREEN ST", "postcode": "36539"}}},
{"geometry": {"type": "Point", "coordinates": [-88.4091146324, 31.3418713455]}, "type": "Feature", "properties": {"collection_times": [{"days": "Mon-Fri", "time": "11:30am"}, {"days": "Sat", "time": "11:00am"}, {"days": "Sun", "time": "Closed"}], "id": "3653900002", "name": "USPS COLLECTION BOX - PO LOBBY", "address": {"city": "FRUITDALE", "state": "AL", "street": "46 GREEN ST", "postcode": "36539"}}},
{"geometry": {"type": "Point", "coordinates": [-87.6933313424, 31.4448585902]}, "type": "Feature", "properties": {"collection_times": [{"days": "Mon-Fri", "time": "12:00pm"}, {"days": "Sat-Sun", "time": "Closed"}], "id": "3654000001", "name": "USPS COLLECTION BOX - BLUE BOX", "address": {"city": "GAINESTOWN", "state": "AL", "street": "16430 WALKER SPRINGS RD", "postcode": "36540"}}},
{"geometry": {"type": "Point", "coordinates": [-87.6933313424, 31.4448585902]}, "type": "Feature", "properties": {"collection_times": [{"days": "Mon-Fri", "time": "12:00pm"}, {"days": "Sat-Sun", "time": "Closed"}], "id": "3654000002", "name": "USPS COLLECTION BOX - PO LOBBY", "address": {"city": "GAINESTOWN", "state": "AL", "street": "16430 WALKER SPRINGS RD", "postcode": "36540"}}},
{"geometry": {"type": "Point", "coordinates": [-88.3399461163, 30.4780287042]}, "type": "Feature", "properties": {"collection_times": [{"days": "Mon-Fri", "time": "4:30pm"}, {"days": "Sat", "time": "11:00am"}, {"days": "Sun", "time": "Closed"}], "id": "3654100001", "name": "USPS COLLECTION BOX - BLUE BOX", "address": {"city": "GRAND BAY", "state": "AL", "street": "12580 US HIGHWAY 90", "postcode": "36541"}}},
{"geometry": {"type": "Point", "coordinates": [-88.3347787142, 30.4991414011]}, "type": "Feature", "properties": {"collection_times": [{"days": "Mon-Sat", "time": "12:15pm"}, {"days": "Sun", "time": "Closed"}], "id": "3654100002", "name": "USPS COLLECTION BOX - BLUE BOX", "address": {"city": "GRAND BAY", "state": "AL", "street": "9201 GRAND BAY WILMER RD S", "postcode": "36541"}}},
{"geometry": {"type": "Point", "coordinates": [-88.3399461163, 30.4780287042]}, "type": "Feature", "properties": {"collection_times": [{"days": "Mon-Fri", "time": "4:30pm"}, {"days": "Sat", "time": "11:00am"}, {"days": "Sun", "time": "Closed"}], "id": "3654100003", "name": "USPS COLLECTION BOX - PO LOBBY", "address": {"city": "GRAND BAY", "state": "AL", "street": "12580 US HIGHWAY 90", "postcode": "36541"}}},
{"geometry": {"type": "Point", "coordinates": [-87.7144613599, 30.2443748892]}, "type": "Feature", "properties": {"collection_times": [{"days": "Mon-Sat", "time": "10:00am"}, {"days": "Sun", "time": "Closed"}], "id": "3654200002", "name": "USPS COLLECTION BOX - BLUE BOX", "address": {"city": "GULF SHORES", "state": "AL", "street": "900 W BEACH BLVD", "postcode": "36542"}}},
{"geometry": {"type": "Point", "coordinates": [-87.6888178086, 30.2712036221]}, "type": "Feature", "properties": {"collection_times": [{"days": "Mon-Fri", "time": "4:15pm"}, {"days": "Sat", "time": "11:30am"}, {"days": "Sun", "time": "Closed"}], "id": "3654200003", "name": "USPS COLLECTION BOX - BLUE BOX", "address": {"city": "GULF SHORES", "state": "AL", "street": "2149 W 1ST ST", "postcode": "36542"}}},
{"geometry": {"type": "Point", "coordinates": [-87.6387680354, 30.2672028646]}, "type": "Feature", "properties": {"collection_times": [{"days": "Mon-Sat", "time": "10:00am"}, {"days": "Sun", "time": "Closed"}], "id": "3654200006", "name": "USPS COLLECTION BOX - BLUE BOX", "address": {"city": "GULF SHORES", "state": "AL", "street": "22050 CAMPGROUND RD", "postcode": "36542"}}},
{"geometry": {"type": "Point", "coordinates": [-87.6888178086, 30.2712036221]}, "type": "Feature", "properties": {"collection_times": [{"days": "Mon-Fri", "time": "4:15pm"}, {"days": "Sat", "time": "11:30am"}, {"days": "Sun", "time": "Closed"}], "id": "3654200007", "name": "USPS COLLECTION BOX - BLUE BOX", "address": {"city": "GULF SHORES", "state": "AL", "street": "2149 W 1ST ST", "postcode": "36542"}}},
{"geometry": {"type": "Point", "coordinates": [-87.6888178086, 30.2712036221]}, "type": "Feature", "properties": {"collection_times": [{"days": "Mon-Fri", "time": "4:15pm"}, {"days": "Sat", "time": "11:30am"}, {"days": "Sun", "time": "Closed"}], "id": "3654200008", "name": "USPS COLLECTION BOX - BLUE BOX", "address": {"city": "GULF SHORES", "state": "AL", "street": "2149 W 1ST ST", "postcode": "36542"}}},
{"geometry": {"type": "Point", "coordinates": [-87.6888178086, 30.2712036221]}, "type": "Feature", "properties": {"collection_times": [{"days": "Mon-Fri", "time": "4:15pm"}, {"days": "Sat", "time": "11:30am"}, {"days": "Sun", "time": "Closed"}], "id": "3654200009", "name": "USPS COLLECTION BOX - BLUE BOX", "address": {"city": "GULF SHORES", "state": "AL", "street": "2149 W 1ST ST", "postcode": "36542"}}},
{"geometry": {"type": "Point", "coordinates": [-87.6888178086, 30.2712036221]}, "type": "Feature", "properties": {"collection_times": [{"days": "Mon-Fri", "time": "4:30pm"}, {"days": "Sat", "time": "3:45pm"}, {"days": "Sun", "time": "Closed"}], "id": "3654200010", "name": "USPS COLLECTION BOX - PO LOBBY", "address": {"city": "GULF SHORES", "state": "AL", "street": "2149 W 1ST ST", "postcode": "36542"}}},
{"geometry": {"type": "Point", "coordinates": [-87.6828731029, 30.2963002096]}, "type": "Feature", "properties": {"collection_times": [{"days": "Mon-Sat", "time": "11:45am"}, {"days": "Sun", "time": "Closed"}], "id": "3654200011", "name": "USPS COLLECTION BOX - BLUE BOX", "address": {"city": "GULF SHORES", "state": "AL", "street": "3150 GULF SHORES PKWY", "postcode": "36542"}}},
{"geometry": {"type": "Point", "coordinates": [-87.6881958194, 30.2698471232]}, "type": "Feature", "properties": {"collection_times": [{"days": "Mon-Sat", "time": "12:00pm"}, {"days": "Sun", "time": "Closed"}], "id": "3654200012", "name": "USPS COLLECTION BOX - BLUE BOX", "address": {"city": "GULF SHORES", "state": "AL", "street": "1545 GULF SHORES PKWY", "postcode": "36542"}}},
{"geometry": {"type": "Point", "coordinates": [-88.2339952737, 30.4994362871]}, "type": "Feature", "properties": {"collection_times": [{"days": "Mon-Fri", "time": "4:30pm"}, {"days": "Sat", "time": "11:00am"}, {"days": "Sun", "time": "Closed"}], "id": "3654400001", "name": "USPS COLLECTION BOX - BLUE BOX", "address": {"city": "IRVINGTON", "state": "AL", "street": "9251 IRVINGTON BLB HWY", "postcode": "36544"}}},
{"geometry": {"type": "Point", "coordinates": [-88.2339952737, 30.4994362871]}, "type": "Feature", "properties": {"collection_times": [{"days": "Mon-Fri", "time": "4:30pm"}, {"days": "Sat", "time": "11:00am"}, {"days": "Sun", "time": "Closed"}], "id": "3654400002", "name": "USPS COLLECTION BOX - PO LOBBY", "address": {"city": "IRVINGTON", "state": "AL", "street": "9251 IRVINGTON BLB HWY", "postcode": "36544"}}},
{"geometry": {"type": "Point", "coordinates": [-87.8919116398, 31.5299013878]}, "type": "Feature", "properties": {"collection_times": [{"days": "Mon-Fri", "time": "4:15pm"}, {"days": "Sat", "time": "3:30pm"}, {"days": "Sun", "time": "Closed"}], "id": "3654500001", "name": "USPS COLLECTION BOX - BLUE BOX", "address": {"city": "JACKSON", "state": "AL", "street": "1829 COLLEGE AVE", "postcode": "36545"}}},
{"geometry": {"type": "Point", "coordinates": [-87.8919116398, 31.5299013878]}, "type": "Feature", "properties": {"collection_times": [{"days": "Mon-Fri", "time": "4:15pm"}, {"days": "Sat", "time": "3:30pm"}, {"days": "Sun", "time": "Closed"}], "id": "3654500002", "name": "USPS COLLECTION BOX - BLUE BOX", "address": {"city": "JACKSON", "state": "AL", "street": "1829 COLLEGE AVE", "postcode": "36545"}}},
{"geometry": {"type": "Point", "coordinates": [-87.8919116398, 31.5299013878]}, "type": "Feature", "properties": {"collection_times": [{"days": "Mon-Fri", "time": "4:15pm"}, {"days": "Sat", "time": "3:30pm"}, {"days": "Sun", "time": "Closed"}], "id": "3654500008", "name": "USPS COLLECTION BOX - PO LOBBY", "address": {"city": "JACKSON", "state": "AL", "street": "1829 COLLEGE AVE", "postcode": "36545"}}},
{"geometry": {"type": "Point", "coordinates": [-87.8919116398, 31.5299013878]}, "type": "Feature", "properties": {"collection_times": [{"days": "Mon-Fri", "time": "4:15pm"}, {"days": "Sat", "time": "3:30pm"}, {"days": "Sun", "time": "Closed"}], "id": "3654500010", "name": "USPS COLLECTION BOX - PO LOBBY", "address": {"city": "JACKSON", "state": "AL", "street": "1829 COLLEGE AVE", "postcode": "36545"}}},
{"geometry": {"type": "Point", "coordinates": [-87.9590219797, 31.4770393898]}, "type": "Feature", "properties": {"collection_times": [{"days": "Mon-Fri", "time": "11:45am"}, {"days": "Sat", "time": "11:00am"}, {"days": "Sun", "time": "Closed"}], "id": "3654800001", "name": "USPS COLLECTION BOX - BLUE BOX", "address": {"city": "LEROY", "state": "AL", "street": "19 WASHINGTON ST", "postcode": "36548"}}},
{"geometry": {"type": "Point", "coordinates": [-87.9590219797, 31.4770393898]}, "type": "Feature", "properties": {"collection_times": [{"days": "Mon-Fri", "time": "11:45am"}, {"days": "Sat", "time": "11:00am"}, {"days": "Sun", "time": "Closed"}], "id": "3654800002", "name": "USPS COLLECTION BOX - PO LOBBY", "address": {"city": "LEROY", "state": "AL", "street": "19 WASHINGTON ST", "postcode": "36548"}}},
{"geometry": {"type": "Point", "coordinates": [-87.4510245103, 30.4145347639]}, "type": "Feature", "properties": {"collection_times": [{"days": "Mon-Fri", "time": "3:30pm"}, {"days": "Sat", "time": "11:30am"}, {"days": "Sun", "time": "Closed"}], "id": "3654900001", "name": "USPS COLLECTION BOX - BLUE BOX", "address": {"city": "LILLIAN", "state": "AL", "street": "33985 US HIGHWAY 98", "postcode": "36549"}}},
{"geometry": {"type": "Point", "coordinates": [-87.4510245103, 30.4145347639]}, "type": "Feature", "properties": {"collection_times": [{"days": "Mon-Fri", "time": "3:30pm"}, {"days": "Sat", "time": "11:30am"}, {"days": "Sun", "time": "Closed"}], "id": "3654900002", "name": "USPS COLLECTION BOX - PO LOBBY", "address": {"city": "LILLIAN", "state": "AL", "street": "33985 US HIGHWAY 98", "postcode": "36549"}}},
{"geometry": {"type": "Point", "coordinates": [-87.7093256575, 31.255001739]}, "type": "Feature", "properties": {"collection_times": [{"days": "Mon-Fri", "time": "2:30pm"}, {"days": "Sat-Sun", "time": "Closed"}], "id": "3655000001", "name": "USPS COLLECTION BOX - BLUE BOX", "address": {"city": "LITTLE RIVER", "state": "AL", "street": "70715 STATE HIGHWAY 59", "postcode": "36550"}}},
{"geometry": {"type": "Point", "coordinates": [-87.7148866386, 31.262522466]}, "type": "Feature", "properties": {"collection_times": [{"days": "Mon-Fri", "time": "3:00pm"}, {"days": "Sat-Sun", "time": "Closed"}], "id": "3655000002", "name": "USPS COLLECTION BOX - PO LOBBY", "address": {"city": "LITTLE RIVER", "state": "AL", "street": "70715 STATE HIGHWAY 59", "postcode": "36550"}}},
{"geometry": {"type": "Point", "coordinates": [-87.750597045, 30.6219216353]}, "type": "Feature", "properties": {"collection_times": [{"days": "Mon-Fri", "time": "2:30pm"}, {"days": "Sat", "time": "11:00am"}, {"days": "Sun", "time": "Closed"}], "id": "3655100001", "name": "USPS COLLECTION BOX - BLUE BOX", "address": {"city": "LOXLEY", "state": "AL", "street": "1059 S HOLLEY ST", "postcode": "36551"}}},
{"geometry": {"type": "Point", "coordinates": [-87.750597045, 30.6219216353]}, "type": "Feature", "properties": {"collection_times": [{"days": "Mon-Fri", "time": "2:30pm"}, {"days": "Sat", "time": "11:00am"}, {"days": "Sun", "time": "Closed"}], "id": "3655100003", "name": "USPS COLLECTION BOX - PO LOBBY", "address": {"city": "LOXLEY", "state": "AL", "street": "1059 S HOLLEY ST", "postcode": "36551"}}},
{"geometry": {"type": "Point", "coordinates": [-88.0296866306, 31.2602864167]}, "type": "Feature", "properties": {"collection_times": [{"days": "Mon-Fri", "time": "2:00pm"}, {"days": "Sat", "time": "11:30am"}, {"days": "Sun", "time": "Closed"}], "id": "3655300001", "name": "USPS COLLECTION BOX - BLUE BOX", "address": {"city": "MCINTOSH", "state": "AL", "street": "7595 HIGHWAY 43", "postcode": "36553"}}},
{"geometry": {"type": "Point", "coordinates": [-88.0296866306, 31.2602864167]}, "type": "Feature", "properties": {"collection_times": [{"days": "Mon-Fri", "time": "2:00pm"}, {"days": "Sat", "time": "11:30am"}, {"days": "Sun", "time": "Closed"}], "id": "3655300002", "name": "USPS COLLECTION BOX - PO LOBBY", "address": {"city": "MCINTOSH", "state": "AL", "street": "7595 HIGHWAY 43", "postcode": "36553"}}},
{"geometry": {"type": "Point", "coordinates": [-87.7749905386, 30.3996851097]}, "type": "Feature", "properties": {"collection_times": [{"days": "Mon-Fri", "time": "4:00pm"}, {"days": "Sat", "time": "11:00am"}, {"days": "Sun", "time": "Closed"}], "id": "3655500001", "name": "USPS COLLECTION BOX - BLUE BOX", "address": {"city": "MAGNOLIA SPGS", "state": "AL", "street": "14840 US HIGHWAY 98", "postcode": "36555"}}},
{"geometry": {"type": "Point", "coordinates": [-87.7749905386, 30.3996851097]}, "type": "Feature", "properties": {"collection_times": [{"days": "Mon-Fri", "time": "4:00pm"}, {"days": "Sat", "time": "11:00am"}, {"days": "Sun", "time": "Closed"}], "id": "3655500002", "name": "USPS COLLECTION BOX - PO LOBBY", "address": {"city": "MAGNOLIA SPGS", "state": "AL", "street": "14840 US HIGHWAY 98", "postcode": "36555"}}},
{"geometry": {"type": "Point", "coordinates": [-87.9995427682, 31.1917201852]}, "type": "Feature", "properties": {"collection_times": [{"days": "Mon-Fri", "time": "11:45am"}, {"days": "Sat-Sun", "time": "Closed"}], "id": "3655600001", "name": "USPS COLLECTION BOX - BLUE BOX", "address": {"city": "MALCOLM", "state": "AL", "street": "100 BATES LAKE RD", "postcode": "36556"}}},
{"geometry": {"type": "Point", "coordinates": [-87.9995427682, 31.1917201852]}, "type": "Feature", "properties": {"collection_times": [{"days": "Mon-Fri", "time": "11:45am"}, {"days": "Sat-Sun", "time": "Closed"}], "id": "3655600002", "name": "USPS COLLECTION BOX - PO LOBBY", "address": {"city": "MALCOLM", "state": "AL", "street": "100 BATES LAKE RD", "postcode": "36556"}}},
{"geometry": {"type": "Point", "coordinates": [-88.3159498499, 31.6326200464]}, "type": "Feature", "properties": {"collection_times": [{"days": "Mon-Fri", "time": "3:50pm"}, {"days": "Sat", "time": "11:00am"}, {"days": "Sun", "time": "Closed"}], "id": "3655800001", "name": "USPS COLLECTION BOX - BLUE BOX", "address": {"city": "MILLRY", "state": "AL", "street": "15 MAIN ST", "postcode": "36558"}}},
{"geometry": {"type": "Point", "coordinates": [-88.3159498499, 31.6326200464]}, "type": "Feature", "properties": {"collection_times": [{"days": "Mon-Fri", "time": "3:50pm"}, {"days": "Sat", "time": "11:00am"}, {"days": "Sun", "time": "Closed"}], "id": "3655800002", "name": "USPS COLLECTION BOX - PO LOBBY", "address": {"city": "MILLRY", "state": "AL", "street": "15 MAIN ST", "postcode": "36558"}}},
{"geometry": {"type": "Point", "coordinates": [-87.8942076453, 30.5659645841]}, "type": "Feature", "properties": {"collection_times": [{"days": "Mon-Fri", "time": "3:00pm"}, {"days": "Sat", "time": "11:00am"}, {"days": "Sun", "time": "Closed"}], "id": "3655900001", "name": "USPS COLLECTION BOX - BLUE BOX", "address": {"city": "MONTROSE", "state": "AL", "street": "7325 SIBLEY ST", "postcode": "36559"}}},
{"geometry": {"type": "Point", "coordinates": [-87.8942076453, 30.5659645841]}, "type": "Feature", "properties": {"collection_times": [{"days": "Mon-Fri", "time": "3:00pm"}, {"days": "Sat", "time": "11:00am"}, {"days": "Sun", "time": "Closed"}], "id": "3655900002", "name": "USPS COLLECTION BOX - PO LOBBY", "address": {"city": "MONTROSE", "state": "AL", "street": "7325 SIBLEY ST", "postcode": "36559"}}},
{"geometry": {"type": "Point", "coordinates": [-88.019103322, 31.0829355138]}, "type": "Feature", "properties": {"collection_times": [{"days": "Mon-Fri", "time": "3:45pm"}, {"days": "Sat", "time": "11:00am"}, {"days": "Sun", "time": "Closed"}], "id": "3656000001", "name": "USPS COLLECTION BOX - BLUE BOX", "address": {"city": "MOUNT VERNON", "state": "AL", "street": "19175 OLD HIGHWAY 43", "postcode": "36560"}}},
{"geometry": {"type": "Point", "coordinates": [-88.019103322, 31.0829355138]}, "type": "Feature", "properties": {"collection_times": [{"days": "Mon-Fri", "time": "3:45pm"}, {"days": "Sat", "time": "11:00am"}, {"days": "Sun", "time": "Closed"}], "id": "3656000003", "name": "USPS COLLECTION BOX - PO LOBBY", "address": {"city": "MOUNT VERNON", "state": "AL", "street": "19175 OLD HIGHWAY 43", "postcode": "36560"}}},
{"geometry": {"type": "Point", "coordinates": [-87.5819616676, 30.2841580258]}, "type": "Feature", "properties": {"collection_times": [{"days": "Mon-Fri", "time": "4:00pm"}, {"days": "Sat", "time": "12:00pm"}, {"days": "Sun", "time": "Closed"}], "id": "3656100001", "name": "USPS COLLECTION BOX - BLUE BOX", "address": {"city": "ORANGE BEACH", "state": "AL", "street": "25778 JOHN M SNOOK DR", "postcode": "36561"}}},
{"geometry": {"type": "Point", "coordinates": [-87.5819616676, 30.2841580258]}, "type": "Feature", "properties": {"collection_times": [{"days": "Mon-Fri", "time": "4:00pm"}, {"days": "Sat", "time": "12:00pm"}, {"days": "Sun", "time": "Closed"}], "id": "3656100002", "name": "USPS COLLECTION BOX - BLUE BOX", "address": {"city": "ORANGE BEACH", "state": "AL", "street": "25778 JOHN M SNOOK DR", "postcode": "36561"}}},
{"geometry": {"type": "Point", "coordinates": [-87.5819616676, 30.2841580258]}, "type": "Feature", "properties": {"collection_times": [{"days": "Mon-Fri", "time": "4:00pm"}, {"days": "Sat", "time": "12:00pm"}, {"days": "Sun", "time": "Closed"}], "id": "3656100005", "name": "USPS COLLECTION BOX - PO LOBBY", "address": {"city": "ORANGE BEACH", "state": "AL", "street": "25778 JOHN M SNOOK DR", "postcode": "36561"}}},
{"geometry": {"type": "Point", "coordinates": [-87.6232677299, 31.0039642876]}, "type": "Feature", "properties": {"collection_times": [{"days": "Mon-Fri", "time": "11:45am"}, {"days": "Sat", "time": "10:45am"}, {"days": "Sun", "time": "Closed"}], "id": "3656200001", "name": "USPS COLLECTION BOX - BLUE BOX", "address": {"city": "PERDIDO", "state": "AL", "street": "23336 COUNTY ROAD 47", "postcode": "36562"}}},
{"geometry": {"type": "Point", "coordinates": [-87.6232677299, 31.0039642876]}, "type": "Feature", "properties": {"collection_times": [{"days": "Mon-Fri", "time": "11:45am"}, {"days": "Sat", "time": "10:50am"}, {"days": "Sun", "time": "Closed"}], "id": "3656200002", "name": "USPS COLLECTION BOX - PO LOBBY", "address": {"city": "PERDIDO", "state": "AL", "street": "23336 COUNTY ROAD 47", "postcode": "36562"}}},
{"geometry": {"type": "Point", "coordinates": [-87.908156473, 30.4723597815]}, "type": "Feature", "properties": {"collection_times": [{"days": "Mon-Fri", "time": "4:00pm"}, {"days": "Sat", "time": "11:00am"}, {"days": "Sun", "time": "Closed"}], "id": "3656400001", "name": "USPS COLLECTION BOX - BLUE BOX", "address": {"city": "POINT CLEAR", "state": "AL", "street": "6581 COUNTY ROAD 32", "postcode": "36564"}}},
{"geometry": {"type": "Point", "coordinates": [-87.908156473, 30.4723597815]}, "type": "Feature", "properties": {"collection_times": [{"days": "Mon-Fri", "time": "4:30pm"}, {"days": "Sat", "time": "11:00am"}, {"days": "Sun", "time": "Closed"}], "id": "3656400002", "name": "USPS COLLECTION BOX - PO LOBBY", "address": {"city": "POINT CLEAR", "state": "AL", "street": "6581 COUNTY ROAD 32", "postcode": "36564"}}},
{"geometry": {"type": "Point", "coordinates": [-87.7152097317, 30.5638850495]}, "type": "Feature", "properties": {"collection_times": [{"days": "Mon-Fri", "time": "4:30pm"}, {"days": "Sat", "time": "12:00pm"}, {"days": "Sun", "time": "Closed"}], "id": "3656700001", "name": "USPS COLLECTION BOX - BLUE BOX", "address": {"city": "ROBERTSDALE", "state": "AL", "street": "18145 US HIGHWAY 90", "postcode": "36567"}}},
{"geometry": {"type": "Point", "coordinates": [-87.7152097317, 30.5638850495]}, "type": "Feature", "properties": {"collection_times": [{"days": "Mon-Fri", "time": "4:30pm"}, {"days": "Sat", "time": "12:00pm"}, {"days": "Sun", "time": "Closed"}], "id": "3656700002", "name": "USPS COLLECTION BOX - BLUE BOX", "address": {"city": "ROBERTSDALE", "state": "AL", "street": "18145 US HIGHWAY 90", "postcode": "36567"}}},
{"geometry": {"type": "Point", "coordinates": [-87.5655696697, 30.6214781749]}, "type": "Feature", "properties": {"collection_times": [{"days": "Mon-Sat", "time": "11:45am"}, {"days": "Sun", "time": "Closed"}], "id": "3656700003", "name": "USPS COLLECTION BOX - BLUE BOX", "address": {"city": "ROBERTSDALE", "state": "AL", "street": "32410 US HIGHWAY 90", "postcode": "36567"}}},
{"geometry": {"type": "Point", "coordinates": [-87.7152097317, 30.5638850495]}, "type": "Feature", "properties": {"collection_times": [{"days": "Mon-Fri", "time": "4:45pm"}, {"days": "Sat", "time": "12:00pm"}, {"days": "Sun", "time": "Closed"}], "id": "3656700004", "name": "USPS COLLECTION BOX - PO LOBBY", "address": {"city": "ROBERTSDALE", "state": "AL", "street": "18145 US HIGHWAY 90", "postcode": "36567"}}},
{"geometry": {"type": "Point", "coordinates": [-88.2339566667, 30.5086578994]}, "type": "Feature", "properties": {"collection_times": [{"days": "Mon-Fri", "time": "4:30pm"}, {"days": "Sat", "time": "11:00am"}, {"days": "Sun", "time": "Closed"}], "id": "3656800001", "name": "USPS COLLECTION BOX - BLUE BOX", "address": {"city": "SAINT ELMO", "state": "AL", "street": "8900 HIGHWAY 90 W", "postcode": "36568"}}},
{"geometry": {"type": "Point", "coordinates": [-88.2339566667, 30.5086578994]}, "type": "Feature", "properties": {"collection_times": [{"days": "Mon-Fri", "time": "4:30pm"}, {"days": "Sat", "time": "11:00am"}, {"days": "Sun", "time": "Closed"}], "id": "3656800002", "name": "USPS COLLECTION BOX - PO LOBBY", "address": {"city": "SAINT ELMO", "state": "AL", "street": "8900 HIGHWAY 90 W", "postcode": "36568"}}},
{"geometry": {"type": "Point", "coordinates": [-88.0357358456, 31.5246854152]}, "type": "Feature", "properties": {"collection_times": [{"days": "Mon-Fri", "time": "11:30am"}, {"days": "Sat", "time": "11:15am"}, {"days": "Sun", "time": "Closed"}], "id": "3656900001", "name": "USPS COLLECTION BOX - BLUE BOX", "address": {"city": "ST STEPHENS", "state": "AL", "street": "19250 COUNTY ROAD 34", "postcode": "36569"}}},
{"geometry": {"type": "Point", "coordinates": [-88.0357358456, 31.5246854152]}, "type": "Feature", "properties": {"collection_times": [{"days": "Mon-Fri", "time": "11:30am"}, {"days": "Sat", "time": "11:15am"}, {"days": "Sun", "time": "Closed"}], "id": "3656900002", "name": "USPS COLLECTION BOX - PO LOBBY", "address": {"city": "ST STEPHENS", "state": "AL", "street": "19250 COUNTY ROAD 34", "postcode": "36569"}}},
{"geometry": {"type": "Point", "coordinates": [-88.0736456009, 30.8221263262]}, "type": "Feature", "properties": {"collection_times": [{"days": "Mon-Fri", "time": "4:30pm"}, {"days": "Sat", "time": "3:00pm"}, {"days": "Sun", "time": "Closed"}], "id": "3657100006", "name": "USPS COLLECTION BOX - BLUE BOX", "address": {"city": "SARALAND", "state": "AL", "street": "104 NORTON AVE", "postcode": "36571"}}},
{"geometry": {"type": "Point", "coordinates": [-88.0736456009, 30.8221263262]}, "type": "Feature", "properties": {"collection_times": [{"days": "Mon-Fri", "time": "4:30pm"}, {"days": "Sat", "time": "3:00pm"}, {"days": "Sun", "time": "Closed"}], "id": "3657100007", "name": "USPS COLLECTION BOX - BLUE BOX", "address": {"city": "SARALAND", "state": "AL", "street": "104 NORTON AVE", "postcode": "36571"}}},
{"geometry": {"type": "Point", "coordinates": [-88.0736456009, 30.8221263262]}, "type": "Feature", "properties": {"collection_times": [{"days": "Mon-Fri", "time": "4:30pm"}, {"days": "Sat", "time": "3:00pm"}, {"days": "Sun", "time": "Closed"}], "id": "3657100008", "name": "USPS COLLECTION BOX - BLUE BOX", "address": {"city": "SARALAND", "state": "AL", "street": "104 NORTON AVE", "postcode": "36571"}}},
{"geometry": {"type": "Point", "coordinates": [-88.0736456009, 30.8221263262]}, "type": "Feature", "properties": {"collection_times": [{"days": "Mon-Fri", "time": "4:30pm"}, {"days": "Sat", "time": "3:00pm"}, {"days": "Sun", "time": "Closed"}], "id": "3657100015", "name": "USPS COLLECTION BOX - PO LOBBY", "address": {"city": "SARALAND", "state": "AL", "street": "104 NORTON AVE", "postcode": "36571"}}},
{"geometry": {"type": "Point", "coordinates": [-88.0587010633, 30.8515633413]}, "type": "Feature", "properties": {"collection_times": [{"days": "Mon-Fri", "time": "1:00pm"}, {"days": "Sat", "time": "11:00am"}, {"days": "Sun", "time": "Closed"}], "id": "3657200001", "name": "USPS COLLECTION BOX - BLUE BOX", "address": {"city": "SATSUMA", "state": "AL", "street": "50 ORANGE AVE W", "postcode": "36572"}}},
{"geometry": {"type": "Point", "coordinates": [-88.0587010633, 30.8515633413]}, "type": "Feature", "properties": {"collection_times": [{"days": "Mon-Fri", "time": "1:00pm"}, {"days": "Sat", "time": "11:00am"}, {"days": "Sun", "time": "Closed"}], "id": "3657200002", "name": "USPS COLLECTION BOX - PO LOBBY", "address": {"city": "SATSUMA", "state": "AL", "street": "50 ORANGE AVE W", "postcode": "36572"}}},
{"geometry": {"type": "Point", "coordinates": [-88.2534789779, 30.7784490363]}, "type": "Feature", "properties": {"collection_times": [{"days": "Mon-Fri", "time": "4:30pm"}, {"days": "Sat", "time": "2:30pm"}, {"days": "Sun", "time": "Closed"}], "id": "3657500001", "name": "USPS COLLECTION BOX - BLUE BOX", "address": {"city": "SEMMES", "state": "AL", "street": "9051 MOFFETT RD", "postcode": "36575"}}},
{"geometry": {"type": "Point", "coordinates": [-88.2534789779, 30.7784490363]}, "type": "Feature", "properties": {"collection_times": [{"days": "Mon-Fri", "time": "4:30pm"}, {"days": "Sat", "time": "2:30pm"}, {"days": "Sun", "time": "Closed"}], "id": "3657500002", "name": "USPS COLLECTION BOX - BLUE BOX", "address": {"city": "SEMMES", "state": "AL", "street": "9051 MOFFETT RD", "postcode": "36575"}}},
{"geometry": {"type": "Point", "coordinates": [-88.2534789779, 30.7784490363]}, "type": "Feature", "properties": {"collection_times": [{"days": "Mon-Fri", "time": "4:30pm"}, {"days": "Sat", "time": "2:30pm"}, {"days": "Sun", "time": "Closed"}], "id": "3657500003", "name": "USPS COLLECTION BOX - PO LOBBY", "address": {"city": "SEMMES", "state": "AL", "street": "9051 MOFFETT RD", "postcode": "36575"}}},
{"geometry": {"type": "Point", "coordinates": [-88.2534789779, 30.7784490363]}, "type": "Feature", "properties": {"collection_times": [{"days": "Mon-Fri", "time": "4:30pm"}, {"days": "Sat", "time": "2:30pm"}, {"days": "Sun", "time": "Closed"}], "id": "3657500005", "name": "USPS COLLECTION BOX - PO LOBBY", "address": {"city": "SEMMES", "state": "AL", "street": "9051 MOFFETT RD", "postcode": "36575"}}},
{"geometry": {"type": "Point", "coordinates": [-88.2534789779, 30.7784490363]}, "type": "Feature", "properties": {"collection_times": [{"days": "Mon-Fri", "time": "4:30pm"}, {"days": "Sat", "time": "2:30pm"}, {"days": "Sun", "time": "Closed"}], "id": "3657500006", "name": "USPS COLLECTION BOX - PO LOBBY", "address": {"city": "SEMMES", "state": "AL", "street": "9051 MOFFETT RD", "postcode": "36575"}}},
{"geometry": {"type": "Point", "coordinates": [-88.2269105526, 30.7635451071]}, "type": "Feature", "properties": {"collection_times": [{"days": "Mon-Sat", "time": "10:15am"}, {"days": "Sun", "time": "Closed"}], "id": "3657500007", "name": "USPS COLLECTION BOX - BLUE BOX", "address": {"city": "SEMMES", "state": "AL", "street": "7855 MOFFETT RD", "postcode": "36575"}}},
{"geometry": {"type": "Point", "coordinates": [-87.7508686742, 30.5422527636]}, "type": "Feature", "properties": {"collection_times": [{"days": "Mon-Fri", "time": "4:00pm"}, {"days": "Sat", "time": "11:00am"}, {"days": "Sun", "time": "Closed"}], "id": "3657600001", "name": "USPS COLLECTION BOX - BLUE BOX", "address": {"city": "SILVERHILL", "state": "AL", "street": "21731 BROAD ST", "postcode": "36576"}}},
{"geometry": {"type": "Point", "coordinates": [-87.7508686742, 30.5422527636]}, "type": "Feature", "properties": {"collection_times": [{"days": "Mon-Fri", "time": "4:00pm"}, {"days": "Sat", "time": "11:00am"}, {"days": "Sun", "time": "Closed"}], "id": "3657600002", "name": "USPS COLLECTION BOX - PO LOBBY", "address": {"city": "SILVERHILL", "state": "AL", "street": "21731 BROAD ST", "postcode": "36576"}}},
{"geometry": {"type": "Point", "coordinates": [-87.79321, 30.740839]}, "type": "Feature", "properties": {"collection_times": [{"days": "Mon-Fri", "time": "3:00pm"}, {"days": "Sat", "time": "10:30am"}, {"days": "Sun", "time": "Closed"}], "id": "3657800001", "name": "USPS COLLECTION BOX - BLUE BOX", "address": {"city": "STAPLETON", "state": "AL", "street": "35387 STATE HIGHWAY 59", "postcode": "36578"}}},
{"geometry": {"type": "Point", "coordinates": [-87.79321, 30.740839]}, "type": "Feature", "properties": {"collection_times": [{"days": "Mon-Fri", "time": "3:00pm"}, {"days": "Sat", "time": "10:30am"}, {"days": "Sun", "time": "Closed"}], "id": "3657800002", "name": "USPS COLLECTION BOX - PO LOBBY", "address": {"city": "STAPLETON", "state": "AL", "street": "35387 STATE HIGHWAY 59", "postcode": "36578"}}},
{"geometry": {"type": "Point", "coordinates": [-87.8580769935, 30.9970117628]}, "type": "Feature", "properties": {"collection_times": [{"days": "Mon-Fri", "time": "4:00pm"}, {"days": "Sat", "time": "11:00am"}, {"days": "Sun", "time": "Closed"}], "id": "3657900002", "name": "USPS COLLECTION BOX - PO LOBBY", "address": {"city": "STOCKTON", "state": "AL", "street": "52925 HODGSON RD", "postcode": "36579"}}},
{"geometry": {"type": "Point", "coordinates": [-87.6959153279, 30.4872125704]}, "type": "Feature", "properties": {"collection_times": [{"days": "Mon-Fri", "time": "4:00pm"}, {"days": "Sat", "time": "11:00am"}, {"days": "Sun", "time": "Closed"}], "id": "3658000001", "name": "USPS COLLECTION BOX - BLUE BOX", "address": {"city": "SUMMERDALE", "state": "AL", "street": "112 COUNTY ROAD 32 E", "postcode": "36580"}}},
{"geometry": {"type": "Point", "coordinates": [-87.6959153279, 30.4872125704]}, "type": "Feature", "properties": {"collection_times": [{"days": "Mon-Fri", "time": "4:00pm"}, {"days": "Sat", "time": "11:00am"}, {"days": "Sun", "time": "Closed"}], "id": "3658000002", "name": "USPS COLLECTION BOX - PO LOBBY", "address": {"city": "SUMMERDALE", "state": "AL", "street": "112 COUNTY ROAD 32 E", "postcode": "36580"}}},
{"geometry": {"type": "Point", "coordinates": [-87.6959153279, 30.4872125704]}, "type": "Feature", "properties": {"collection_times": [{"days": "Mon-Fri", "time": "4:00pm"}, {"days": "Sat", "time": "11:00am"}, {"days": "Sun", "time": "Closed"}], "id": "3658000003", "name": "USPS COLLECTION BOX - PO LOBBY", "address": {"city": "SUMMERDALE", "state": "AL", "street": "112 COUNTY ROAD 32 E", "postcode": "36580"}}},
{"geometry": {"type": "Point", "coordinates": [-88.171414757, 30.5704024903]}, "type": "Feature", "properties": {"collection_times": [{"days": "Mon-Fri", "time": "4:15pm"}, {"days": "Sat", "time": "11:00am"}, {"days": "Sun", "time": "Closed"}], "id": "3658200001", "name": "USPS COLLECTION BOX - BLUE BOX", "address": {"city": "THEODORE", "state": "AL", "street": "5631 HIGHWAY 90", "postcode": "36582"}}},
{"geometry": {"type": "Point", "coordinates": [-88.2140794904, 30.5630167032]}, "type": "Feature", "properties": {"collection_times": [{"days": "Mon-Sat", "time": "11:00am"}, {"days": "Sun", "time": "Closed"}], "id": "3658200005", "name": "USPS COLLECTION BOX - BLUE BOX", "address": {"city": "THEODORE", "state": "AL", "street": "7361 THEODORE DAWES RD", "postcode": "36582"}}},
{"geometry": {"type": "Point", "coordinates": [-88.1146112136, 30.4661092021]}, "type": "Feature", "properties": {"collection_times": [{"days": "Mon-Sat", "time": "11:45am"}, {"days": "Sun", "time": "Closed"}], "id": "3658200008", "name": "USPS COLLECTION BOX - BLUE BOX", "address": {"city": "THEODORE", "state": "AL", "street": "10835 DAUPHIN ISLAND PKWY", "postcode": "36582"}}},
{"geometry": {"type": "Point", "coordinates": [-88.171414757, 30.5704024903]}, "type": "Feature", "properties": {"collection_times": [{"days": "Mon-Fri", "time": "4:15pm"}, {"days": "Sat", "time": "11:00am"}, {"days": "Sun", "time": "Closed"}], "id": "3658200009", "name": "USPS COLLECTION BOX - PO LOBBY", "address": {"city": "THEODORE", "state": "AL", "street": "5631 HIGHWAY 90", "postcode": "36582"}}},
{"geometry": {"type": "Point", "coordinates": [-88.171414757, 30.5704024903]}, "type": "Feature", "properties": {"collection_times": [{"days": "Mon-Fri", "time": "4:15pm"}, {"days": "Sat", "time": "11:00am"}, {"days": "Sun", "time": "Closed"}], "id": "3658200010", "name": "USPS COLLECTION BOX - BLUE BOX", "address": {"city": "THEODORE", "state": "AL", "street": "5631 HIGHWAY 90", "postcode": "36582"}}},
{"geometry": {"type": "Point", "coordinates": [-88.1297989492, 30.5667610919]}, "type": "Feature", "properties": {"collection_times": [{"days": "Mon-Fri", "time": "11:30am"}, {"days": "Sat", "time": "10:45am"}, {"days": "Sun", "time": "Closed"}], "id": "3658200013", "name": "USPS COLLECTION BOX - BLUE BOX", "address": {"city": "THEODORE", "state": "AL", "street": "5821 RANGELINE RD", "postcode": "36582"}}},
{"geometry": {"type": "Point", "coordinates": [-88.1727047759, 30.5562211202]}, "type": "Feature", "properties": {"collection_times": [{"days": "Mon-Fri", "time": "10:00am"}, {"days": "Sat", "time": "9:45am"}, {"days": "Sun", "time": "Closed"}], "id": "3658200014", "name": "USPS COLLECTION BOX - BLUE BOX", "address": {"city": "THEODORE", "state": "AL", "street": "5808 HIGHWAY 90", "postcode": "36582"}}},
{"geometry": {"type": "Point", "coordinates": [-88.2697362956, 31.3800154021]}, "type": "Feature", "properties": {"collection_times": [{"days": "Mon-Fri", "time": "2:15pm"}, {"days": "Sat-Sun", "time": "Closed"}], "id": "3658300001", "name": "USPS COLLECTION BOX - PO LOBBY", "address": {"city": "TIBBIE", "state": "AL", "street": "77 HAWTHORNE RD", "postcode": "36583"}}},
{"geometry": {"type": "Point", "coordinates": [-88.2697362956, 31.3800154021]}, "type": "Feature", "properties": {"collection_times": [{"days": "Mon-Fri", "time": "2:15pm"}, {"days": "Sat-Sun", "time": "Closed"}], "id": "3658300002", "name": "USPS COLLECTION BOX - BLUE BOX", "address": {"city": "TIBBIE", "state": "AL", "street": "77 HAWTHORNE RD", "postcode": "36583"}}},
{"geometry": {"type": "Point", "coordinates": [-88.0325655059, 31.4634185057]}, "type": "Feature", "properties": {"collection_times": [{"days": "Mon-Fri", "time": "4:30pm"}, {"days": "Sat", "time": "11:00am"}, {"days": "Sun", "time": "Closed"}], "id": "3658500001", "name": "USPS COLLECTION BOX - BLUE BOX", "address": {"city": "WAGARVILLE", "state": "AL", "street": "20191 HIGHWAY 43", "postcode": "36585"}}},
{"geometry": {"type": "Point", "coordinates": [-88.0325655059, 31.4634185057]}, "type": "Feature", "properties": {"collection_times": [{"days": "Mon-Fri", "time": "4:30pm"}, {"days": "Sat", "time": "11:00am"}, {"days": "Sun", "time": "Closed"}], "id": "3658500002", "name": "USPS COLLECTION BOX - PO LOBBY", "address": {"city": "WAGARVILLE", "state": "AL", "street": "20191 HIGHWAY 43", "postcode": "36585"}}},
{"geometry": {"type": "Point", "coordinates": [-88.3575579812, 30.8232799148]}, "type": "Feature", "properties": {"collection_times": [{"days": "Mon-Fri", "time": "4:00pm"}, {"days": "Sat", "time": "11:30am"}, {"days": "Sun", "time": "Closed"}], "id": "3658700001", "name": "USPS COLLECTION BOX - PO LOBBY", "address": {"city": "WILMER", "state": "AL", "street": "13255 MOFFETT RD", "postcode": "36587"}}},
{"geometry": {"type": "Point", "coordinates": [-88.3575579812, 30.8232799148]}, "type": "Feature", "properties": {"collection_times": [{"days": "Mon-Fri", "time": "4:00pm"}, {"days": "Sat", "time": "11:30am"}, {"days": "Sun", "time": "Closed"}], "id": "3658700002", "name": "USPS COLLECTION BOX - BLUE BOX", "address": {"city": "WILMER", "state": "AL", "street": "13255 MOFFETT RD", "postcode": "36587"}}}
]}
