{"type": "FeatureCollection", "features": [
{"geometry": {"type": "Point", "coordinates": [-88.0436982969, 30.6960378391]}, "type": "Feature", "properties": {"collection_times": [{"days": "Mon-Fri", "time": "5:00pm"}, {"days": "Sat", "time": "12:00pm"}, {"days": "Sun", "time": "Closed"}], "id": "3660100001", "name": "USPS COLLECTION BOX - PO LOBBY", "address": {"city": "MOBILE", "state": "AL", "street": "250 SAINT JOSEPH ST", "postcode": "36601"}}},
{"geometry": {"type": "Point", "coordinates": [-88.0436982969, 30.6960378391]}, "type": "Feature", "properties": {"collection_times": [{"days": "Mon-Fri", "time": "5:30pm"}, {"days": "Sat", "time": "3:00pm"}, {"days": "Sun", "time": "Closed"}], "id": "3660100004", "name": "USPS COLLECTION BOX - BLUE BOX", "address": {"city": "MOBILE", "state": "AL", "street": "250 SAINT JOSEPH ST", "postcode": "36601"}}},
{"geometry": {"type": "Point", "coordinates": [-88.0436982969, 30.6960378391]}, "type": "Feature", "properties": {"collection_times": [{"days": "Mon-Fri", "time": "5:30pm"}, {"days": "Sat", "time": "3:00pm"}, {"days": "Sun", "time": "Closed"}], "id": "3660100005", "name": "USPS COLLECTION BOX - BLUE BOX", "address": {"city": "MOBILE", "state": "AL", "street": "250 SAINT JOSEPH ST", "postcode": "36601"}}},
{"geometry": {"type": "Point", "coordinates": [-88.0436982969, 30.6960378391]}, "type": "Feature", "properties": {"collection_times": [{"days": "Mon-Fri", "time": "5:30pm"}, {"days": "Sat", "time": "3:00pm"}, {"days": "Sun", "time": "Closed"}], "id": "3660100007", "name": "USPS COLLECTION BOX - BLUE BOX", "address": {"city": "MOBILE", "state": "AL", "street": "250 SAINT JOSEPH ST", "postcode": "36601"}}},
{"geometry": {"type": "Point", "coordinates": [-88.0436982969, 30.6960378391]}, "type": "Feature", "properties": {"collection_times": [{"days": "Mon-Fri", "time": "5:30pm"}, {"days": "Sat", "time": "3:00pm"}, {"days": "Sun", "time": "Closed"}], "id": "3660100008", "name": "USPS COLLECTION BOX - BLUE BOX", "address": {"city": "MOBILE", "state": "AL", "street": "250 SAINT JOSEPH ST", "postcode": "36601"}}},
{"geometry": {"type": "Point", "coordinates": [-88.0436982969, 30.6960378391]}, "type": "Feature", "properties": {"collection_times": [{"days": "Mon-Fri", "time": "5:00pm"}, {"days": "Sat", "time": "12:00pm"}, {"days": "Sun", "time": "Closed"}], "id": "3660100010", "name": "USPS COLLECTION BOX - PO LOBBY", "address": {"city": "MOBILE", "state": "AL", "street": "250 SAINT JOSEPH ST", "postcode": "36601"}}},
{"geometry": {"type": "Point", "coordinates": [-88.0436862398, 30.6960032689]}, "type": "Feature", "properties": {"collection_times": [{"days": "Mon-Fri", "time": "5:30pm"}, {"days": "Sat", "time": "3:00pm"}, {"days": "Sun", "time": "Closed"}], "id": "3660100011", "name": "USPS COLLECTION BOX - EXPRESS", "address": {"city": "MOBILE", "state": "AL", "street": "250 SAINT JOSEPH ST", "postcode": "36601"}}},
{"geometry": {"type": "Point", "coordinates": [-88.0436982969, 30.6960378391]}, "type": "Feature", "properties": {"collection_times": [{"days": "Mon-Fri", "time": "5:00pm"}, {"days": "Sat", "time": "12:00pm"}, {"days": "Sun", "time": "Closed"}], "id": "3660100012", "name": "USPS COLLECTION BOX - PO LOBBY", "address": {"city": "MOBILE", "state": "AL", "street": "250 SAINT JOSEPH ST", "postcode": "36601"}}},
{"geometry": {"type": "Point", "coordinates": [-88.0464142646, 30.6884025603]}, "type": "Feature", "properties": {"collection_times": [{"days": "Mon-Fri", "time": "5:00pm"}, {"days": "Sat", "time": "2:45pm"}, {"days": "Sun", "time": "Closed"}], "id": "3660200004", "name": "USPS COLLECTION BOX - BLUE BOX", "address": {"city": "MOBILE", "state": "AL", "street": "451 GOVERNMENT ST", "postcode": "36602"}}},
{"geometry": {"type": "Point", "coordinates": [-88.0457603488, 30.691716992]}, "type": "Feature", "properties": {"collection_times": [{"days": "Mon-Sat", "time": "11:00am"}, {"days": "Sun", "time": "Closed"}], "id": "3660200006", "name": "USPS COLLECTION BOX - BLUE BOX", "address": {"city": "MOBILE", "state": "AL", "street": "306 SAINT FRANCIS ST", "postcode": "36602"}}},
{"geometry": {"type": "Point", "coordinates": [-88.0527632807, 30.6899608312]}, "type": "Feature", "properties": {"collection_times": [{"days": "Mon-Sat", "time": "11:00am"}, {"days": "Sun", "time": "Closed"}], "id": "3660200010", "name": "USPS COLLECTION BOX - BLUE BOX", "address": {"city": "MOBILE", "state": "AL", "street": "758 SAINT MICHAEL ST", "postcode": "36602"}}},
{"geometry": {"type": "Point", "coordinates": [-88.0427671452, 30.6934680459]}, "type": "Feature", "properties": {"collection_times": [{"days": "Mon-Sat", "time": "11:00am"}, {"days": "Sun", "time": "Closed"}], "id": "3660200031", "name": "USPS COLLECTION BOX - BLUE BOX", "address": {"city": "MOBILE", "state": "AL", "street": "160 SAINT MICHAEL ST", "postcode": "36602"}}},
{"geometry": {"type": "Point", "coordinates": [-88.0404699347, 30.6911542678]}, "type": "Feature", "properties": {"collection_times": [{"days": "Mon-Fri", "time": "3:45pm"}, {"days": "Sat-Sun", "time": "Closed"}], "id": "3660200038", "name": "USPS COLLECTION BOX - BLUE BOX", "address": {"city": "MOBILE", "state": "AL", "street": "63 S ROYAL ST", "postcode": "36602"}}},
{"geometry": {"type": "Point", "coordinates": [-88.0404699347, 30.6911542678]}, "type": "Feature", "properties": {"collection_times": [{"days": "Mon-Fri", "time": "3:45pm"}, {"days": "Sat-Sun", "time": "Closed"}], "id": "3660200056", "name": "USPS COLLECTION BOX - BLUE BOX", "address": {"city": "MOBILE", "state": "AL", "street": "63 S ROYAL ST", "postcode": "36602"}}},
{"geometry": {"type": "Point", "coordinates": [-88.051276543, 30.683131611]}, "type": "Feature", "properties": {"collection_times": [{"days": "Mon-Sat", "time": "9:00am"}, {"days": "Sun", "time": "Closed"}], "id": "3660300061", "name": "USPS COLLECTION BOX - BLUE BOX", "address": {"city": "MOBILE", "state": "AL", "street": "759 PALMETTO ST", "postcode": "36603"}}},
{"geometry": {"type": "Point", "coordinates": [-88.055786, 30.69009]}, "type": "Feature", "properties": {"collection_times": [{"days": "Mon-Fri", "time": "4:30pm"}, {"days": "Sat", "time": "12:00pm"}, {"days": "Sun", "time": "Closed"}], "id": "3660400001", "name": "USPS COLLECTION BOX - PO LOBBY", "address": {"city": "MOBILE", "state": "AL", "street": "907 SPRING HILL AVE", "postcode": "36604"}}},
{"geometry": {"type": "Point", "coordinates": [-88.0557038666, 30.6900407008]}, "type": "Feature", "properties": {"collection_times": [{"days": "Mon-Fri", "time": "5:00pm"}, {"days": "Sat", "time": "1:45pm"}, {"days": "Sun", "time": "Closed"}], "id": "3660400003", "name": "USPS COLLECTION BOX - BLUE BOX", "address": {"city": "MOBILE", "state": "AL", "street": "907 SPRING HILL AVE", "postcode": "36604"}}},
{"geometry": {"type": "Point", "coordinates": [-88.055786, 30.69009]}, "type": "Feature", "properties": {"collection_times": [{"days": "Mon-Fri", "time": "4:30pm"}, {"days": "Sat", "time": "12:00pm"}, {"days": "Sun", "time": "Closed"}], "id": "3660400035", "name": "USPS COLLECTION BOX - PO LOBBY", "address": {"city": "MOBILE", "state": "AL", "street": "907 SPRING HILL AVE", "postcode": "36604"}}},
{"geometry": {"type": "Point", "coordinates": [-88.0557038666, 30.6900407008]}, "type": "Feature", "properties": {"collection_times": [{"days": "Mon-Fri", "time": "5:00pm"}, {"days": "Sat", "time": "1:45pm"}, {"days": "Sun", "time": "Closed"}], "id": "3660400039", "name": "USPS COLLECTION BOX - BLUE BOX", "address": {"city": "MOBILE", "state": "AL", "street": "907 SPRING HILL AVE", "postcode": "36604"}}},
{"geometry": {"type": "Point", "coordinates": [-88.0839110106, 30.6236377629]}, "type": "Feature", "properties": {"collection_times": [{"days": "Mon-Fri", "time": "4:30pm"}, {"days": "Sat", "time": "3:45pm"}, {"days": "Sun", "time": "Closed"}], "id": "3660500021", "name": "USPS COLLECTION BOX - BLUE BOX", "address": {"city": "MOBILE", "state": "AL", "street": "2000 ROSEDALE RD", "postcode": "36605"}}},
{"geometry": {"type": "Point", "coordinates": [-88.0839110106, 30.6236377629]}, "type": "Feature", "properties": {"collection_times": [{"days": "Mon-Fri", "time": "4:30pm"}, {"days": "Sat", "time": "3:45pm"}, {"days": "Sun", "time": "Closed"}], "id": "3660500022", "name": "USPS COLLECTION BOX - BLUE BOX", "address": {"city": "MOBILE", "state": "AL", "street": "2000 ROSEDALE RD", "postcode": "36605"}}},
{"geometry": {"type": "Point", "coordinates": [-88.0839110106, 30.6236377629]}, "type": "Feature", "properties": {"collection_times": [{"days": "Mon-Fri", "time": "4:30pm"}, {"days": "Sat", "time": "3:45pm"}, {"days": "Sun", "time": "Closed"}], "id": "3660500023", "name": "USPS COLLECTION BOX - BLUE BOX", "address": {"city": "MOBILE", "state": "AL", "street": "2000 ROSEDALE RD", "postcode": "36605"}}},
{"geometry": {"type": "Point", "coordinates": [-88.0736063321, 30.6120728422]}, "type": "Feature", "properties": {"collection_times": [{"days": "Mon-Fri", "time": "2:00pm"}, {"days": "Sat", "time": "1:15pm"}, {"days": "Sun", "time": "Closed"}], "id": "3660500027", "name": "USPS COLLECTION BOX - BLUE BOX", "address": {"city": "MOBILE", "state": "AL", "street": "2048 S BROAD ST", "postcode": "36605"}}},
{"geometry": {"type": "Point", "coordinates": [-88.0839110106, 30.6236377629]}, "type": "Feature", "properties": {"collection_times": [{"days": "Mon-Fri", "time": "4:30pm"}, {"days": "Sat", "time": "12:00pm"}, {"days": "Sun", "time": "Closed"}], "id": "3660500048", "name": "USPS COLLECTION BOX - PO LOBBY", "address": {"city": "MOBILE", "state": "AL", "street": "2000 ROSEDALE RD", "postcode": "36605"}}},
{"geometry": {"type": "Point", "coordinates": [-88.0839110106, 30.6236377629]}, "type": "Feature", "properties": {"collection_times": [{"days": "Mon-Fri", "time": "4:30pm"}, {"days": "Sat", "time": "12:00pm"}, {"days": "Sun", "time": "Closed"}], "id": "3660500049", "name": "USPS COLLECTION BOX - PO LOBBY", "address": {"city": "MOBILE", "state": "AL", "street": "2000 ROSEDALE RD", "postcode": "36605"}}},
{"geometry": {"type": "Point", "coordinates": [-88.0870007449, 30.6748055073]}, "type": "Feature", "properties": {"collection_times": [{"days": "Mon-Fri", "time": "5:00pm"}, {"days": "Sat", "time": "3:00pm"}, {"days": "Sun", "time": "Closed"}], "id": "3660600001", "name": "USPS COLLECTION BOX - PO LOBBY", "address": {"city": "MOBILE", "state": "AL", "street": "415 DAUPHIN ISLAND PKWY", "postcode": "36606"}}},
{"geometry": {"type": "Point", "coordinates": [-88.1043859667, 30.6733527552]}, "type": "Feature", "properties": {"collection_times": [{"days": "Mon-Fri", "time": "5:00pm"}, {"days": "Sat", "time": "3:00pm"}, {"days": "Sun", "time": "Closed"}], "id": "3660600002", "name": "USPS COLLECTION BOX - EXPRESS", "address": {"city": "MOBILE", "state": "AL", "street": "415 DAUPHIN ISLAND PKWY", "postcode": "36606"}}},
{"geometry": {"type": "Point", "coordinates": [-88.0870007449, 30.6748055073]}, "type": "Feature", "properties": {"collection_times": [{"days": "Mon-Fri", "time": "5:00pm"}, {"days": "Sat", "time": "3:00pm"}, {"days": "Sun", "time": "Closed"}], "id": "3660600003", "name": "USPS COLLECTION BOX - BLUE BOX", "address": {"city": "MOBILE", "state": "AL", "street": "415 DAUPHIN ISLAND PKWY", "postcode": "36606"}}},
{"geometry": {"type": "Point", "coordinates": [-88.0870007449, 30.6748055073]}, "type": "Feature", "properties": {"collection_times": [{"days": "Mon-Fri", "time": "5:00pm"}, {"days": "Sat", "time": "3:00pm"}, {"days": "Sun", "time": "Closed"}], "id": "3660600004", "name": "USPS COLLECTION BOX - BLUE BOX", "address": {"city": "MOBILE", "state": "AL", "street": "415 DAUPHIN ISLAND PKWY", "postcode": "36606"}}},
{"geometry": {"type": "Point", "coordinates": [-88.0870007449, 30.6748055073]}, "type": "Feature", "properties": {"collection_times": [{"days": "Mon-Fri", "time": "5:00pm"}, {"days": "Sat", "time": "3:00pm"}, {"days": "Sun", "time": "Closed"}], "id": "3660600005", "name": "USPS COLLECTION BOX - BLUE BOX", "address": {"city": "MOBILE", "state": "AL", "street": "415 DAUPHIN ISLAND PKWY", "postcode": "36606"}}},
{"geometry": {"type": "Point", "coordinates": [-88.0870007449, 30.6748055073]}, "type": "Feature", "properties": {"collection_times": [{"days": "Mon-Fri", "time": "5:00pm"}, {"days": "Sat", "time": "3:00pm"}, {"days": "Sun", "time": "Closed"}], "id": "3660600006", "name": "USPS COLLECTION BOX - BLUE BOX", "address": {"city": "MOBILE", "state": "AL", "street": "415 DAUPHIN ISLAND PKWY", "postcode": "36606"}}},
{"geometry": {"type": "Point", "coordinates": [-88.118096191, 30.6699443702]}, "type": "Feature", "properties": {"collection_times": [{"days": "Mon-Sat", "time": "11:00am"}, {"days": "Sun", "time": "Closed"}], "id": "3660600017", "name": "USPS COLLECTION BOX - BLUE BOX", "address": {"city": "MOBILE", "state": "AL", "street": "600 BEL AIR BLVD", "postcode": "36606"}}},
{"geometry": {"type": "Point", "coordinates": [-88.1248829428, 30.67341407]}, "type": "Feature", "properties": {"collection_times": [{"days": "Mon-Fri", "time": "4:30pm"}, {"days": "Sat", "time": "3:00pm"}, {"days": "Sun", "time": "Closed"}], "id": "3660600021", "name": "USPS COLLECTION BOX - BLUE BOX", "address": {"city": "MOBILE", "state": "AL", "street": "3410 BEL AIR MALL", "postcode": "36606"}}},
{"geometry": {"type": "Point", "coordinates": [-88.1248829428, 30.67341407]}, "type": "Feature", "properties": {"collection_times": [{"days": "Mon-Fri", "time": "4:30pm"}, {"days": "Sat", "time": "3:00pm"}, {"days": "Sun", "time": "Closed"}], "id": "3660600022", "name": "USPS COLLECTION BOX - BLUE BOX", "address": {"city": "MOBILE", "state": "AL", "street": "3410 BEL AIR MALL", "postcode": "36606"}}},
{"geometry": {"type": "Point", "coordinates": [-88.1248829428, 30.67341407]}, "type": "Feature", "properties": {"collection_times": [{"days": "Mon-Fri", "time": "4:30pm"}, {"days": "Sat", "time": "3:00pm"}, {"days": "Sun", "time": "Closed"}], "id": "3660600023", "name": "USPS COLLECTION BOX - BLUE BOX", "address": {"city": "MOBILE", "state": "AL", "street": "3410 BEL AIR MALL", "postcode": "36606"}}},
{"geometry": {"type": "Point", "coordinates": [-88.1143349968, 30.6694202719]}, "type": "Feature", "properties": {"collection_times": [{"days": "Mon-Sat", "time": "12:00pm"}, {"days": "Sun", "time": "Closed"}], "id": "3660600025", "name": "USPS COLLECTION BOX - BLUE BOX", "address": {"city": "MOBILE", "state": "AL", "street": "2970 COTTAGE HILL RD", "postcode": "36606"}}},
{"geometry": {"type": "Point", "coordinates": [-88.1237831966, 30.6871935593]}, "type": "Feature", "properties": {"collection_times": [{"days": "Mon-Sat", "time": "11:00am"}, {"days": "Sun", "time": "Closed"}], "id": "3660600029", "name": "USPS COLLECTION BOX - BLUE BOX", "address": {"city": "MOBILE", "state": "AL", "street": "101 E I65 SERVICE RD S", "postcode": "36606"}}},
{"geometry": {"type": "Point", "coordinates": [-88.1043859667, 30.6733527552]}, "type": "Feature", "properties": {"collection_times": [{"days": "Mon-Fri", "time": "5:00pm"}, {"days": "Sat", "time": "2:45pm"}, {"days": "Sun", "time": "Closed"}], "id": "3660600031", "name": "USPS COLLECTION BOX - EXPRESS", "address": {"city": "MOBILE", "state": "AL", "street": "3091 DAUPHIN ST", "postcode": "36606"}}},
{"geometry": {"type": "Point", "coordinates": [-88.1174348928, 30.6895744464]}, "type": "Feature", "properties": {"collection_times": [{"days": "Mon-Fri", "time": "5:00pm"}, {"days": "Sat", "time": "2:45pm"}, {"days": "Sun", "time": "Closed"}], "id": "3660600032", "name": "USPS COLLECTION BOX - BLUE BOX", "address": {"city": "MOBILE", "state": "AL", "street": "3091 DAUPHIN ST", "postcode": "36606"}}},
{"geometry": {"type": "Point", "coordinates": [-88.1174348928, 30.6895744464]}, "type": "Feature", "properties": {"collection_times": [{"days": "Mon-Fri", "time": "5:00pm"}, {"days": "Sat", "time": "2:45pm"}, {"days": "Sun", "time": "Closed"}], "id": "3660600033", "name": "USPS COLLECTION BOX - BLUE BOX", "address": {"city": "MOBILE", "state": "AL", "street": "3091 DAUPHIN ST", "postcode": "36606"}}},
{"geometry": {"type": "Point", "coordinates": [-88.1174348928, 30.6895744464]}, "type": "Feature", "properties": {"collection_times": [{"days": "Mon-Fri", "time": "5:00pm"}, {"days": "Sat", "time": "2:45pm"}, {"days": "Sun", "time": "Closed"}], "id": "3660600034", "name": "USPS COLLECTION BOX - BLUE BOX", "address": {"city": "MOBILE", "state": "AL", "street": "3091 DAUPHIN ST", "postcode": "36606"}}},
{"geometry": {"type": "Point", "coordinates": [-88.1248444166, 30.6754434715]}, "type": "Feature", "properties": {"collection_times": [{"days": "Mon-Fri", "time": "5:00pm"}, {"days": "Sat", "time": "2:45pm"}, {"days": "Sun", "time": "Closed"}], "id": "3660600037", "name": "USPS COLLECTION BOX - BLUE BOX", "address": {"city": "MOBILE", "state": "AL", "street": "851 E I65 SERVICE RD S", "postcode": "36606"}}},
{"geometry": {"type": "Point", "coordinates": [-88.119530276, 30.6671833509]}, "type": "Feature", "properties": {"collection_times": [{"days": "Mon-Fri", "time": "4:45pm"}, {"days": "Sat", "time": "2:15pm"}, {"days": "Sun", "time": "Closed"}], "id": "3660600038", "name": "USPS COLLECTION BOX - BLUE BOX", "address": {"city": "MOBILE", "state": "AL", "street": "3100 COTTAGE HILL RD", "postcode": "36606"}}},
{"geometry": {"type": "Point", "coordinates": [-88.119530276, 30.6671833509]}, "type": "Feature", "properties": {"collection_times": [{"days": "Mon-Fri", "time": "4:45pm"}, {"days": "Sat", "time": "2:15pm"}, {"days": "Sun", "time": "Closed"}], "id": "3660600039", "name": "USPS COLLECTION BOX - BLUE BOX", "address": {"city": "MOBILE", "state": "AL", "street": "3100 COTTAGE HILL RD", "postcode": "36606"}}},
{"geometry": {"type": "Point", "coordinates": [-88.1145089113, 30.6761429008]}, "type": "Feature", "properties": {"collection_times": [{"days": "Mon-Sat", "time": "1:00pm"}, {"days": "Sun", "time": "Closed"}], "id": "3660600042", "name": "USPS COLLECTION BOX - BLUE BOX", "address": {"city": "MOBILE", "state": "AL", "street": "3001 AIRPORT BLVD", "postcode": "36606"}}},
{"geometry": {"type": "Point", "coordinates": [-88.1239202326, 30.6888481448]}, "type": "Feature", "properties": {"collection_times": [{"days": "Mon-Fri", "time": "5:00pm"}, {"days": "Sat", "time": "2:45pm"}, {"days": "Sun", "time": "Closed"}], "id": "3660600045", "name": "USPS COLLECTION BOX - BLUE BOX", "address": {"city": "MOBILE", "state": "AL", "street": "3280 DAUPHIN ST", "postcode": "36606"}}},
{"geometry": {"type": "Point", "coordinates": [-88.1239202326, 30.6888481448]}, "type": "Feature", "properties": {"collection_times": [{"days": "Mon-Fri", "time": "5:00pm"}, {"days": "Sat", "time": "2:45pm"}, {"days": "Sun", "time": "Closed"}], "id": "3660600046", "name": "USPS COLLECTION BOX - BLUE BOX", "address": {"city": "MOBILE", "state": "AL", "street": "3280 DAUPHIN ST", "postcode": "36606"}}},
{"geometry": {"type": "Point", "coordinates": [-88.105779126, 30.6700988588]}, "type": "Feature", "properties": {"collection_times": [{"days": "Mon-Sat", "time": "11:00am"}, {"days": "Sun", "time": "Closed"}], "id": "3660600059", "name": "USPS COLLECTION BOX - BLUE BOX", "address": {"city": "MOBILE", "state": "AL", "street": "2206 AIRPORT BLVD", "postcode": "36606"}}},
{"geometry": {"type": "Point", "coordinates": [-88.0870007449, 30.6748055073]}, "type": "Feature", "properties": {"collection_times": [{"days": "Mon-Fri", "time": "5:00pm"}, {"days": "Sat", "time": "3:00pm"}, {"days": "Sun", "time": "Closed"}], "id": "3660600063", "name": "USPS COLLECTION BOX - BLUE BOX", "address": {"city": "MOBILE", "state": "AL", "street": "415 DAUPHIN ISLAND PKWY", "postcode": "36606"}}},
{"geometry": {"type": "Point", "coordinates": [-88.1248444166, 30.6754434715]}, "type": "Feature", "properties": {"collection_times": [{"days": "Mon-Fri", "time": "5:00pm"}, {"days": "Sat", "time": "2:45pm"}, {"days": "Sun", "time": "Closed"}], "id": "3660600075", "name": "USPS COLLECTION BOX - BLUE BOX", "address": {"city": "MOBILE", "state": "AL", "street": "851 E I65 SERVICE RD S", "postcode": "36606"}}},
{"geometry": {"type": "Point", "coordinates": [-88.0870007449, 30.6748055073]}, "type": "Feature", "properties": {"collection_times": [{"days": "Mon-Fri", "time": "5:00pm"}, {"days": "Sat", "time": "3:00pm"}, {"days": "Sun", "time": "Closed"}], "id": "3660600077", "name": "USPS COLLECTION BOX - PO LOBBY", "address": {"city": "MOBILE", "state": "AL", "street": "415 DAUPHIN ISLAND PKWY", "postcode": "36606"}}},
{"geometry": {"type": "Point", "coordinates": [-88.0910967372, 30.6867331471]}, "type": "Feature", "properties": {"collection_times": [{"days": "Mon-Sat", "time": "10:00am"}, {"days": "Sun", "time": "Closed"}], "id": "3660700011", "name": "USPS COLLECTION BOX - BLUE BOX", "address": {"city": "MOBILE", "state": "AL", "street": "10 UPHAM ST", "postcode": "36607"}}},
{"geometry": {"type": "Point", "coordinates": [-88.0990519971, 30.6904906398]}, "type": "Feature", "properties": {"collection_times": [{"days": "Mon-Sat", "time": "10:00am"}, {"days": "Sun", "time": "Closed"}], "id": "3660700019", "name": "USPS COLLECTION BOX - BLUE BOX", "address": {"city": "MOBILE", "state": "AL", "street": "2511 OLD SHELL RD", "postcode": "36607"}}},
{"geometry": {"type": "Point", "coordinates": [-88.1061969969, 30.6960279553]}, "type": "Feature", "properties": {"collection_times": [{"days": "Mon-Fri", "time": "4:15pm"}, {"days": "Sat-Sun", "time": "Closed"}], "id": "3660700023", "name": "USPS COLLECTION BOX - PO LOBBY", "address": {"city": "MOBILE", "state": "AL", "street": "168 BAY SHORE AVE", "postcode": "36607"}}},
{"geometry": {"type": "Point", "coordinates": [-88.1061969969, 30.6960279553]}, "type": "Feature", "properties": {"collection_times": [{"days": "Mon-Fri", "time": "5:00pm"}, {"days": "Sat", "time": "2:45pm"}, {"days": "Sun", "time": "Closed"}], "id": "3660700024", "name": "USPS COLLECTION BOX - BLUE BOX", "address": {"city": "MOBILE", "state": "AL", "street": "168 BAY SHORE AVE", "postcode": "36607"}}},
{"geometry": {"type": "Point", "coordinates": [-88.1061969969, 30.6960279553]}, "type": "Feature", "properties": {"collection_times": [{"days": "Mon-Fri", "time": "5:00pm"}, {"days": "Sat", "time": "2:45pm"}, {"days": "Sun", "time": "Closed"}], "id": "3660700025", "name": "USPS COLLECTION BOX - BLUE BOX", "address": {"city": "MOBILE", "state": "AL", "street": "168 BAY SHORE AVE", "postcode": "36607"}}},
{"geometry": {"type": "Point", "coordinates": [-88.1061969969, 30.6960279553]}, "type": "Feature", "properties": {"collection_times": [{"days": "Mon-Fri", "time": "5:00pm"}, {"days": "Sat", "time": "2:45pm"}, {"days": "Sun", "time": "Closed"}], "id": "3660700026", "name": "USPS COLLECTION BOX - BLUE BOX", "address": {"city": "MOBILE", "state": "AL", "street": "168 BAY SHORE AVE", "postcode": "36607"}}},
{"geometry": {"type": "Point", "coordinates": [-88.1061969969, 30.6960279553]}, "type": "Feature", "properties": {"collection_times": [{"days": "Mon-Fri", "time": "4:15pm"}, {"days": "Sat-Sun", "time": "Closed"}], "id": "3660700032", "name": "USPS COLLECTION BOX - PO LOBBY", "address": {"city": "MOBILE", "state": "AL", "street": "168 BAY SHORE AVE", "postcode": "36607"}}},
{"geometry": {"type": "Point", "coordinates": [-88.103390367, 30.6901288695]}, "type": "Feature", "properties": {"collection_times": [{"days": "Mon-Sat", "time": "10:00am"}, {"days": "Sun", "time": "Closed"}], "id": "3660700033", "name": "USPS COLLECTION BOX - BLUE BOX", "address": {"city": "MOBILE", "state": "AL", "street": "32 TACON ST", "postcode": "36607"}}},
{"geometry": {"type": "Point", "coordinates": [-88.1061969969, 30.6960279553]}, "type": "Feature", "properties": {"collection_times": [{"days": "Mon-Fri", "time": "4:15pm"}, {"days": "Sat-Sun", "time": "Closed"}], "id": "3660700034", "name": "USPS COLLECTION BOX - PO LOBBY", "address": {"city": "MOBILE", "state": "AL", "street": "168 BAY SHORE AVE", "postcode": "36607"}}},
{"geometry": {"type": "Point", "coordinates": [-88.1700374851, 30.6895825756]}, "type": "Feature", "properties": {"collection_times": [{"days": "Mon-Fri", "time": "5:00pm"}, {"days": "Sat", "time": "3:00pm"}, {"days": "Sun", "time": "Closed"}], "id": "3660800002", "name": "USPS COLLECTION BOX - BLUE BOX", "address": {"city": "MOBILE", "state": "AL", "street": "5551 OLD SHELL RD", "postcode": "36608"}}},
{"geometry": {"type": "Point", "coordinates": [-88.1700374851, 30.6895825756]}, "type": "Feature", "properties": {"collection_times": [{"days": "Mon-Fri", "time": "5:00pm"}, {"days": "Sat", "time": "3:00pm"}, {"days": "Sun", "time": "Closed"}], "id": "3660800003", "name": "USPS COLLECTION BOX - BLUE BOX", "address": {"city": "MOBILE", "state": "AL", "street": "5551 OLD SHELL RD", "postcode": "36608"}}},
{"geometry": {"type": "Point", "coordinates": [-88.1700374851, 30.6895825756]}, "type": "Feature", "properties": {"collection_times": [{"days": "Mon-Fri", "time": "5:00pm"}, {"days": "Sat", "time": "3:00pm"}, {"days": "Sun", "time": "Closed"}], "id": "3660800004", "name": "USPS COLLECTION BOX - BLUE BOX", "address": {"city": "MOBILE", "state": "AL", "street": "5551 OLD SHELL RD", "postcode": "36608"}}},
{"geometry": {"type": "Point", "coordinates": [-88.1700374851, 30.6895825756]}, "type": "Feature", "properties": {"collection_times": [{"days": "Mon-Fri", "time": "5:00pm"}, {"days": "Sat", "time": "3:00pm"}, {"days": "Sun", "time": "Closed"}], "id": "3660800005", "name": "USPS COLLECTION BOX - BLUE BOX", "address": {"city": "MOBILE", "state": "AL", "street": "5551 OLD SHELL RD", "postcode": "36608"}}},
{"geometry": {"type": "Point", "coordinates": [-88.1335036611, 30.6758750685]}, "type": "Feature", "properties": {"collection_times": [{"days": "Mon-Fri", "time": "2:00pm"}, {"days": "Sat", "time": "1:00pm"}, {"days": "Sun", "time": "Closed"}], "id": "3660800011", "name": "USPS COLLECTION BOX - BLUE BOX", "address": {"city": "MOBILE", "state": "AL", "street": "3661 AIRPORT BLVD", "postcode": "36608"}}},
{"geometry": {"type": "Point", "coordinates": [-88.2462684127, 30.6753399449]}, "type": "Feature", "properties": {"collection_times": [{"days": "Mon-Fri", "time": "3:45pm"}, {"days": "Sat", "time": "1:30pm"}, {"days": "Sun", "time": "Closed"}], "id": "3660800016", "name": "USPS COLLECTION BOX - BLUE BOX", "address": {"city": "MOBILE", "state": "AL", "street": "6801 AIRPORT BLVD", "postcode": "36608"}}},
{"geometry": {"type": "Point", "coordinates": [-88.2121282169, 30.6872996601]}, "type": "Feature", "properties": {"collection_times": [{"days": "Mon-Fri", "time": "3:45pm"}, {"days": "Sat", "time": "1:45pm"}, {"days": "Sun", "time": "Closed"}], "id": "3660800019", "name": "USPS COLLECTION BOX - BLUE BOX", "address": {"city": "MOBILE", "state": "AL", "street": "6701 AIRPORT BLVD", "postcode": "36608"}}},
{"geometry": {"type": "Point", "coordinates": [-88.2121282169, 30.6872996601]}, "type": "Feature", "properties": {"collection_times": [{"days": "Mon-Fri", "time": "3:45pm"}, {"days": "Sat", "time": "1:45pm"}, {"days": "Sun", "time": "Closed"}], "id": "3660800021", "name": "USPS COLLECTION BOX - BLUE BOX", "address": {"city": "MOBILE", "state": "AL", "street": "6701 AIRPORT BLVD", "postcode": "36608"}}},
{"geometry": {"type": "Point", "coordinates": [-88.1739670989, 30.694899369]}, "type": "Feature", "properties": {"collection_times": [{"days": "Mon-Fri", "time": "2:15pm"}, {"days": "Sat", "time": "12:30pm"}, {"days": "Sun", "time": "Closed"}], "id": "3660800031", "name": "USPS COLLECTION BOX - BLUE BOX", "address": {"city": "MOBILE", "state": "AL", "street": "307 N UNIVERSITY BLVD", "postcode": "36608"}}},
{"geometry": {"type": "Point", "coordinates": [-88.1906008673, 30.6830429093]}, "type": "Feature", "properties": {"collection_times": [{"days": "Mon-Fri", "time": "2:00pm"}, {"days": "Sat", "time": "12:00pm"}, {"days": "Sun", "time": "Closed"}], "id": "3660800038", "name": "USPS COLLECTION BOX - BLUE BOX", "address": {"city": "MOBILE", "state": "AL", "street": "375 HILLCREST RD", "postcode": "36608"}}},
{"geometry": {"type": "Point", "coordinates": [-88.1407017682, 30.6982504172]}, "type": "Feature", "properties": {"collection_times": [{"days": "Mon-Fri", "time": "4:30pm"}, {"days": "Sat", "time": "2:45pm"}, {"days": "Sun", "time": "Closed"}], "id": "3660800043", "name": "USPS COLLECTION BOX - BLUE BOX", "address": {"city": "MOBILE", "state": "AL", "street": "4307 OLD SHELL RD", "postcode": "36608"}}},
{"geometry": {"type": "Point", "coordinates": [-88.2010798662, 30.6892087539]}, "type": "Feature", "properties": {"collection_times": [{"days": "Mon-Sat", "time": "11:00am"}, {"days": "Sun", "time": "Closed"}], "id": "3660800046", "name": "USPS COLLECTION BOX - BLUE BOX", "address": {"city": "MOBILE", "state": "AL", "street": "101 FOREMAN RD", "postcode": "36608"}}},
{"geometry": {"type": "Point", "coordinates": [-88.1400021198, 30.6853450948]}, "type": "Feature", "properties": {"collection_times": [{"days": "Mon-Fri", "time": "5:00pm"}, {"days": "Sat", "time": "2:45pm"}, {"days": "Sun", "time": "Closed"}], "id": "3660800061", "name": "USPS COLLECTION BOX - BLUE BOX", "address": {"city": "MOBILE", "state": "AL", "street": "3719 DAUPHIN ST", "postcode": "36608"}}},
{"geometry": {"type": "Point", "coordinates": [-88.1400021198, 30.6853450948]}, "type": "Feature", "properties": {"collection_times": [{"days": "Mon-Fri", "time": "5:00pm"}, {"days": "Sat", "time": "2:45pm"}, {"days": "Sun", "time": "Closed"}], "id": "3660800062", "name": "USPS COLLECTION BOX - BLUE BOX", "address": {"city": "MOBILE", "state": "AL", "street": "3719 DAUPHIN ST", "postcode": "36608"}}},
{"geometry": {"type": "Point", "coordinates": [-88.1371748514, 30.6856144956]}, "type": "Feature", "properties": {"collection_times": [{"days": "Mon-Fri", "time": "5:00pm"}, {"days": "Sat", "time": "1:45pm"}, {"days": "Sun", "time": "Closed"}], "id": "3660800069", "name": "USPS COLLECTION BOX - BLUE BOX", "address": {"city": "MOBILE", "state": "AL", "street": "3632 DAUPHIN ST", "postcode": "36608"}}},
{"geometry": {"type": "Point", "coordinates": [-88.1911059853, 30.6873486729]}, "type": "Feature", "properties": {"collection_times": [{"days": "Mon-Sat", "time": "10:00am"}, {"days": "Sun", "time": "Closed"}], "id": "3660800070", "name": "USPS COLLECTION BOX - BLUE BOX", "address": {"city": "MOBILE", "state": "AL", "street": "6438 CEDAR BEND CT", "postcode": "36608"}}},
{"geometry": {"type": "Point", "coordinates": [-88.2393967385, 30.6779884654]}, "type": "Feature", "properties": {"collection_times": [{"days": "Mon-Fri", "time": "10:30am"}, {"days": "Sat", "time": "9:30am"}, {"days": "Sun", "time": "Closed"}], "id": "3660800074", "name": "USPS COLLECTION BOX - BLUE BOX", "address": {"city": "MOBILE", "state": "AL", "street": "8400 AIRPORT BLVD", "postcode": "36608"}}},
{"geometry": {"type": "Point", "coordinates": [-88.2462684127, 30.6753399449]}, "type": "Feature", "properties": {"collection_times": [{"days": "Mon-Fri", "time": "3:45pm"}, {"days": "Sat", "time": "1:30pm"}, {"days": "Sun", "time": "Closed"}], "id": "3660800078", "name": "USPS COLLECTION BOX - BLUE BOX", "address": {"city": "MOBILE", "state": "AL", "street": "6801 AIRPORT BLVD", "postcode": "36608"}}},
{"geometry": {"type": "Point", "coordinates": [-88.276472523, 30.6709366162]}, "type": "Feature", "properties": {"collection_times": [{"days": "Mon-Sat", "time": "12:00pm"}, {"days": "Sun", "time": "Closed"}], "id": "3660800080", "name": "USPS COLLECTION BOX - BLUE BOX", "address": {"city": "MOBILE", "state": "AL", "street": "9948 AIRPORT BLVD", "postcode": "36608"}}},
{"geometry": {"type": "Point", "coordinates": [-86.8402850888, 32.7665445132]}, "type": "Feature", "properties": {"collection_times": [{"days": "Mon-Fri", "time": "5:00pm"}, {"days": "Sat", "time": "3:00pm"}, {"days": "Sun", "time": "Closed"}], "id": "3660800081", "name": "USPS COLLECTION BOX - BLUE BOX", "address": {"city": "MOBILE", "state": "AL", "street": "41 W I65 SERVICE RD N", "postcode": "36608"}}},
{"geometry": {"type": "Point", "coordinates": [-86.8402850888, 32.7665445132]}, "type": "Feature", "properties": {"collection_times": [{"days": "Mon-Fri", "time": "5:00pm"}, {"days": "Sat", "time": "3:00pm"}, {"days": "Sun", "time": "Closed"}], "id": "3660800082", "name": "USPS COLLECTION BOX - BLUE BOX", "address": {"city": "MOBILE", "state": "AL", "street": "41 W I65 SERVICE RD N", "postcode": "36608"}}},
{"geometry": {"type": "Point", "coordinates": [-88.1549263384, 30.652214306]}, "type": "Feature", "properties": {"collection_times": [{"days": "Mon-Fri", "time": "4:00pm"}, {"days": "Sat", "time": "12:00pm"}, {"days": "Sun", "time": "Closed"}], "id": "3660900004", "name": "USPS COLLECTION BOX - PO LOBBY", "address": {"city": "MOBILE", "state": "AL", "street": "705 OAK CIRCLE DR", "postcode": "36609"}}},
{"geometry": {"type": "Point", "coordinates": [-88.1549263384, 30.652214306]}, "type": "Feature", "properties": {"collection_times": [{"days": "Mon-Fri", "time": "5:00pm"}, {"days": "Sat", "time": "12:00pm"}, {"days": "Sun", "time": "Closed"}], "id": "3660900006", "name": "USPS COLLECTION BOX - BLUE BOX", "address": {"city": "MOBILE", "state": "AL", "street": "705 OAK CIRCLE DR", "postcode": "36609"}}},
{"geometry": {"type": "Point", "coordinates": [-88.1549263384, 30.652214306]}, "type": "Feature", "properties": {"collection_times": [{"days": "Mon-Fri", "time": "5:00pm"}, {"days": "Sat", "time": "12:00pm"}, {"days": "Sun", "time": "Closed"}], "id": "3660900008", "name": "USPS COLLECTION BOX - BLUE BOX", "address": {"city": "MOBILE", "state": "AL", "street": "705 OAK CIRCLE DR", "postcode": "36609"}}},
{"geometry": {"type": "Point", "coordinates": [-88.1549263384, 30.652214306]}, "type": "Feature", "properties": {"collection_times": [{"days": "Mon-Fri", "time": "5:00pm"}, {"days": "Sat", "time": "12:00pm"}, {"days": "Sun", "time": "Closed"}], "id": "3660900009", "name": "USPS COLLECTION BOX - BLUE BOX", "address": {"city": "MOBILE", "state": "AL", "street": "705 OAK CIRCLE DR", "postcode": "36609"}}},
{"geometry": {"type": "Point", "coordinates": [-88.1485098941, 30.6731594485]}, "type": "Feature", "properties": {"collection_times": [{"days": "Mon-Fri", "time": "1:00pm"}, {"days": "Sat", "time": "10:00am"}, {"days": "Sun", "time": "Closed"}], "id": "3660900013", "name": "USPS COLLECTION BOX - BLUE BOX", "address": {"city": "MOBILE", "state": "AL", "street": "273 AZALEA RD", "postcode": "36609"}}},
{"geometry": {"type": "Point", "coordinates": [-88.1485098941, 30.6731594485]}, "type": "Feature", "properties": {"collection_times": [{"days": "Mon-Fri", "time": "1:00pm"}, {"days": "Sat", "time": "10:00am"}, {"days": "Sun", "time": "Closed"}], "id": "3660900016", "name": "USPS COLLECTION BOX - BLUE BOX", "address": {"city": "MOBILE", "state": "AL", "street": "273 AZALEA RD", "postcode": "36609"}}},
{"geometry": {"type": "Point", "coordinates": [-88.1487289004, 30.6581101424]}, "type": "Feature", "properties": {"collection_times": [{"days": "Mon-Fri", "time": "3:00pm"}, {"days": "Sat", "time": "10:00am"}, {"days": "Sun", "time": "Closed"}], "id": "3660900021", "name": "USPS COLLECTION BOX - BLUE BOX", "address": {"city": "MOBILE", "state": "AL", "street": "578 AZALEA RD", "postcode": "36609"}}},
{"geometry": {"type": "Point", "coordinates": [-88.1603757075, 30.6601917335]}, "type": "Feature", "properties": {"collection_times": [{"days": "Mon-Fri", "time": "1:45pm"}, {"days": "Sat", "time": "10:00am"}, {"days": "Sun", "time": "Closed"}], "id": "3660900039", "name": "USPS COLLECTION BOX - EXPRESS", "address": {"city": "MOBILE", "state": "AL", "street": "800 DOWNTOWNER BLVD", "postcode": "36609"}}},
{"geometry": {"type": "Point", "coordinates": [-88.140226932, 30.6727739073]}, "type": "Feature", "properties": {"collection_times": [{"days": "Mon-Fri", "time": "1:45pm"}, {"days": "Sat", "time": "10:00am"}, {"days": "Sun", "time": "Closed"}], "id": "3660900041", "name": "USPS COLLECTION BOX - BLUE BOX", "address": {"city": "MOBILE", "state": "AL", "street": "800 DOWNTOWNER BLVD", "postcode": "36609"}}},
{"geometry": {"type": "Point", "coordinates": [-88.140226932, 30.6727739073]}, "type": "Feature", "properties": {"collection_times": [{"days": "Mon-Fri", "time": "1:45pm"}, {"days": "Sat", "time": "10:00am"}, {"days": "Sun", "time": "Closed"}], "id": "3660900042", "name": "USPS COLLECTION BOX - BLUE BOX", "address": {"city": "MOBILE", "state": "AL", "street": "800 DOWNTOWNER BLVD", "postcode": "36609"}}},
{"geometry": {"type": "Point", "coordinates": [-88.1332891877, 30.6705447282]}, "type": "Feature", "properties": {"collection_times": [{"days": "Mon-Fri", "time": "5:00pm"}, {"days": "Sat", "time": "10:00am"}, {"days": "Sun", "time": "Closed"}], "id": "3660900050", "name": "USPS COLLECTION BOX - BLUE BOX", "address": {"city": "MOBILE", "state": "AL", "street": "1015 MONTLIMAR DR", "postcode": "36609"}}},
{"geometry": {"type": "Point", "coordinates": [-88.133380653, 30.667999783]}, "type": "Feature", "properties": {"collection_times": [{"days": "Mon-Fri", "time": "5:00pm"}, {"days": "Sat", "time": "10:00am"}, {"days": "Sun", "time": "Closed"}], "id": "3660900052", "name": "USPS COLLECTION BOX - BLUE BOX", "address": {"city": "MOBILE", "state": "AL", "street": "1110 MONTLIMAR DR", "postcode": "36609"}}},
{"geometry": {"type": "Point", "coordinates": [-88.133380653, 30.667999783]}, "type": "Feature", "properties": {"collection_times": [{"days": "Mon-Fri", "time": "5:00pm"}, {"days": "Sat", "time": "10:00am"}, {"days": "Sun", "time": "Closed"}], "id": "3660900053", "name": "USPS COLLECTION BOX - BLUE BOX", "address": {"city": "MOBILE", "state": "AL", "street": "1110 MONTLIMAR DR", "postcode": "36609"}}},
{"geometry": {"type": "Point", "coordinates": [-88.1619639933, 30.6601304812]}, "type": "Feature", "properties": {"collection_times": [{"days": "Mon-Fri", "time": "4:15pm"}, {"days": "Sat", "time": "11:00am"}, {"days": "Sun", "time": "Closed"}], "id": "3660900056", "name": "USPS COLLECTION BOX - BLUE BOX", "address": {"city": "MOBILE", "state": "AL", "street": "820 S UNIVERSITY BLVD", "postcode": "36609"}}},
{"geometry": {"type": "Point", "coordinates": [-88.1303746337, 30.6740505581]}, "type": "Feature", "properties": {"collection_times": [{"days": "Mon-Fri", "time": "1:00pm"}, {"days": "Sat", "time": "10:00am"}, {"days": "Sun", "time": "Closed"}], "id": "3660900062", "name": "USPS COLLECTION BOX - BLUE BOX", "address": {"city": "MOBILE", "state": "AL", "street": "900 WESTERN AMERICA CIR", "postcode": "36609"}}},
{"geometry": {"type": "Point", "coordinates": [-88.1303746337, 30.6740505581]}, "type": "Feature", "properties": {"collection_times": [{"days": "Mon-Fri", "time": "1:00pm"}, {"days": "Sat", "time": "10:00am"}, {"days": "Sun", "time": "Closed"}], "id": "3660900063", "name": "USPS COLLECTION BOX - BLUE BOX", "address": {"city": "MOBILE", "state": "AL", "street": "900 WESTERN AMERICA CIR", "postcode": "36609"}}},
{"geometry": {"type": "Point", "coordinates": [-88.1894822087, 30.6401579675]}, "type": "Feature", "properties": {"collection_times": [{"days": "Mon-Fri", "time": "1:00pm"}, {"days": "Sat", "time": "10:00am"}, {"days": "Sun", "time": "Closed"}], "id": "3660900068", "name": "USPS COLLECTION BOX - BLUE BOX", "address": {"city": "MOBILE", "state": "AL", "street": "6353 COTTAGE HILL RD", "postcode": "36609"}}},
{"geometry": {"type": "Point", "coordinates": [-88.1603757075, 30.6601917335]}, "type": "Feature", "properties": {"collection_times": [{"days": "Mon-Fri", "time": "4:00pm"}, {"days": "Sat", "time": "12:00pm"}, {"days": "Sun", "time": "Closed"}], "id": "3660900077", "name": "USPS COLLECTION BOX - EXPRESS", "address": {"city": "MOBILE", "state": "AL", "street": "705 OAK CIRCLE DR", "postcode": "36609"}}},
{"geometry": {"type": "Point", "coordinates": [-88.1563321254, 30.6522056621]}, "type": "Feature", "properties": {"collection_times": [{"days": "Mon-Fri", "time": "4:00pm"}, {"days": "Sat", "time": "12:00pm"}, {"days": "Sun", "time": "Closed"}], "id": "3660900080", "name": "USPS COLLECTION BOX - PO LOBBY", "address": {"city": "MOBILE", "state": "AL", "street": "705 OAK CIRCLE DR W", "postcode": "36609"}}},
{"geometry": {"type": "Point", "coordinates": [-88.1549263384, 30.652214306]}, "type": "Feature", "properties": {"collection_times": [{"days": "Mon-Fri", "time": "5:00pm"}, {"days": "Sat", "time": "12:00pm"}, {"days": "Sun", "time": "Closed"}], "id": "3660900081", "name": "USPS COLLECTION BOX - BLUE BOX", "address": {"city": "MOBILE", "state": "AL", "street": "705 OAK CIRCLE DR", "postcode": "36609"}}},
{"geometry": {"type": "Point", "coordinates": [-88.1331444091, 30.6672024766]}, "type": "Feature", "properties": {"collection_times": [{"days": "Mon-Fri", "time": "5:00pm"}, {"days": "Sat", "time": "10:00am"}, {"days": "Sun", "time": "Closed"}], "id": "3660900082", "name": "USPS COLLECTION BOX - BLUE BOX", "address": {"city": "MOBILE", "state": "AL", "street": "1141 MONTLIMAR DR", "postcode": "36609"}}},
{"geometry": {"type": "Point", "coordinates": [-88.1409968418, 30.6685396837]}, "type": "Feature", "properties": {"collection_times": [{"days": "Mon-Fri", "time": "5:00pm"}, {"days": "Sat", "time": "10:00am"}, {"days": "Sun", "time": "Closed"}], "id": "3660900086", "name": "USPS COLLECTION BOX - BLUE BOX", "address": {"city": "MOBILE", "state": "AL", "street": "955 DOWNTOWNER BLVD", "postcode": "36609"}}},
{"geometry": {"type": "Point", "coordinates": [-88.1549263384, 30.652214306]}, "type": "Feature", "properties": {"collection_times": [{"days": "Mon-Fri", "time": "4:00pm"}, {"days": "Sat", "time": "12:00pm"}, {"days": "Sun", "time": "Closed"}], "id": "3660900088", "name": "USPS COLLECTION BOX - APC", "address": {"city": "MOBILE", "state": "AL", "street": "705 OAK CIRCLE DR", "postcode": "36609"}}},
{"geometry": {"type": "Point", "coordinates": [-88.0822582166, 30.7304223724]}, "type": "Feature", "properties": {"collection_times": [{"days": "Mon-Fri", "time": "4:30pm"}, {"days": "Sat", "time": "12:00pm"}, {"days": "Sun", "time": "Closed"}], "id": "3661000001", "name": "USPS COLLECTION BOX - PO LOBBY", "address": {"city": "MOBILE", "state": "AL", "street": "130 E PRICHARD AVE", "postcode": "36610"}}},
{"geometry": {"type": "Point", "coordinates": [-88.0822582166, 30.7304223724]}, "type": "Feature", "properties": {"collection_times": [{"days": "Mon-Fri", "time": "5:00pm"}, {"days": "Sat", "time": "4:30pm"}, {"days": "Sun", "time": "Closed"}], "id": "3661000002", "name": "USPS COLLECTION BOX - BLUE BOX", "address": {"city": "MOBILE", "state": "AL", "street": "130 E PRICHARD AVE", "postcode": "36610"}}},
{"geometry": {"type": "Point", "coordinates": [-88.0822582166, 30.7304223724]}, "type": "Feature", "properties": {"collection_times": [{"days": "Mon-Fri", "time": "5:00pm"}, {"days": "Sat", "time": "4:30pm"}, {"days": "Sun", "time": "Closed"}], "id": "3661000003", "name": "USPS COLLECTION BOX - BLUE BOX", "address": {"city": "MOBILE", "state": "AL", "street": "130 E PRICHARD AVE", "postcode": "36610"}}},
{"geometry": {"type": "Point", "coordinates": [-88.0523760797, 30.7395866122]}, "type": "Feature", "properties": {"collection_times": [{"days": "Mon-Fri", "time": "4:30pm"}, {"days": "Sat", "time": "12:00pm"}, {"days": "Sun", "time": "Closed"}], "id": "3661000022", "name": "USPS COLLECTION BOX - PO LOBBY", "address": {"city": "MOBILE", "state": "AL", "street": "130 E PRICHARD AVE", "postcode": "36610"}}},
{"geometry": {"type": "Point", "coordinates": [-88.0778877581, 30.7703016981]}, "type": "Feature", "properties": {"collection_times": [{"days": "Mon-Fri", "time": "4:30pm"}, {"days": "Sat", "time": "10:00am"}, {"days": "Sun", "time": "Closed"}], "id": "3661100003", "name": "USPS COLLECTION BOX - BLUE BOX", "address": {"city": "MOBILE", "state": "AL", "street": "411 PARKER LN", "postcode": "36611"}}},
{"geometry": {"type": "Point", "coordinates": [-88.0778877581, 30.7703016981]}, "type": "Feature", "properties": {"collection_times": [{"days": "Mon-Fri", "time": "4:30pm"}, {"days": "Sat", "time": "10:00am"}, {"days": "Sun", "time": "Closed"}], "id": "3661100012", "name": "USPS COLLECTION BOX - BLUE BOX", "address": {"city": "MOBILE", "state": "AL", "street": "411 PARKER LN", "postcode": "36611"}}},
{"geometry": {"type": "Point", "coordinates": [-88.0778877581, 30.7703016981]}, "type": "Feature", "properties": {"collection_times": [{"days": "Mon-Fri", "time": "4:30pm"}, {"days": "Sat-Sun", "time": "Closed"}], "id": "3661100013", "name": "USPS COLLECTION BOX - PO LOBBY", "address": {"city": "MOBILE", "state": "AL", "street": "411 PARKER LN", "postcode": "36611"}}},
{"geometry": {"type": "Point", "coordinates": [-88.1197010418, 30.746369284]}, "type": "Feature", "properties": {"collection_times": [{"days": "Mon-Sat", "time": "11:00am"}, {"days": "Sun", "time": "Closed"}], "id": "3661200003", "name": "USPS COLLECTION BOX - BLUE BOX", "address": {"city": "WHISTLER", "state": "AL", "street": "2104 WOLF RIDGE RD", "postcode": "36612"}}},
{"geometry": {"type": "Point", "coordinates": [-88.1285726147, 30.7647675347]}, "type": "Feature", "properties": {"collection_times": [{"days": "Mon-Fri", "time": "10:30am"}, {"days": "Sat", "time": "10:00am"}, {"days": "Sun", "time": "Closed"}], "id": "3661300001", "name": "USPS COLLECTION BOX - BLUE BOX", "address": {"city": "MOBILE", "state": "AL", "street": "4545 SAINT STEPHENS RD", "postcode": "36613"}}},
{"geometry": {"type": "Point", "coordinates": [-88.1248829428, 30.67341407]}, "type": "Feature", "properties": {"collection_times": [{"days": "Mon-Fri", "time": "6:00pm"}, {"days": "Sat", "time": "5:00pm"}, {"days": "Sun", "time": "Closed"}], "id": "3661600001", "name": "USPS COLLECTION BOX - PO LOBBY", "address": {"city": "MOBILE", "state": "AL", "street": "3410 BEL AIR MALL", "postcode": "36616"}}},
{"geometry": {"type": "Point", "coordinates": [-88.1248829428, 30.67341407]}, "type": "Feature", "properties": {"collection_times": [{"days": "Mon-Fri", "time": "6:00pm"}, {"days": "Sat", "time": "5:00pm"}, {"days": "Sun", "time": "Closed"}], "id": "3661600002", "name": "USPS COLLECTION BOX - PO LOBBY", "address": {"city": "MOBILE", "state": "AL", "street": "3410 BEL AIR MALL", "postcode": "36616"}}},
{"geometry": {"type": "Point", "coordinates": [-88.0989096597, 30.70814898]}, "type": "Feature", "properties": {"collection_times": [{"days": "Mon-Sat", "time": "10:30am"}, {"days": "Sun", "time": "Closed"}], "id": "3661700017", "name": "USPS COLLECTION BOX - BLUE BOX", "address": {"city": "MOBILE", "state": "AL", "street": "2451 FILLINGIM ST", "postcode": "36617"}}},
{"geometry": {"type": "Point", "coordinates": [-88.0954918641, 30.7047528959]}, "type": "Feature", "properties": {"collection_times": [{"days": "Mon-Sat", "time": "10:30am"}, {"days": "Sun", "time": "Closed"}], "id": "3661700018", "name": "USPS COLLECTION BOX - BLUE BOX", "address": {"city": "MOBILE", "state": "AL", "street": "2400 GORDON SMITH DR", "postcode": "36617"}}},
{"geometry": {"type": "Point", "coordinates": [-88.0811357173, 30.7117994401]}, "type": "Feature", "properties": {"collection_times": [{"days": "Mon-Sat", "time": "10:30am"}, {"days": "Sun", "time": "Closed"}], "id": "3661700020", "name": "USPS COLLECTION BOX - BLUE BOX", "address": {"city": "MOBILE", "state": "AL", "street": "2102 SAINT STEPHENS RD", "postcode": "36617"}}},
{"geometry": {"type": "Point", "coordinates": [-88.1730349998, 30.729618426]}, "type": "Feature", "properties": {"collection_times": [{"days": "Mon-Fri", "time": "5:00pm"}, {"days": "Sat", "time": "4:00pm"}, {"days": "Sun", "time": "Closed"}], "id": "3661800015", "name": "USPS COLLECTION BOX - PO LOBBY", "address": {"city": "MOBILE", "state": "AL", "street": "5701M MOFFETT RD", "postcode": "36618"}}},
{"geometry": {"type": "Point", "coordinates": [-88.1730349998, 30.729618426]}, "type": "Feature", "properties": {"collection_times": [{"days": "Mon-Fri", "time": "5:00pm"}, {"days": "Sat", "time": "4:00pm"}, {"days": "Sun", "time": "Closed"}], "id": "3661800018", "name": "USPS COLLECTION BOX - PO LOBBY", "address": {"city": "MOBILE", "state": "AL", "street": "5701M MOFFETT RD", "postcode": "36618"}}},
{"geometry": {"type": "Point", "coordinates": [-88.1730349998, 30.729618426]}, "type": "Feature", "properties": {"collection_times": [{"days": "Mon-Sat", "time": "2:30pm"}, {"days": "Sun", "time": "Closed"}], "id": "3661800020", "name": "USPS COLLECTION BOX - BLUE BOX", "address": {"city": "MOBILE", "state": "AL", "street": "5701M MOFFETT RD", "postcode": "36618"}}},
{"geometry": {"type": "Point", "coordinates": [-88.1730349998, 30.729618426]}, "type": "Feature", "properties": {"collection_times": [{"days": "Mon-Sat", "time": "2:30pm"}, {"days": "Sun", "time": "Closed"}], "id": "3661800021", "name": "USPS COLLECTION BOX - BLUE BOX", "address": {"city": "MOBILE", "state": "AL", "street": "5701M MOFFETT RD", "postcode": "36618"}}},
{"geometry": {"type": "Point", "coordinates": [-88.169634659, 30.5868256652]}, "type": "Feature", "properties": {"collection_times": [{"days": "Mon-Fri", "time": "5:00pm"}, {"days": "Sat", "time": "3:00pm"}, {"days": "Sun", "time": "Closed"}], "id": "3661900002", "name": "USPS COLLECTION BOX - BLUE BOX", "address": {"city": "MOBILE", "state": "AL", "street": "5441 HIGHWAY 90 W", "postcode": "36619"}}},
{"geometry": {"type": "Point", "coordinates": [-88.169634659, 30.5868256652]}, "type": "Feature", "properties": {"collection_times": [{"days": "Mon-Fri", "time": "5:00pm"}, {"days": "Sat", "time": "3:00pm"}, {"days": "Sun", "time": "Closed"}], "id": "3661900004", "name": "USPS COLLECTION BOX - BLUE BOX", "address": {"city": "MOBILE", "state": "AL", "street": "5441 HIGHWAY 90 W", "postcode": "36619"}}},
{"geometry": {"type": "Point", "coordinates": [-88.169634659, 30.5868256652]}, "type": "Feature", "properties": {"collection_times": [{"days": "Mon-Fri", "time": "5:00pm"}, {"days": "Sat", "time": "3:00pm"}, {"days": "Sun", "time": "Closed"}], "id": "3661900006", "name": "USPS COLLECTION BOX - BLUE BOX", "address": {"city": "MOBILE", "state": "AL", "street": "5441 HIGHWAY 90 W", "postcode": "36619"}}},
{"geometry": {"type": "Point", "coordinates": [-88.169634659, 30.5868256652]}, "type": "Feature", "properties": {"collection_times": [{"days": "Mon-Fri", "time": "5:00pm"}, {"days": "Sat", "time": "3:00pm"}, {"days": "Sun", "time": "Closed"}], "id": "3661900027", "name": "USPS COLLECTION BOX - PO LOBBY", "address": {"city": "MOBILE", "state": "AL", "street": "5441 HIGHWAY 90 W", "postcode": "36619"}}},
{"geometry": {"type": "Point", "coordinates": [-88.169634659, 30.5868256652]}, "type": "Feature", "properties": {"collection_times": [{"days": "Mon-Fri", "time": "5:00pm"}, {"days": "Sat", "time": "3:00pm"}, {"days": "Sun", "time": "Closed"}], "id": "3661900028", "name": "USPS COLLECTION BOX - PO LOBBY", "address": {"city": "MOBILE", "state": "AL", "street": "5441 HIGHWAY 90 W", "postcode": "36619"}}},
{"geometry": {"type": "Point", "coordinates": [-88.169634659, 30.5868256652]}, "type": "Feature", "properties": {"collection_times": [{"days": "Mon-Fri", "time": "5:00pm"}, {"days": "Sat", "time": "3:00pm"}, {"days": "Sun", "time": "Closed"}], "id": "3661900029", "name": "USPS COLLECTION BOX - PO LOBBY", "address": {"city": "MOBILE", "state": "AL", "street": "5441 HIGHWAY 90 W", "postcode": "36619"}}},
{"geometry": {"type": "Point", "coordinates": [-88.1430178851, 30.5948594445]}, "type": "Feature", "properties": {"collection_times": [{"days": "Mon-Fri", "time": "6:45pm"}, {"days": "Sat", "time": "6:00pm"}, {"days": "Sun", "time": "Closed"}], "id": "3667500002", "name": "USPS COLLECTION BOX - BLUE BOX", "address": {"city": "MOBILE", "state": "AL", "street": "4538 SHIPYARD RD", "postcode": "36675"}}},
{"geometry": {"type": "Point", "coordinates": [-88.183506191, 30.6758822149]}, "type": "Feature", "properties": {"collection_times": [{"days": "Mon-Fri", "time": "4:30pm"}, {"days": "Sat-Sun", "time": "Closed"}], "id": "3668500003", "name": "USPS COLLECTION BOX - PO LOBBY", "address": {"city": "MOBILE", "state": "AL", "street": "6157 AIRPORT BLVD", "postcode": "36685"}}},
{"geometry": {"type": "Point", "coordinates": [-88.183506191, 30.6758822149]}, "type": "Feature", "properties": {"collection_times": [{"days": "Mon-Fri", "time": "4:30pm"}, {"days": "Sat-Sun", "time": "Closed"}], "id": "3668500004", "name": "USPS COLLECTION BOX - PO LOBBY", "address": {"city": "MOBILE", "state": "AL", "street": "6157 AIRPORT BLVD", "postcode": "36685"}}},
{"geometry": {"type": "Point", "coordinates": [-88.183506191, 30.6758822149]}, "type": "Feature", "properties": {"collection_times": [{"days": "Mon-Fri", "time": "4:30pm"}, {"days": "Sat", "time": "2:00pm"}, {"days": "Sun", "time": "Closed"}], "id": "3668500006", "name": "USPS COLLECTION BOX - BLUE BOX", "address": {"city": "MOBILE", "state": "AL", "street": "6157 AIRPORT BLVD", "postcode": "36685"}}},
{"geometry": {"type": "Point", "coordinates": [-88.183506191, 30.6758822149]}, "type": "Feature", "properties": {"collection_times": [{"days": "Mon-Fri", "time": "4:30pm"}, {"days": "Sat", "time": "2:00pm"}, {"days": "Sun", "time": "Closed"}], "id": "3668500007", "name": "USPS COLLECTION BOX - BLUE BOX", "address": {"city": "MOBILE", "state": "AL", "street": "6157 AIRPORT BLVD", "postcode": "36685"}}},
{"geometry": {"type": "Point", "coordinates": [-88.183506191, 30.6758822149]}, "type": "Feature", "properties": {"collection_times": [{"days": "Mon-Fri", "time": "4:30pm"}, {"days": "Sat", "time": "2:00pm"}, {"days": "Sun", "time": "Closed"}], "id": "3668500008", "name": "USPS COLLECTION BOX - BLUE BOX", "address": {"city": "MOBILE", "state": "AL", "street": "6157 AIRPORT BLVD", "postcode": "36685"}}},
{"geometry": {"type": "Point", "coordinates": [-88.183506191, 30.6758822149]}, "type": "Feature", "properties": {"collection_times": [{"days": "Mon-Fri", "time": "4:30pm"}, {"days": "Sat", "time": "2:00pm"}, {"days": "Sun", "time": "Closed"}], "id": "3668500009", "name": "USPS COLLECTION BOX - BLUE BOX", "address": {"city": "MOBILE", "state": "AL", "street": "6157 AIRPORT BLVD", "postcode": "36685"}}},
{"geometry": {"type": "Point", "coordinates": [-88.1414852463, 30.6367895471]}, "type": "Feature", "properties": {"collection_times": [{"days": "Mon-Sat", "time": "10:00am"}, {"days": "Sun", "time": "Closed"}], "id": "3669300012", "name": "USPS COLLECTION BOX - BLUE BOX", "address": {"city": "MOBILE", "state": "AL", "street": "4011 GOVERNMENT BLVD", "postcode": "36693"}}},
{"geometry": {"type": "Point", "coordinates": [-88.1498106743, 30.6271328993]}, "type": "Feature", "properties": {"collection_times": [{"days": "Mon-Fri", "time": "10:30am"}, {"days": "Sat", "time": "10:00am"}, {"days": "Sun", "time": "Closed"}], "id": "3669300013", "name": "USPS COLLECTION BOX - BLUE BOX", "address": {"city": "MOBILE", "state": "AL", "street": "1764 INDUSTRIAL PARK DR", "postcode": "36693"}}},
{"geometry": {"type": "Point", "coordinates": [-88.1391655041, 30.6389098569]}, "type": "Feature", "properties": {"collection_times": [{"days": "Mon-Sat", "time": "10:00am"}, {"days": "Sun", "time": "Closed"}], "id": "3669300016", "name": "USPS COLLECTION BOX - BLUE BOX", "address": {"city": "MOBILE", "state": "AL", "street": "3938 GOVERNMENT BLVD", "postcode": "36693"}}},
{"geometry": {"type": "Point", "coordinates": [-88.1289069288, 30.6477735881]}, "type": "Feature", "properties": {"collection_times": [{"days": "Mon-Fri", "time": "4:30pm"}, {"days": "Sat", "time": "10:00am"}, {"days": "Sun", "time": "Closed"}], "id": "3669300017", "name": "USPS COLLECTION BOX - BLUE BOX", "address": {"city": "MOBILE", "state": "AL", "street": "3737 GOVERNMENT BLVD", "postcode": "36693"}}},
{"geometry": {"type": "Point", "coordinates": [-88.2393967385, 30.6779884654]}, "type": "Feature", "properties": {"collection_times": [{"days": "Mon-Fri", "time": "4:30pm"}, {"days": "Sat", "time": "3:00pm"}, {"days": "Sun", "time": "Closed"}], "id": "3669500014", "name": "USPS COLLECTION BOX - BLUE BOX", "address": {"city": "MOBILE", "state": "AL", "street": "8400 AIRPORT BLVD", "postcode": "36695"}}},
{"geometry": {"type": "Point", "coordinates": [-88.2393967385, 30.6779884654]}, "type": "Feature", "properties": {"collection_times": [{"days": "Mon-Fri", "time": "4:30pm"}, {"days": "Sat", "time": "3:00pm"}, {"days": "Sun", "time": "Closed"}], "id": "3669500022", "name": "USPS COLLECTION BOX - BLUE BOX", "address": {"city": "MOBILE", "state": "AL", "street": "8400 AIRPORT BLVD", "postcode": "36695"}}}
]}
