{"type": "FeatureCollection", "features": [
{"geometry": {"type": "Point", "coordinates": [-87.0289974528, 32.4167943366]}, "type": "Feature", "properties": {"collection_times": [{"days": "Mon-Fri", "time": "4:45pm"}, {"days": "Sat", "time": "4:00pm"}, {"days": "Sun", "time": "Closed"}], "id": "3670100001", "name": "USPS COLLECTION BOX - BLUE BOX", "address": {"city": "SELMA", "state": "AL", "street": "1301 ALABAMA AVE", "postcode": "36701"}}},
{"geometry": {"type": "Point", "coordinates": [-87.0289974528, 32.4167943366]}, "type": "Feature", "properties": {"collection_times": [{"days": "Mon-Fri", "time": "4:45pm"}, {"days": "Sat", "time": "4:00pm"}, {"days": "Sun", "time": "Closed"}], "id": "3670100002", "name": "USPS COLLECTION BOX - BLUE BOX", "address": {"city": "SELMA", "state": "AL", "street": "1301 ALABAMA AVE", "postcode": "36701"}}},
{"geometry": {"type": "Point", "coordinates": [-87.0207273187, 32.4091550122]}, "type": "Feature", "properties": {"collection_times": [{"days": "Mon-Sat", "time": "9:00am"}, {"days": "Sun", "time": "Closed"}], "id": "3670100012", "name": "USPS COLLECTION BOX - BLUE BOX", "address": {"city": "SELMA", "state": "AL", "street": "201 BROAD ST", "postcode": "36701"}}},
{"geometry": {"type": "Point", "coordinates": [-87.0544041737, 32.4296677646]}, "type": "Feature", "properties": {"collection_times": [{"days": "Mon-Sat", "time": "11:30am"}, {"days": "Sun", "time": "Closed"}], "id": "3670100019", "name": "USPS COLLECTION BOX - BLUE BOX", "address": {"city": "SELMA", "state": "AL", "street": "1013 MEDICAL CENTER PKWY", "postcode": "36701"}}},
{"geometry": {"type": "Point", "coordinates": [-87.0242832606, 32.4219591683]}, "type": "Feature", "properties": {"collection_times": [{"days": "Mon-Fri", "time": "3:15pm"}, {"days": "Sat", "time": "2:30pm"}, {"days": "Sun", "time": "Closed"}], "id": "3670100029", "name": "USPS COLLECTION BOX - BLUE BOX", "address": {"city": "SELMA", "state": "AL", "street": "1631 BROAD ST", "postcode": "36701"}}},
{"geometry": {"type": "Point", "coordinates": [-87.065505771, 32.3975906808]}, "type": "Feature", "properties": {"collection_times": [{"days": "Mon-Sat", "time": "9:30am"}, {"days": "Sun", "time": "Closed"}], "id": "3670100030", "name": "USPS COLLECTION BOX - BLUE BOX", "address": {"city": "SELMA", "state": "AL", "street": "1952 W DALLAS AVE", "postcode": "36701"}}},
{"geometry": {"type": "Point", "coordinates": [-87.0145059266, 32.4452145986]}, "type": "Feature", "properties": {"collection_times": [{"days": "Mon-Sat", "time": "1:30pm"}, {"days": "Sun", "time": "Closed"}], "id": "3670100031", "name": "USPS COLLECTION BOX - BLUE BOX", "address": {"city": "SELMA", "state": "AL", "street": "3000 EARL GOODWIN PKWY", "postcode": "36701"}}},
{"geometry": {"type": "Point", "coordinates": [-87.039898673, 32.4319353714]}, "type": "Feature", "properties": {"collection_times": [{"days": "Mon-Sat", "time": "11:00am"}, {"days": "Sun", "time": "Closed"}], "id": "3670100032", "name": "USPS COLLECTION BOX - BLUE BOX", "address": {"city": "SELMA", "state": "AL", "street": "1310 E HIGHLAND AVE", "postcode": "36701"}}},
{"geometry": {"type": "Point", "coordinates": [-87.0397930699, 32.4318065517]}, "type": "Feature", "properties": {"collection_times": [{"days": "Mon-Sat", "time": "12:00pm"}, {"days": "Sun", "time": "Closed"}], "id": "3670100034", "name": "USPS COLLECTION BOX - BLUE BOX", "address": {"city": "SELMA", "state": "AL", "street": "1301 E HIGHLAND AVE", "postcode": "36701"}}},
{"geometry": {"type": "Point", "coordinates": [-87.0178449999, 32.4086484537]}, "type": "Feature", "properties": {"collection_times": [{"days": "Mon-Fri", "time": "4:45pm"}, {"days": "Sat", "time": "4:00pm"}, {"days": "Sun", "time": "Closed"}], "id": "3670100038", "name": "USPS COLLECTION BOX - PO LOBBY", "address": {"city": "SELMA", "state": "AL", "street": "1301 ALABAMA AVE", "postcode": "36701"}}},
{"geometry": {"type": "Point", "coordinates": [-87.01392131, 32.431497743]}, "type": "Feature", "properties": {"collection_times": [{"days": "Mon-Sat", "time": "12:00pm"}, {"days": "Sun", "time": "Closed"}], "id": "3670100042", "name": "USPS COLLECTION BOX - BLUE BOX", "address": {"city": "SELMA", "state": "AL", "street": "1501 AL HIGHWAY 14 E", "postcode": "36701"}}},
{"geometry": {"type": "Point", "coordinates": [-87.0259995659, 32.5153448146]}, "type": "Feature", "properties": {"collection_times": [{"days": "Mon-Fri", "time": "1:30pm"}, {"days": "Sat", "time": "12:30pm"}, {"days": "Sun", "time": "Closed"}], "id": "3670100043", "name": "USPS COLLECTION BOX - BLUE BOX", "address": {"city": "SELMA", "state": "AL", "street": "100 SAM MOSELEY DR", "postcode": "36701"}}},
{"geometry": {"type": "Point", "coordinates": [-87.0631119146, 32.4339090199]}, "type": "Feature", "properties": {"collection_times": [{"days": "Mon-Sat", "time": "10:00am"}, {"days": "Sun", "time": "Closed"}], "id": "3670100045", "name": "USPS COLLECTION BOX - BLUE BOX", "address": {"city": "SELMA", "state": "AL", "street": "2530 US HIGHWAY 80 W", "postcode": "36701"}}},
{"geometry": {"type": "Point", "coordinates": [-87.001579911, 32.482921146]}, "type": "Feature", "properties": {"collection_times": [{"days": "Mon-Sat", "time": "10:00am"}, {"days": "Sun", "time": "Closed"}], "id": "3670100046", "name": "USPS COLLECTION BOX - BLUE BOX", "address": {"city": "SELMA", "state": "AL", "street": "5514 AL HIGHWAY 22 N", "postcode": "36701"}}},
{"geometry": {"type": "Point", "coordinates": [-87.0345369874, 32.4184416592]}, "type": "Feature", "properties": {"collection_times": [{"days": "Mon-Sat", "time": "11:00am"}, {"days": "Sun", "time": "Closed"}], "id": "3670100048", "name": "USPS COLLECTION BOX - BLUE BOX", "address": {"city": "SELMA", "state": "AL", "street": "2 RAMSEY PL", "postcode": "36701"}}},
{"geometry": {"type": "Point", "coordinates": [-87.5782453737, 32.0549618459]}, "type": "Feature", "properties": {"collection_times": [{"days": "Mon-Fri", "time": "11:30am"}, {"days": "Sat", "time": "10:15am"}, {"days": "Sun", "time": "Closed"}], "id": "3672200000", "name": "USPS COLLECTION BOX - BLUE BOX", "address": {"city": "ARLINGTON", "state": "AL", "street": "3894 COUNTY ROAD 32", "postcode": "36722"}}},
{"geometry": {"type": "Point", "coordinates": [-87.5782453737, 32.0549618459]}, "type": "Feature", "properties": {"collection_times": [{"days": "Mon-Fri", "time": "11:30am"}, {"days": "Sat", "time": "10:15am"}, {"days": "Sun", "time": "Closed"}], "id": "3672200001", "name": "USPS COLLECTION BOX - PO LOBBY", "address": {"city": "ARLINGTON", "state": "AL", "street": "3894 COUNTY ROAD 32", "postcode": "36722"}}},
{"geometry": {"type": "Point", "coordinates": [-87.281296, 32.0777]}, "type": "Feature", "properties": {"collection_times": [{"days": "Mon-Fri", "time": "2:30pm"}, {"days": "Sat-Sun", "time": "Closed"}], "id": "3672300000", "name": "USPS COLLECTION BOX - BLUE BOX", "address": {"city": "BOYKIN", "state": "AL", "street": "14030 COUNTY ROAD 29", "postcode": "36723"}}},
{"geometry": {"type": "Point", "coordinates": [-87.281296, 32.0777]}, "type": "Feature", "properties": {"collection_times": [{"days": "Mon-Fri", "time": "2:30pm"}, {"days": "Sat-Sun", "time": "Closed"}], "id": "3672300001", "name": "USPS COLLECTION BOX - PO LOBBY", "address": {"city": "BOYKIN", "state": "AL", "street": "14030 COUNTY ROAD 29", "postcode": "36723"}}},
{"geometry": {"type": "Point", "coordinates": [-87.2890352196, 31.9905655621]}, "type": "Feature", "properties": {"collection_times": [{"days": "Mon-Sat", "time": "2:00pm"}, {"days": "Sun", "time": "Closed"}], "id": "3672600000", "name": "USPS COLLECTION BOX - BLUE BOX", "address": {"city": "CAMDEN", "state": "AL", "street": "107 BROAD ST", "postcode": "36726"}}},
{"geometry": {"type": "Point", "coordinates": [-87.3060083642, 32.0095148109]}, "type": "Feature", "properties": {"collection_times": [{"days": "Mon-Sat", "time": "11:30am"}, {"days": "Sun", "time": "Closed"}], "id": "3672600001", "name": "USPS COLLECTION BOX - BLUE BOX", "address": {"city": "CAMDEN", "state": "AL", "street": "100 HIGHWAY 28 W", "postcode": "36726"}}},
{"geometry": {"type": "Point", "coordinates": [-87.2831762638, 31.9977977734]}, "type": "Feature", "properties": {"collection_times": [{"days": "Mon-Fri", "time": "4:15pm"}, {"days": "Sat", "time": "12:30pm"}, {"days": "Sun", "time": "Closed"}], "id": "3672600008", "name": "USPS COLLECTION BOX - PO LOBBY", "address": {"city": "CAMDEN", "state": "AL", "street": "100 LEGION RD", "postcode": "36726"}}},
{"geometry": {"type": "Point", "coordinates": [-87.2831762638, 31.9977977734]}, "type": "Feature", "properties": {"collection_times": [{"days": "Mon-Fri", "time": "4:15pm"}, {"days": "Sat", "time": "12:30pm"}, {"days": "Sun", "time": "Closed"}], "id": "3672600009", "name": "USPS COLLECTION BOX - BLUE BOX", "address": {"city": "CAMDEN", "state": "AL", "street": "100 LEGION RD", "postcode": "36726"}}},
{"geometry": {"type": "Point", "coordinates": [-88.015137701, 31.9259041767]}, "type": "Feature", "properties": {"collection_times": [{"days": "Mon-Fri", "time": "12:15pm"}, {"days": "Sat", "time": "1:30pm"}, {"days": "Sun", "time": "Closed"}], "id": "3672700000", "name": "USPS COLLECTION BOX - BLUE BOX", "address": {"city": "CAMPBELL", "state": "AL", "street": "9 CAMPBELL LN", "postcode": "36727"}}},
{"geometry": {"type": "Point", "coordinates": [-87.4660349082, 32.187679187]}, "type": "Feature", "properties": {"collection_times": [{"days": "Mon-Fri", "time": "2:00pm"}, {"days": "Sat", "time": "10:15am"}, {"days": "Sun", "time": "Closed"}], "id": "3672800000", "name": "USPS COLLECTION BOX - BLUE BOX", "address": {"city": "CATHERINE", "state": "AL", "street": "18001 AL HIGHWAY 5", "postcode": "36728"}}},
{"geometry": {"type": "Point", "coordinates": [-87.4660349082, 32.187679187]}, "type": "Feature", "properties": {"collection_times": [{"days": "Mon-Fri", "time": "2:00pm"}, {"days": "Sat", "time": "10:15am"}, {"days": "Sun", "time": "Closed"}], "id": "3672800001", "name": "USPS COLLECTION BOX - PO LOBBY", "address": {"city": "CATHERINE", "state": "AL", "street": "18001 AL HIGHWAY 5", "postcode": "36728"}}},
{"geometry": {"type": "Point", "coordinates": [-87.8376002277, 32.5184556385]}, "type": "Feature", "properties": {"collection_times": [{"days": "Mon-Sat", "time": "4:30pm"}, {"days": "Sun", "time": "Closed"}], "id": "3673200010", "name": "USPS COLLECTION BOX - PO LOBBY", "address": {"city": "DEMOPOLIS", "state": "AL", "street": "100 W CAPITOL ST", "postcode": "36732"}}},
{"geometry": {"type": "Point", "coordinates": [-87.8376002277, 32.5184556385]}, "type": "Feature", "properties": {"collection_times": [{"days": "Mon-Sat", "time": "4:15pm"}, {"days": "Sun", "time": "Closed"}], "id": "3673200016", "name": "USPS COLLECTION BOX - BLUE BOX", "address": {"city": "DEMOPOLIS", "state": "AL", "street": "100 W CAPITOL ST", "postcode": "36732"}}},
{"geometry": {"type": "Point", "coordinates": [-87.8944628414, 32.385715854]}, "type": "Feature", "properties": {"collection_times": [{"days": "Mon-Sat", "time": "12:00pm"}, {"days": "Sun", "time": "Closed"}], "id": "3673200019", "name": "USPS COLLECTION BOX - BLUE BOX", "address": {"city": "DEMOPOLIS", "state": "AL", "street": "26120 AL HIGHWAY 28", "postcode": "36732"}}},
{"geometry": {"type": "Point", "coordinates": [-87.7867748706, 32.0584631214]}, "type": "Feature", "properties": {"collection_times": [{"days": "Mon-Fri", "time": "2:00pm"}, {"days": "Sat", "time": "10:00am"}, {"days": "Sun", "time": "Closed"}], "id": "3673600000", "name": "USPS COLLECTION BOX - BLUE BOX", "address": {"city": "DIXON MILLS", "state": "AL", "street": "5114 US HIGHWAY 43", "postcode": "36736"}}},
{"geometry": {"type": "Point", "coordinates": [-87.786575, 32.05988]}, "type": "Feature", "properties": {"collection_times": [{"days": "Mon-Fri", "time": "2:00pm"}, {"days": "Sat", "time": "10:00am"}, {"days": "Sun", "time": "Closed"}], "id": "3673600001", "name": "USPS COLLECTION BOX - PO LOBBY", "address": {"city": "DIXON MILLS", "state": "AL", "street": "5114 US HIGHWAY 43", "postcode": "36736"}}},
{"geometry": {"type": "Point", "coordinates": [-87.5937013811, 32.4591593437]}, "type": "Feature", "properties": {"collection_times": [{"days": "Mon-Fri", "time": "11:15am"}, {"days": "Sat", "time": "11:00am"}, {"days": "Sun", "time": "Closed"}], "id": "3673800000", "name": "USPS COLLECTION BOX - BLUE BOX", "address": {"city": "FAUNSDALE", "state": "AL", "street": "35570 AL HIGHWAY 25", "postcode": "36738"}}},
{"geometry": {"type": "Point", "coordinates": [-87.5937013811, 32.4591593437]}, "type": "Feature", "properties": {"collection_times": [{"days": "Mon-Fri", "time": "11:15am"}, {"days": "Sat", "time": "11:00am"}, {"days": "Sun", "time": "Closed"}], "id": "3673800001", "name": "USPS COLLECTION BOX - PO LOBBY", "address": {"city": "FAUNSDALE", "state": "AL", "street": "35570 AL HIGHWAY 25", "postcode": "36738"}}},
{"geometry": {"type": "Point", "coordinates": [-87.8555779167, 32.6368042556]}, "type": "Feature", "properties": {"collection_times": [{"days": "Mon-Fri", "time": "12:00pm"}, {"days": "Sat", "time": "11:00am"}, {"days": "Sun", "time": "Closed"}], "id": "3674000000", "name": "USPS COLLECTION BOX - BLUE BOX", "address": {"city": "FORKLAND", "state": "AL", "street": "3663 M L KING DR", "postcode": "36740"}}},
{"geometry": {"type": "Point", "coordinates": [-87.8555779167, 32.6368042556]}, "type": "Feature", "properties": {"collection_times": [{"days": "Mon-Fri", "time": "12:00pm"}, {"days": "Sat", "time": "11:00am"}, {"days": "Sun", "time": "Closed"}], "id": "3674000001", "name": "USPS COLLECTION BOX - PO LOBBY", "address": {"city": "FORKLAND", "state": "AL", "street": "3663 M L KING DR", "postcode": "36740"}}},
{"geometry": {"type": "Point", "coordinates": [-86.9647012173, 32.003552479]}, "type": "Feature", "properties": {"collection_times": [{"days": "Mon-Fri", "time": "10:00am"}, {"days": "Sat", "time": "10:15am"}, {"days": "Sun", "time": "Closed"}], "id": "3674100000", "name": "USPS COLLECTION BOX - BLUE BOX", "address": {"city": "FURMAN", "state": "AL", "street": "8545 COUNTY ROAD 59", "postcode": "36741"}}},
{"geometry": {"type": "Point", "coordinates": [-86.9647012173, 32.003552479]}, "type": "Feature", "properties": {"collection_times": [{"days": "Mon-Fri", "time": "10:00am"}, {"days": "Sat", "time": "10:15am"}, {"days": "Sun", "time": "Closed"}], "id": "3674100001", "name": "USPS COLLECTION BOX - PO LOBBY", "address": {"city": "FURMAN", "state": "AL", "street": "8545 COUNTY ROAD 59", "postcode": "36741"}}},
{"geometry": {"type": "Point", "coordinates": [-87.6966755521, 32.5098370269]}, "type": "Feature", "properties": {"collection_times": [{"days": "Mon-Fri", "time": "4:15pm"}, {"days": "Sat", "time": "10:00am"}, {"days": "Sun", "time": "Closed"}], "id": "3674200000", "name": "USPS COLLECTION BOX - BLUE BOX", "address": {"city": "GALLION", "state": "AL", "street": "505 GALLION RD", "postcode": "36742"}}},
{"geometry": {"type": "Point", "coordinates": [-87.6966755521, 32.5098370269]}, "type": "Feature", "properties": {"collection_times": [{"days": "Mon-Fri", "time": "3:00pm"}, {"days": "Sat", "time": "10:00am"}, {"days": "Sun", "time": "Closed"}], "id": "3674200001", "name": "USPS COLLECTION BOX - PO LOBBY", "address": {"city": "GALLION", "state": "AL", "street": "505 GALLION RD", "postcode": "36742"}}},
{"geometry": {"type": "Point", "coordinates": [-87.596842338, 32.7040814512]}, "type": "Feature", "properties": {"collection_times": [{"days": "Mon-Fri", "time": "4:00pm"}, {"days": "Sat", "time": "12:00pm"}, {"days": "Sun", "time": "Closed"}], "id": "3674400001", "name": "USPS COLLECTION BOX - BLUE BOX", "address": {"city": "GREENSBORO", "state": "AL", "street": "1501 MAIN ST", "postcode": "36744"}}},
{"geometry": {"type": "Point", "coordinates": [-87.5904283011, 32.7130504121]}, "type": "Feature", "properties": {"collection_times": [{"days": "Mon-Fri", "time": "4:00pm"}, {"days": "Sat", "time": "12:00pm"}, {"days": "Sun", "time": "Closed"}], "id": "3674400002", "name": "USPS COLLECTION BOX - EXPRESS", "address": {"city": "GREENSBORO", "state": "AL", "street": "1501 MAIN ST", "postcode": "36744"}}},
{"geometry": {"type": "Point", "coordinates": [-87.596842338, 32.7040814512]}, "type": "Feature", "properties": {"collection_times": [{"days": "Mon-Fri", "time": "4:00pm"}, {"days": "Sat", "time": "12:00pm"}, {"days": "Sun", "time": "Closed"}], "id": "3674400004", "name": "USPS COLLECTION BOX - PO LOBBY", "address": {"city": "GREENSBORO", "state": "AL", "street": "1501 MAIN ST", "postcode": "36744"}}},
{"geometry": {"type": "Point", "coordinates": [-87.591524406, 32.7038581164]}, "type": "Feature", "properties": {"collection_times": [{"days": "Mon-Sat", "time": "1:00pm"}, {"days": "Sun", "time": "Closed"}], "id": "3674400005", "name": "USPS COLLECTION BOX - BLUE BOX", "address": {"city": "GREENSBORO", "state": "AL", "street": "1001 MAIN ST", "postcode": "36744"}}},
{"geometry": {"type": "Point", "coordinates": [-87.5925082913, 32.7041682889]}, "type": "Feature", "properties": {"collection_times": [{"days": "Mon-Sat", "time": "1:00pm"}, {"days": "Sun", "time": "Closed"}], "id": "3674400006", "name": "USPS COLLECTION BOX - BLUE BOX", "address": {"city": "GREENSBORO", "state": "AL", "street": "1130 MAIN ST", "postcode": "36744"}}},
{"geometry": {"type": "Point", "coordinates": [-87.7966542361, 32.3039519698]}, "type": "Feature", "properties": {"collection_times": [{"days": "Mon-Sat", "time": "4:00pm"}, {"days": "Sun", "time": "Closed"}], "id": "3674800003", "name": "USPS COLLECTION BOX - BLUE BOX", "address": {"city": "LINDEN", "state": "AL", "street": "125 W 7TH AVE", "postcode": "36748"}}},
{"geometry": {"type": "Point", "coordinates": [-87.7966542361, 32.3039519698]}, "type": "Feature", "properties": {"collection_times": [{"days": "Mon-Sat", "time": "4:30pm"}, {"days": "Sun", "time": "Closed"}], "id": "3674800005", "name": "USPS COLLECTION BOX - PO LOBBY", "address": {"city": "LINDEN", "state": "AL", "street": "125 W 7TH AVE", "postcode": "36748"}}},
{"geometry": {"type": "Point", "coordinates": [-86.8978626051, 32.5874315596]}, "type": "Feature", "properties": {"collection_times": [{"days": "Mon-Fri", "time": "3:00pm"}, {"days": "Sat", "time": "10:00am"}, {"days": "Sun", "time": "Closed"}], "id": "3674900000", "name": "USPS COLLECTION BOX - BLUE BOX", "address": {"city": "JONES", "state": "AL", "street": "891 SHORT ST", "postcode": "36749"}}},
{"geometry": {"type": "Point", "coordinates": [-86.8978626051, 32.5874315596]}, "type": "Feature", "properties": {"collection_times": [{"days": "Mon-Fri", "time": "11:45am"}, {"days": "Sat", "time": "10:00am"}, {"days": "Sun", "time": "Closed"}], "id": "3674900001", "name": "USPS COLLECTION BOX - PO LOBBY", "address": {"city": "JONES", "state": "AL", "street": "891 SHORT ST", "postcode": "36749"}}},
{"geometry": {"type": "Point", "coordinates": [-86.8732174296, 32.7828828046]}, "type": "Feature", "properties": {"collection_times": [{"days": "Mon-Fri", "time": "4:00pm"}, {"days": "Sat", "time": "10:00am"}, {"days": "Sun", "time": "Closed"}], "id": "3675000003", "name": "USPS COLLECTION BOX - PO LOBBY", "address": {"city": "MAPLESVILLE", "state": "AL", "street": "9370 AL HIGHWAY 22", "postcode": "36750"}}},
{"geometry": {"type": "Point", "coordinates": [-87.6024305157, 31.8469478717]}, "type": "Feature", "properties": {"collection_times": [{"days": "Mon-Fri", "time": "12:00pm"}, {"days": "Sat", "time": "10:30am"}, {"days": "Sun", "time": "Closed"}], "id": "3675100000", "name": "USPS COLLECTION BOX - PO LOBBY", "address": {"city": "LWR PCH TREE", "state": "AL", "street": "24 COUNTY ROAD 35 E", "postcode": "36751"}}},
{"geometry": {"type": "Point", "coordinates": [-87.6024305157, 31.8469478717]}, "type": "Feature", "properties": {"collection_times": [{"days": "Mon-Fri", "time": "3:30pm"}, {"days": "Sat", "time": "10:30am"}, {"days": "Sun", "time": "Closed"}], "id": "3675100001", "name": "USPS COLLECTION BOX - BLUE BOX", "address": {"city": "LWR PCH TREE", "state": "AL", "street": "24 COUNTY ROAD 35 E", "postcode": "36751"}}},
{"geometry": {"type": "Point", "coordinates": [-86.6100862743, 32.2797763869]}, "type": "Feature", "properties": {"collection_times": [{"days": "Mon-Fri", "time": "2:25pm"}, {"days": "Sat", "time": "9:30am"}, {"days": "Sun", "time": "Closed"}], "id": "3675200000", "name": "USPS COLLECTION BOX - BLUE BOX", "address": {"city": "LOWNDESBORO", "state": "AL", "street": "1 N BROAD ST", "postcode": "36752"}}},
{"geometry": {"type": "Point", "coordinates": [-86.6100862743, 32.2797763869]}, "type": "Feature", "properties": {"collection_times": [{"days": "Mon-Fri", "time": "2:25pm"}, {"days": "Sat", "time": "9:30am"}, {"days": "Sun", "time": "Closed"}], "id": "3675200001", "name": "USPS COLLECTION BOX - PO LOBBY", "address": {"city": "LOWNDESBORO", "state": "AL", "street": "1 N BROAD ST", "postcode": "36752"}}},
{"geometry": {"type": "Point", "coordinates": [-87.6686122679, 32.1352848185]}, "type": "Feature", "properties": {"collection_times": [{"days": "Mon-Fri", "time": "10:50am"}, {"days": "Sat", "time": "10:30am"}, {"days": "Sun", "time": "Closed"}], "id": "3675400000", "name": "USPS COLLECTION BOX - BLUE BOX", "address": {"city": "MAGNOLIA", "state": "AL", "street": "5716 COUNTY ROAD 30", "postcode": "36754"}}},
{"geometry": {"type": "Point", "coordinates": [-87.6686122679, 32.1352848185]}, "type": "Feature", "properties": {"collection_times": [{"days": "Mon-Fri", "time": "10:50am"}, {"days": "Sat", "time": "10:30am"}, {"days": "Sun", "time": "Closed"}], "id": "3675400001", "name": "USPS COLLECTION BOX - PO LOBBY", "address": {"city": "MAGNOLIA", "state": "AL", "street": "5716 COUNTY ROAD 30", "postcode": "36754"}}},
{"geometry": {"type": "Point", "coordinates": [-87.3177513901, 32.6297816265]}, "type": "Feature", "properties": {"collection_times": [{"days": "Mon-Fri", "time": "3:30pm"}, {"days": "Sat", "time": "12:00pm"}, {"days": "Sun", "time": "Closed"}], "id": "3675600000", "name": "USPS COLLECTION BOX - BLUE BOX", "address": {"city": "MARION", "state": "AL", "street": "306 PICKENS ST", "postcode": "36756"}}},
{"geometry": {"type": "Point", "coordinates": [-87.3177513901, 32.6297816265]}, "type": "Feature", "properties": {"collection_times": [{"days": "Mon-Fri", "time": "3:30pm"}, {"days": "Sat", "time": "12:00pm"}, {"days": "Sun", "time": "Closed"}], "id": "3675600001", "name": "USPS COLLECTION BOX - BLUE BOX", "address": {"city": "MARION", "state": "AL", "street": "306 PICKENS ST", "postcode": "36756"}}},
{"geometry": {"type": "Point", "coordinates": [-87.3177513901, 32.6297816265]}, "type": "Feature", "properties": {"collection_times": [{"days": "Mon-Fri", "time": "3:30pm"}, {"days": "Sat", "time": "12:00pm"}, {"days": "Sun", "time": "Closed"}], "id": "3675600003", "name": "USPS COLLECTION BOX - BLUE BOX", "address": {"city": "MARION", "state": "AL", "street": "306 PICKENS ST", "postcode": "36756"}}},
{"geometry": {"type": "Point", "coordinates": [-87.3191010245, 32.6331197716]}, "type": "Feature", "properties": {"collection_times": [{"days": "Mon-Sat", "time": "2:00pm"}, {"days": "Sun", "time": "Closed"}], "id": "3675600005", "name": "USPS COLLECTION BOX - BLUE BOX", "address": {"city": "MARION", "state": "AL", "street": "323 WASHINGTON ST", "postcode": "36756"}}},
{"geometry": {"type": "Point", "coordinates": [-87.318076983, 32.6225559667]}, "type": "Feature", "properties": {"collection_times": [{"days": "Mon-Sat", "time": "9:30am"}, {"days": "Sun", "time": "Closed"}], "id": "3675600006", "name": "USPS COLLECTION BOX - BLUE BOX", "address": {"city": "MARION", "state": "AL", "street": "1101 WASHINGTON ST", "postcode": "36756"}}},
{"geometry": {"type": "Point", "coordinates": [-87.3177513901, 32.6297816265]}, "type": "Feature", "properties": {"collection_times": [{"days": "Mon-Fri", "time": "3:30pm"}, {"days": "Sat", "time": "12:00pm"}, {"days": "Sun", "time": "Closed"}], "id": "3675600007", "name": "USPS COLLECTION BOX - PO LOBBY", "address": {"city": "MARION", "state": "AL", "street": "306 PICKENS ST", "postcode": "36756"}}},
{"geometry": {"type": "Point", "coordinates": [-86.9275148495, 32.6594602223]}, "type": "Feature", "properties": {"collection_times": [{"days": "Mon-Fri", "time": "12:00pm"}, {"days": "Sat", "time": "10:00am"}, {"days": "Sun", "time": "Closed"}], "id": "3675800000", "name": "USPS COLLECTION BOX - BLUE BOX", "address": {"city": "PLANTERSVILLE", "state": "AL", "street": "235 CHERRY ST", "postcode": "36758"}}},
{"geometry": {"type": "Point", "coordinates": [-86.9275148495, 32.6594602223]}, "type": "Feature", "properties": {"collection_times": [{"days": "Mon-Fri", "time": "12:00pm"}, {"days": "Sat", "time": "10:00am"}, {"days": "Sun", "time": "Closed"}], "id": "3675800001", "name": "USPS COLLECTION BOX - PO LOBBY", "address": {"city": "PLANTERSVILLE", "state": "AL", "street": "235 CHERRY ST", "postcode": "36758"}}},
{"geometry": {"type": "Point", "coordinates": [-87.2356981979, 32.4381795235]}, "type": "Feature", "properties": {"collection_times": [{"days": "Mon-Fri", "time": "11:15am"}, {"days": "Sat", "time": "10:15am"}, {"days": "Sun", "time": "Closed"}], "id": "3675900000", "name": "USPS COLLECTION BOX - BLUE BOX", "address": {"city": "MARION JUNCTION", "state": "AL", "street": "35 CHURCH ST", "postcode": "36759"}}},
{"geometry": {"type": "Point", "coordinates": [-87.2356981979, 32.4381795235]}, "type": "Feature", "properties": {"collection_times": [{"days": "Mon-Fri", "time": "11:15am"}, {"days": "Sat", "time": "10:30am"}, {"days": "Sun", "time": "Closed"}], "id": "3675900001", "name": "USPS COLLECTION BOX - PO LOBBY", "address": {"city": "MARION JUNCTION", "state": "AL", "street": "35 CHURCH ST", "postcode": "36759"}}},
{"geometry": {"type": "Point", "coordinates": [-86.9498181222, 32.0813301187]}, "type": "Feature", "properties": {"collection_times": [{"days": "Mon-Fri", "time": "11:30am"}, {"days": "Sat", "time": "10:30am"}, {"days": "Sun", "time": "Closed"}], "id": "3676100000", "name": "USPS COLLECTION BOX - BLUE BOX", "address": {"city": "MINTER", "state": "AL", "street": "2560 COUNTY ROAD 4", "postcode": "36761"}}},
{"geometry": {"type": "Point", "coordinates": [-86.9498181222, 32.0813301187]}, "type": "Feature", "properties": {"collection_times": [{"days": "Mon-Fri", "time": "11:30am"}, {"days": "Sat", "time": "10:30am"}, {"days": "Sun", "time": "Closed"}], "id": "3676100001", "name": "USPS COLLECTION BOX - PO LOBBY", "address": {"city": "MINTER", "state": "AL", "street": "2560 COUNTY ROAD 4", "postcode": "36761"}}},
{"geometry": {"type": "Point", "coordinates": [-87.9490559191, 32.2504652694]}, "type": "Feature", "properties": {"collection_times": [{"days": "Mon-Fri", "time": "12:00pm"}, {"days": "Sat", "time": "10:00am"}, {"days": "Sun", "time": "Closed"}], "id": "3676300000", "name": "USPS COLLECTION BOX - BLUE BOX", "address": {"city": "MYRTLEWOOD", "state": "AL", "street": "103 E CEDAR ST", "postcode": "36763"}}},
{"geometry": {"type": "Point", "coordinates": [-87.9490559191, 32.2504652694]}, "type": "Feature", "properties": {"collection_times": [{"days": "Mon-Fri", "time": "12:00pm"}, {"days": "Sat", "time": "10:00am"}, {"days": "Sun", "time": "Closed"}], "id": "3676300001", "name": "USPS COLLECTION BOX - PO LOBBY", "address": {"city": "MYRTLEWOOD", "state": "AL", "street": "103 E CEDAR ST", "postcode": "36763"}}},
{"geometry": {"type": "Point", "coordinates": [-86.8402850888, 32.7665445132]}, "type": "Feature", "properties": {"collection_times": [{"days": "Mon-Fri", "time": "12:00pm"}, {"days": "Sat", "time": "11:00am"}, {"days": "Sun", "time": "Closed"}], "id": "3676400000", "name": "USPS COLLECTION BOX - BLUE BOX", "address": {"city": "NANAFALIA", "state": "AL", "street": "39000 AL HIGHWAY 10", "postcode": "36764"}}},
{"geometry": {"type": "Point", "coordinates": [-87.9882887301, 32.1129941277]}, "type": "Feature", "properties": {"collection_times": [{"days": "Mon-Fri", "time": "12:00pm"}, {"days": "Sat", "time": "11:00am"}, {"days": "Sun", "time": "Closed"}], "id": "3676400001", "name": "USPS COLLECTION BOX - PO LOBBY", "address": {"city": "NANAFALIA", "state": "AL", "street": "39000 AL HIGHWAY 10", "postcode": "36764"}}},
{"geometry": {"type": "Point", "coordinates": [-87.5312898601, 32.5760859993]}, "type": "Feature", "properties": {"collection_times": [{"days": "Mon-Fri", "time": "11:30am"}, {"days": "Sat", "time": "10:00am"}, {"days": "Sun", "time": "Closed"}], "id": "3676500000", "name": "USPS COLLECTION BOX - PO LOBBY", "address": {"city": "NEWBERN", "state": "AL", "street": "7790 AL HIGHWAY 61", "postcode": "36765"}}},
{"geometry": {"type": "Point", "coordinates": [-87.5312898601, 32.5760859993]}, "type": "Feature", "properties": {"collection_times": [{"days": "Mon-Fri", "time": "11:30am"}, {"days": "Sat", "time": "10:00am"}, {"days": "Sun", "time": "Closed"}], "id": "3676500001", "name": "USPS COLLECTION BOX - BLUE BOX", "address": {"city": "NEWBERN", "state": "AL", "street": "7790 AL HIGHWAY 61", "postcode": "36765"}}},
{"geometry": {"type": "Point", "coordinates": [-87.0838340406, 31.9219155929]}, "type": "Feature", "properties": {"collection_times": [{"days": "Mon-Sat", "time": "1:30pm"}, {"days": "Sun", "time": "Closed"}], "id": "3676600000", "name": "USPS COLLECTION BOX - PO LOBBY", "address": {"city": "OAK HILL", "state": "AL", "street": "10525 HIGHWAY 10 E", "postcode": "36766"}}},
{"geometry": {"type": "Point", "coordinates": [-87.0838340406, 31.9219155929]}, "type": "Feature", "properties": {"collection_times": [{"days": "Mon-Sat", "time": "1:30pm"}, {"days": "Sun", "time": "Closed"}], "id": "3676600001", "name": "USPS COLLECTION BOX - BLUE BOX", "address": {"city": "OAK HILL", "state": "AL", "street": "10525 HIGHWAY 10 E", "postcode": "36766"}}},
{"geometry": {"type": "Point", "coordinates": [-87.2472166695, 32.3065919097]}, "type": "Feature", "properties": {"collection_times": [{"days": "Mon-Fri", "time": "3:45pm"}, {"days": "Sat", "time": "10:15am"}, {"days": "Sun", "time": "Closed"}], "id": "3676700000", "name": "USPS COLLECTION BOX - BLUE BOX", "address": {"city": "ORRVILLE", "state": "AL", "street": "14664 MAIN ST", "postcode": "36767"}}},
{"geometry": {"type": "Point", "coordinates": [-87.2472166695, 32.3065919097]}, "type": "Feature", "properties": {"collection_times": [{"days": "Mon-Fri", "time": "3:45pm"}, {"days": "Sat", "time": "10:15am"}, {"days": "Sun", "time": "Closed"}], "id": "3676700001", "name": "USPS COLLECTION BOX - PO LOBBY", "address": {"city": "ORRVILLE", "state": "AL", "street": "14664 MAIN ST", "postcode": "36767"}}},
{"geometry": {"type": "Point", "coordinates": [-87.0379999568, 31.8960633729]}, "type": "Feature", "properties": {"collection_times": [{"days": "Mon-Fri", "time": "12:00pm"}, {"days": "Sat", "time": "10:30am"}, {"days": "Sun", "time": "Closed"}], "id": "3676800000", "name": "USPS COLLECTION BOX - BLUE BOX", "address": {"city": "PINE APPLE", "state": "AL", "street": "52 COUNTY ROAD 59", "postcode": "36768"}}},
{"geometry": {"type": "Point", "coordinates": [-87.0379999568, 31.8960633729]}, "type": "Feature", "properties": {"collection_times": [{"days": "Mon-Fri", "time": "12:00pm"}, {"days": "Sat", "time": "10:30am"}, {"days": "Sun", "time": "Closed"}], "id": "3676800001", "name": "USPS COLLECTION BOX - PO LOBBY", "address": {"city": "PINE APPLE", "state": "AL", "street": "52 COUNTY ROAD 59", "postcode": "36768"}}},
{"geometry": {"type": "Point", "coordinates": [-86.9890965849, 31.8734325773]}, "type": "Feature", "properties": {"collection_times": [{"days": "Mon-Sat", "time": "12:00pm"}, {"days": "Sun", "time": "Closed"}], "id": "3676800003", "name": "USPS COLLECTION BOX - BLUE BOX", "address": {"city": "PINE APPLE", "state": "AL", "street": "131 HIGHWAY 21", "postcode": "36768"}}},
{"geometry": {"type": "Point", "coordinates": [-87.55829525, 31.9778206416]}, "type": "Feature", "properties": {"collection_times": [{"days": "Mon-Fri", "time": "3:30pm"}, {"days": "Sat", "time": "2:00pm"}, {"days": "Sun", "time": "Closed"}], "id": "3676900000", "name": "USPS COLLECTION BOX - BLUE BOX", "address": {"city": "PINE HILL", "state": "AL", "street": "61 OAK GROVE ST", "postcode": "36769"}}},
{"geometry": {"type": "Point", "coordinates": [-87.55829525, 31.9778206416]}, "type": "Feature", "properties": {"collection_times": [{"days": "Mon-Fri", "time": "4:00pm"}, {"days": "Sat", "time": "2:00pm"}, {"days": "Sun", "time": "Closed"}], "id": "3676900001", "name": "USPS COLLECTION BOX - PO LOBBY", "address": {"city": "PINE HILL", "state": "AL", "street": "61 OAK GROVE ST", "postcode": "36769"}}},
{"geometry": {"type": "Point", "coordinates": [-87.3665049032, 32.2816336148]}, "type": "Feature", "properties": {"collection_times": [{"days": "Mon-Fri", "time": "10:00am"}, {"days": "Sat", "time": "10:45am"}, {"days": "Sun", "time": "Closed"}], "id": "3677300000", "name": "USPS COLLECTION BOX - BLUE BOX", "address": {"city": "SAFFORD", "state": "AL", "street": "9944 COUNTY ROAD 115", "postcode": "36773"}}},
{"geometry": {"type": "Point", "coordinates": [-87.3665049032, 32.2816336148]}, "type": "Feature", "properties": {"collection_times": [{"days": "Mon-Fri", "time": "10:00am"}, {"days": "Sat", "time": "10:44am"}, {"days": "Sun", "time": "Closed"}], "id": "3677300001", "name": "USPS COLLECTION BOX - PO LOBBY", "address": {"city": "SAFFORD", "state": "AL", "street": "9944 COUNTY ROAD 115", "postcode": "36773"}}},
{"geometry": {"type": "Point", "coordinates": [-86.986584565, 32.287262877]}, "type": "Feature", "properties": {"collection_times": [{"days": "Mon-Fri", "time": "11:30am"}, {"days": "Sat", "time": "9:00am"}, {"days": "Sun", "time": "Closed"}], "id": "3677500000", "name": "USPS COLLECTION BOX - BLUE BOX", "address": {"city": "SARDIS", "state": "AL", "street": "5880 AL HIGHWAY 41", "postcode": "36775"}}},
{"geometry": {"type": "Point", "coordinates": [-86.986584565, 32.287262877]}, "type": "Feature", "properties": {"collection_times": [{"days": "Mon-Fri", "time": "11:30am"}, {"days": "Sat", "time": "9:00am"}, {"days": "Sun", "time": "Closed"}], "id": "3677500001", "name": "USPS COLLECTION BOX - PO LOBBY", "address": {"city": "SARDIS", "state": "AL", "street": "5880 AL HIGHWAY 41", "postcode": "36775"}}},
{"geometry": {"type": "Point", "coordinates": [-87.73211, 32.751236]}, "type": "Feature", "properties": {"collection_times": [{"days": "Mon-Fri", "time": "12:00pm"}, {"days": "Sat", "time": "11:00am"}, {"days": "Sun", "time": "Closed"}], "id": "3677600000", "name": "USPS COLLECTION BOX - PO LOBBY", "address": {"city": "SAWYERVILLE", "state": "AL", "street": "16850 AL HIGHWAY 14", "postcode": "36776"}}},
{"geometry": {"type": "Point", "coordinates": [-87.73211, 32.751236]}, "type": "Feature", "properties": {"collection_times": [{"days": "Mon-Fri", "time": "12:00pm"}, {"days": "Sat", "time": "11:00am"}, {"days": "Sun", "time": "Closed"}], "id": "3677600001", "name": "USPS COLLECTION BOX - BLUE BOX", "address": {"city": "SAWYERVILLE", "state": "AL", "street": "16850 AL HIGHWAY 14", "postcode": "36776"}}},
{"geometry": {"type": "Point", "coordinates": [-87.9030471018, 32.1151124802]}, "type": "Feature", "properties": {"collection_times": [{"days": "Mon-Fri", "time": "3:30pm"}, {"days": "Sat", "time": "10:30am"}, {"days": "Sun", "time": "Closed"}], "id": "3678200000", "name": "USPS COLLECTION BOX - BLUE BOX", "address": {"city": "SWEET WATER", "state": "AL", "street": "31600 HIGHWAY 10 W", "postcode": "36782"}}},
{"geometry": {"type": "Point", "coordinates": [-87.9030471018, 32.1151124802]}, "type": "Feature", "properties": {"collection_times": [{"days": "Mon-Fri", "time": "3:45pm"}, {"days": "Sat", "time": "10:30am"}, {"days": "Sun", "time": "Closed"}], "id": "3678200001", "name": "USPS COLLECTION BOX - PO LOBBY", "address": {"city": "SWEET WATER", "state": "AL", "street": "31600 HIGHWAY 10 W", "postcode": "36782"}}},
{"geometry": {"type": "Point", "coordinates": [-87.6241979165, 32.2674964063]}, "type": "Feature", "properties": {"collection_times": [{"days": "Mon-Fri", "time": "12:00pm"}, {"days": "Sat", "time": "10:30am"}, {"days": "Sun", "time": "Closed"}], "id": "3678300001", "name": "USPS COLLECTION BOX - PO LOBBY", "address": {"city": "THOMASTON", "state": "AL", "street": "127 MAIN ST", "postcode": "36783"}}},
{"geometry": {"type": "Point", "coordinates": [-87.7338028894, 31.9122224651]}, "type": "Feature", "properties": {"collection_times": [{"days": "Mon-Sat", "time": "4:15pm"}, {"days": "Sun", "time": "Closed"}], "id": "3678400000", "name": "USPS COLLECTION BOX - BLUE BOX", "address": {"city": "THOMASVILLE", "state": "AL", "street": "115 NICOL AVE", "postcode": "36784"}}},
{"geometry": {"type": "Point", "coordinates": [-87.7338028894, 31.9122224651]}, "type": "Feature", "properties": {"collection_times": [{"days": "Mon-Sat", "time": "4:15pm"}, {"days": "Sun", "time": "Closed"}], "id": "3678400003", "name": "USPS COLLECTION BOX - PO LOBBY", "address": {"city": "THOMASVILLE", "state": "AL", "street": "115 NICOL ST", "postcode": "36784"}}},
{"geometry": {"type": "Point", "coordinates": [-87.858752919, 31.9146070748]}, "type": "Feature", "properties": {"collection_times": [{"days": "Mon-Sat", "time": "11:00am"}, {"days": "Sun", "time": "Closed"}], "id": "3678400004", "name": "USPS COLLECTION BOX - BLUE BOX", "address": {"city": "THOMASVILLE", "state": "AL", "street": "102 ROCK POINTE CT", "postcode": "36784"}}},
{"geometry": {"type": "Point", "coordinates": [-86.8833068826, 32.3145835839]}, "type": "Feature", "properties": {"collection_times": [{"days": "Mon-Sat", "time": "3:00pm"}, {"days": "Sun", "time": "Closed"}], "id": "3678500000", "name": "USPS COLLECTION BOX - BLUE BOX", "address": {"city": "TYLER", "state": "AL", "street": "2021 COUNTY ROAD 7", "postcode": "36785"}}},
{"geometry": {"type": "Point", "coordinates": [-86.8833068826, 32.3145835839]}, "type": "Feature", "properties": {"collection_times": [{"days": "Mon-Fri", "time": "11:30am"}, {"days": "Sat", "time": "10:30am"}, {"days": "Sun", "time": "Closed"}], "id": "3678500001", "name": "USPS COLLECTION BOX - PO LOBBY", "address": {"city": "TYLER", "state": "AL", "street": "2021 COUNTY ROAD 7", "postcode": "36785"}}},
{"geometry": {"type": "Point", "coordinates": [-87.4757874228, 32.4544741223]}, "type": "Feature", "properties": {"collection_times": [{"days": "Mon-Fri", "time": "2:00pm"}, {"days": "Sat", "time": "12:00pm"}, {"days": "Sun", "time": "Closed"}], "id": "3678600000", "name": "USPS COLLECTION BOX - PO LOBBY", "address": {"city": "UNIONTOWN", "state": "AL", "street": "100 W FRANKLIN ST", "postcode": "36786"}}},
{"geometry": {"type": "Point", "coordinates": [-87.4757874228, 32.4544741223]}, "type": "Feature", "properties": {"collection_times": [{"days": "Mon-Fri", "time": "2:00pm"}, {"days": "Sat", "time": "12:00pm"}, {"days": "Sun", "time": "Closed"}], "id": "3678600001", "name": "USPS COLLECTION BOX - BLUE BOX", "address": {"city": "UNIONTOWN", "state": "AL", "street": "100 W FRANKLIN ST", "postcode": "36786"}}},
{"geometry": {"type": "Point", "coordinates": [-86.8676320447, 32.7273313862]}, "type": "Feature", "properties": {"collection_times": [{"days": "Mon-Fri", "time": "9:45am"}, {"days": "Sat", "time": "10:15am"}, {"days": "Sun", "time": "Closed"}], "id": "3679000000", "name": "USPS COLLECTION BOX - PO LOBBY", "address": {"city": "STANTON", "state": "AL", "street": "2230 COUNTY ROAD 45", "postcode": "36790"}}},
{"geometry": {"type": "Point", "coordinates": [-86.8857690855, 32.8499038691]}, "type": "Feature", "properties": {"collection_times": [{"days": "Mon-Fri", "time": "12:00pm"}, {"days": "Sat", "time": "10:00am"}, {"days": "Sun", "time": "Closed"}], "id": "3679200000", "name": "USPS COLLECTION BOX - PO LOBBY", "address": {"city": "RANDOLPH", "state": "AL", "street": "8770 HIGHWAY 139", "postcode": "36792"}}},
{"geometry": {"type": "Point", "coordinates": [-86.8857690855, 32.8499038691]}, "type": "Feature", "properties": {"collection_times": [{"days": "Mon-Fri", "time": "4:00pm"}, {"days": "Sat", "time": "10:00am"}, {"days": "Sun", "time": "Closed"}], "id": "3679200001", "name": "USPS COLLECTION BOX - BLUE BOX", "address": {"city": "RANDOLPH", "state": "AL", "street": "8770 HIGHWAY 139", "postcode": "36792"}}}
]}
