{"type": "FeatureCollection", "features": [
{"geometry": {"type": "Point", "coordinates": [-85.3742286486, 32.6453657153]}, "type": "Feature", "properties": {"collection_times": [{"days": "Mon-Sat", "time": "5:30pm"}, {"days": "Sun", "time": "Closed"}], "id": "3680100000", "name": "USPS COLLECTION BOX - BLUE BOX", "address": {"city": "OPELIKA", "state": "AL", "street": "500 S 7TH ST", "postcode": "36801"}}},
{"geometry": {"type": "Point", "coordinates": [-85.3742286486, 32.6453657153]}, "type": "Feature", "properties": {"collection_times": [{"days": "Mon-Sat", "time": "5:30pm"}, {"days": "Sun", "time": "Closed"}], "id": "3680100001", "name": "USPS COLLECTION BOX - BLUE BOX", "address": {"city": "OPELIKA", "state": "AL", "street": "500 S 7TH ST", "postcode": "36801"}}},
{"geometry": {"type": "Point", "coordinates": [-85.3742286486, 32.6453657153]}, "type": "Feature", "properties": {"collection_times": [{"days": "Mon-Sat", "time": "5:30pm"}, {"days": "Sun", "time": "Closed"}], "id": "3680100002", "name": "USPS COLLECTION BOX - BLUE BOX", "address": {"city": "OPELIKA", "state": "AL", "street": "500 S 7TH ST", "postcode": "36801"}}},
{"geometry": {"type": "Point", "coordinates": [-85.3904173213, 32.6525505555]}, "type": "Feature", "properties": {"collection_times": [{"days": "Mon-Sat", "time": "5:30pm"}, {"days": "Sun", "time": "Closed"}], "id": "3680100007", "name": "USPS COLLECTION BOX - EXPRESS", "address": {"city": "OPELIKA", "state": "AL", "street": "500 S 7TH ST", "postcode": "36801"}}},
{"geometry": {"type": "Point", "coordinates": [-85.4042411509, 32.6206926773]}, "type": "Feature", "properties": {"collection_times": [{"days": "Mon-Fri", "time": "3:00pm"}, {"days": "Sat", "time": "9:00am"}, {"days": "Sun", "time": "Closed"}], "id": "3680100010", "name": "USPS COLLECTION BOX - BLUE BOX", "address": {"city": "OPELIKA", "state": "AL", "street": "2311 GATEWAY DR", "postcode": "36801"}}},
{"geometry": {"type": "Point", "coordinates": [-85.4037976191, 32.6356248123]}, "type": "Feature", "properties": {"collection_times": [{"days": "Mon-Fri", "time": "2:00pm"}, {"days": "Sat", "time": "9:00am"}, {"days": "Sun", "time": "Closed"}], "id": "3680100011", "name": "USPS COLLECTION BOX - BLUE BOX", "address": {"city": "OPELIKA", "state": "AL", "street": "121 N 20TH ST", "postcode": "36801"}}},
{"geometry": {"type": "Point", "coordinates": [-85.3689195711, 32.6354134155]}, "type": "Feature", "properties": {"collection_times": [{"days": "Mon-Sat", "time": "11:30am"}, {"days": "Sun", "time": "Closed"}], "id": "3680100034", "name": "USPS COLLECTION BOX - BLUE BOX", "address": {"city": "OPELIKA", "state": "AL", "street": "1441 FOX RUN PKWY", "postcode": "36801"}}},
{"geometry": {"type": "Point", "coordinates": [-85.3742286486, 32.6453657153]}, "type": "Feature", "properties": {"collection_times": [{"days": "Mon-Sat", "time": "5:30pm"}, {"days": "Sun", "time": "Closed"}], "id": "3680100035", "name": "USPS COLLECTION BOX - PO LOBBY", "address": {"city": "OPELIKA", "state": "AL", "street": "500 S 7TH ST", "postcode": "36801"}}},
{"geometry": {"type": "Point", "coordinates": [-85.4042411509, 32.6206926773]}, "type": "Feature", "properties": {"collection_times": [{"days": "Mon-Fri", "time": "3:00pm"}, {"days": "Sat", "time": "9:00am"}, {"days": "Sun", "time": "Closed"}], "id": "3680100037", "name": "USPS COLLECTION BOX - BLUE BOX", "address": {"city": "OPELIKA", "state": "AL", "street": "2311 GATEWAY DR", "postcode": "36801"}}},
{"geometry": {"type": "Point", "coordinates": [-85.3742286486, 32.6453657153]}, "type": "Feature", "properties": {"collection_times": [{"days": "Mon-Sat", "time": "5:30pm"}, {"days": "Sun", "time": "Closed"}], "id": "3680100041", "name": "USPS COLLECTION BOX - BLUE BOX", "address": {"city": "OPELIKA", "state": "AL", "street": "500 S 7TH ST", "postcode": "36801"}}},
{"geometry": {"type": "Point", "coordinates": [-85.4001512317, 32.6910717673]}, "type": "Feature", "properties": {"collection_times": [{"days": "Mon-Fri", "time": "12:00pm"}, {"days": "Sat", "time": "9:00am"}, {"days": "Sun", "time": "Closed"}], "id": "3680100042", "name": "USPS COLLECTION BOX - BLUE BOX", "address": {"city": "OPELIKA", "state": "AL", "street": "3320 SKYWAY DR", "postcode": "36801"}}},
{"geometry": {"type": "Point", "coordinates": [-85.4817257085, 32.6074624814]}, "type": "Feature", "properties": {"collection_times": [{"days": "Mon-Fri", "time": "9:00am"}, {"days": "Sat-Sun", "time": "Closed"}], "id": "3683000001", "name": "USPS COLLECTION BOX - BLUE BOX", "address": {"city": "AUBURN", "state": "AL", "street": "305 W SAMFORD AVE", "postcode": "36830"}}},
{"geometry": {"type": "Point", "coordinates": [-85.5111201079, 32.6026760886]}, "type": "Feature", "properties": {"collection_times": [{"days": "Mon-Sat", "time": "2:00pm"}, {"days": "Sun", "time": "Closed"}], "id": "3683000006", "name": "USPS COLLECTION BOX - BLUE BOX", "address": {"city": "AUBURN", "state": "AL", "street": "1549 PUMPHREY AVE", "postcode": "36830"}}},
{"geometry": {"type": "Point", "coordinates": [-85.481698245, 32.6067609733]}, "type": "Feature", "properties": {"collection_times": [{"days": "Mon-Sat", "time": "11:00am"}, {"days": "Sun", "time": "Closed"}], "id": "3683000009", "name": "USPS COLLECTION BOX - BLUE BOX", "address": {"city": "AUBURN", "state": "AL", "street": "100 N COLLEGE ST", "postcode": "36830"}}},
{"geometry": {"type": "Point", "coordinates": [-85.477528747, 32.6124525089]}, "type": "Feature", "properties": {"collection_times": [{"days": "Mon-Fri", "time": "5:30pm"}, {"days": "Sat", "time": "3:00pm"}, {"days": "Sun", "time": "Closed"}], "id": "3683000017", "name": "USPS COLLECTION BOX - BLUE BOX", "address": {"city": "AUBURN", "state": "AL", "street": "300 OPELIKA RD", "postcode": "36830"}}},
{"geometry": {"type": "Point", "coordinates": [-85.471577679, 32.5919029687]}, "type": "Feature", "properties": {"collection_times": [{"days": "Mon-Fri", "time": "5:30pm"}, {"days": "Sat", "time": "3:00pm"}, {"days": "Sun", "time": "Closed"}], "id": "3683000018", "name": "USPS COLLECTION BOX - EXPRESS", "address": {"city": "AUBURN", "state": "AL", "street": "300 OPELIKA RD", "postcode": "36830"}}},
{"geometry": {"type": "Point", "coordinates": [-85.4458155387, 32.6251849338]}, "type": "Feature", "properties": {"collection_times": [{"days": "Mon-Sat", "time": "9:45am"}, {"days": "Sun", "time": "Closed"}], "id": "3683000028", "name": "USPS COLLECTION BOX - BLUE BOX", "address": {"city": "AUBURN", "state": "AL", "street": "1627 OPELIKA RD", "postcode": "36830"}}},
{"geometry": {"type": "Point", "coordinates": [-85.4477403982, 32.6102568963]}, "type": "Feature", "properties": {"collection_times": [{"days": "Mon-Sat", "time": "10:30am"}, {"days": "Sun", "time": "Closed"}], "id": "3683000037", "name": "USPS COLLECTION BOX - BLUE BOX", "address": {"city": "AUBURN", "state": "AL", "street": "1625 E UNIVERSITY DR", "postcode": "36830"}}},
{"geometry": {"type": "Point", "coordinates": [-85.477528747, 32.6124525089]}, "type": "Feature", "properties": {"collection_times": [{"days": "Mon-Fri", "time": "5:30pm"}, {"days": "Sat", "time": "3:00pm"}, {"days": "Sun", "time": "Closed"}], "id": "3683000046", "name": "USPS COLLECTION BOX - PO LOBBY", "address": {"city": "AUBURN", "state": "AL", "street": "300 OPELIKA RD", "postcode": "36830"}}},
{"geometry": {"type": "Point", "coordinates": [-85.4809007921, 32.6082403351]}, "type": "Feature", "properties": {"collection_times": [{"days": "Mon-Fri", "time": "12:00pm"}, {"days": "Sat-Sun", "time": "Closed"}], "id": "3683000049", "name": "USPS COLLECTION BOX - BLUE BOX", "address": {"city": "AUBURN", "state": "AL", "street": "144 TICHENOR AVE", "postcode": "36830"}}},
{"geometry": {"type": "Point", "coordinates": [-85.4268258109, 32.6118773017]}, "type": "Feature", "properties": {"collection_times": [{"days": "Mon-Sat", "time": "12:30pm"}, {"days": "Sun", "time": "Closed"}], "id": "3683000053", "name": "USPS COLLECTION BOX - BLUE BOX", "address": {"city": "AUBURN", "state": "AL", "street": "2515 E GLENN AVE", "postcode": "36830"}}},
{"geometry": {"type": "Point", "coordinates": [-85.4987659257, 32.5749817481]}, "type": "Feature", "properties": {"collection_times": [{"days": "Mon-Sat", "time": "10:00am"}, {"days": "Sun", "time": "Closed"}], "id": "3683000055", "name": "USPS COLLECTION BOX - BLUE BOX", "address": {"city": "AUBURN", "state": "AL", "street": "1717 S COLLEGE ST", "postcode": "36830"}}},
{"geometry": {"type": "Point", "coordinates": [-85.4389496637, 32.5845101463]}, "type": "Feature", "properties": {"collection_times": [{"days": "Mon-Sat", "time": "12:30pm"}, {"days": "Sun", "time": "Closed"}], "id": "3683000056", "name": "USPS COLLECTION BOX - BLUE BOX", "address": {"city": "AUBURN", "state": "AL", "street": "1899 OGLETREE RD", "postcode": "36830"}}},
{"geometry": {"type": "Point", "coordinates": [-85.477528747, 32.6124525089]}, "type": "Feature", "properties": {"collection_times": [{"days": "Mon-Fri", "time": "5:30pm"}, {"days": "Sat", "time": "3:00pm"}, {"days": "Sun", "time": "Closed"}], "id": "3683000058", "name": "USPS COLLECTION BOX - APC", "address": {"city": "AUBURN", "state": "AL", "street": "300 OPELIKA RD", "postcode": "36830"}}},
{"geometry": {"type": "Point", "coordinates": [-85.6533220747, 32.7982732878]}, "type": "Feature", "properties": {"collection_times": [{"days": "Mon-Fri", "time": "3:00pm"}, {"days": "Sat", "time": "10:30am"}, {"days": "Sun", "time": "Closed"}], "id": "3685000000", "name": "USPS COLLECTION BOX - BLUE BOX", "address": {"city": "CAMP HILL", "state": "AL", "street": "328 S MAIN ST", "postcode": "36850"}}},
{"geometry": {"type": "Point", "coordinates": [-85.6533220747, 32.7982732878]}, "type": "Feature", "properties": {"collection_times": [{"days": "Mon-Fri", "time": "3:00pm"}, {"days": "Sat", "time": "10:30am"}, {"days": "Sun", "time": "Closed"}], "id": "3685000001", "name": "USPS COLLECTION BOX - PO LOBBY", "address": {"city": "CAMP HILL", "state": "AL", "street": "328 S MAIN ST", "postcode": "36850"}}},
{"geometry": {"type": "Point", "coordinates": [-85.063536005, 32.145103869]}, "type": "Feature", "properties": {"collection_times": [{"days": "Mon-Fri", "time": "11:50am"}, {"days": "Sat", "time": "10:45am"}, {"days": "Sun", "time": "Closed"}], "id": "3685100000", "name": "USPS COLLECTION BOX - BLUE BOX", "address": {"city": "COTTONTON", "state": "AL", "street": "1 COTTONTON RD", "postcode": "36851"}}},
{"geometry": {"type": "Point", "coordinates": [-85.063536005, 32.145103869]}, "type": "Feature", "properties": {"collection_times": [{"days": "Mon-Fri", "time": "11:50am"}, {"days": "Sat", "time": "10:45am"}, {"days": "Sun", "time": "Closed"}], "id": "3685100001", "name": "USPS COLLECTION BOX - PO LOBBY", "address": {"city": "COTTONTON", "state": "AL", "street": "1 COTTONTON RD", "postcode": "36851"}}},
{"geometry": {"type": "Point", "coordinates": [-85.3056792385, 32.7846942217]}, "type": "Feature", "properties": {"collection_times": [{"days": "Mon-Fri", "time": "12:00pm"}, {"days": "Sat", "time": "9:10am"}, {"days": "Sun", "time": "Closed"}], "id": "3685200001", "name": "USPS COLLECTION BOX - BLUE BOX", "address": {"city": "CUSSETA", "state": "AL", "street": "3200 COUNTY ROAD 83", "postcode": "36852"}}},
{"geometry": {"type": "Point", "coordinates": [-85.3056792385, 32.7846942217]}, "type": "Feature", "properties": {"collection_times": [{"days": "Mon-Fri", "time": "11:50am"}, {"days": "Sat", "time": "9:10am"}, {"days": "Sun", "time": "Closed"}], "id": "3685200002", "name": "USPS COLLECTION BOX - PO LOBBY", "address": {"city": "CUSSETA", "state": "AL", "street": "3200 COUNTY ROAD 83", "postcode": "36852"}}},
{"geometry": {"type": "Point", "coordinates": [-85.2607493216, 32.7282319075]}, "type": "Feature", "properties": {"collection_times": [{"days": "Mon-Sat", "time": "10:00am"}, {"days": "Sun", "time": "Closed"}], "id": "3685200004", "name": "USPS COLLECTION BOX - BLUE BOX", "address": {"city": "CUSSETA", "state": "AL", "street": "8582 US HIGHWAY 29 N", "postcode": "36852"}}},
{"geometry": {"type": "Point", "coordinates": [-85.761321643, 32.8319257059]}, "type": "Feature", "properties": {"collection_times": [{"days": "Mon-Fri", "time": "4:00pm"}, {"days": "Sat", "time": "12:00pm"}, {"days": "Sun", "time": "Closed"}], "id": "3685300001", "name": "USPS COLLECTION BOX - BLUE BOX", "address": {"city": "DADEVILLE", "state": "AL", "street": "140 S SPRING ST", "postcode": "36853"}}},
{"geometry": {"type": "Point", "coordinates": [-85.761321643, 32.8319257059]}, "type": "Feature", "properties": {"collection_times": [{"days": "Mon-Fri", "time": "4:00pm"}, {"days": "Sat", "time": "11:30am"}, {"days": "Sun", "time": "Closed"}], "id": "3685300005", "name": "USPS COLLECTION BOX - PO LOBBY", "address": {"city": "DADEVILLE", "state": "AL", "street": "140 S SPRING ST", "postcode": "36853"}}},
{"geometry": {"type": "Point", "coordinates": [-85.1727490327, 32.8171012956]}, "type": "Feature", "properties": {"collection_times": [{"days": "Mon-Fri", "time": "4:30pm"}, {"days": "Sat", "time": "1:00pm"}, {"days": "Sun", "time": "Closed"}], "id": "3685400017", "name": "USPS COLLECTION BOX - BLUE BOX", "address": {"city": "VALLEY", "state": "AL", "street": "30 FOB JAMES DR", "postcode": "36854"}}},
{"geometry": {"type": "Point", "coordinates": [-85.1727490327, 32.8171012956]}, "type": "Feature", "properties": {"collection_times": [{"days": "Mon-Fri", "time": "4:30pm"}, {"days": "Sat", "time": "1:00pm"}, {"days": "Sun", "time": "Closed"}], "id": "3685400018", "name": "USPS COLLECTION BOX - BLUE BOX", "address": {"city": "VALLEY", "state": "AL", "street": "30 FOB JAMES DR", "postcode": "36854"}}},
{"geometry": {"type": "Point", "coordinates": [-85.1727490327, 32.8171012956]}, "type": "Feature", "properties": {"collection_times": [{"days": "Mon-Fri", "time": "4:30pm"}, {"days": "Sat", "time": "1:00pm"}, {"days": "Sun", "time": "Closed"}], "id": "3685400019", "name": "USPS COLLECTION BOX - PO LOBBY", "address": {"city": "VALLEY", "state": "AL", "street": "30 FOB JAMES DR", "postcode": "36854"}}},
{"geometry": {"type": "Point", "coordinates": [-85.3509811767, 33.0184532562]}, "type": "Feature", "properties": {"collection_times": [{"days": "Mon-Fri", "time": "3:30pm"}, {"days": "Sat", "time": "8:30am"}, {"days": "Sun", "time": "Closed"}], "id": "3685500000", "name": "USPS COLLECTION BOX - BLUE BOX", "address": {"city": "FIVE POINTS", "state": "AL", "street": "27038 US HIGHWAY 431", "postcode": "36855"}}},
{"geometry": {"type": "Point", "coordinates": [-85.3509811767, 33.0184532562]}, "type": "Feature", "properties": {"collection_times": [{"days": "Mon-Fri", "time": "11:50am"}, {"days": "Sat", "time": "8:30am"}, {"days": "Sun", "time": "Closed"}], "id": "3685500002", "name": "USPS COLLECTION BOX - PO LOBBY", "address": {"city": "FIVE POINTS", "state": "AL", "street": "27038 US HIGHWAY 431", "postcode": "36855"}}},
{"geometry": {"type": "Point", "coordinates": [-85.0127834063, 32.3116547232]}, "type": "Feature", "properties": {"collection_times": [{"days": "Mon-Fri", "time": "4:45pm"}, {"days": "Sat", "time": "11:00am"}, {"days": "Sun", "time": "Closed"}], "id": "3685600000", "name": "USPS COLLECTION BOX - BLUE BOX", "address": {"city": "FORT MITCHELL", "state": "AL", "street": "802 HIGHWAY 165", "postcode": "36856"}}},
{"geometry": {"type": "Point", "coordinates": [-85.0127834063, 32.3116547232]}, "type": "Feature", "properties": {"collection_times": [{"days": "Mon-Fri", "time": "4:45pm"}, {"days": "Sat", "time": "11:00am"}, {"days": "Sun", "time": "Closed"}], "id": "3685600001", "name": "USPS COLLECTION BOX - PO LOBBY", "address": {"city": "FORT MITCHELL", "state": "AL", "street": "802 HIGHWAY 165", "postcode": "36856"}}},
{"geometry": {"type": "Point", "coordinates": [-85.2786687993, 32.2768111536]}, "type": "Feature", "properties": {"collection_times": [{"days": "Mon-Fri", "time": "10:50am"}, {"days": "Sat", "time": "10:00am"}, {"days": "Sun", "time": "Closed"}], "id": "3685800000", "name": "USPS COLLECTION BOX - BLUE BOX", "address": {"city": "HATCHECHUBBEE", "state": "AL", "street": "601 UCHEE RD", "postcode": "36858"}}},
{"geometry": {"type": "Point", "coordinates": [-85.2786687993, 32.2768111536]}, "type": "Feature", "properties": {"collection_times": [{"days": "Mon-Fri", "time": "10:50am"}, {"days": "Sat", "time": "10:00am"}, {"days": "Sun", "time": "Closed"}], "id": "3685800001", "name": "USPS COLLECTION BOX - PO LOBBY", "address": {"city": "HATCHECHUBBEE", "state": "AL", "street": "601 UCHEE RD", "postcode": "36858"}}},
{"geometry": {"type": "Point", "coordinates": [-85.4167105782, 32.247036258]}, "type": "Feature", "properties": {"collection_times": [{"days": "Mon-Fri", "time": "2:20pm"}, {"days": "Sat", "time": "9:00am"}, {"days": "Sun", "time": "Closed"}], "id": "3686000000", "name": "USPS COLLECTION BOX - BLUE BOX", "address": {"city": "HURTSBORO", "state": "AL", "street": "311 MAIN ST", "postcode": "36860"}}},
{"geometry": {"type": "Point", "coordinates": [-85.4167105782, 32.247036258]}, "type": "Feature", "properties": {"collection_times": [{"days": "Mon-Fri", "time": "2:20pm"}, {"days": "Sat", "time": "9:00am"}, {"days": "Sun", "time": "Closed"}], "id": "3686000001", "name": "USPS COLLECTION BOX - PO LOBBY", "address": {"city": "HURTSBORO", "state": "AL", "street": "311 MAIN ST", "postcode": "36860"}}},
{"geometry": {"type": "Point", "coordinates": [-85.8144352159, 32.8870921709]}, "type": "Feature", "properties": {"collection_times": [{"days": "Mon-Fri", "time": "3:00pm"}, {"days": "Sat", "time": "10:00am"}, {"days": "Sun", "time": "Closed"}], "id": "3686100000", "name": "USPS COLLECTION BOX - PO LOBBY", "address": {"city": "JACKSONS GAP", "state": "AL", "street": "1564 MAIN ST", "postcode": "36861"}}},
{"geometry": {"type": "Point", "coordinates": [-85.8144352159, 32.8870921709]}, "type": "Feature", "properties": {"collection_times": [{"days": "Mon-Fri", "time": "3:00pm"}, {"days": "Sat", "time": "10:00am"}, {"days": "Sun", "time": "Closed"}], "id": "3686100001", "name": "USPS COLLECTION BOX - BLUE BOX", "address": {"city": "JACKSONS GAP", "state": "AL", "street": "1564 MAIN ST", "postcode": "36861"}}},
{"geometry": {"type": "Point", "coordinates": [-85.4386990224, 32.9174438158]}, "type": "Feature", "properties": {"collection_times": [{"days": "Mon-Sat", "time": "12:00pm"}, {"days": "Sun", "time": "Closed"}], "id": "3686200000", "name": "USPS COLLECTION BOX - EXPRESS", "address": {"city": "LAFAYETTE", "state": "AL", "street": "18 ALABAMA AVE W", "postcode": "36862"}}},
{"geometry": {"type": "Point", "coordinates": [-85.4015070126, 32.8998892058]}, "type": "Feature", "properties": {"collection_times": [{"days": "Mon-Sat", "time": "12:00pm"}, {"days": "Sun", "time": "Closed"}], "id": "3686200001", "name": "USPS COLLECTION BOX - BLUE BOX", "address": {"city": "LAFAYETTE", "state": "AL", "street": "18 ALABAMA AVE W", "postcode": "36862"}}},
{"geometry": {"type": "Point", "coordinates": [-85.4015070126, 32.8998892058]}, "type": "Feature", "properties": {"collection_times": [{"days": "Mon-Sat", "time": "12:00pm"}, {"days": "Sun", "time": "Closed"}], "id": "3686200003", "name": "USPS COLLECTION BOX - PO LOBBY", "address": {"city": "LAFAYETTE", "state": "AL", "street": "18 ALABAMA AVE W", "postcode": "36862"}}},
{"geometry": {"type": "Point", "coordinates": [-85.4078780502, 32.8839590182]}, "type": "Feature", "properties": {"collection_times": [{"days": "Mon-Sat", "time": "8:30am"}, {"days": "Sun", "time": "Closed"}], "id": "3686200006", "name": "USPS COLLECTION BOX - BLUE BOX", "address": {"city": "LAFAYETTE", "state": "AL", "street": "720 B ST", "postcode": "36862"}}},
{"geometry": {"type": "Point", "coordinates": [-85.187502863, 32.8679565729]}, "type": "Feature", "properties": {"collection_times": [{"days": "Mon-Fri", "time": "4:45pm"}, {"days": "Sat", "time": "11:00am"}, {"days": "Sun", "time": "Closed"}], "id": "3686300000", "name": "USPS COLLECTION BOX - BLUE BOX", "address": {"city": "LANETT", "state": "AL", "street": "1 1ST ST", "postcode": "36863"}}},
{"geometry": {"type": "Point", "coordinates": [-85.187502863, 32.8679565729]}, "type": "Feature", "properties": {"collection_times": [{"days": "Mon-Fri", "time": "4:45pm"}, {"days": "Sat", "time": "11:00am"}, {"days": "Sun", "time": "Closed"}], "id": "3686300001", "name": "USPS COLLECTION BOX - BLUE BOX", "address": {"city": "LANETT", "state": "AL", "street": "1 1ST ST", "postcode": "36863"}}},
{"geometry": {"type": "Point", "coordinates": [-85.187502863, 32.8679565729]}, "type": "Feature", "properties": {"collection_times": [{"days": "Mon-Fri", "time": "4:45pm"}, {"days": "Sat", "time": "11:00am"}, {"days": "Sun", "time": "Closed"}], "id": "3686300009", "name": "USPS COLLECTION BOX - PO LOBBY", "address": {"city": "LANETT", "state": "AL", "street": "1 1ST ST", "postcode": "36863"}}},
{"geometry": {"type": "Point", "coordinates": [-85.2184984886, 32.8639437631]}, "type": "Feature", "properties": {"collection_times": [{"days": "Mon-Fri", "time": "4:45pm"}, {"days": "Sat", "time": "11:00am"}, {"days": "Sun", "time": "Closed"}], "id": "3686300010", "name": "USPS COLLECTION BOX - EXPRESS", "address": {"city": "LANETT", "state": "AL", "street": "1 1ST ST", "postcode": "36863"}}},
{"geometry": {"type": "Point", "coordinates": [-85.6004171384, 32.6044065891]}, "type": "Feature", "properties": {"collection_times": [{"days": "Mon-Fri", "time": "1:00pm"}, {"days": "Sat", "time": "9:45am"}, {"days": "Sun", "time": "Closed"}], "id": "3686500000", "name": "USPS COLLECTION BOX - BLUE BOX", "address": {"city": "LOACHAPOKA", "state": "AL", "street": "6520 STAGE RD", "postcode": "36865"}}},
{"geometry": {"type": "Point", "coordinates": [-85.6004171384, 32.6044065891]}, "type": "Feature", "properties": {"collection_times": [{"days": "Mon-Fri", "time": "1:00pm"}, {"days": "Sat", "time": "9:45am"}, {"days": "Sun", "time": "Closed"}], "id": "3686500001", "name": "USPS COLLECTION BOX - PO LOBBY", "address": {"city": "LOACHAPOKA", "state": "AL", "street": "6520 STAGE RD", "postcode": "36865"}}},
{"geometry": {"type": "Point", "coordinates": [-85.6726830549, 32.5599725461]}, "type": "Feature", "properties": {"collection_times": [{"days": "Mon-Fri", "time": "12:00pm"}, {"days": "Sat", "time": "10:00am"}, {"days": "Sun", "time": "Closed"}], "id": "3686600000", "name": "USPS COLLECTION BOX - BLUE BOX", "address": {"city": "NOTASULGA", "state": "AL", "street": "241 LYONS ST", "postcode": "36866"}}},
{"geometry": {"type": "Point", "coordinates": [-85.6726830549, 32.5599725461]}, "type": "Feature", "properties": {"collection_times": [{"days": "Mon-Fri", "time": "12:00pm"}, {"days": "Sat", "time": "10:00am"}, {"days": "Sun", "time": "Closed"}], "id": "3686600001", "name": "USPS COLLECTION BOX - PO LOBBY", "address": {"city": "NOTASULGA", "state": "AL", "street": "241 LYONS ST", "postcode": "36866"}}},
{"geometry": {"type": "Point", "coordinates": [-85.0047212538, 32.4711827815]}, "type": "Feature", "properties": {"collection_times": [{"days": "Mon-Sat", "time": "4:45pm"}, {"days": "Sun", "time": "Closed"}], "id": "3686700000", "name": "USPS COLLECTION BOX - BLUE BOX", "address": {"city": "PHENIX CITY", "state": "AL", "street": "1310 9TH AVE", "postcode": "36867"}}},
{"geometry": {"type": "Point", "coordinates": [-85.0047212538, 32.4711827815]}, "type": "Feature", "properties": {"collection_times": [{"days": "Mon-Sat", "time": "4:45pm"}, {"days": "Sun", "time": "Closed"}], "id": "3686700001", "name": "USPS COLLECTION BOX - BLUE BOX", "address": {"city": "PHENIX CITY", "state": "AL", "street": "1310 9TH AVE", "postcode": "36867"}}},
{"geometry": {"type": "Point", "coordinates": [-85.0163862128, 32.4878705021]}, "type": "Feature", "properties": {"collection_times": [{"days": "Mon-Sat", "time": "4:45pm"}, {"days": "Sun", "time": "Closed"}], "id": "3686700002", "name": "USPS COLLECTION BOX - EXPRESS", "address": {"city": "PHENIX CITY", "state": "AL", "street": "1310 9TH AVE", "postcode": "36867"}}},
{"geometry": {"type": "Point", "coordinates": [-85.0138559228, 32.4952394236]}, "type": "Feature", "properties": {"collection_times": [{"days": "Mon-Sat", "time": "11:00am"}, {"days": "Sun", "time": "Closed"}], "id": "3686700003", "name": "USPS COLLECTION BOX - BLUE BOX", "address": {"city": "PHENIX CITY", "state": "AL", "street": "3515 SUMMERVILLE RD", "postcode": "36867"}}},
{"geometry": {"type": "Point", "coordinates": [-85.0169811727, 32.498151673]}, "type": "Feature", "properties": {"collection_times": [{"days": "Mon-Sat", "time": "11:00am"}, {"days": "Sun", "time": "Closed"}], "id": "3686700004", "name": "USPS COLLECTION BOX - BLUE BOX", "address": {"city": "PHENIX CITY", "state": "AL", "street": "1819 STADIUM DR", "postcode": "36867"}}},
{"geometry": {"type": "Point", "coordinates": [-85.0006483874, 32.4669131161]}, "type": "Feature", "properties": {"collection_times": [{"days": "Mon-Sat", "time": "10:00am"}, {"days": "Sun", "time": "Closed"}], "id": "3686700009", "name": "USPS COLLECTION BOX - BLUE BOX", "address": {"city": "PHENIX CITY", "state": "AL", "street": "1000 BROAD ST", "postcode": "36867"}}},
{"geometry": {"type": "Point", "coordinates": [-85.0171923775, 32.45990614]}, "type": "Feature", "properties": {"collection_times": [{"days": "Mon-Sat", "time": "9:45am"}, {"days": "Sun", "time": "Closed"}], "id": "3686700010", "name": "USPS COLLECTION BOX - BLUE BOX", "address": {"city": "PHENIX CITY", "state": "AL", "street": "1118 280 BYP", "postcode": "36867"}}},
{"geometry": {"type": "Point", "coordinates": [-85.0163862128, 32.4878705021]}, "type": "Feature", "properties": {"collection_times": [{"days": "Mon-Sat", "time": "10:30am"}, {"days": "Sun", "time": "Closed"}], "id": "3686700018", "name": "USPS COLLECTION BOX - BLUE BOX", "address": {"city": "PHENIX CITY", "state": "AL", "street": "3829 US HIGHWAY 80 W", "postcode": "36867"}}},
{"geometry": {"type": "Point", "coordinates": [-85.000927674, 32.4676262165]}, "type": "Feature", "properties": {"collection_times": [{"days": "Mon-Sat", "time": "10:00am"}, {"days": "Sun", "time": "Closed"}], "id": "3686700022", "name": "USPS COLLECTION BOX - BLUE BOX", "address": {"city": "PHENIX CITY", "state": "AL", "street": "1111 BROAD ST", "postcode": "36867"}}},
{"geometry": {"type": "Point", "coordinates": [-85.0047212538, 32.4711827815]}, "type": "Feature", "properties": {"collection_times": [{"days": "Mon-Sat", "time": "4:45pm"}, {"days": "Sun", "time": "Closed"}], "id": "3686700023", "name": "USPS COLLECTION BOX - PO LOBBY", "address": {"city": "PHENIX CITY", "state": "AL", "street": "1310 9TH AVE", "postcode": "36867"}}},
{"geometry": {"type": "Point", "coordinates": [-85.0304638069, 32.4766148494]}, "type": "Feature", "properties": {"collection_times": [{"days": "Mon-Sat", "time": "9:45am"}, {"days": "Sun", "time": "Closed"}], "id": "3686700026", "name": "USPS COLLECTION BOX - BLUE BOX", "address": {"city": "PHENIX CITY", "state": "AL", "street": "2023 280 BYP", "postcode": "36867"}}},
{"geometry": {"type": "Point", "coordinates": [-85.0163862128, 32.4878705021]}, "type": "Feature", "properties": {"collection_times": [{"days": "Mon-Sat", "time": "10:30am"}, {"days": "Sun", "time": "Closed"}], "id": "3686700027", "name": "USPS COLLECTION BOX - BLUE BOX", "address": {"city": "PHENIX CITY", "state": "AL", "street": "3952 US HIGHWAY 80 W", "postcode": "36867"}}},
{"geometry": {"type": "Point", "coordinates": [-85.028257476, 32.519753091]}, "type": "Feature", "properties": {"collection_times": [{"days": "Mon-Sat", "time": "10:30am"}, {"days": "Sun", "time": "Closed"}], "id": "3686700028", "name": "USPS COLLECTION BOX - BLUE BOX", "address": {"city": "PHENIX CITY", "state": "AL", "street": "5408 SUMMERVILLE RD", "postcode": "36867"}}},
{"geometry": {"type": "Point", "coordinates": [-85.0475446929, 32.5014311117]}, "type": "Feature", "properties": {"collection_times": [{"days": "Mon-Sat", "time": "9:45am"}, {"days": "Sun", "time": "Closed"}], "id": "3686700029", "name": "USPS COLLECTION BOX - BLUE BOX", "address": {"city": "PHENIX CITY", "state": "AL", "street": "3700 US HIGHWAY 431 N", "postcode": "36867"}}},
{"geometry": {"type": "Point", "coordinates": [-85.0199658874, 32.4954453817]}, "type": "Feature", "properties": {"collection_times": [{"days": "Mon-Sat", "time": "11:00am"}, {"days": "Sun", "time": "Closed"}], "id": "3686700030", "name": "USPS COLLECTION BOX - BLUE BOX", "address": {"city": "PHENIX CITY", "state": "AL", "street": "1701 37TH ST", "postcode": "36867"}}},
{"geometry": {"type": "Point", "coordinates": [-85.0138728335, 32.4520491078]}, "type": "Feature", "properties": {"collection_times": [{"days": "Mon-Sat", "time": "9:00am"}, {"days": "Sun", "time": "Closed"}], "id": "3686700031", "name": "USPS COLLECTION BOX - BLUE BOX", "address": {"city": "PHENIX CITY", "state": "AL", "street": "410 MARTIN LUTHER KING JR PKWY S", "postcode": "36867"}}},
{"geometry": {"type": "Point", "coordinates": [-85.152292725, 32.1918570286]}, "type": "Feature", "properties": {"collection_times": [{"days": "Mon-Fri", "time": "11:20am"}, {"days": "Sat", "time": "9:00am"}, {"days": "Sun", "time": "Closed"}], "id": "3687100000", "name": "USPS COLLECTION BOX - BLUE BOX", "address": {"city": "PITTSVIEW", "state": "AL", "street": "85 LECONTE ST", "postcode": "36871"}}},
{"geometry": {"type": "Point", "coordinates": [-85.152292725, 32.1918570286]}, "type": "Feature", "properties": {"collection_times": [{"days": "Mon-Fri", "time": "11:20am"}, {"days": "Sat", "time": "9:00am"}, {"days": "Sun", "time": "Closed"}], "id": "3687100001", "name": "USPS COLLECTION BOX - PO LOBBY", "address": {"city": "PITTSVIEW", "state": "AL", "street": "85 LECONTE ST", "postcode": "36871"}}},
{"geometry": {"type": "Point", "coordinates": [-85.2391779758, 32.5963397067]}, "type": "Feature", "properties": {"collection_times": [{"days": "Mon-Fri", "time": "4:15pm"}, {"days": "Sat", "time": "10:00am"}, {"days": "Sun", "time": "Closed"}], "id": "3687400000", "name": "USPS COLLECTION BOX - BLUE BOX", "address": {"city": "SALEM", "state": "AL", "street": "5153 LEE ROAD 145", "postcode": "36874"}}},
{"geometry": {"type": "Point", "coordinates": [-85.2391779758, 32.5963397067]}, "type": "Feature", "properties": {"collection_times": [{"days": "Mon-Fri", "time": "4:15pm"}, {"days": "Sat", "time": "10:00am"}, {"days": "Sun", "time": "Closed"}], "id": "3687400001", "name": "USPS COLLECTION BOX - PO LOBBY", "address": {"city": "SALEM", "state": "AL", "street": "5153 LEE ROAD 145", "postcode": "36874"}}},
{"geometry": {"type": "Point", "coordinates": [-85.1721094146, 32.2980933003]}, "type": "Feature", "properties": {"collection_times": [{"days": "Mon-Fri", "time": "4:45pm"}, {"days": "Sat", "time": "11:45am"}, {"days": "Sun", "time": "Closed"}], "id": "3687500000", "name": "USPS COLLECTION BOX - BLUE BOX", "address": {"city": "SEALE", "state": "AL", "street": "21 CUTCHIN DR", "postcode": "36875"}}},
{"geometry": {"type": "Point", "coordinates": [-85.1721094146, 32.2980933003]}, "type": "Feature", "properties": {"collection_times": [{"days": "Mon-Fri", "time": "4:45pm"}, {"days": "Sat", "time": "11:45am"}, {"days": "Sun", "time": "Closed"}], "id": "3687500001", "name": "USPS COLLECTION BOX - PO LOBBY", "address": {"city": "SEALE", "state": "AL", "street": "21 CUTCHIN DR", "postcode": "36875"}}},
{"geometry": {"type": "Point", "coordinates": [-85.1721094146, 32.2980933003]}, "type": "Feature", "properties": {"collection_times": [{"days": "Mon-Fri", "time": "4:45pm"}, {"days": "Sat", "time": "11:45am"}, {"days": "Sun", "time": "Closed"}], "id": "3687500002", "name": "USPS COLLECTION BOX - PO LOBBY", "address": {"city": "SEALE", "state": "AL", "street": "21 CUTCHIN DR", "postcode": "36875"}}},
{"geometry": {"type": "Point", "coordinates": [-85.0967444643, 32.5381829933]}, "type": "Feature", "properties": {"collection_times": [{"days": "Mon-Fri", "time": "4:30pm"}, {"days": "Sat", "time": "10:30am"}, {"days": "Sun", "time": "Closed"}], "id": "3687700000", "name": "USPS COLLECTION BOX - BLUE BOX", "address": {"city": "SMITHS", "state": "AL", "street": "2720 LEE ROAD 430", "postcode": "36877"}}},
{"geometry": {"type": "Point", "coordinates": [-85.0822695312, 32.5661110161]}, "type": "Feature", "properties": {"collection_times": [{"days": "Mon-Fri", "time": "4:30pm"}, {"days": "Sat", "time": "10:30am"}, {"days": "Sun", "time": "Closed"}], "id": "3687700001", "name": "USPS COLLECTION BOX - EXPRESS", "address": {"city": "SMITHS", "state": "AL", "street": "2720 LEE ROAD 430", "postcode": "36877"}}},
{"geometry": {"type": "Point", "coordinates": [-85.0967444643, 32.5381829933]}, "type": "Feature", "properties": {"collection_times": [{"days": "Mon-Fri", "time": "4:30pm"}, {"days": "Sat", "time": "10:30am"}, {"days": "Sun", "time": "Closed"}], "id": "3687700002", "name": "USPS COLLECTION BOX - PO LOBBY", "address": {"city": "SMITHS", "state": "AL", "street": "2720 LEE ROAD 430", "postcode": "36877"}}},
{"geometry": {"type": "Point", "coordinates": [-85.5819099092, 32.7350209181]}, "type": "Feature", "properties": {"collection_times": [{"days": "Mon-Fri", "time": "3:00pm"}, {"days": "Sat", "time": "9:45am"}, {"days": "Sun", "time": "Closed"}], "id": "3687900000", "name": "USPS COLLECTION BOX - BLUE BOX", "address": {"city": "WAVERLY", "state": "AL", "street": "1478 PATRICK ST", "postcode": "36879"}}},
{"geometry": {"type": "Point", "coordinates": [-85.5819099092, 32.7350209181]}, "type": "Feature", "properties": {"collection_times": [{"days": "Mon-Fri", "time": "3:00pm"}, {"days": "Sat", "time": "9:45am"}, {"days": "Sun", "time": "Closed"}], "id": "3687900001", "name": "USPS COLLECTION BOX - PO LOBBY", "address": {"city": "WAVERLY", "state": "AL", "street": "1478 PATRICK ST", "postcode": "36879"}}}
]}
