{"type": "FeatureCollection", "features": [
{"geometry": {"type": "Point", "coordinates": [-88.1338390373, 32.4491983709]}, "type": "Feature", "properties": {"collection_times": [{"days": "Mon-Fri", "time": "3:45pm"}, {"days": "Sat", "time": "9:45am"}, {"days": "Sun", "time": "Closed"}], "id": "3690100000", "name": "USPS COLLECTION BOX - BLUE BOX", "address": {"city": "BELLAMY", "state": "AL", "street": "591 PINE ST", "postcode": "36901"}}},
{"geometry": {"type": "Point", "coordinates": [-88.1338390373, 32.4491983709]}, "type": "Feature", "properties": {"collection_times": [{"days": "Mon-Fri", "time": "12:00pm"}, {"days": "Sat", "time": "9:45am"}, {"days": "Sun", "time": "Closed"}], "id": "3690100008", "name": "USPS COLLECTION BOX - PO LOBBY", "address": {"city": "BELLAMY", "state": "AL", "street": "591 PINE ST", "postcode": "36901"}}},
{"geometry": {"type": "Point", "coordinates": [-88.2216720008, 32.0873377382]}, "type": "Feature", "properties": {"collection_times": [{"days": "Mon-Fri", "time": "4:15pm"}, {"days": "Sat", "time": "11:00am"}, {"days": "Sun", "time": "Closed"}], "id": "3690400001", "name": "USPS COLLECTION BOX - BLUE BOX", "address": {"city": "BUTLER", "state": "AL", "street": "132 RIDERWOOD DR", "postcode": "36904"}}},
{"geometry": {"type": "Point", "coordinates": [-88.2216720008, 32.0873377382]}, "type": "Feature", "properties": {"collection_times": [{"days": "Mon-Fri", "time": "4:15pm"}, {"days": "Sat", "time": "11:00am"}, {"days": "Sun", "time": "Closed"}], "id": "3690400002", "name": "USPS COLLECTION BOX - PO LOBBY", "address": {"city": "BUTLER", "state": "AL", "street": "132 RIDERWOOD DR", "postcode": "36904"}}},
{"geometry": {"type": "Point", "coordinates": [-88.3793432241, 32.4345824959]}, "type": "Feature", "properties": {"collection_times": [{"days": "Mon-Fri", "time": "4:10pm"}, {"days": "Sat", "time": "10:10am"}, {"days": "Sun", "time": "Closed"}], "id": "3690700000", "name": "USPS COLLECTION BOX - BLUE BOX", "address": {"city": "CUBA", "state": "AL", "street": "404 THIRD ST", "postcode": "36907"}}},
{"geometry": {"type": "Point", "coordinates": [-88.3767412289, 32.4285575999]}, "type": "Feature", "properties": {"collection_times": [{"days": "Mon-Fri", "time": "2:00pm"}, {"days": "Sat", "time": "10:10am"}, {"days": "Sun", "time": "Closed"}], "id": "3690700001", "name": "USPS COLLECTION BOX - PO LOBBY", "address": {"city": "CUBA", "state": "AL", "street": "404 THIRD ST", "postcode": "36907"}}},
{"geometry": {"type": "Point", "coordinates": [-88.3161348718, 31.8589648714]}, "type": "Feature", "properties": {"collection_times": [{"days": "Mon-Fri", "time": "3:45pm"}, {"days": "Sat", "time": "10:45am"}, {"days": "Sun", "time": "Closed"}], "id": "3690800000", "name": "USPS COLLECTION BOX - BLUE BOX", "address": {"city": "GILBERTOWN", "state": "AL", "street": "100 HIGH ST", "postcode": "36908"}}},
{"geometry": {"type": "Point", "coordinates": [-88.3161348718, 31.8589648714]}, "type": "Feature", "properties": {"collection_times": [{"days": "Mon-Fri", "time": "3:45pm"}, {"days": "Sat", "time": "10:45am"}, {"days": "Sun", "time": "Closed"}], "id": "3690800001", "name": "USPS COLLECTION BOX - PO LOBBY", "address": {"city": "GILBERTOWN", "state": "AL", "street": "100 HIGH ST", "postcode": "36908"}}},
{"geometry": {"type": "Point", "coordinates": [-88.2814160393, 32.1710529759]}, "type": "Feature", "properties": {"collection_times": [{"days": "Mon-Fri", "time": "4:00pm"}, {"days": "Sat", "time": "10:15am"}, {"days": "Sun", "time": "Closed"}], "id": "3691200000", "name": "USPS COLLECTION BOX - BLUE BOX", "address": {"city": "LISMAN", "state": "AL", "street": "4845 COUNTY ROAD 9", "postcode": "36912"}}},
{"geometry": {"type": "Point", "coordinates": [-88.286419485, 32.1708510215]}, "type": "Feature", "properties": {"collection_times": [{"days": "Mon-Fri", "time": "3:00pm"}, {"days": "Sat", "time": "10:15am"}, {"days": "Sun", "time": "Closed"}], "id": "3691200001", "name": "USPS COLLECTION BOX - PO LOBBY", "address": {"city": "LISMAN", "state": "AL", "street": "4845 COUNTY ROAD 9", "postcode": "36912"}}},
{"geometry": {"type": "Point", "coordinates": [-88.4486756432, 31.9292724177]}, "type": "Feature", "properties": {"collection_times": [{"days": "Mon-Fri", "time": "11:00am"}, {"days": "Sat", "time": "9:00am"}, {"days": "Sun", "time": "Closed"}], "id": "3691300000", "name": "USPS COLLECTION BOX - BLUE BOX", "address": {"city": "MELVIN", "state": "AL", "street": "9353 MELVIN RD", "postcode": "36913"}}},
{"geometry": {"type": "Point", "coordinates": [-88.0431444456, 32.2129279808]}, "type": "Feature", "properties": {"collection_times": [{"days": "Mon-Fri", "time": "12:00pm"}, {"days": "Sat", "time": "10:15am"}, {"days": "Sun", "time": "Closed"}], "id": "3691600000", "name": "USPS COLLECTION BOX - PO LOBBY", "address": {"city": "PENNINGTON", "state": "AL", "street": "5345 MAIN ST", "postcode": "36916"}}},
{"geometry": {"type": "Point", "coordinates": [-88.0431444456, 32.2129279808]}, "type": "Feature", "properties": {"collection_times": [{"days": "Mon-Fri", "time": "3:30pm"}, {"days": "Sat", "time": "10:00am"}, {"days": "Sun", "time": "Closed"}], "id": "3691600001", "name": "USPS COLLECTION BOX - BLUE BOX", "address": {"city": "PENNINGTON", "state": "AL", "street": "5345 MAIN ST", "postcode": "36916"}}},
{"geometry": {"type": "Point", "coordinates": [-88.3296298588, 31.7655379139]}, "type": "Feature", "properties": {"collection_times": [{"days": "Mon-Fri", "time": "3:45pm"}, {"days": "Sat", "time": "11:30am"}, {"days": "Sun", "time": "Closed"}], "id": "3691900000", "name": "USPS COLLECTION BOX - BLUE BOX", "address": {"city": "SILAS", "state": "AL", "street": "15 2ND AVE", "postcode": "36919"}}},
{"geometry": {"type": "Point", "coordinates": [-88.3307522429, 31.7654594384]}, "type": "Feature", "properties": {"collection_times": [{"days": "Mon-Fri", "time": "3:00pm"}, {"days": "Sat", "time": "12:00pm"}, {"days": "Sun", "time": "Closed"}], "id": "3691900001", "name": "USPS COLLECTION BOX - PO LOBBY", "address": {"city": "SILAS", "state": "AL", "street": "15 2ND AVE", "postcode": "36919"}}},
{"geometry": {"type": "Point", "coordinates": [-88.2788250574, 31.931728955]}, "type": "Feature", "properties": {"collection_times": [{"days": "Mon-Fri", "time": "4:00pm"}, {"days": "Sat", "time": "8:30am"}, {"days": "Sun", "time": "Closed"}], "id": "3692100000", "name": "USPS COLLECTION BOX - BLUE BOX", "address": {"city": "TOXEY", "state": "AL", "street": "2616 1ST ST", "postcode": "36921"}}},
{"geometry": {"type": "Point", "coordinates": [-88.2788250574, 31.931728955]}, "type": "Feature", "properties": {"collection_times": [{"days": "Mon-Fri", "time": "11:50am"}, {"days": "Sat", "time": "8:30am"}, {"days": "Sun", "time": "Closed"}], "id": "3692100001", "name": "USPS COLLECTION BOX - PO LOBBY", "address": {"city": "TOXEY", "state": "AL", "street": "2616 1ST ST", "postcode": "36921"}}},
{"geometry": {"type": "Point", "coordinates": [-88.2782273922, 32.3621346248]}, "type": "Feature", "properties": {"collection_times": [{"days": "Mon-Fri", "time": "3:20pm"}, {"days": "Sat", "time": "8:30am"}, {"days": "Sun", "time": "Closed"}], "id": "3692200000", "name": "USPS COLLECTION BOX - BLUE BOX", "address": {"city": "WARD", "state": "AL", "street": "14659 WARD 10", "postcode": "36922"}}},
{"geometry": {"type": "Point", "coordinates": [-88.2782273922, 32.3621346248]}, "type": "Feature", "properties": {"collection_times": [{"days": "Mon-Fri", "time": "10:00am"}, {"days": "Sat", "time": "8:30am"}, {"days": "Sun", "time": "Closed"}], "id": "3692200001", "name": "USPS COLLECTION BOX - PO LOBBY", "address": {"city": "WARD", "state": "AL", "street": "14659 WARD 10", "postcode": "36922"}}},
{"geometry": {"type": "Point", "coordinates": [-88.2979913232, 32.4864282653]}, "type": "Feature", "properties": {"collection_times": [{"days": "Mon-Fri", "time": "4:15pm"}, {"days": "Sat", "time": "10:30am"}, {"days": "Sun", "time": "Closed"}], "id": "3692500000", "name": "USPS COLLECTION BOX - PO LOBBY", "address": {"city": "YORK", "state": "AL", "street": "207 MAIN ST", "postcode": "36925"}}},
{"geometry": {"type": "Point", "coordinates": [-88.2980258439, 32.4865341092]}, "type": "Feature", "properties": {"collection_times": [{"days": "Mon-Fri", "time": "4:00pm"}, {"days": "Sat", "time": "10:15am"}, {"days": "Sun", "time": "Closed"}], "id": "3692500001", "name": "USPS COLLECTION BOX - BLUE BOX", "address": {"city": "YORK", "state": "AL", "street": "207 MAIN ST", "postcode": "36925"}}}
]}
