{"type": "FeatureCollection", "features": [
{"geometry": {"type": "Point", "coordinates": [-110.4748115896, 40.3929839298]}, "type": "Feature", "properties": {"collection_times": [{"days": "Mon-Fri", "time": "3:30pm"}, {"days": "Sat", "time": "11:00am"}, {"days": "Sun", "time": "Closed"}], "id": "8400100001", "name": "USPS COLLECTION BOX - BLUE BOX", "address": {"city": "ALTAMONT", "state": "UT", "street": "15537 W 4000 N", "postcode": "84001"}}},
{"geometry": {"type": "Point", "coordinates": [-110.4748115896, 40.3929839298]}, "type": "Feature", "properties": {"collection_times": [{"days": "Mon-Fri", "time": "3:30pm"}, {"days": "Sat", "time": "11:00am"}, {"days": "Sun", "time": "Closed"}], "id": "8400100002", "name": "USPS COLLECTION BOX - PO LOBBY", "address": {"city": "ALTAMONT", "state": "UT", "street": "15537 W 4000 N", "postcode": "84001"}}},
{"geometry": {"type": "Point", "coordinates": [-111.8011565204, 40.3779659759]}, "type": "Feature", "properties": {"collection_times": [{"days": "Mon-Fri", "time": "5:00pm"}, {"days": "Sat", "time": "3:30pm"}, {"days": "Sun", "time": "Closed"}], "id": "8400300008", "name": "USPS COLLECTION BOX - BLUE BOX", "address": {"city": "AMERICAN FORK", "state": "UT", "street": "50 N 100 W", "postcode": "84003"}}},
{"geometry": {"type": "Point", "coordinates": [-111.8011565204, 40.3779659759]}, "type": "Feature", "properties": {"collection_times": [{"days": "Mon-Fri", "time": "5:00pm"}, {"days": "Sat", "time": "3:30pm"}, {"days": "Sun", "time": "Closed"}], "id": "8400300009", "name": "USPS COLLECTION BOX - BLUE BOX", "address": {"city": "AMERICAN FORK", "state": "UT", "street": "50 N 100 W", "postcode": "84003"}}},
{"geometry": {"type": "Point", "coordinates": [-111.7992542776, 40.3780827575]}, "type": "Feature", "properties": {"collection_times": [{"days": "Mon-Fri", "time": "5:30pm"}, {"days": "Sat", "time": "3:30pm"}, {"days": "Sun", "time": "Closed"}], "id": "8400300013", "name": "USPS COLLECTION BOX - PO LOBBY", "address": {"city": "AMERICAN FORK", "state": "UT", "street": "55 N MERCHANT ST", "postcode": "84003"}}},
{"geometry": {"type": "Point", "coordinates": [-111.8113572945, 40.3776325082]}, "type": "Feature", "properties": {"collection_times": [{"days": "Mon-Fri", "time": "2:30pm"}, {"days": "Sat-Sun", "time": "Closed"}], "id": "8400300017", "name": "USPS COLLECTION BOX - BLUE BOX", "address": {"city": "AMERICAN FORK", "state": "UT", "street": "470 W 30 N", "postcode": "84003"}}},
{"geometry": {"type": "Point", "coordinates": [-111.7988921774, 40.376865219]}, "type": "Feature", "properties": {"collection_times": [{"days": "Mon-Fri", "time": "4:00pm"}, {"days": "Sat-Sun", "time": "Closed"}], "id": "8400300019", "name": "USPS COLLECTION BOX - BLUE BOX", "address": {"city": "AMERICAN FORK", "state": "UT", "street": "20 W MAIN ST", "postcode": "84003"}}},
{"geometry": {"type": "Point", "coordinates": [-111.7992542776, 40.3780827575]}, "type": "Feature", "properties": {"collection_times": [{"days": "Mon-Fri", "time": "5:30pm"}, {"days": "Sat", "time": "3:30pm"}, {"days": "Sun", "time": "Closed"}], "id": "8400300020", "name": "USPS COLLECTION BOX - APC", "address": {"city": "AMERICAN FORK", "state": "UT", "street": "55 N MERCHANT ST", "postcode": "84003"}}},
{"geometry": {"type": "Point", "coordinates": [-111.7992542776, 40.3780827575]}, "type": "Feature", "properties": {"collection_times": [{"days": "Mon-Fri", "time": "5:30pm"}, {"days": "Sat", "time": "3:30pm"}, {"days": "Sun", "time": "Closed"}], "id": "8400300021", "name": "USPS COLLECTION BOX - PO LOBBY", "address": {"city": "AMERICAN FORK", "state": "UT", "street": "55 N MERCHANT ST", "postcode": "84003"}}},
{"geometry": {"type": "Point", "coordinates": [-111.7878148791, 40.4268449251]}, "type": "Feature", "properties": {"collection_times": [{"days": "Mon-Fri", "time": "4:00pm"}, {"days": "Sat-Sun", "time": "Closed"}], "id": "8400300022", "name": "USPS COLLECTION BOX - BLUE BOX", "address": {"city": "AMERICAN FORK", "state": "UT", "street": "5400 W CIVIC CENTER DR", "postcode": "84003"}}},
{"geometry": {"type": "Point", "coordinates": [-112.0958260308, 40.5661320118]}, "type": "Feature", "properties": {"collection_times": [{"days": "Mon-Fri", "time": "4:15pm"}, {"days": "Sat", "time": "11:00am"}, {"days": "Sun", "time": "Closed"}], "id": "8400600001", "name": "USPS COLLECTION BOX - BLUE BOX", "address": {"city": "BINGHAM CANYON", "state": "UT", "street": "8545 W STATE HWY", "postcode": "84006"}}},
{"geometry": {"type": "Point", "coordinates": [-112.0958260308, 40.5661320118]}, "type": "Feature", "properties": {"collection_times": [{"days": "Mon-Fri", "time": "4:30pm"}, {"days": "Sat", "time": "10:45am"}, {"days": "Sun", "time": "Closed"}], "id": "8400600005", "name": "USPS COLLECTION BOX - PO LOBBY", "address": {"city": "BINGHAM CANYON", "state": "UT", "street": "8545 W STATE HWY", "postcode": "84006"}}},
{"geometry": {"type": "Point", "coordinates": [-110.3368135829, 40.3361738411]}, "type": "Feature", "properties": {"collection_times": [{"days": "Mon-Fri", "time": "3:00pm"}, {"days": "Sat", "time": "11:00am"}, {"days": "Sun", "time": "Closed"}], "id": "8400700001", "name": "USPS COLLECTION BOX - BLUE BOX", "address": {"city": "BLUEBELL", "state": "UT", "street": "11978 W 4000 N", "postcode": "84007"}}},
{"geometry": {"type": "Point", "coordinates": [-110.3368135829, 40.3361738411]}, "type": "Feature", "properties": {"collection_times": [{"days": "Mon-Fri", "time": "11:45am"}, {"days": "Sat", "time": "11:00am"}, {"days": "Sun", "time": "Closed"}], "id": "8400700002", "name": "USPS COLLECTION BOX - PO LOBBY", "address": {"city": "BLUEBELL", "state": "UT", "street": "11978 W 4000 N", "postcode": "84007"}}},
{"geometry": {"type": "Point", "coordinates": [-111.89295374, 40.8615626441]}, "type": "Feature", "properties": {"collection_times": [{"days": "Mon-Fri", "time": "4:00pm"}, {"days": "Sat", "time": "2:00pm"}, {"days": "Sun", "time": "Closed"}], "id": "8401000004", "name": "USPS COLLECTION BOX - BLUE BOX", "address": {"city": "BOUNTIFUL", "state": "UT", "street": "525 W 2600 S", "postcode": "84010"}}},
{"geometry": {"type": "Point", "coordinates": [-111.8805703614, 40.8816043228]}, "type": "Feature", "properties": {"collection_times": [{"days": "Mon-Fri", "time": "5:00pm"}, {"days": "Sat", "time": "2:00pm"}, {"days": "Sun", "time": "Closed"}], "id": "8401000013", "name": "USPS COLLECTION BOX - BLUE BOX", "address": {"city": "BOUNTIFUL", "state": "UT", "street": "725 S MAIN ST", "postcode": "84010"}}},
{"geometry": {"type": "Point", "coordinates": [-111.890611489, 40.8747776141]}, "type": "Feature", "properties": {"collection_times": [{"days": "Mon-Fri", "time": "4:00pm"}, {"days": "Sat", "time": "2:00pm"}, {"days": "Sun", "time": "Closed"}], "id": "8401000015", "name": "USPS COLLECTION BOX - BLUE BOX", "address": {"city": "BOUNTIFUL", "state": "UT", "street": "420 W 1500 S", "postcode": "84010"}}},
{"geometry": {"type": "Point", "coordinates": [-111.868951376, 40.8622507064]}, "type": "Feature", "properties": {"collection_times": [{"days": "Mon-Fri", "time": "4:00pm"}, {"days": "Sat", "time": "2:00pm"}, {"days": "Sun", "time": "Closed"}], "id": "8401000019", "name": "USPS COLLECTION BOX - BLUE BOX", "address": {"city": "BOUNTIFUL", "state": "UT", "street": "527 S 700 W", "postcode": "84010"}}},
{"geometry": {"type": "Point", "coordinates": [-111.871303239, 40.8834345052]}, "type": "Feature", "properties": {"collection_times": [{"days": "Mon-Fri", "time": "4:15pm"}, {"days": "Sat", "time": "2:00pm"}, {"days": "Sun", "time": "Closed"}], "id": "8401000024", "name": "USPS COLLECTION BOX - BLUE BOX", "address": {"city": "BOUNTIFUL", "state": "UT", "street": "533 W 550 S", "postcode": "84010"}}},
{"geometry": {"type": "Point", "coordinates": [-111.8643021014, 40.9059888249]}, "type": "Feature", "properties": {"collection_times": [{"days": "Mon-Fri", "time": "4:00pm"}, {"days": "Sat", "time": "2:00pm"}, {"days": "Sun", "time": "Closed"}], "id": "8401000028", "name": "USPS COLLECTION BOX - BLUE BOX", "address": {"city": "BOUNTIFUL", "state": "UT", "street": "1570 S 800 W", "postcode": "84010"}}},
{"geometry": {"type": "Point", "coordinates": [-111.8923017936, 40.8928681902]}, "type": "Feature", "properties": {"collection_times": [{"days": "Mon-Fri", "time": "5:00pm"}, {"days": "Sat", "time": "2:00pm"}, {"days": "Sun", "time": "Closed"}], "id": "8401000032", "name": "USPS COLLECTION BOX - BLUE BOX", "address": {"city": "BOUNTIFUL", "state": "UT", "street": "345 N HWY 89", "postcode": "84010"}}},
{"geometry": {"type": "Point", "coordinates": [-111.8807253524, 40.8891182754]}, "type": "Feature", "properties": {"collection_times": [{"days": "Mon-Fri", "time": "5:30pm"}, {"days": "Sat", "time": "3:00pm"}, {"days": "Sun", "time": "Closed"}], "id": "8401000033", "name": "USPS COLLECTION BOX - BLUE BOX", "address": {"city": "BOUNTIFUL", "state": "UT", "street": "20 S MAIN ST", "postcode": "84010"}}},
{"geometry": {"type": "Point", "coordinates": [-111.8823434999, 40.88931059]}, "type": "Feature", "properties": {"collection_times": [{"days": "Mon-Fri", "time": "5:30pm"}, {"days": "Sat", "time": "3:00pm"}, {"days": "Sun", "time": "Closed"}], "id": "8401000034", "name": "USPS COLLECTION BOX - BLUE BOX", "address": {"city": "BOUNTIFUL", "state": "UT", "street": "20 S MAIN ST", "postcode": "84010"}}},
{"geometry": {"type": "Point", "coordinates": [-111.8807575346, 40.8891500439]}, "type": "Feature", "properties": {"collection_times": [{"days": "Mon-Fri", "time": "5:30pm"}, {"days": "Sat", "time": "3:00pm"}, {"days": "Sun", "time": "Closed"}], "id": "8401000043", "name": "USPS COLLECTION BOX - PO LOBBY", "address": {"city": "BOUNTIFUL", "state": "UT", "street": "20 S MAIN ST", "postcode": "84010"}}},
{"geometry": {"type": "Point", "coordinates": [-111.8923017936, 40.8928681902]}, "type": "Feature", "properties": {"collection_times": [{"days": "Mon-Fri", "time": "5:00pm"}, {"days": "Sat-Sun", "time": "Closed"}], "id": "8401000046", "name": "USPS COLLECTION BOX - PO LOBBY", "address": {"city": "BOUNTIFUL", "state": "UT", "street": "345 N HWY 89", "postcode": "84010"}}},
{"geometry": {"type": "Point", "coordinates": [-111.8807575346, 40.8891500439]}, "type": "Feature", "properties": {"collection_times": [{"days": "Mon-Fri", "time": "5:30pm"}, {"days": "Sat", "time": "3:00pm"}, {"days": "Sun", "time": "Closed"}], "id": "8401000047", "name": "USPS COLLECTION BOX - PO LOBBY", "address": {"city": "BOUNTIFUL", "state": "UT", "street": "20 S MAIN ST", "postcode": "84010"}}},
{"geometry": {"type": "Point", "coordinates": [-111.8923017936, 40.8928681902]}, "type": "Feature", "properties": {"collection_times": [{"days": "Mon-Fri", "time": "5:00pm"}, {"days": "Sat", "time": "2:00pm"}, {"days": "Sun", "time": "Closed"}], "id": "8401000049", "name": "USPS COLLECTION BOX - BLUE BOX", "address": {"city": "BOUNTIFUL", "state": "UT", "street": "345 N HWY 89", "postcode": "84010"}}},
{"geometry": {"type": "Point", "coordinates": [-111.8807575346, 40.8891500439]}, "type": "Feature", "properties": {"collection_times": [{"days": "Mon-Fri", "time": "5:30pm"}, {"days": "Sat", "time": "3:00pm"}, {"days": "Sun", "time": "Closed"}], "id": "8401000050", "name": "USPS COLLECTION BOX - APC", "address": {"city": "BOUNTIFUL", "state": "UT", "street": "20 S MAIN ST", "postcode": "84010"}}},
{"geometry": {"type": "Point", "coordinates": [-111.8935531013, 40.8814299955]}, "type": "Feature", "properties": {"collection_times": [{"days": "Mon-Fri", "time": "4:00pm"}, {"days": "Sat", "time": "2:00pm"}, {"days": "Sun", "time": "Closed"}], "id": "8401000051", "name": "USPS COLLECTION BOX - BLUE BOX", "address": {"city": "BOUNTIFUL", "state": "UT", "street": "550 N 800 W", "postcode": "84010"}}},
{"geometry": {"type": "Point", "coordinates": [-111.871849906, 40.887380286]}, "type": "Feature", "properties": {"collection_times": [{"days": "Mon-Fri", "time": "4:00pm"}, {"days": "Sat", "time": "2:00pm"}, {"days": "Sun", "time": "Closed"}], "id": "8401000055", "name": "USPS COLLECTION BOX - BLUE BOX", "address": {"city": "BOUNTIFUL", "state": "UT", "street": "425 MEDICAL DR", "postcode": "84010"}}},
{"geometry": {"type": "Point", "coordinates": [-111.9059811326, 39.9503964677]}, "type": "Feature", "properties": {"collection_times": [{"days": "Mon-Fri", "time": "1:00pm"}, {"days": "Sat", "time": "12:45pm"}, {"days": "Sun", "time": "Closed"}], "id": "8401300001", "name": "USPS COLLECTION BOX - PO LOBBY", "address": {"city": "CEDAR VALLEY", "state": "UT", "street": "103 S 200 E", "postcode": "84013"}}},
{"geometry": {"type": "Point", "coordinates": [-111.9059811326, 39.9503964677]}, "type": "Feature", "properties": {"collection_times": [{"days": "Mon-Fri", "time": "1:00pm"}, {"days": "Sat", "time": "12:45pm"}, {"days": "Sun", "time": "Closed"}], "id": "8401300002", "name": "USPS COLLECTION BOX - BLUE BOX", "address": {"city": "CEDAR VALLEY", "state": "UT", "street": "103 S 200 E", "postcode": "84013"}}},
{"geometry": {"type": "Point", "coordinates": [-111.8729048795, 40.9065478365]}, "type": "Feature", "properties": {"collection_times": [{"days": "Mon-Sat", "time": "9:00am"}, {"days": "Sun", "time": "Closed"}], "id": "8401400001", "name": "USPS COLLECTION BOX - BLUE BOX", "address": {"city": "CENTERVILLE", "state": "UT", "street": "350 E PAGES LN", "postcode": "84014"}}},
{"geometry": {"type": "Point", "coordinates": [-111.8802497614, 40.9215571641]}, "type": "Feature", "properties": {"collection_times": [{"days": "Mon-Sat", "time": "10:00am"}, {"days": "Sun", "time": "Closed"}], "id": "8401400003", "name": "USPS COLLECTION BOX - BLUE BOX", "address": {"city": "CENTERVILLE", "state": "UT", "street": "84 W PARRISH LN", "postcode": "84014"}}},
{"geometry": {"type": "Point", "coordinates": [-111.8790242128, 40.920136077]}, "type": "Feature", "properties": {"collection_times": [{"days": "Mon-Fri", "time": "5:00pm"}, {"days": "Sat", "time": "12:45pm"}, {"days": "Sun", "time": "Closed"}], "id": "8401400004", "name": "USPS COLLECTION BOX - BLUE BOX", "address": {"city": "CENTERVILLE", "state": "UT", "street": "275 N MAIN ST", "postcode": "84014"}}},
{"geometry": {"type": "Point", "coordinates": [-111.8790242128, 40.920136077]}, "type": "Feature", "properties": {"collection_times": [{"days": "Mon-Fri", "time": "5:00pm"}, {"days": "Sat", "time": "12:45pm"}, {"days": "Sun", "time": "Closed"}], "id": "8401400005", "name": "USPS COLLECTION BOX - BLUE BOX", "address": {"city": "CENTERVILLE", "state": "UT", "street": "275 N MAIN ST", "postcode": "84014"}}},
{"geometry": {"type": "Point", "coordinates": [-111.8790242128, 40.920136077]}, "type": "Feature", "properties": {"collection_times": [{"days": "Mon-Fri", "time": "5:00pm"}, {"days": "Sat", "time": "12:45pm"}, {"days": "Sun", "time": "Closed"}], "id": "8401400006", "name": "USPS COLLECTION BOX - PO LOBBY", "address": {"city": "CENTERVILLE", "state": "UT", "street": "275 N MAIN ST", "postcode": "84014"}}},
{"geometry": {"type": "Point", "coordinates": [-112.0423647141, 41.0904879424]}, "type": "Feature", "properties": {"collection_times": [{"days": "Mon-Sat", "time": "3:00pm"}, {"days": "Sun", "time": "Closed"}], "id": "8401500007", "name": "USPS COLLECTION BOX - BLUE BOX", "address": {"city": "CLEARFIELD", "state": "UT", "street": "800 S 1600 E", "postcode": "84015"}}},
{"geometry": {"type": "Point", "coordinates": [-112.0171835351, 41.1051945215]}, "type": "Feature", "properties": {"collection_times": [{"days": "Mon-Fri", "time": "3:00pm"}, {"days": "Sat", "time": "2:45pm"}, {"days": "Sun", "time": "Closed"}], "id": "8401500008", "name": "USPS COLLECTION BOX - BLUE BOX", "address": {"city": "CLEARFIELD", "state": "UT", "street": "580 S STATE ST", "postcode": "84015"}}},
{"geometry": {"type": "Point", "coordinates": [-112.0252624716, 41.113051925]}, "type": "Feature", "properties": {"collection_times": [{"days": "Mon-Sat", "time": "3:00pm"}, {"days": "Sun", "time": "Closed"}], "id": "8401500010", "name": "USPS COLLECTION BOX - BLUE BOX", "address": {"city": "CLEARFIELD", "state": "UT", "street": "55 S STATE ST", "postcode": "84015"}}},
{"geometry": {"type": "Point", "coordinates": [-112.0247722358, 41.1139032524]}, "type": "Feature", "properties": {"collection_times": [{"days": "Mon-Fri", "time": "5:00pm"}, {"days": "Sat", "time": "4:00pm"}, {"days": "Sun", "time": "Closed"}], "id": "8401500012", "name": "USPS COLLECTION BOX - BLUE BOX", "address": {"city": "CLEARFIELD", "state": "UT", "street": "49 CENTER ST", "postcode": "84015"}}},
{"geometry": {"type": "Point", "coordinates": [-112.029840032, 41.1326720547]}, "type": "Feature", "properties": {"collection_times": [{"days": "Mon-Fri", "time": "3:00pm"}, {"days": "Sat", "time": "2:30pm"}, {"days": "Sun", "time": "Closed"}], "id": "8401500017", "name": "USPS COLLECTION BOX - BLUE BOX", "address": {"city": "CLEARFIELD", "state": "UT", "street": "202 W 1300 N", "postcode": "84015"}}},
{"geometry": {"type": "Point", "coordinates": [-112.0247722358, 41.1139032524]}, "type": "Feature", "properties": {"collection_times": [{"days": "Mon-Fri", "time": "5:00pm"}, {"days": "Sat", "time": "4:00pm"}, {"days": "Sun", "time": "Closed"}], "id": "8401500028", "name": "USPS COLLECTION BOX - BLUE BOX", "address": {"city": "CLEARFIELD", "state": "UT", "street": "49 CENTER ST", "postcode": "84015"}}},
{"geometry": {"type": "Point", "coordinates": [-112.0247722358, 41.1139032524]}, "type": "Feature", "properties": {"collection_times": [{"days": "Mon-Fri", "time": "5:00pm"}, {"days": "Sat", "time": "4:00pm"}, {"days": "Sun", "time": "Closed"}], "id": "8401500029", "name": "USPS COLLECTION BOX - BLUE BOX", "address": {"city": "CLEARFIELD", "state": "UT", "street": "49 CENTER ST", "postcode": "84015"}}},
{"geometry": {"type": "Point", "coordinates": [-112.0247722358, 41.1139032524]}, "type": "Feature", "properties": {"collection_times": [{"days": "Mon-Fri", "time": "5:00pm"}, {"days": "Sat", "time": "4:00pm"}, {"days": "Sun", "time": "Closed"}], "id": "8401500030", "name": "USPS COLLECTION BOX - BLUE BOX", "address": {"city": "CLEARFIELD", "state": "UT", "street": "49 CENTER ST", "postcode": "84015"}}},
{"geometry": {"type": "Point", "coordinates": [-112.0259812013, 41.1154158739]}, "type": "Feature", "properties": {"collection_times": [{"days": "Mon-Fri", "time": "5:30pm"}, {"days": "Sat", "time": "4:00pm"}, {"days": "Sun", "time": "Closed"}], "id": "8401500036", "name": "USPS COLLECTION BOX - PO LOBBY", "address": {"city": "CLEARFIELD", "state": "UT", "street": "98 N MAIN ST", "postcode": "84015"}}},
{"geometry": {"type": "Point", "coordinates": [-112.0872827134, 41.1181720172]}, "type": "Feature", "properties": {"collection_times": [{"days": "Mon-Sat", "time": "10:30am"}, {"days": "Sun", "time": "Closed"}], "id": "8401500041", "name": "USPS COLLECTION BOX - BLUE BOX", "address": {"city": "CLEARFIELD", "state": "UT", "street": "3200 W 300 N", "postcode": "84015"}}},
{"geometry": {"type": "Point", "coordinates": [-112.0871624661, 41.1316713696]}, "type": "Feature", "properties": {"collection_times": [{"days": "Mon-Sat", "time": "3:00pm"}, {"days": "Sun", "time": "Closed"}], "id": "8401500045", "name": "USPS COLLECTION BOX - BLUE BOX", "address": {"city": "CLEARFIELD", "state": "UT", "street": "1412 LEGEND HILLS DR", "postcode": "84015"}}},
{"geometry": {"type": "Point", "coordinates": [-111.9933233771, 41.0930795261]}, "type": "Feature", "properties": {"collection_times": [{"days": "Mon-Sat", "time": "3:00pm"}, {"days": "Sun", "time": "Closed"}], "id": "8401500051", "name": "USPS COLLECTION BOX - BLUE BOX", "address": {"city": "CLEARFIELD", "state": "UT", "street": "1725 E 1450 S", "postcode": "84015"}}},
{"geometry": {"type": "Point", "coordinates": [-112.0259812013, 41.1154158739]}, "type": "Feature", "properties": {"collection_times": [{"days": "Mon-Fri", "time": "5:30pm"}, {"days": "Sat", "time": "4:00pm"}, {"days": "Sun", "time": "Closed"}], "id": "8401500052", "name": "USPS COLLECTION BOX - PO LOBBY", "address": {"city": "CLEARFIELD", "state": "UT", "street": "98 N MAIN ST", "postcode": "84015"}}},
{"geometry": {"type": "Point", "coordinates": [-112.0549104899, 41.1443572219]}, "type": "Feature", "properties": {"collection_times": [{"days": "Mon-Sat", "time": "9:00am"}, {"days": "Sun", "time": "Closed"}], "id": "8401500053", "name": "USPS COLLECTION BOX - BLUE BOX", "address": {"city": "CLEARFIELD", "state": "UT", "street": "2153 N 1500 W", "postcode": "84015"}}},
{"geometry": {"type": "Point", "coordinates": [-112.0257912424, 41.0983923762]}, "type": "Feature", "properties": {"collection_times": [{"days": "Mon-Sat", "time": "3:00pm"}, {"days": "Sun", "time": "Closed"}], "id": "8401600000", "name": "USPS COLLECTION BOX - BLUE BOX", "address": {"city": "CLEARFIELD", "state": "UT", "street": "Y13 13TH ST", "postcode": "84016"}}},
{"geometry": {"type": "Point", "coordinates": [-112.0182075098, 41.0891724777]}, "type": "Feature", "properties": {"collection_times": [{"days": "Mon-Fri", "time": "5:30pm"}, {"days": "Sat", "time": "1:00pm"}, {"days": "Sun", "time": "Closed"}], "id": "8401600001", "name": "USPS COLLECTION BOX - PO LOBBY", "address": {"city": "CLEARFIELD", "state": "UT", "street": "391 E 1700 S", "postcode": "84016"}}},
{"geometry": {"type": "Point", "coordinates": [-111.397757341, 40.9168738896]}, "type": "Feature", "properties": {"collection_times": [{"days": "Mon-Fri", "time": "4:00pm"}, {"days": "Sat", "time": "12:00pm"}, {"days": "Sun", "time": "Closed"}], "id": "8401700001", "name": "USPS COLLECTION BOX - BLUE BOX", "address": {"city": "COALVILLE", "state": "UT", "street": "33 E CENTER ST", "postcode": "84017"}}},
{"geometry": {"type": "Point", "coordinates": [-111.397757341, 40.9168738896]}, "type": "Feature", "properties": {"collection_times": [{"days": "Mon-Fri", "time": "4:00pm"}, {"days": "Sat", "time": "12:00pm"}, {"days": "Sun", "time": "Closed"}], "id": "8401700002", "name": "USPS COLLECTION BOX - PO LOBBY", "address": {"city": "COALVILLE", "state": "UT", "street": "33 E CENTER ST", "postcode": "84017"}}},
{"geometry": {"type": "Point", "coordinates": [-111.4467806189, 40.9786244106]}, "type": "Feature", "properties": {"collection_times": [{"days": "Mon-Sat", "time": "10:00am"}, {"days": "Sun", "time": "Closed"}], "id": "8401700004", "name": "USPS COLLECTION BOX - PO LOBBY", "address": {"city": "COALVILLE", "state": "UT", "street": "3455 ECHO RD", "postcode": "84017"}}},
{"geometry": {"type": "Point", "coordinates": [-111.8818512302, 40.5292012159]}, "type": "Feature", "properties": {"collection_times": [{"days": "Mon-Fri", "time": "5:00pm"}, {"days": "Sat", "time": "1:00pm"}, {"days": "Sun", "time": "Closed"}], "id": "8402000001", "name": "USPS COLLECTION BOX - BLUE BOX", "address": {"city": "DRAPER", "state": "UT", "street": "12180 S 300 E", "postcode": "84020"}}},
{"geometry": {"type": "Point", "coordinates": [-111.8818512302, 40.5292012159]}, "type": "Feature", "properties": {"collection_times": [{"days": "Mon-Fri", "time": "5:00pm"}, {"days": "Sat", "time": "1:00pm"}, {"days": "Sun", "time": "Closed"}], "id": "8402000002", "name": "USPS COLLECTION BOX - BLUE BOX", "address": {"city": "DRAPER", "state": "UT", "street": "12180 S 300 E", "postcode": "84020"}}},
{"geometry": {"type": "Point", "coordinates": [-111.8818512302, 40.5292012159]}, "type": "Feature", "properties": {"collection_times": [{"days": "Mon-Fri", "time": "5:00pm"}, {"days": "Sat", "time": "1:00pm"}, {"days": "Sun", "time": "Closed"}], "id": "8402000004", "name": "USPS COLLECTION BOX - PO LOBBY", "address": {"city": "DRAPER", "state": "UT", "street": "12180 S 300 E", "postcode": "84020"}}},
{"geometry": {"type": "Point", "coordinates": [-111.8935081079, 40.5295868605]}, "type": "Feature", "properties": {"collection_times": [{"days": "Mon-Fri", "time": "1:45pm"}, {"days": "Sat-Sun", "time": "Closed"}], "id": "8402000005", "name": "USPS COLLECTION BOX - BLUE BOX", "address": {"city": "DRAPER", "state": "UT", "street": "12187 S BUSINESS PARK DR", "postcode": "84020"}}},
{"geometry": {"type": "Point", "coordinates": [-111.8962005225, 40.5349988978]}, "type": "Feature", "properties": {"collection_times": [{"days": "Mon-Fri", "time": "1:45pm"}, {"days": "Sat-Sun", "time": "Closed"}], "id": "8402000007", "name": "USPS COLLECTION BOX - BLUE BOX", "address": {"city": "DRAPER", "state": "UT", "street": "180 W ELECTION RD", "postcode": "84020"}}},
{"geometry": {"type": "Point", "coordinates": [-111.8818512302, 40.5292012159]}, "type": "Feature", "properties": {"collection_times": [{"days": "Mon-Fri", "time": "5:00pm"}, {"days": "Sat", "time": "1:00pm"}, {"days": "Sun", "time": "Closed"}], "id": "8402000010", "name": "USPS COLLECTION BOX - APC", "address": {"city": "DRAPER", "state": "UT", "street": "12180 S 300 E", "postcode": "84020"}}},
{"geometry": {"type": "Point", "coordinates": [-111.8818512302, 40.5292012159]}, "type": "Feature", "properties": {"collection_times": [{"days": "Mon-Fri", "time": "5:00pm"}, {"days": "Sat", "time": "1:00pm"}, {"days": "Sun", "time": "Closed"}], "id": "8402000011", "name": "USPS COLLECTION BOX - PO LOBBY", "address": {"city": "DRAPER", "state": "UT", "street": "12180 S 300 E", "postcode": "84020"}}},
{"geometry": {"type": "Point", "coordinates": [-110.397184281, 40.1634619348]}, "type": "Feature", "properties": {"collection_times": [{"days": "Mon-Fri", "time": "4:30pm"}, {"days": "Sat", "time": "11:00am"}, {"days": "Sun", "time": "Closed"}], "id": "8402100001", "name": "USPS COLLECTION BOX - BLUE BOX", "address": {"city": "DUCHESNE", "state": "UT", "street": "243 E MAIN ST", "postcode": "84021"}}},
{"geometry": {"type": "Point", "coordinates": [-110.397184281, 40.1634619348]}, "type": "Feature", "properties": {"collection_times": [{"days": "Mon-Fri", "time": "4:30pm"}, {"days": "Sat", "time": "11:00am"}, {"days": "Sun", "time": "Closed"}], "id": "8402100002", "name": "USPS COLLECTION BOX - PO LOBBY", "address": {"city": "DUCHESNE", "state": "UT", "street": "243 E MAIN ST", "postcode": "84021"}}},
{"geometry": {"type": "Point", "coordinates": [-110.397184281, 40.1634619348]}, "type": "Feature", "properties": {"collection_times": [{"days": "Mon-Fri", "time": "4:30pm"}, {"days": "Sat", "time": "11:00am"}, {"days": "Sun", "time": "Closed"}], "id": "8402100003", "name": "USPS COLLECTION BOX - PO LOBBY", "address": {"city": "DUCHESNE", "state": "UT", "street": "243 E MAIN ST", "postcode": "84021"}}},
{"geometry": {"type": "Point", "coordinates": [-113.0796560989, 40.2492246399]}, "type": "Feature", "properties": {"collection_times": [{"days": "Mon-Fri", "time": "4:00pm"}, {"days": "Sat", "time": "11:00am"}, {"days": "Sun", "time": "Closed"}], "id": "8402200001", "name": "USPS COLLECTION BOX - BLUE BOX", "address": {"city": "DUGWAY", "state": "UT", "street": "5326 VALDEZ CIR", "postcode": "84022"}}},
{"geometry": {"type": "Point", "coordinates": [-113.0796560989, 40.2492246399]}, "type": "Feature", "properties": {"collection_times": [{"days": "Mon-Sat", "time": "11:00am"}, {"days": "Sun", "time": "Closed"}], "id": "8402200002", "name": "USPS COLLECTION BOX - BLUE BOX", "address": {"city": "DUGWAY", "state": "UT", "street": "5440 STARK RD", "postcode": "84022"}}},
{"geometry": {"type": "Point", "coordinates": [-113.0796560989, 40.2492246399]}, "type": "Feature", "properties": {"collection_times": [{"days": "Mon-Fri", "time": "4:00pm"}, {"days": "Sat", "time": "11:00am"}, {"days": "Sun", "time": "Closed"}], "id": "8402200003", "name": "USPS COLLECTION BOX - PO LOBBY", "address": {"city": "DUGWAY", "state": "UT", "street": "5326 VALDEZ CIR", "postcode": "84022"}}},
{"geometry": {"type": "Point", "coordinates": [-109.3096954193, 40.9293714748]}, "type": "Feature", "properties": {"collection_times": [{"days": "Mon-Fri", "time": "2:30pm"}, {"days": "Sat", "time": "11:30am"}, {"days": "Sun", "time": "Closed"}], "id": "8402300001", "name": "USPS COLLECTION BOX - BLUE BOX", "address": {"city": "DUTCH JOHN", "state": "UT", "street": "690 SOUTH BLVD", "postcode": "84023"}}},
{"geometry": {"type": "Point", "coordinates": [-109.3096954193, 40.9293714748]}, "type": "Feature", "properties": {"collection_times": [{"days": "Mon-Fri", "time": "2:30pm"}, {"days": "Sat", "time": "11:30am"}, {"days": "Sun", "time": "Closed"}], "id": "8402300002", "name": "USPS COLLECTION BOX - PO LOBBY", "address": {"city": "DUTCH JOHN", "state": "UT", "street": "690 SOUTH BLVD", "postcode": "84023"}}},
{"geometry": {"type": "Point", "coordinates": [-109.3096954193, 40.9293714748]}, "type": "Feature", "properties": {"collection_times": [{"days": "Mon-Fri", "time": "2:30pm"}, {"days": "Sat", "time": "11:30am"}, {"days": "Sun", "time": "Closed"}], "id": "8402300007", "name": "USPS COLLECTION BOX - PO LOBBY", "address": {"city": "DUTCH JOHN", "state": "UT", "street": "690 SOUTH BLVD", "postcode": "84023"}}},
{"geometry": {"type": "Point", "coordinates": [-111.8842837977, 40.9805659179]}, "type": "Feature", "properties": {"collection_times": [{"days": "Mon-Fri", "time": "5:00pm"}, {"days": "Sat", "time": "12:00pm"}, {"days": "Sun", "time": "Closed"}], "id": "8402500001", "name": "USPS COLLECTION BOX - BLUE BOX", "address": {"city": "FARMINGTON", "state": "UT", "street": "145 E STATE ST", "postcode": "84025"}}},
{"geometry": {"type": "Point", "coordinates": [-111.8842837977, 40.9805659179]}, "type": "Feature", "properties": {"collection_times": [{"days": "Mon-Fri", "time": "5:00pm"}, {"days": "Sat", "time": "12:00pm"}, {"days": "Sun", "time": "Closed"}], "id": "8402500002", "name": "USPS COLLECTION BOX - BLUE BOX", "address": {"city": "FARMINGTON", "state": "UT", "street": "145 E STATE ST", "postcode": "84025"}}},
{"geometry": {"type": "Point", "coordinates": [-111.8842837977, 40.9805659179]}, "type": "Feature", "properties": {"collection_times": [{"days": "Mon-Fri", "time": "5:00pm"}, {"days": "Sat", "time": "12:00pm"}, {"days": "Sun", "time": "Closed"}], "id": "8402500003", "name": "USPS COLLECTION BOX - PO LOBBY", "address": {"city": "FARMINGTON", "state": "UT", "street": "145 E STATE ST", "postcode": "84025"}}},
{"geometry": {"type": "Point", "coordinates": [-109.8629652075, 40.3019184338]}, "type": "Feature", "properties": {"collection_times": [{"days": "Mon-Fri", "time": "4:00pm"}, {"days": "Sat", "time": "11:00am"}, {"days": "Sun", "time": "Closed"}], "id": "8402600002", "name": "USPS COLLECTION BOX - PO LOBBY", "address": {"city": "FORT DUCHESNE", "state": "UT", "street": "7299 E HIGHWAY 40", "postcode": "84026"}}},
{"geometry": {"type": "Point", "coordinates": [-110.8397203291, 40.2125328669]}, "type": "Feature", "properties": {"collection_times": [{"days": "Mon-Sat", "time": "11:00am"}, {"days": "Sun", "time": "Closed"}], "id": "8402700001", "name": "USPS COLLECTION BOX - BLUE BOX", "address": {"city": "FRUITLAND", "state": "UT", "street": "6186 S 45000 W", "postcode": "84027"}}},
{"geometry": {"type": "Point", "coordinates": [-111.3957394237, 41.9459619874]}, "type": "Feature", "properties": {"collection_times": [{"days": "Mon-Fri", "time": "2:45pm"}, {"days": "Sat", "time": "12:00pm"}, {"days": "Sun", "time": "Closed"}], "id": "8402800001", "name": "USPS COLLECTION BOX - BLUE BOX", "address": {"city": "GARDEN CITY", "state": "UT", "street": "95 W LOGAN RD", "postcode": "84028"}}},
{"geometry": {"type": "Point", "coordinates": [-111.3957394237, 41.9459619874]}, "type": "Feature", "properties": {"collection_times": [{"days": "Mon-Fri", "time": "3:00pm"}, {"days": "Sat", "time": "12:00pm"}, {"days": "Sun", "time": "Closed"}], "id": "8402800002", "name": "USPS COLLECTION BOX - PO LOBBY", "address": {"city": "GARDEN CITY", "state": "UT", "street": "95 W LOGAN RD", "postcode": "84028"}}},
{"geometry": {"type": "Point", "coordinates": [-112.4649382818, 40.5999440652]}, "type": "Feature", "properties": {"collection_times": [{"days": "Mon-Fri", "time": "4:30pm"}, {"days": "Sat", "time": "11:30am"}, {"days": "Sun", "time": "Closed"}], "id": "8402900003", "name": "USPS COLLECTION BOX - PO LOBBY", "address": {"city": "GRANTSVILLE", "state": "UT", "street": "36 W MAIN ST", "postcode": "84029"}}},
{"geometry": {"type": "Point", "coordinates": [-112.4649382818, 40.5999440652]}, "type": "Feature", "properties": {"collection_times": [{"days": "Mon-Fri", "time": "4:00pm"}, {"days": "Sat", "time": "11:30am"}, {"days": "Sun", "time": "Closed"}], "id": "8402900004", "name": "USPS COLLECTION BOX - BLUE BOX", "address": {"city": "GRANTSVILLE", "state": "UT", "street": "36 W MAIN ST", "postcode": "84029"}}},
{"geometry": {"type": "Point", "coordinates": [-112.4649382818, 40.5999440652]}, "type": "Feature", "properties": {"collection_times": [{"days": "Mon-Fri", "time": "4:30pm"}, {"days": "Sat", "time": "11:30am"}, {"days": "Sun", "time": "Closed"}], "id": "8402900005", "name": "USPS COLLECTION BOX - PO LOBBY", "address": {"city": "GRANTSVILLE", "state": "UT", "street": "36 W MAIN ST", "postcode": "84029"}}},
{"geometry": {"type": "Point", "coordinates": [-111.4111211011, 40.5089217503]}, "type": "Feature", "properties": {"collection_times": [{"days": "Mon-Fri", "time": "5:00pm"}, {"days": "Sat", "time": "1:00pm"}, {"days": "Sun", "time": "Closed"}], "id": "8403200001", "name": "USPS COLLECTION BOX - BLUE BOX", "address": {"city": "HEBER CITY", "state": "UT", "street": "125 E 100 N", "postcode": "84032"}}},
{"geometry": {"type": "Point", "coordinates": [-111.4135980395, 40.5036763111]}, "type": "Feature", "properties": {"collection_times": [{"days": "Mon-Fri", "time": "5:00pm"}, {"days": "Sat", "time": "1:00pm"}, {"days": "Sun", "time": "Closed"}], "id": "8403200003", "name": "USPS COLLECTION BOX - BLUE BOX", "address": {"city": "HEBER CITY", "state": "UT", "street": "300 S MAIN ST", "postcode": "84032"}}},
{"geometry": {"type": "Point", "coordinates": [-111.4111211011, 40.5089217503]}, "type": "Feature", "properties": {"collection_times": [{"days": "Mon-Fri", "time": "5:00pm"}, {"days": "Sat", "time": "1:00pm"}, {"days": "Sun", "time": "Closed"}], "id": "8403200005", "name": "USPS COLLECTION BOX - PO LOBBY", "address": {"city": "HEBER CITY", "state": "UT", "street": "125 E 100 N", "postcode": "84032"}}},
{"geometry": {"type": "Point", "coordinates": [-111.4111211011, 40.5089217503]}, "type": "Feature", "properties": {"collection_times": [{"days": "Mon-Fri", "time": "5:00pm"}, {"days": "Sat", "time": "1:00pm"}, {"days": "Sun", "time": "Closed"}], "id": "8403200006", "name": "USPS COLLECTION BOX - BLUE BOX", "address": {"city": "HEBER CITY", "state": "UT", "street": "125 E 100 N", "postcode": "84032"}}},
{"geometry": {"type": "Point", "coordinates": [-111.4975566682, 41.0160213572]}, "type": "Feature", "properties": {"collection_times": [{"days": "Mon-Fri", "time": "3:30pm"}, {"days": "Sat", "time": "11:30am"}, {"days": "Sun", "time": "Closed"}], "id": "8403300001", "name": "USPS COLLECTION BOX - BLUE BOX", "address": {"city": "HENEFER", "state": "UT", "street": "95 S MAIN ST", "postcode": "84033"}}},
{"geometry": {"type": "Point", "coordinates": [-111.4975375359, 41.0160213618]}, "type": "Feature", "properties": {"collection_times": [{"days": "Mon-Fri", "time": "3:45pm"}, {"days": "Sat", "time": "11:45am"}, {"days": "Sun", "time": "Closed"}], "id": "8403300002", "name": "USPS COLLECTION BOX - PO LOBBY", "address": {"city": "HENEFER", "state": "UT", "street": "95 S MAIN ST", "postcode": "84033"}}},
{"geometry": {"type": "Point", "coordinates": [-109.3478698889, 40.3698853359]}, "type": "Feature", "properties": {"collection_times": [{"days": "Mon-Fri", "time": "4:00pm"}, {"days": "Sat", "time": "11:15am"}, {"days": "Sun", "time": "Closed"}], "id": "8403500001", "name": "USPS COLLECTION BOX - BLUE BOX", "address": {"city": "JENSEN", "state": "UT", "street": "9947 E 6000 S", "postcode": "84035"}}},
{"geometry": {"type": "Point", "coordinates": [-109.3478698889, 40.3698853359]}, "type": "Feature", "properties": {"collection_times": [{"days": "Mon-Fri", "time": "3:15pm"}, {"days": "Sat", "time": "11:15am"}, {"days": "Sun", "time": "Closed"}], "id": "8403500002", "name": "USPS COLLECTION BOX - PO LOBBY", "address": {"city": "JENSEN", "state": "UT", "street": "9947 E 6000 S", "postcode": "84035"}}},
{"geometry": {"type": "Point", "coordinates": [-111.2819401541, 40.6447108561]}, "type": "Feature", "properties": {"collection_times": [{"days": "Mon-Fri", "time": "4:00pm"}, {"days": "Sat", "time": "11:00am"}, {"days": "Sun", "time": "Closed"}], "id": "8403600001", "name": "USPS COLLECTION BOX - BLUE BOX", "address": {"city": "KAMAS", "state": "UT", "street": "55 W 100 N", "postcode": "84036"}}},
{"geometry": {"type": "Point", "coordinates": [-111.2819401541, 40.6447108561]}, "type": "Feature", "properties": {"collection_times": [{"days": "Mon-Fri", "time": "4:30pm"}, {"days": "Sat", "time": "11:15am"}, {"days": "Sun", "time": "Closed"}], "id": "8403600002", "name": "USPS COLLECTION BOX - PO LOBBY", "address": {"city": "KAMAS", "state": "UT", "street": "55 W 100 N", "postcode": "84036"}}},
{"geometry": {"type": "Point", "coordinates": [-111.2833874485, 40.6398854102]}, "type": "Feature", "properties": {"collection_times": [{"days": "Mon-Fri", "time": "12:00pm"}, {"days": "Sat-Sun", "time": "Closed"}], "id": "8403600003", "name": "USPS COLLECTION BOX - BLUE BOX", "address": {"city": "KAMAS", "state": "UT", "street": "145 W 200 S", "postcode": "84036"}}},
{"geometry": {"type": "Point", "coordinates": [-111.9412491739, 41.0402553011]}, "type": "Feature", "properties": {"collection_times": [{"days": "Mon-Fri", "time": "5:00pm"}, {"days": "Sat", "time": "3:00pm"}, {"days": "Sun", "time": "Closed"}], "id": "8403700004", "name": "USPS COLLECTION BOX - BLUE BOX", "address": {"city": "KAYSVILLE", "state": "UT", "street": "285 N MAIN ST", "postcode": "84037"}}},
{"geometry": {"type": "Point", "coordinates": [-111.9412491739, 41.0402553011]}, "type": "Feature", "properties": {"collection_times": [{"days": "Mon-Fri", "time": "5:00pm"}, {"days": "Sat", "time": "3:00pm"}, {"days": "Sun", "time": "Closed"}], "id": "8403700007", "name": "USPS COLLECTION BOX - PO LOBBY", "address": {"city": "KAYSVILLE", "state": "UT", "street": "285 N MAIN ST", "postcode": "84037"}}},
{"geometry": {"type": "Point", "coordinates": [-111.9412491739, 41.0402553011]}, "type": "Feature", "properties": {"collection_times": [{"days": "Mon-Fri", "time": "5:00pm"}, {"days": "Sat", "time": "3:00pm"}, {"days": "Sun", "time": "Closed"}], "id": "8403700008", "name": "USPS COLLECTION BOX - PO LOBBY", "address": {"city": "KAYSVILLE", "state": "UT", "street": "285 N MAIN ST", "postcode": "84037"}}},
{"geometry": {"type": "Point", "coordinates": [-111.907810469, 41.0194133679]}, "type": "Feature", "properties": {"collection_times": [{"days": "Mon-Sat", "time": "10:00am"}, {"days": "Sun", "time": "Closed"}], "id": "8403700009", "name": "USPS COLLECTION BOX - BLUE BOX", "address": {"city": "KAYSVILLE", "state": "UT", "street": "910 S MOUNTAIN RD", "postcode": "84037"}}},
{"geometry": {"type": "Point", "coordinates": [-111.3226789756, 41.8254567514]}, "type": "Feature", "properties": {"collection_times": [{"days": "Mon-Fri", "time": "3:00pm"}, {"days": "Sat", "time": "11:00am"}, {"days": "Sun", "time": "Closed"}], "id": "8403800001", "name": "USPS COLLECTION BOX - BLUE BOX", "address": {"city": "LAKETOWN", "state": "UT", "street": "80 W CENTER ST", "postcode": "84038"}}},
{"geometry": {"type": "Point", "coordinates": [-111.3226789756, 41.8254567514]}, "type": "Feature", "properties": {"collection_times": [{"days": "Mon-Fri", "time": "12:45pm"}, {"days": "Sat", "time": "11:00am"}, {"days": "Sun", "time": "Closed"}], "id": "8403800002", "name": "USPS COLLECTION BOX - PO LOBBY", "address": {"city": "LAKETOWN", "state": "UT", "street": "80 W CENTER ST", "postcode": "84038"}}},
{"geometry": {"type": "Point", "coordinates": [-109.7962475118, 40.4036802276]}, "type": "Feature", "properties": {"collection_times": [{"days": "Mon-Fri", "time": "2:45pm"}, {"days": "Sat", "time": "11:15am"}, {"days": "Sun", "time": "Closed"}], "id": "8403900002", "name": "USPS COLLECTION BOX - PO LOBBY", "address": {"city": "LAPOINT", "state": "UT", "street": "10815 E 7000 N", "postcode": "84039"}}},
{"geometry": {"type": "Point", "coordinates": [-109.8126156752, 40.3809492477]}, "type": "Feature", "properties": {"collection_times": [{"days": "Mon-Fri", "time": "3:45pm"}, {"days": "Sat", "time": "11:15am"}, {"days": "Sun", "time": "Closed"}], "id": "8403900003", "name": "USPS COLLECTION BOX - BLUE BOX", "address": {"city": "LAPOINT", "state": "UT", "street": "10815 E 7000 N", "postcode": "84039"}}},
{"geometry": {"type": "Point", "coordinates": [-111.959523409, 41.0662951308]}, "type": "Feature", "properties": {"collection_times": [{"days": "Mon-Fri", "time": "4:15pm"}, {"days": "Sat", "time": "12:00pm"}, {"days": "Sun", "time": "Closed"}], "id": "8404100003", "name": "USPS COLLECTION BOX - BLUE BOX", "address": {"city": "LAYTON", "state": "UT", "street": "437 WASATCH DR", "postcode": "84041"}}},
{"geometry": {"type": "Point", "coordinates": [-111.9769979692, 41.0777175156]}, "type": "Feature", "properties": {"collection_times": [{"days": "Mon-Fri", "time": "3:15pm"}, {"days": "Sat", "time": "12:00pm"}, {"days": "Sun", "time": "Closed"}], "id": "8404100006", "name": "USPS COLLECTION BOX - BLUE BOX", "address": {"city": "LAYTON", "state": "UT", "street": "1000 LAYTON HILLS MALL", "postcode": "84041"}}},
{"geometry": {"type": "Point", "coordinates": [-111.9946309782, 41.0893093694]}, "type": "Feature", "properties": {"collection_times": [{"days": "Mon-Fri", "time": "4:00pm"}, {"days": "Sat", "time": "12:00pm"}, {"days": "Sun", "time": "Closed"}], "id": "8404100007", "name": "USPS COLLECTION BOX - BLUE BOX", "address": {"city": "LAYTON", "state": "UT", "street": "1600 W ANTELOPE DR", "postcode": "84041"}}},
{"geometry": {"type": "Point", "coordinates": [-111.9733276835, 41.0832474387]}, "type": "Feature", "properties": {"collection_times": [{"days": "Mon-Fri", "time": "3:30pm"}, {"days": "Sat", "time": "12:00pm"}, {"days": "Sun", "time": "Closed"}], "id": "8404100009", "name": "USPS COLLECTION BOX - BLUE BOX", "address": {"city": "LAYTON", "state": "UT", "street": "1596 N HILL FIELD RD", "postcode": "84041"}}},
{"geometry": {"type": "Point", "coordinates": [-111.9732965652, 41.0889801698]}, "type": "Feature", "properties": {"collection_times": [{"days": "Mon-Fri", "time": "3:30pm"}, {"days": "Sat", "time": "12:00pm"}, {"days": "Sun", "time": "Closed"}], "id": "8404100011", "name": "USPS COLLECTION BOX - BLUE BOX", "address": {"city": "LAYTON", "state": "UT", "street": "1988 N HILL FIELD RD", "postcode": "84041"}}},
{"geometry": {"type": "Point", "coordinates": [-112.0027723296, 41.0909395558]}, "type": "Feature", "properties": {"collection_times": [{"days": "Mon-Fri", "time": "4:00pm"}, {"days": "Sat", "time": "12:00pm"}, {"days": "Sun", "time": "Closed"}], "id": "8404100014", "name": "USPS COLLECTION BOX - BLUE BOX", "address": {"city": "LAYTON", "state": "UT", "street": "2146 N MAIN ST", "postcode": "84041"}}},
{"geometry": {"type": "Point", "coordinates": [-111.978022704, 41.1034882136]}, "type": "Feature", "properties": {"collection_times": [{"days": "Mon-Fri", "time": "4:00pm"}, {"days": "Sat", "time": "12:00pm"}, {"days": "Sun", "time": "Closed"}], "id": "8404100015", "name": "USPS COLLECTION BOX - BLUE BOX", "address": {"city": "LAYTON", "state": "UT", "street": "849 W HILL FIELD RD", "postcode": "84041"}}},
{"geometry": {"type": "Point", "coordinates": [-111.9502580865, 41.0760954793]}, "type": "Feature", "properties": {"collection_times": [{"days": "Mon-Fri", "time": "5:30pm"}, {"days": "Sat", "time": "4:00pm"}, {"days": "Sun", "time": "Closed"}], "id": "8404100019", "name": "USPS COLLECTION BOX - BLUE BOX", "address": {"city": "LAYTON", "state": "UT", "street": "1123 N FAIRFIELD RD", "postcode": "84041"}}},
{"geometry": {"type": "Point", "coordinates": [-111.966154538, 41.0598485778]}, "type": "Feature", "properties": {"collection_times": [{"days": "Mon-Fri", "time": "4:15pm"}, {"days": "Sat", "time": "12:00pm"}, {"days": "Sun", "time": "Closed"}], "id": "8404100020", "name": "USPS COLLECTION BOX - BLUE BOX", "address": {"city": "LAYTON", "state": "UT", "street": "12 S MAIN ST", "postcode": "84041"}}},
{"geometry": {"type": "Point", "coordinates": [-111.9449077404, 41.0607140481]}, "type": "Feature", "properties": {"collection_times": [{"days": "Mon-Fri", "time": "4:15pm"}, {"days": "Sat", "time": "12:00pm"}, {"days": "Sun", "time": "Closed"}], "id": "8404100021", "name": "USPS COLLECTION BOX - BLUE BOX", "address": {"city": "LAYTON", "state": "UT", "street": "88 S FAIRFIELD RD", "postcode": "84041"}}},
{"geometry": {"type": "Point", "coordinates": [-111.9830433777, 41.1036140469]}, "type": "Feature", "properties": {"collection_times": [{"days": "Mon-Fri", "time": "3:45pm"}, {"days": "Sat", "time": "12:00pm"}, {"days": "Sun", "time": "Closed"}], "id": "8404100022", "name": "USPS COLLECTION BOX - BLUE BOX", "address": {"city": "LAYTON", "state": "UT", "street": "1356 E HIGHWAY 193", "postcode": "84041"}}},
{"geometry": {"type": "Point", "coordinates": [-111.9502580865, 41.0760954793]}, "type": "Feature", "properties": {"collection_times": [{"days": "Mon-Fri", "time": "5:30pm"}, {"days": "Sat", "time": "4:00pm"}, {"days": "Sun", "time": "Closed"}], "id": "8404100023", "name": "USPS COLLECTION BOX - PO LOBBY", "address": {"city": "LAYTON", "state": "UT", "street": "1123 N FAIRFIELD RD", "postcode": "84041"}}},
{"geometry": {"type": "Point", "coordinates": [-111.9841597612, 41.0835366919]}, "type": "Feature", "properties": {"collection_times": [{"days": "Mon-Fri", "time": "3:45pm"}, {"days": "Sat", "time": "12:00pm"}, {"days": "Sun", "time": "Closed"}], "id": "8404100024", "name": "USPS COLLECTION BOX - BLUE BOX", "address": {"city": "LAYTON", "state": "UT", "street": "1544 WOODLAND PARK DR", "postcode": "84041"}}},
{"geometry": {"type": "Point", "coordinates": [-111.9938043439, 41.0850848784]}, "type": "Feature", "properties": {"collection_times": [{"days": "Mon-Fri", "time": "4:00pm"}, {"days": "Sat", "time": "12:00pm"}, {"days": "Sun", "time": "Closed"}], "id": "8404100025", "name": "USPS COLLECTION BOX - BLUE BOX", "address": {"city": "LAYTON", "state": "UT", "street": "1600 N 1575 W", "postcode": "84041"}}},
{"geometry": {"type": "Point", "coordinates": [-111.9845126974, 41.0838231033]}, "type": "Feature", "properties": {"collection_times": [{"days": "Mon-Fri", "time": "3:45pm"}, {"days": "Sat", "time": "12:00pm"}, {"days": "Sun", "time": "Closed"}], "id": "8404100026", "name": "USPS COLLECTION BOX - BLUE BOX", "address": {"city": "LAYTON", "state": "UT", "street": "880 HERITAGE PARK BLVD", "postcode": "84041"}}},
{"geometry": {"type": "Point", "coordinates": [-111.9502580865, 41.0760954793]}, "type": "Feature", "properties": {"collection_times": [{"days": "Mon-Fri", "time": "5:30pm"}, {"days": "Sat", "time": "4:00pm"}, {"days": "Sun", "time": "Closed"}], "id": "8404100028", "name": "USPS COLLECTION BOX - APC", "address": {"city": "LAYTON", "state": "UT", "street": "1123 N FAIRFIELD RD", "postcode": "84041"}}},
{"geometry": {"type": "Point", "coordinates": [-111.9502580865, 41.0760954793]}, "type": "Feature", "properties": {"collection_times": [{"days": "Mon-Fri", "time": "5:30pm"}, {"days": "Sat", "time": "4:00pm"}, {"days": "Sun", "time": "Closed"}], "id": "8404100029", "name": "USPS COLLECTION BOX - PO LOBBY", "address": {"city": "LAYTON", "state": "UT", "street": "1123 N FAIRFIELD RD", "postcode": "84041"}}},
{"geometry": {"type": "Point", "coordinates": [-111.8542445168, 40.3877488976]}, "type": "Feature", "properties": {"collection_times": [{"days": "Mon-Fri", "time": "5:00pm"}, {"days": "Sat", "time": "2:00pm"}, {"days": "Sun", "time": "Closed"}], "id": "8404300005", "name": "USPS COLLECTION BOX - PO LOBBY", "address": {"city": "LEHI", "state": "UT", "street": "333 E MAIN ST", "postcode": "84043"}}},
{"geometry": {"type": "Point", "coordinates": [-111.8364697223, 40.3881576239]}, "type": "Feature", "properties": {"collection_times": [{"days": "Mon-Sat", "time": "10:00am"}, {"days": "Sun", "time": "Closed"}], "id": "8404300007", "name": "USPS COLLECTION BOX - BLUE BOX", "address": {"city": "LEHI", "state": "UT", "street": "760 E MAIN ST", "postcode": "84043"}}},
{"geometry": {"type": "Point", "coordinates": [-111.8765765531, 40.4099552068]}, "type": "Feature", "properties": {"collection_times": [{"days": "Mon-Sat", "time": "11:30am"}, {"days": "Sun", "time": "Closed"}], "id": "8404300008", "name": "USPS COLLECTION BOX - BLUE BOX", "address": {"city": "LEHI", "state": "UT", "street": "1531 W STATE ST", "postcode": "84043"}}},
{"geometry": {"type": "Point", "coordinates": [-111.8542445168, 40.3877488976]}, "type": "Feature", "properties": {"collection_times": [{"days": "Mon-Fri", "time": "5:00pm"}, {"days": "Sat", "time": "2:00pm"}, {"days": "Sun", "time": "Closed"}], "id": "8404300010", "name": "USPS COLLECTION BOX - BLUE BOX", "address": {"city": "LEHI", "state": "UT", "street": "333 E MAIN ST", "postcode": "84043"}}},
{"geometry": {"type": "Point", "coordinates": [-111.8542445168, 40.3877488976]}, "type": "Feature", "properties": {"collection_times": [{"days": "Mon-Fri", "time": "5:00pm"}, {"days": "Sat", "time": "2:00pm"}, {"days": "Sun", "time": "Closed"}], "id": "8404300011", "name": "USPS COLLECTION BOX - BLUE BOX", "address": {"city": "LEHI", "state": "UT", "street": "333 E MAIN ST", "postcode": "84043"}}},
{"geometry": {"type": "Point", "coordinates": [-111.8765765531, 40.4099552068]}, "type": "Feature", "properties": {"collection_times": [{"days": "Mon-Sat", "time": "10:00am"}, {"days": "Sun", "time": "Closed"}], "id": "8404300012", "name": "USPS COLLECTION BOX - BLUE BOX", "address": {"city": "LEHI", "state": "UT", "street": "1650 STAGE COACH RUN", "postcode": "84043"}}},
{"geometry": {"type": "Point", "coordinates": [-111.8542445168, 40.3877488976]}, "type": "Feature", "properties": {"collection_times": [{"days": "Mon-Fri", "time": "5:00pm"}, {"days": "Sat", "time": "2:00pm"}, {"days": "Sun", "time": "Closed"}], "id": "8404300013", "name": "USPS COLLECTION BOX - BLUE BOX", "address": {"city": "LEHI", "state": "UT", "street": "333 E MAIN ST", "postcode": "84043"}}},
{"geometry": {"type": "Point", "coordinates": [-111.8542445168, 40.3877488976]}, "type": "Feature", "properties": {"collection_times": [{"days": "Mon-Fri", "time": "5:00pm"}, {"days": "Sat", "time": "2:00pm"}, {"days": "Sun", "time": "Closed"}], "id": "8404300014", "name": "USPS COLLECTION BOX - PO LOBBY", "address": {"city": "LEHI", "state": "UT", "street": "333 E MAIN ST", "postcode": "84043"}}},
{"geometry": {"type": "Point", "coordinates": [-111.9147016179, 40.3874919173]}, "type": "Feature", "properties": {"collection_times": [{"days": "Mon-Sat", "time": "10:00am"}, {"days": "Sun", "time": "Closed"}], "id": "8404300015", "name": "USPS COLLECTION BOX - BLUE BOX", "address": {"city": "LEHI", "state": "UT", "street": "74 W HIGHWAY 73", "postcode": "84043"}}},
{"geometry": {"type": "Point", "coordinates": [-111.8542445168, 40.3877488976]}, "type": "Feature", "properties": {"collection_times": [{"days": "Mon-Fri", "time": "5:00pm"}, {"days": "Sat", "time": "2:00pm"}, {"days": "Sun", "time": "Closed"}], "id": "8404300016", "name": "USPS COLLECTION BOX - APC", "address": {"city": "LEHI", "state": "UT", "street": "333 E MAIN ST", "postcode": "84043"}}},
{"geometry": {"type": "Point", "coordinates": [-111.8618462744, 40.4048311585]}, "type": "Feature", "properties": {"collection_times": [{"days": "Mon-Fri", "time": "2:00pm"}, {"days": "Sat", "time": "12:00pm"}, {"days": "Sun", "time": "Closed"}], "id": "8404300017", "name": "USPS COLLECTION BOX - BLUE BOX", "address": {"city": "LEHI", "state": "UT", "street": "2600 EXECUTIVE PKWY", "postcode": "84043"}}},
{"geometry": {"type": "Point", "coordinates": [-112.064223282, 40.6965295785]}, "type": "Feature", "properties": {"collection_times": [{"days": "Mon-Fri", "time": "3:30pm"}, {"days": "Sat", "time": "3:00pm"}, {"days": "Sun", "time": "Closed"}], "id": "8404400001", "name": "USPS COLLECTION BOX - BLUE BOX", "address": {"city": "MAGNA", "state": "UT", "street": "7235 W 3500 S", "postcode": "84044"}}},
{"geometry": {"type": "Point", "coordinates": [-112.0934601128, 40.7111757935]}, "type": "Feature", "properties": {"collection_times": [{"days": "Mon-Fri", "time": "5:00pm"}, {"days": "Sat", "time": "3:00pm"}, {"days": "Sun", "time": "Closed"}], "id": "8404400006", "name": "USPS COLLECTION BOX - PO LOBBY", "address": {"city": "MAGNA", "state": "UT", "street": "8470 W MAGNA MAIN ST", "postcode": "84044"}}},
{"geometry": {"type": "Point", "coordinates": [-112.0934601128, 40.7111757935]}, "type": "Feature", "properties": {"collection_times": [{"days": "Mon-Fri", "time": "5:00pm"}, {"days": "Sat", "time": "3:00pm"}, {"days": "Sun", "time": "Closed"}], "id": "8404400008", "name": "USPS COLLECTION BOX - BLUE BOX", "address": {"city": "MAGNA", "state": "UT", "street": "8470 W MAGNA MAIN ST", "postcode": "84044"}}},
{"geometry": {"type": "Point", "coordinates": [-112.0833576433, 40.6964917238]}, "type": "Feature", "properties": {"collection_times": [{"days": "Mon-Fri", "time": "3:30pm"}, {"days": "Sat", "time": "3:00pm"}, {"days": "Sun", "time": "Closed"}], "id": "8404400010", "name": "USPS COLLECTION BOX - BLUE BOX", "address": {"city": "MAGNA", "state": "UT", "street": "8055 W 3500 S", "postcode": "84044"}}},
{"geometry": {"type": "Point", "coordinates": [-112.0934601128, 40.7111757935]}, "type": "Feature", "properties": {"collection_times": [{"days": "Mon-Fri", "time": "5:00pm"}, {"days": "Sat", "time": "3:00pm"}, {"days": "Sun", "time": "Closed"}], "id": "8404400011", "name": "USPS COLLECTION BOX - PO LOBBY", "address": {"city": "MAGNA", "state": "UT", "street": "8470 W MAGNA MAIN ST", "postcode": "84044"}}},
{"geometry": {"type": "Point", "coordinates": [-109.7387824386, 40.892077289]}, "type": "Feature", "properties": {"collection_times": [{"days": "Mon-Sat", "time": "1:10pm"}, {"days": "Sun", "time": "Closed"}], "id": "8404600001", "name": "USPS COLLECTION BOX - BLUE BOX", "address": {"city": "MANILA", "state": "UT", "street": "32 E 2ND N", "postcode": "84046"}}},
{"geometry": {"type": "Point", "coordinates": [-109.7387824386, 40.892077289]}, "type": "Feature", "properties": {"collection_times": [{"days": "Mon-Sat", "time": "1:10pm"}, {"days": "Sun", "time": "Closed"}], "id": "8404600003", "name": "USPS COLLECTION BOX - PO LOBBY", "address": {"city": "MANILA", "state": "UT", "street": "32 E 2ND N", "postcode": "84046"}}},
{"geometry": {"type": "Point", "coordinates": [-109.7387824386, 40.892077289]}, "type": "Feature", "properties": {"collection_times": [{"days": "Mon-Sat", "time": "1:10pm"}, {"days": "Sun", "time": "Closed"}], "id": "8404600004", "name": "USPS COLLECTION BOX - PO LOBBY", "address": {"city": "MANILA", "state": "UT", "street": "32 E 2ND N", "postcode": "84046"}}},
{"geometry": {"type": "Point", "coordinates": [-111.9102588068, 40.612280424]}, "type": "Feature", "properties": {"collection_times": [{"days": "Mon-Fri", "time": "3:00pm"}, {"days": "Sat", "time": "2:00pm"}, {"days": "Sun", "time": "Closed"}], "id": "8404700006", "name": "USPS COLLECTION BOX - BLUE BOX", "address": {"city": "MIDVALE", "state": "UT", "street": "7651 S MAIN ST", "postcode": "84047"}}},
{"geometry": {"type": "Point", "coordinates": [-111.9101306318, 40.6198645808]}, "type": "Feature", "properties": {"collection_times": [{"days": "Mon-Fri", "time": "3:00pm"}, {"days": "Sat", "time": "2:00pm"}, {"days": "Sun", "time": "Closed"}], "id": "8404700007", "name": "USPS COLLECTION BOX - BLUE BOX", "address": {"city": "MIDVALE", "state": "UT", "street": "7257 S 700 W", "postcode": "84047"}}},
{"geometry": {"type": "Point", "coordinates": [-111.8660279827, 40.6182329308]}, "type": "Feature", "properties": {"collection_times": [{"days": "Mon-Fri", "time": "4:00pm"}, {"days": "Sat", "time": "1:30pm"}, {"days": "Sun", "time": "Closed"}], "id": "8404700011", "name": "USPS COLLECTION BOX - BLUE BOX", "address": {"city": "MIDVALE", "state": "UT", "street": "7331 S 900 E", "postcode": "84047"}}},
{"geometry": {"type": "Point", "coordinates": [-111.8647468265, 40.6210899194]}, "type": "Feature", "properties": {"collection_times": [{"days": "Mon-Fri", "time": "4:00pm"}, {"days": "Sat", "time": "1:30pm"}, {"days": "Sun", "time": "Closed"}], "id": "8404700012", "name": "USPS COLLECTION BOX - BLUE BOX", "address": {"city": "MIDVALE", "state": "UT", "street": "942 E NORTH UNION AVE", "postcode": "84047"}}},
{"geometry": {"type": "Point", "coordinates": [-111.865972372, 40.6251545664]}, "type": "Feature", "properties": {"collection_times": [{"days": "Mon-Fri", "time": "4:15pm"}, {"days": "Sat", "time": "1:45pm"}, {"days": "Sun", "time": "Closed"}], "id": "8404700013", "name": "USPS COLLECTION BOX - BLUE BOX", "address": {"city": "MIDVALE", "state": "UT", "street": "7730 S UNION PARK AVE", "postcode": "84047"}}},
{"geometry": {"type": "Point", "coordinates": [-111.8637744343, 40.6225000065]}, "type": "Feature", "properties": {"collection_times": [{"days": "Mon-Fri", "time": "4:15pm"}, {"days": "Sat", "time": "1:45pm"}, {"days": "Sun", "time": "Closed"}], "id": "8404700014", "name": "USPS COLLECTION BOX - BLUE BOX", "address": {"city": "MIDVALE", "state": "UT", "street": "995 E FORT UNION BLVD", "postcode": "84047"}}},
{"geometry": {"type": "Point", "coordinates": [-111.8573178442, 40.6242981041]}, "type": "Feature", "properties": {"collection_times": [{"days": "Mon-Fri", "time": "4:45pm"}, {"days": "Sat", "time": "1:45pm"}, {"days": "Sun", "time": "Closed"}], "id": "8404700016", "name": "USPS COLLECTION BOX - BLUE BOX", "address": {"city": "MIDVALE", "state": "UT", "street": "6925 S UNION PARK CTR", "postcode": "84047"}}},
{"geometry": {"type": "Point", "coordinates": [-111.8568186356, 40.6246825658]}, "type": "Feature", "properties": {"collection_times": [{"days": "Mon-Fri", "time": "4:30pm"}, {"days": "Sat", "time": "1:45pm"}, {"days": "Sun", "time": "Closed"}], "id": "8404700018", "name": "USPS COLLECTION BOX - BLUE BOX", "address": {"city": "MIDVALE", "state": "UT", "street": "6985 S UNION PARK CTR", "postcode": "84047"}}},
{"geometry": {"type": "Point", "coordinates": [-111.8570564103, 40.6226537912]}, "type": "Feature", "properties": {"collection_times": [{"days": "Mon-Fri", "time": "5:00pm"}, {"days": "Sat", "time": "1:45pm"}, {"days": "Sun", "time": "Closed"}], "id": "8404700019", "name": "USPS COLLECTION BOX - BLUE BOX", "address": {"city": "MIDVALE", "state": "UT", "street": "7090 S UNION PARK AVE", "postcode": "84047"}}},
{"geometry": {"type": "Point", "coordinates": [-111.8921382414, 40.6109484122]}, "type": "Feature", "properties": {"collection_times": [{"days": "Mon-Fri", "time": "5:00pm"}, {"days": "Sat", "time": "2:15pm"}, {"days": "Sun", "time": "Closed"}], "id": "8404700022", "name": "USPS COLLECTION BOX - BLUE BOX", "address": {"city": "MIDVALE", "state": "UT", "street": "35 W CENTER ST", "postcode": "84047"}}},
{"geometry": {"type": "Point", "coordinates": [-111.8921382414, 40.6109484122]}, "type": "Feature", "properties": {"collection_times": [{"days": "Mon-Fri", "time": "5:00pm"}, {"days": "Sat", "time": "2:15pm"}, {"days": "Sun", "time": "Closed"}], "id": "8404700023", "name": "USPS COLLECTION BOX - BLUE BOX", "address": {"city": "MIDVALE", "state": "UT", "street": "35 W CENTER ST", "postcode": "84047"}}},
{"geometry": {"type": "Point", "coordinates": [-111.8996689581, 40.6237988954]}, "type": "Feature", "properties": {"collection_times": [{"days": "Mon-Fri", "time": "3:45pm"}, {"days": "Sat", "time": "2:00pm"}, {"days": "Sun", "time": "Closed"}], "id": "8404700029", "name": "USPS COLLECTION BOX - BLUE BOX", "address": {"city": "MIDVALE", "state": "UT", "street": "7043 S COTTONWOOD ST", "postcode": "84047"}}},
{"geometry": {"type": "Point", "coordinates": [-111.8658989225, 40.6266582452]}, "type": "Feature", "properties": {"collection_times": [{"days": "Mon-Fri", "time": "4:15pm"}, {"days": "Sat", "time": "1:45pm"}, {"days": "Sun", "time": "Closed"}], "id": "8404700034", "name": "USPS COLLECTION BOX - BLUE BOX", "address": {"city": "MIDVALE", "state": "UT", "street": "6875 S 900 E", "postcode": "84047"}}},
{"geometry": {"type": "Point", "coordinates": [-111.8921382414, 40.6109484122]}, "type": "Feature", "properties": {"collection_times": [{"days": "Mon-Fri", "time": "5:30pm"}, {"days": "Sat", "time": "2:30pm"}, {"days": "Sun", "time": "Closed"}], "id": "8404700038", "name": "USPS COLLECTION BOX - PO LOBBY", "address": {"city": "MIDVALE", "state": "UT", "street": "35 W CENTER ST", "postcode": "84047"}}},
{"geometry": {"type": "Point", "coordinates": [-111.8573509671, 40.6241656127]}, "type": "Feature", "properties": {"collection_times": [{"days": "Mon-Fri", "time": "5:00pm"}, {"days": "Sat", "time": "1:45pm"}, {"days": "Sun", "time": "Closed"}], "id": "8404700044", "name": "USPS COLLECTION BOX - BLUE BOX", "address": {"city": "MIDVALE", "state": "UT", "street": "6965 S UNION PARK CTR", "postcode": "84047"}}},
{"geometry": {"type": "Point", "coordinates": [-111.8573509671, 40.6241656127]}, "type": "Feature", "properties": {"collection_times": [{"days": "Mon-Fri", "time": "5:00pm"}, {"days": "Sat", "time": "1:45pm"}, {"days": "Sun", "time": "Closed"}], "id": "8404700045", "name": "USPS COLLECTION BOX - BLUE BOX", "address": {"city": "MIDVALE", "state": "UT", "street": "6965 S UNION PARK CTR", "postcode": "84047"}}},
{"geometry": {"type": "Point", "coordinates": [-111.8921382414, 40.6109484122]}, "type": "Feature", "properties": {"collection_times": [{"days": "Mon-Fri", "time": "5:00pm"}, {"days": "Sat", "time": "2:15pm"}, {"days": "Sun", "time": "Closed"}], "id": "8404700046", "name": "USPS COLLECTION BOX - BLUE BOX", "address": {"city": "MIDVALE", "state": "UT", "street": "35 W CENTER ST", "postcode": "84047"}}},
{"geometry": {"type": "Point", "coordinates": [-111.8566932419, 40.6247606411]}, "type": "Feature", "properties": {"collection_times": [{"days": "Mon-Fri", "time": "4:30pm"}, {"days": "Sat", "time": "1:45pm"}, {"days": "Sun", "time": "Closed"}], "id": "8404700047", "name": "USPS COLLECTION BOX - BLUE BOX", "address": {"city": "MIDVALE", "state": "UT", "street": "6975 S UNION PARK CTR", "postcode": "84047"}}},
{"geometry": {"type": "Point", "coordinates": [-111.8595867595, 40.618392773]}, "type": "Feature", "properties": {"collection_times": [{"days": "Mon-Fri", "time": "4:00pm"}, {"days": "Sat", "time": "1:30pm"}, {"days": "Sun", "time": "Closed"}], "id": "8404700048", "name": "USPS COLLECTION BOX - BLUE BOX", "address": {"city": "MIDVALE", "state": "UT", "street": "1092 E SOUTH UNION AVE", "postcode": "84047"}}},
{"geometry": {"type": "Point", "coordinates": [-111.4751996223, 40.5122446821]}, "type": "Feature", "properties": {"collection_times": [{"days": "Mon-Fri", "time": "4:30pm"}, {"days": "Sat", "time": "11:30am"}, {"days": "Sun", "time": "Closed"}], "id": "8404900001", "name": "USPS COLLECTION BOX - BLUE BOX", "address": {"city": "MIDWAY", "state": "UT", "street": "125 W MAIN ST", "postcode": "84049"}}},
{"geometry": {"type": "Point", "coordinates": [-111.4751996223, 40.5122446821]}, "type": "Feature", "properties": {"collection_times": [{"days": "Mon-Fri", "time": "4:30pm"}, {"days": "Sat", "time": "11:30am"}, {"days": "Sun", "time": "Closed"}], "id": "8404900002", "name": "USPS COLLECTION BOX - PO LOBBY", "address": {"city": "MIDWAY", "state": "UT", "street": "125 W MAIN ST", "postcode": "84049"}}},
{"geometry": {"type": "Point", "coordinates": [-111.6782460145, 39.3237236756]}, "type": "Feature", "properties": {"collection_times": [{"days": "Mon-Fri", "time": "4:15pm"}, {"days": "Sat", "time": "3:15pm"}, {"days": "Sun", "time": "Closed"}], "id": "8405000001", "name": "USPS COLLECTION BOX - BLUE BOX", "address": {"city": "MORGAN", "state": "UT", "street": "188 N STATE ST", "postcode": "84050"}}},
{"geometry": {"type": "Point", "coordinates": [-111.6790364627, 41.0393725882]}, "type": "Feature", "properties": {"collection_times": [{"days": "Mon-Fri", "time": "4:15pm"}, {"days": "Sat", "time": "3:15pm"}, {"days": "Sun", "time": "Closed"}], "id": "8405000002", "name": "USPS COLLECTION BOX - PO LOBBY", "address": {"city": "MORGAN", "state": "UT", "street": "188 N STATE ST", "postcode": "84050"}}},
{"geometry": {"type": "Point", "coordinates": [-111.8026141884, 41.1426558587]}, "type": "Feature", "properties": {"collection_times": [{"days": "Mon-Sat", "time": "9:00am"}, {"days": "Sun", "time": "Closed"}], "id": "8405000003", "name": "USPS COLLECTION BOX - BLUE BOX", "address": {"city": "MORGAN", "state": "UT", "street": "5158 W OLD HIGHWAY RD", "postcode": "84050"}}},
{"geometry": {"type": "Point", "coordinates": [-111.6790364627, 41.0393725882]}, "type": "Feature", "properties": {"collection_times": [{"days": "Mon-Fri", "time": "4:15pm"}, {"days": "Sat", "time": "3:15pm"}, {"days": "Sun", "time": "Closed"}], "id": "8405000004", "name": "USPS COLLECTION BOX - PO LOBBY", "address": {"city": "MORGAN", "state": "UT", "street": "188 N STATE ST", "postcode": "84050"}}},
{"geometry": {"type": "Point", "coordinates": [-110.0636038632, 40.194504756]}, "type": "Feature", "properties": {"collection_times": [{"days": "Mon-Fri", "time": "3:45pm"}, {"days": "Sat", "time": "12:00pm"}, {"days": "Sun", "time": "Closed"}], "id": "8405200001", "name": "USPS COLLECTION BOX - BLUE BOX", "address": {"city": "MYTON", "state": "UT", "street": "80 E MAIN ST", "postcode": "84052"}}},
{"geometry": {"type": "Point", "coordinates": [-110.0636038632, 40.194504756]}, "type": "Feature", "properties": {"collection_times": [{"days": "Mon-Fri", "time": "3:45pm"}, {"days": "Sat", "time": "12:00pm"}, {"days": "Sun", "time": "Closed"}], "id": "8405200002", "name": "USPS COLLECTION BOX - PO LOBBY", "address": {"city": "MYTON", "state": "UT", "street": "80 E MAIN ST", "postcode": "84052"}}},
{"geometry": {"type": "Point", "coordinates": [-110.0301290449, 40.4361224389]}, "type": "Feature", "properties": {"collection_times": [{"days": "Mon-Fri", "time": "12:45pm"}, {"days": "Sat", "time": "9:15am"}, {"days": "Sun", "time": "Closed"}], "id": "8405300002", "name": "USPS COLLECTION BOX - PO LOBBY", "address": {"city": "NEOLA", "state": "UT", "street": "9086 N 2000 W", "postcode": "84053"}}},
{"geometry": {"type": "Point", "coordinates": [-111.3001460872, 40.7130162225]}, "type": "Feature", "properties": {"collection_times": [{"days": "Mon-Fri", "time": "4:00pm"}, {"days": "Sat", "time": "11:00am"}, {"days": "Sun", "time": "Closed"}], "id": "8405500001", "name": "USPS COLLECTION BOX - BLUE BOX", "address": {"city": "OAKLEY", "state": "UT", "street": "4820 N STATE ROAD 32", "postcode": "84055"}}},
{"geometry": {"type": "Point", "coordinates": [-111.9807198579, 41.1099064414]}, "type": "Feature", "properties": {"collection_times": [{"days": "Mon-Sat", "time": "2:00pm"}, {"days": "Sun", "time": "Closed"}], "id": "8405600000", "name": "USPS COLLECTION BOX - BLUE BOX", "address": {"city": "CLEARFIELD", "state": "UT", "street": "7338 7TH ST", "postcode": "84056"}}},
{"geometry": {"type": "Point", "coordinates": [-111.9807198579, 41.1099064414]}, "type": "Feature", "properties": {"collection_times": [{"days": "Mon-Fri", "time": "3:45pm"}, {"days": "Sat-Sun", "time": "Closed"}], "id": "8405600001", "name": "USPS COLLECTION BOX - PO LOBBY", "address": {"city": "CLEARFIELD", "state": "UT", "street": "7338 7TH ST", "postcode": "84056"}}},
{"geometry": {"type": "Point", "coordinates": [-111.9807198579, 41.1099064414]}, "type": "Feature", "properties": {"collection_times": [{"days": "Mon-Sat", "time": "2:00pm"}, {"days": "Sun", "time": "Closed"}], "id": "8405600002", "name": "USPS COLLECTION BOX - BLUE BOX", "address": {"city": "CLEARFIELD", "state": "UT", "street": "7338 7TH ST", "postcode": "84056"}}},
{"geometry": {"type": "Point", "coordinates": [-111.9807198579, 41.1099064414]}, "type": "Feature", "properties": {"collection_times": [{"days": "Mon-Fri", "time": "3:45pm"}, {"days": "Sat-Sun", "time": "Closed"}], "id": "8405600006", "name": "USPS COLLECTION BOX - PO LOBBY", "address": {"city": "CLEARFIELD", "state": "UT", "street": "7338 7TH ST", "postcode": "84056"}}},
{"geometry": {"type": "Point", "coordinates": [-111.6946562396, 40.2970713453]}, "type": "Feature", "properties": {"collection_times": [{"days": "Mon-Fri", "time": "4:00pm"}, {"days": "Sat-Sun", "time": "Closed"}], "id": "8405700018", "name": "USPS COLLECTION BOX - BLUE BOX", "address": {"city": "OREM", "state": "UT", "street": "14 E CENTER ST", "postcode": "84057"}}},
{"geometry": {"type": "Point", "coordinates": [-111.7053799805, 40.2997468565]}, "type": "Feature", "properties": {"collection_times": [{"days": "Mon-Fri", "time": "3:30pm"}, {"days": "Sat-Sun", "time": "Closed"}], "id": "8405700021", "name": "USPS COLLECTION BOX - BLUE BOX", "address": {"city": "OREM", "state": "UT", "street": "151 N 400 W", "postcode": "84057"}}},
{"geometry": {"type": "Point", "coordinates": [-111.7016641036, 40.2971224113]}, "type": "Feature", "properties": {"collection_times": [{"days": "Mon-Fri", "time": "5:30pm"}, {"days": "Sat", "time": "4:30pm"}, {"days": "Sun", "time": "Closed"}], "id": "8405700030", "name": "USPS COLLECTION BOX - BLUE BOX", "address": {"city": "OREM", "state": "UT", "street": "222 W CENTER ST", "postcode": "84057"}}},
{"geometry": {"type": "Point", "coordinates": [-111.699404652, 40.3014674196]}, "type": "Feature", "properties": {"collection_times": [{"days": "Mon-Fri", "time": "4:00pm"}, {"days": "Sat-Sun", "time": "Closed"}], "id": "8405700044", "name": "USPS COLLECTION BOX - BLUE BOX", "address": {"city": "OREM", "state": "UT", "street": "240 N OREM BLVD", "postcode": "84057"}}},
{"geometry": {"type": "Point", "coordinates": [-111.7016641036, 40.2971224113]}, "type": "Feature", "properties": {"collection_times": [{"days": "Mon-Fri", "time": "5:45pm"}, {"days": "Sat", "time": "4:30pm"}, {"days": "Sun", "time": "Closed"}], "id": "8405700045", "name": "USPS COLLECTION BOX - APC", "address": {"city": "OREM", "state": "UT", "street": "222 W CENTER ST", "postcode": "84057"}}},
{"geometry": {"type": "Point", "coordinates": [-111.7080721923, 40.3121140503]}, "type": "Feature", "properties": {"collection_times": [{"days": "Mon-Fri", "time": "4:00pm"}, {"days": "Sat-Sun", "time": "Closed"}], "id": "8405700046", "name": "USPS COLLECTION BOX - BLUE BOX", "address": {"city": "OREM", "state": "UT", "street": "472 W 800 N", "postcode": "84057"}}},
{"geometry": {"type": "Point", "coordinates": [-111.7016641036, 40.2971224113]}, "type": "Feature", "properties": {"collection_times": [{"days": "Mon-Fri", "time": "5:45pm"}, {"days": "Sat", "time": "4:30pm"}, {"days": "Sun", "time": "Closed"}], "id": "8405700049", "name": "USPS COLLECTION BOX - PO LOBBY", "address": {"city": "OREM", "state": "UT", "street": "222 W CENTER ST", "postcode": "84057"}}},
{"geometry": {"type": "Point", "coordinates": [-111.7086418058, 40.3121657212]}, "type": "Feature", "properties": {"collection_times": [{"days": "Mon-Fri", "time": "4:00pm"}, {"days": "Sat-Sun", "time": "Closed"}], "id": "8405700052", "name": "USPS COLLECTION BOX - BLUE BOX", "address": {"city": "OREM", "state": "UT", "street": "532 E 800 N", "postcode": "84057"}}},
{"geometry": {"type": "Point", "coordinates": [-111.6788968055, 40.325549083]}, "type": "Feature", "properties": {"collection_times": [{"days": "Mon-Fri", "time": "4:00pm"}, {"days": "Sat-Sun", "time": "Closed"}], "id": "8405700053", "name": "USPS COLLECTION BOX - BLUE BOX", "address": {"city": "OREM", "state": "UT", "street": "1555 N TECHNOLOGY WAY", "postcode": "84057"}}},
{"geometry": {"type": "Point", "coordinates": [-111.727444758, 40.296790252]}, "type": "Feature", "properties": {"collection_times": [{"days": "Mon-Fri", "time": "3:30pm"}, {"days": "Sat-Sun", "time": "Closed"}], "id": "8405700054", "name": "USPS COLLECTION BOX - BLUE BOX", "address": {"city": "OREM", "state": "UT", "street": "100 MOUNTAIN WAY DR", "postcode": "84057"}}},
{"geometry": {"type": "Point", "coordinates": [-111.4960215603, 40.6440268808]}, "type": "Feature", "properties": {"collection_times": [{"days": "Mon-Fri", "time": "5:00pm"}, {"days": "Sat", "time": "1:00pm"}, {"days": "Sun", "time": "Closed"}], "id": "8406000000", "name": "USPS COLLECTION BOX - BLUE BOX", "address": {"city": "PARK CITY", "state": "UT", "street": "450 MAIN ST", "postcode": "84060"}}},
{"geometry": {"type": "Point", "coordinates": [-111.4960540059, 40.6440677143]}, "type": "Feature", "properties": {"collection_times": [{"days": "Mon-Fri", "time": "4:45pm"}, {"days": "Sat", "time": "12:45pm"}, {"days": "Sun", "time": "Closed"}], "id": "8406000001", "name": "USPS COLLECTION BOX - BLUE BOX", "address": {"city": "PARK CITY", "state": "UT", "street": "450 MAIN ST", "postcode": "84060"}}},
{"geometry": {"type": "Point", "coordinates": [-111.4960540059, 40.6440677143]}, "type": "Feature", "properties": {"collection_times": [{"days": "Mon-Fri", "time": "5:00pm"}, {"days": "Sat", "time": "1:00pm"}, {"days": "Sun", "time": "Closed"}], "id": "8406000002", "name": "USPS COLLECTION BOX - PO LOBBY", "address": {"city": "PARK CITY", "state": "UT", "street": "450 MAIN ST", "postcode": "84060"}}},
{"geometry": {"type": "Point", "coordinates": [-111.4960540059, 40.6440677143]}, "type": "Feature", "properties": {"collection_times": [{"days": "Mon-Fri", "time": "5:00pm"}, {"days": "Sat", "time": "1:00pm"}, {"days": "Sun", "time": "Closed"}], "id": "8406000003", "name": "USPS COLLECTION BOX - PO LOBBY", "address": {"city": "PARK CITY", "state": "UT", "street": "450 MAIN ST", "postcode": "84060"}}},
{"geometry": {"type": "Point", "coordinates": [-111.7344355146, 40.3578546394]}, "type": "Feature", "properties": {"collection_times": [{"days": "Mon-Fri", "time": "4:00pm"}, {"days": "Sat-Sun", "time": "Closed"}], "id": "8406200001", "name": "USPS COLLECTION BOX - BLUE BOX", "address": {"city": "PLEASANT GROVE", "state": "UT", "street": "350 S 500 W", "postcode": "84062"}}},
{"geometry": {"type": "Point", "coordinates": [-111.7244445771, 40.3877341292]}, "type": "Feature", "properties": {"collection_times": [{"days": "Mon-Sat", "time": "10:00am"}, {"days": "Sun", "time": "Closed"}], "id": "8406200002", "name": "USPS COLLECTION BOX - BLUE BOX", "address": {"city": "PLEASANT GROVE", "state": "UT", "street": "144 S STATE ST", "postcode": "84062"}}},
{"geometry": {"type": "Point", "coordinates": [-111.7388001297, 40.3627010268]}, "type": "Feature", "properties": {"collection_times": [{"days": "Mon-Fri", "time": "5:00pm"}, {"days": "Sat", "time": "3:00pm"}, {"days": "Sun", "time": "Closed"}], "id": "8406200005", "name": "USPS COLLECTION BOX - BLUE BOX", "address": {"city": "PLEASANT GROVE", "state": "UT", "street": "87 S 100 E", "postcode": "84062"}}},
{"geometry": {"type": "Point", "coordinates": [-111.7423076063, 40.3614952521]}, "type": "Feature", "properties": {"collection_times": [{"days": "Mon-Fri", "time": "5:00pm"}, {"days": "Sat", "time": "3:00pm"}, {"days": "Sun", "time": "Closed"}], "id": "8406200006", "name": "USPS COLLECTION BOX - BLUE BOX", "address": {"city": "PLEASANT GROVE", "state": "UT", "street": "180 S 100 W", "postcode": "84062"}}},
{"geometry": {"type": "Point", "coordinates": [-111.7423076063, 40.3614952521]}, "type": "Feature", "properties": {"collection_times": [{"days": "Mon-Fri", "time": "5:00pm"}, {"days": "Sat", "time": "3:00pm"}, {"days": "Sun", "time": "Closed"}], "id": "8406200007", "name": "USPS COLLECTION BOX - BLUE BOX", "address": {"city": "PLEASANT GROVE", "state": "UT", "street": "180 S 100 W", "postcode": "84062"}}},
{"geometry": {"type": "Point", "coordinates": [-111.7423076063, 40.3614952521]}, "type": "Feature", "properties": {"collection_times": [{"days": "Mon-Fri", "time": "5:00pm"}, {"days": "Sat", "time": "3:00pm"}, {"days": "Sun", "time": "Closed"}], "id": "8406200008", "name": "USPS COLLECTION BOX - BLUE BOX", "address": {"city": "PLEASANT GROVE", "state": "UT", "street": "180 S 100 W", "postcode": "84062"}}},
{"geometry": {"type": "Point", "coordinates": [-111.7423076063, 40.3614952521]}, "type": "Feature", "properties": {"collection_times": [{"days": "Mon-Fri", "time": "5:15pm"}, {"days": "Sat", "time": "2:45pm"}, {"days": "Sun", "time": "Closed"}], "id": "8406200010", "name": "USPS COLLECTION BOX - PO LOBBY", "address": {"city": "PLEASANT GROVE", "state": "UT", "street": "180 S 100 W", "postcode": "84062"}}},
{"geometry": {"type": "Point", "coordinates": [-111.7528483721, 40.4149403924]}, "type": "Feature", "properties": {"collection_times": [{"days": "Mon-Sat", "time": "10:30am"}, {"days": "Sun", "time": "Closed"}], "id": "8406200011", "name": "USPS COLLECTION BOX - BLUE BOX", "address": {"city": "PLEASANT GROVE", "state": "UT", "street": "3925 W CEDAR HILLS DR", "postcode": "84062"}}},
{"geometry": {"type": "Point", "coordinates": [-111.7244445771, 40.3877341292]}, "type": "Feature", "properties": {"collection_times": [{"days": "Mon-Sat", "time": "10:00am"}, {"days": "Sun", "time": "Closed"}], "id": "8406200012", "name": "USPS COLLECTION BOX - BLUE BOX", "address": {"city": "PLEASANT GROVE", "state": "UT", "street": "100 N STATE ST", "postcode": "84062"}}},
{"geometry": {"type": "Point", "coordinates": [-111.7423076063, 40.3614952521]}, "type": "Feature", "properties": {"collection_times": [{"days": "Mon-Fri", "time": "5:15pm"}, {"days": "Sat", "time": "2:45pm"}, {"days": "Sun", "time": "Closed"}], "id": "8406200014", "name": "USPS COLLECTION BOX - APC", "address": {"city": "PLEASANT GROVE", "state": "UT", "street": "180 S 100 W", "postcode": "84062"}}},
{"geometry": {"type": "Point", "coordinates": [-111.1849572774, 41.6639803187]}, "type": "Feature", "properties": {"collection_times": [{"days": "Mon-Fri", "time": "12:15pm"}, {"days": "Sat", "time": "10:15am"}, {"days": "Sun", "time": "Closed"}], "id": "8406400001", "name": "USPS COLLECTION BOX - PO LOBBY", "address": {"city": "RANDOLPH", "state": "UT", "street": "75 S MAIN ST", "postcode": "84064"}}},
{"geometry": {"type": "Point", "coordinates": [-111.1849572774, 41.6639803187]}, "type": "Feature", "properties": {"collection_times": [{"days": "Mon-Fri", "time": "3:30pm"}, {"days": "Sat", "time": "10:15am"}, {"days": "Sun", "time": "Closed"}], "id": "8406400003", "name": "USPS COLLECTION BOX - BLUE BOX", "address": {"city": "RANDOLPH", "state": "UT", "street": "75 S MAIN ST", "postcode": "84064"}}},
{"geometry": {"type": "Point", "coordinates": [-111.9386396337, 40.4936241986]}, "type": "Feature", "properties": {"collection_times": [{"days": "Mon-Fri", "time": "12:00pm"}, {"days": "Sat-Sun", "time": "Closed"}], "id": "8406500000", "name": "USPS COLLECTION BOX - BLUE BOX", "address": {"city": "RIVERTON", "state": "UT", "street": "14177 S REDWOOD RD", "postcode": "84065"}}},
{"geometry": {"type": "Point", "coordinates": [-111.9619998312, 40.4765488211]}, "type": "Feature", "properties": {"collection_times": [{"days": "Mon-Fri", "time": "12:00pm"}, {"days": "Sat-Sun", "time": "Closed"}], "id": "8406500001", "name": "USPS COLLECTION BOX - BLUE BOX", "address": {"city": "RIVERTON", "state": "UT", "street": "5626 W 13100 S", "postcode": "84065"}}},
{"geometry": {"type": "Point", "coordinates": [-111.9619998312, 40.4765488211]}, "type": "Feature", "properties": {"collection_times": [{"days": "Mon-Fri", "time": "5:00pm"}, {"days": "Sat", "time": "2:00pm"}, {"days": "Sun", "time": "Closed"}], "id": "8406500002", "name": "USPS COLLECTION BOX - APC", "address": {"city": "RIVERTON", "state": "UT", "street": "12760 S PARK AVE", "postcode": "84065"}}},
{"geometry": {"type": "Point", "coordinates": [-111.9619998312, 40.4765488211]}, "type": "Feature", "properties": {"collection_times": [{"days": "Mon-Fri", "time": "4:00pm"}, {"days": "Sat", "time": "2:00pm"}, {"days": "Sun", "time": "Closed"}], "id": "8406500004", "name": "USPS COLLECTION BOX - BLUE BOX", "address": {"city": "RIVERTON", "state": "UT", "street": "12760 S PARK AVE", "postcode": "84065"}}},
{"geometry": {"type": "Point", "coordinates": [-111.9619998312, 40.4765488211]}, "type": "Feature", "properties": {"collection_times": [{"days": "Mon-Fri", "time": "5:00pm"}, {"days": "Sat", "time": "2:00pm"}, {"days": "Sun", "time": "Closed"}], "id": "8406500005", "name": "USPS COLLECTION BOX - PO LOBBY", "address": {"city": "RIVERTON", "state": "UT", "street": "12760 S PARK AVE", "postcode": "84065"}}},
{"geometry": {"type": "Point", "coordinates": [-111.9619998312, 40.4765488211]}, "type": "Feature", "properties": {"collection_times": [{"days": "Mon-Fri", "time": "5:00pm"}, {"days": "Sat", "time": "2:00pm"}, {"days": "Sun", "time": "Closed"}], "id": "8406500006", "name": "USPS COLLECTION BOX - PO LOBBY", "address": {"city": "RIVERTON", "state": "UT", "street": "12760 S PARK AVE", "postcode": "84065"}}},
{"geometry": {"type": "Point", "coordinates": [-111.9275689154, 40.5130116325]}, "type": "Feature", "properties": {"collection_times": [{"days": "Mon-Fri", "time": "12:00pm"}, {"days": "Sat-Sun", "time": "Closed"}], "id": "8406500008", "name": "USPS COLLECTION BOX - BLUE BOX", "address": {"city": "RIVERTON", "state": "UT", "street": "5626 W 13100 S", "postcode": "84065"}}},
{"geometry": {"type": "Point", "coordinates": [-109.9872476228, 40.2983986764]}, "type": "Feature", "properties": {"collection_times": [{"days": "Mon-Fri", "time": "5:00pm"}, {"days": "Sat", "time": "12:00pm"}, {"days": "Sun", "time": "Closed"}], "id": "8406600002", "name": "USPS COLLECTION BOX - BLUE BOX", "address": {"city": "ROOSEVELT", "state": "UT", "street": "81 S 300 E", "postcode": "84066"}}},
{"geometry": {"type": "Point", "coordinates": [-109.9872707282, 40.2984095333]}, "type": "Feature", "properties": {"collection_times": [{"days": "Mon-Fri", "time": "5:00pm"}, {"days": "Sat", "time": "12:00pm"}, {"days": "Sun", "time": "Closed"}], "id": "8406600003", "name": "USPS COLLECTION BOX - BLUE BOX", "address": {"city": "ROOSEVELT", "state": "UT", "street": "81 S 300 E", "postcode": "84066"}}},
{"geometry": {"type": "Point", "coordinates": [-109.9872476228, 40.2983986764]}, "type": "Feature", "properties": {"collection_times": [{"days": "Mon-Fri", "time": "5:00pm"}, {"days": "Sat", "time": "12:00pm"}, {"days": "Sun", "time": "Closed"}], "id": "8406600004", "name": "USPS COLLECTION BOX - PO LOBBY", "address": {"city": "ROOSEVELT", "state": "UT", "street": "81 S 300 E", "postcode": "84066"}}},
{"geometry": {"type": "Point", "coordinates": [-109.9872476228, 40.2983986764]}, "type": "Feature", "properties": {"collection_times": [{"days": "Mon-Fri", "time": "5:00pm"}, {"days": "Sat", "time": "12:00pm"}, {"days": "Sun", "time": "Closed"}], "id": "8406600006", "name": "USPS COLLECTION BOX - PO LOBBY", "address": {"city": "ROOSEVELT", "state": "UT", "street": "81 S 300 E", "postcode": "84066"}}},
{"geometry": {"type": "Point", "coordinates": [-112.0644812088, 41.1761813435]}, "type": "Feature", "properties": {"collection_times": [{"days": "Mon-Sat", "time": "11:00am"}, {"days": "Sun", "time": "Closed"}], "id": "8406700004", "name": "USPS COLLECTION BOX - BLUE BOX", "address": {"city": "ROY", "state": "UT", "street": "3500 W 4800 S", "postcode": "84067"}}},
{"geometry": {"type": "Point", "coordinates": [-112.0260969475, 41.171621029]}, "type": "Feature", "properties": {"collection_times": [{"days": "Mon-Sat", "time": "2:15pm"}, {"days": "Sun", "time": "Closed"}], "id": "8406700007", "name": "USPS COLLECTION BOX - BLUE BOX", "address": {"city": "ROY", "state": "UT", "street": "5051 S 1900 W", "postcode": "84067"}}},
{"geometry": {"type": "Point", "coordinates": [-112.0260865385, 41.1744808873]}, "type": "Feature", "properties": {"collection_times": [{"days": "Mon-Fri", "time": "4:30pm"}, {"days": "Sat", "time": "3:00pm"}, {"days": "Sun", "time": "Closed"}], "id": "8406700009", "name": "USPS COLLECTION BOX - BLUE BOX", "address": {"city": "ROY", "state": "UT", "street": "4879 S 1900 W", "postcode": "84067"}}},
{"geometry": {"type": "Point", "coordinates": [-112.0441477913, 41.1944382582]}, "type": "Feature", "properties": {"collection_times": [{"days": "Mon-Sat", "time": "11:00am"}, {"days": "Sun", "time": "Closed"}], "id": "8406700013", "name": "USPS COLLECTION BOX - BLUE BOX", "address": {"city": "ROY", "state": "UT", "street": "3750 MIDLAND DR", "postcode": "84067"}}},
{"geometry": {"type": "Point", "coordinates": [-112.0260865385, 41.1744808873]}, "type": "Feature", "properties": {"collection_times": [{"days": "Mon-Fri", "time": "5:00pm"}, {"days": "Sat", "time": "4:00pm"}, {"days": "Sun", "time": "Closed"}], "id": "8406700014", "name": "USPS COLLECTION BOX - PO LOBBY", "address": {"city": "ROY", "state": "UT", "street": "4879 S 1900 W", "postcode": "84067"}}},
{"geometry": {"type": "Point", "coordinates": [-112.0260865385, 41.1744808873]}, "type": "Feature", "properties": {"collection_times": [{"days": "Mon-Fri", "time": "5:00pm"}, {"days": "Sat", "time": "4:00pm"}, {"days": "Sun", "time": "Closed"}], "id": "8406700015", "name": "USPS COLLECTION BOX - APC", "address": {"city": "ROY", "state": "UT", "street": "4879 S 1900 W", "postcode": "84067"}}},
{"geometry": {"type": "Point", "coordinates": [-112.065473451, 41.1616500999]}, "type": "Feature", "properties": {"collection_times": [{"days": "Mon-Sat", "time": "12:00pm"}, {"days": "Sun", "time": "Closed"}], "id": "8406700016", "name": "USPS COLLECTION BOX - BLUE BOX", "address": {"city": "ROY", "state": "UT", "street": "3536 W 5600 S", "postcode": "84067"}}},
{"geometry": {"type": "Point", "coordinates": [-111.4984435729, 40.6634731482]}, "type": "Feature", "properties": {"collection_times": [{"days": "Mon-Fri", "time": "4:30pm"}, {"days": "Sat", "time": "12:00pm"}, {"days": "Sun", "time": "Closed"}], "id": "8406800002", "name": "USPS COLLECTION BOX - BLUE BOX", "address": {"city": "PARK CITY", "state": "UT", "street": "1780 SIDEWINDER DR", "postcode": "84068"}}},
{"geometry": {"type": "Point", "coordinates": [-111.5131773369, 40.6639343272]}, "type": "Feature", "properties": {"collection_times": [{"days": "Mon-Fri", "time": "5:00pm"}, {"days": "Sat", "time": "12:30pm"}, {"days": "Sun", "time": "Closed"}], "id": "8406800005", "name": "USPS COLLECTION BOX - BLUE BOX", "address": {"city": "PARK CITY", "state": "UT", "street": "2100 PARK AVE", "postcode": "84068"}}},
{"geometry": {"type": "Point", "coordinates": [-111.5132638572, 40.6639678678]}, "type": "Feature", "properties": {"collection_times": [{"days": "Mon-Fri", "time": "5:00pm"}, {"days": "Sat", "time": "12:30pm"}, {"days": "Sun", "time": "Closed"}], "id": "8406800007", "name": "USPS COLLECTION BOX - BLUE BOX", "address": {"city": "PARK CITY", "state": "UT", "street": "2100 PARK AVE", "postcode": "84068"}}},
{"geometry": {"type": "Point", "coordinates": [-111.5131773369, 40.6639343272]}, "type": "Feature", "properties": {"collection_times": [{"days": "Mon-Fri", "time": "5:00pm"}, {"days": "Sat", "time": "12:30pm"}, {"days": "Sun", "time": "Closed"}], "id": "8406800008", "name": "USPS COLLECTION BOX - BLUE BOX", "address": {"city": "PARK CITY", "state": "UT", "street": "2100 PARK AVE", "postcode": "84068"}}},
{"geometry": {"type": "Point", "coordinates": [-111.5131773369, 40.6639343272]}, "type": "Feature", "properties": {"collection_times": [{"days": "Mon-Fri", "time": "5:30pm"}, {"days": "Sat", "time": "1:00pm"}, {"days": "Sun", "time": "Closed"}], "id": "8406800009", "name": "USPS COLLECTION BOX - PO LOBBY", "address": {"city": "PARK CITY", "state": "UT", "street": "2100 PARK AVE", "postcode": "84068"}}},
{"geometry": {"type": "Point", "coordinates": [-111.5131773369, 40.6639343272]}, "type": "Feature", "properties": {"collection_times": [{"days": "Mon-Fri", "time": "5:00pm"}, {"days": "Sat", "time": "12:30pm"}, {"days": "Sun", "time": "Closed"}], "id": "8406800024", "name": "USPS COLLECTION BOX - BLUE BOX", "address": {"city": "PARK CITY", "state": "UT", "street": "2100 PARK AVE", "postcode": "84068"}}},
{"geometry": {"type": "Point", "coordinates": [-111.5131773369, 40.6639343272]}, "type": "Feature", "properties": {"collection_times": [{"days": "Mon-Fri", "time": "5:30pm"}, {"days": "Sat", "time": "1:00pm"}, {"days": "Sun", "time": "Closed"}], "id": "8406800026", "name": "USPS COLLECTION BOX - PO LOBBY", "address": {"city": "PARK CITY", "state": "UT", "street": "2100 PARK AVE", "postcode": "84068"}}},
{"geometry": {"type": "Point", "coordinates": [-111.5131773369, 40.6639343272]}, "type": "Feature", "properties": {"collection_times": [{"days": "Mon-Fri", "time": "5:30pm"}, {"days": "Sat", "time": "1:00pm"}, {"days": "Sun", "time": "Closed"}], "id": "8406800027", "name": "USPS COLLECTION BOX - PO LOBBY", "address": {"city": "PARK CITY", "state": "UT", "street": "2100 PARK AVE", "postcode": "84068"}}},
{"geometry": {"type": "Point", "coordinates": [-112.4532736022, 40.3551950853]}, "type": "Feature", "properties": {"collection_times": [{"days": "Mon-Fri", "time": "1:15pm"}, {"days": "Sat", "time": "12:30pm"}, {"days": "Sun", "time": "Closed"}], "id": "8406900001", "name": "USPS COLLECTION BOX - BLUE BOX", "address": {"city": "RUSH VALLEY", "state": "UT", "street": "326 W CENTER ST", "postcode": "84069"}}},
{"geometry": {"type": "Point", "coordinates": [-112.4532736022, 40.3551950853]}, "type": "Feature", "properties": {"collection_times": [{"days": "Mon-Fri", "time": "12:45pm"}, {"days": "Sat", "time": "12:30pm"}, {"days": "Sun", "time": "Closed"}], "id": "8406900002", "name": "USPS COLLECTION BOX - PO LOBBY", "address": {"city": "RUSH VALLEY", "state": "UT", "street": "326 W CENTER ST", "postcode": "84069"}}},
{"geometry": {"type": "Point", "coordinates": [-111.8731645846, 40.6059333536]}, "type": "Feature", "properties": {"collection_times": [{"days": "Mon-Fri", "time": "4:00pm"}, {"days": "Sat", "time": "12:00pm"}, {"days": "Sun", "time": "Closed"}], "id": "8407000002", "name": "USPS COLLECTION BOX - BLUE BOX", "address": {"city": "SANDY", "state": "UT", "street": "675 E 8000 S", "postcode": "84070"}}},
{"geometry": {"type": "Point", "coordinates": [-111.8722030169, 40.5903684751]}, "type": "Feature", "properties": {"collection_times": [{"days": "Mon-Fri", "time": "5:30pm"}, {"days": "Sat", "time": "4:00pm"}, {"days": "Sun", "time": "Closed"}], "id": "8407000003", "name": "USPS COLLECTION BOX - BLUE BOX", "address": {"city": "SANDY", "state": "UT", "street": "8850 S 700 E", "postcode": "84070"}}},
{"geometry": {"type": "Point", "coordinates": [-111.8855482794, 40.5781621179]}, "type": "Feature", "properties": {"collection_times": [{"days": "Mon-Fri", "time": "5:30pm"}, {"days": "Sat", "time": "4:00pm"}, {"days": "Sun", "time": "Closed"}], "id": "8407000006", "name": "USPS COLLECTION BOX - EXPRESS", "address": {"city": "SANDY", "state": "UT", "street": "8850 S 700 E", "postcode": "84070"}}},
{"geometry": {"type": "Point", "coordinates": [-111.9006225415, 40.5925900856]}, "type": "Feature", "properties": {"collection_times": [{"days": "Mon-Fri", "time": "4:00pm"}, {"days": "Sat", "time": "12:00pm"}, {"days": "Sun", "time": "Closed"}], "id": "8407000007", "name": "USPS COLLECTION BOX - BLUE BOX", "address": {"city": "SANDY", "state": "UT", "street": "8741 S HARRISON ST", "postcode": "84070"}}},
{"geometry": {"type": "Point", "coordinates": [-111.905496214, 40.5844690587]}, "type": "Feature", "properties": {"collection_times": [{"days": "Mon-Fri", "time": "3:00pm"}, {"days": "Sat", "time": "12:00pm"}, {"days": "Sun", "time": "Closed"}], "id": "8407000009", "name": "USPS COLLECTION BOX - BLUE BOX", "address": {"city": "SANDY", "state": "UT", "street": "9150 S 500 W", "postcode": "84070"}}},
{"geometry": {"type": "Point", "coordinates": [-111.9007217916, 40.5848570693]}, "type": "Feature", "properties": {"collection_times": [{"days": "Mon-Fri", "time": "3:00pm"}, {"days": "Sat", "time": "12:00pm"}, {"days": "Sun", "time": "Closed"}], "id": "8407000010", "name": "USPS COLLECTION BOX - BLUE BOX", "address": {"city": "SANDY", "state": "UT", "street": "9150 S 300 W", "postcode": "84070"}}},
{"geometry": {"type": "Point", "coordinates": [-111.8818275789, 40.5810560267]}, "type": "Feature", "properties": {"collection_times": [{"days": "Mon-Fri", "time": "5:00pm"}, {"days": "Sat", "time": "12:00pm"}, {"days": "Sun", "time": "Closed"}], "id": "8407000012", "name": "USPS COLLECTION BOX - BLUE BOX", "address": {"city": "SANDY", "state": "UT", "street": "9380 S 300 E", "postcode": "84070"}}},
{"geometry": {"type": "Point", "coordinates": [-111.872141503, 40.5747900885]}, "type": "Feature", "properties": {"collection_times": [{"days": "Mon-Fri", "time": "5:00pm"}, {"days": "Sat", "time": "12:30pm"}, {"days": "Sun", "time": "Closed"}], "id": "8407000013", "name": "USPS COLLECTION BOX - BLUE BOX", "address": {"city": "SANDY", "state": "UT", "street": "9710 S 700 E", "postcode": "84070"}}},
{"geometry": {"type": "Point", "coordinates": [-111.8721325715, 40.5596149101]}, "type": "Feature", "properties": {"collection_times": [{"days": "Mon-Fri", "time": "1:00pm"}, {"days": "Sat", "time": "12:30pm"}, {"days": "Sun", "time": "Closed"}], "id": "8407000021", "name": "USPS COLLECTION BOX - BLUE BOX", "address": {"city": "SANDY", "state": "UT", "street": "10575 S 700 E", "postcode": "84070"}}},
{"geometry": {"type": "Point", "coordinates": [-111.8908298888, 40.5642298138]}, "type": "Feature", "properties": {"collection_times": [{"days": "Mon-Fri", "time": "3:30pm"}, {"days": "Sat", "time": "12:00pm"}, {"days": "Sun", "time": "Closed"}], "id": "8407000022", "name": "USPS COLLECTION BOX - BLUE BOX", "address": {"city": "SANDY", "state": "UT", "street": "10450 S STATE ST", "postcode": "84070"}}},
{"geometry": {"type": "Point", "coordinates": [-111.9055701097, 40.5795434828]}, "type": "Feature", "properties": {"collection_times": [{"days": "Mon-Fri", "time": "3:00pm"}, {"days": "Sat", "time": "12:00pm"}, {"days": "Sun", "time": "Closed"}], "id": "8407000024", "name": "USPS COLLECTION BOX - BLUE BOX", "address": {"city": "SANDY", "state": "UT", "street": "9500 S 500 W", "postcode": "84070"}}},
{"geometry": {"type": "Point", "coordinates": [-111.8964513098, 40.5697731595]}, "type": "Feature", "properties": {"collection_times": [{"days": "Mon-Fri", "time": "3:00pm"}, {"days": "Sat", "time": "12:00pm"}, {"days": "Sun", "time": "Closed"}], "id": "8407000025", "name": "USPS COLLECTION BOX - BLUE BOX", "address": {"city": "SANDY", "state": "UT", "street": "210 W SEGO LILY DR", "postcode": "84070"}}},
{"geometry": {"type": "Point", "coordinates": [-111.8990972172, 40.5853904961]}, "type": "Feature", "properties": {"collection_times": [{"days": "Mon-Sat", "time": "10:00am"}, {"days": "Sun", "time": "Closed"}], "id": "8407000045", "name": "USPS COLLECTION BOX - BLUE BOX", "address": {"city": "SANDY", "state": "UT", "street": "9155 S 255 W", "postcode": "84070"}}},
{"geometry": {"type": "Point", "coordinates": [-111.8722030169, 40.5903684751]}, "type": "Feature", "properties": {"collection_times": [{"days": "Mon-Fri", "time": "6:00pm"}, {"days": "Sat", "time": "4:00pm"}, {"days": "Sun", "time": "Closed"}], "id": "8407000049", "name": "USPS COLLECTION BOX - PO LOBBY", "address": {"city": "SANDY", "state": "UT", "street": "8850 S 700 E", "postcode": "84070"}}},
{"geometry": {"type": "Point", "coordinates": [-111.8722030169, 40.5903684751]}, "type": "Feature", "properties": {"collection_times": [{"days": "Mon-Fri", "time": "6:00pm"}, {"days": "Sat", "time": "4:00pm"}, {"days": "Sun", "time": "Closed"}], "id": "8407000052", "name": "USPS COLLECTION BOX - PO LOBBY", "address": {"city": "SANDY", "state": "UT", "street": "8850 S 700 E", "postcode": "84070"}}},
{"geometry": {"type": "Point", "coordinates": [-111.8916555941, 40.5697648788]}, "type": "Feature", "properties": {"collection_times": [{"days": "Mon-Fri", "time": "3:15pm"}, {"days": "Sat", "time": "12:00pm"}, {"days": "Sun", "time": "Closed"}], "id": "8407000067", "name": "USPS COLLECTION BOX - BLUE BOX", "address": {"city": "SANDY", "state": "UT", "street": "50 W SEGO LILY DR", "postcode": "84070"}}},
{"geometry": {"type": "Point", "coordinates": [-111.886602663, 40.5814054829]}, "type": "Feature", "properties": {"collection_times": [{"days": "Mon-Fri", "time": "3:00pm"}, {"days": "Sat-Sun", "time": "Closed"}], "id": "8407000068", "name": "USPS COLLECTION BOX - BLUE BOX", "address": {"city": "SANDY", "state": "UT", "street": "9350 S 150 E", "postcode": "84070"}}},
{"geometry": {"type": "Point", "coordinates": [-111.8966140979, 40.5695768338]}, "type": "Feature", "properties": {"collection_times": [{"days": "Mon-Fri", "time": "3:00pm"}, {"days": "Sat-Sun", "time": "Closed"}], "id": "8407000072", "name": "USPS COLLECTION BOX - PO LOBBY", "address": {"city": "SANDY", "state": "UT", "street": "215 W SEGO LILY DR", "postcode": "84070"}}},
{"geometry": {"type": "Point", "coordinates": [-111.8722030169, 40.5903684751]}, "type": "Feature", "properties": {"collection_times": [{"days": "Mon-Fri", "time": "6:00pm"}, {"days": "Sat", "time": "4:00pm"}, {"days": "Sun", "time": "Closed"}], "id": "8407000076", "name": "USPS COLLECTION BOX - APC", "address": {"city": "SANDY", "state": "UT", "street": "8850 S 700 E", "postcode": "84070"}}},
{"geometry": {"type": "Point", "coordinates": [-111.886643393, 40.581407056]}, "type": "Feature", "properties": {"collection_times": [{"days": "Mon-Fri", "time": "3:00pm"}, {"days": "Sat-Sun", "time": "Closed"}], "id": "8407000077", "name": "USPS COLLECTION BOX - BLUE BOX", "address": {"city": "SANDY", "state": "UT", "street": "9350 S 150 E", "postcode": "84070"}}},
{"geometry": {"type": "Point", "coordinates": [-111.886643393, 40.581407056]}, "type": "Feature", "properties": {"collection_times": [{"days": "Mon-Fri", "time": "3:00pm"}, {"days": "Sat-Sun", "time": "Closed"}], "id": "8407000079", "name": "USPS COLLECTION BOX - BLUE BOX", "address": {"city": "SANDY", "state": "UT", "street": "9350 S 150 E", "postcode": "84070"}}},
{"geometry": {"type": "Point", "coordinates": [-111.8966140979, 40.5695768338]}, "type": "Feature", "properties": {"collection_times": [{"days": "Mon-Fri", "time": "5:00pm"}, {"days": "Sat-Sun", "time": "Closed"}], "id": "8407000082", "name": "USPS COLLECTION BOX - PO LOBBY", "address": {"city": "SANDY", "state": "UT", "street": "215 W SEGO LILY DR", "postcode": "84070"}}},
{"geometry": {"type": "Point", "coordinates": [-111.8966140979, 40.5695768338]}, "type": "Feature", "properties": {"collection_times": [{"days": "Mon-Fri", "time": "5:00pm"}, {"days": "Sat-Sun", "time": "Closed"}], "id": "8407000083", "name": "USPS COLLECTION BOX - PO LOBBY", "address": {"city": "SANDY", "state": "UT", "street": "215 W SEGO LILY DR", "postcode": "84070"}}},
{"geometry": {"type": "Point", "coordinates": [-111.8966140979, 40.5695768338]}, "type": "Feature", "properties": {"collection_times": [{"days": "Mon-Fri", "time": "5:00pm"}, {"days": "Sat-Sun", "time": "Closed"}], "id": "8407000084", "name": "USPS COLLECTION BOX - PO LOBBY", "address": {"city": "SANDY", "state": "UT", "street": "215 W SEGO LILY DR", "postcode": "84070"}}},
{"geometry": {"type": "Point", "coordinates": [-112.3599859066, 40.4555939978]}, "type": "Feature", "properties": {"collection_times": [{"days": "Mon-Fri", "time": "4:15pm"}, {"days": "Sat", "time": "10:15am"}, {"days": "Sun", "time": "Closed"}], "id": "8407100001", "name": "USPS COLLECTION BOX - BLUE BOX", "address": {"city": "STOCKTON", "state": "UT", "street": "231 N CONNER AVE", "postcode": "84071"}}},
{"geometry": {"type": "Point", "coordinates": [-112.3599859066, 40.4555939978]}, "type": "Feature", "properties": {"collection_times": [{"days": "Mon-Fri", "time": "3:15pm"}, {"days": "Sat", "time": "10:15am"}, {"days": "Sun", "time": "Closed"}], "id": "8407100002", "name": "USPS COLLECTION BOX - PO LOBBY", "address": {"city": "STOCKTON", "state": "UT", "street": "231 N CONNER AVE", "postcode": "84071"}}},
{"geometry": {"type": "Point", "coordinates": [-110.6792909686, 40.3830469594]}, "type": "Feature", "properties": {"collection_times": [{"days": "Mon-Sat", "time": "10:30am"}, {"days": "Sun", "time": "Closed"}], "id": "8407200001", "name": "USPS COLLECTION BOX - BLUE BOX", "address": {"city": "TABIONA", "state": "UT", "street": "38060 W STATE HIGHWAY 35", "postcode": "84072"}}},
{"geometry": {"type": "Point", "coordinates": [-110.6792909686, 40.3830469594]}, "type": "Feature", "properties": {"collection_times": [{"days": "Mon-Sat", "time": "10:30am"}, {"days": "Sun", "time": "Closed"}], "id": "8407200002", "name": "USPS COLLECTION BOX - PO LOBBY", "address": {"city": "TABIONA", "state": "UT", "street": "38060 W STATE HIGHWAY 35", "postcode": "84072"}}},
{"geometry": {"type": "Point", "coordinates": [-112.2985648317, 40.5318280261]}, "type": "Feature", "properties": {"collection_times": [{"days": "Mon-Fri", "time": "5:00pm"}, {"days": "Sat", "time": "3:00pm"}, {"days": "Sun", "time": "Closed"}], "id": "8407400001", "name": "USPS COLLECTION BOX - BLUE BOX", "address": {"city": "TOOELE", "state": "UT", "street": "65 N MAIN ST", "postcode": "84074"}}},
{"geometry": {"type": "Point", "coordinates": [-112.2985648317, 40.5318280261]}, "type": "Feature", "properties": {"collection_times": [{"days": "Mon-Fri", "time": "5:00pm"}, {"days": "Sat", "time": "3:00pm"}, {"days": "Sun", "time": "Closed"}], "id": "8407400002", "name": "USPS COLLECTION BOX - BLUE BOX", "address": {"city": "TOOELE", "state": "UT", "street": "65 N MAIN ST", "postcode": "84074"}}},
{"geometry": {"type": "Point", "coordinates": [-112.2985648317, 40.5318280261]}, "type": "Feature", "properties": {"collection_times": [{"days": "Mon-Fri", "time": "5:00pm"}, {"days": "Sat", "time": "3:00pm"}, {"days": "Sun", "time": "Closed"}], "id": "8407400003", "name": "USPS COLLECTION BOX - BLUE BOX", "address": {"city": "TOOELE", "state": "UT", "street": "65 N MAIN ST", "postcode": "84074"}}},
{"geometry": {"type": "Point", "coordinates": [-112.2985648317, 40.5318280261]}, "type": "Feature", "properties": {"collection_times": [{"days": "Mon-Fri", "time": "5:00pm"}, {"days": "Sat", "time": "3:00pm"}, {"days": "Sun", "time": "Closed"}], "id": "8407400006", "name": "USPS COLLECTION BOX - PO LOBBY", "address": {"city": "TOOELE", "state": "UT", "street": "65 N MAIN ST", "postcode": "84074"}}},
{"geometry": {"type": "Point", "coordinates": [-112.310777032, 40.6329714965]}, "type": "Feature", "properties": {"collection_times": [{"days": "Mon-Sat", "time": "11:00am"}, {"days": "Sun", "time": "Closed"}], "id": "8407400007", "name": "USPS COLLECTION BOX - BLUE BOX", "address": {"city": "TOOELE", "state": "UT", "street": "220 MILLPOND", "postcode": "84074"}}},
{"geometry": {"type": "Point", "coordinates": [-112.0626561029, 41.084757634]}, "type": "Feature", "properties": {"collection_times": [{"days": "Mon-Fri", "time": "10:00am"}, {"days": "Sat-Sun", "time": "Closed"}], "id": "8407500001", "name": "USPS COLLECTION BOX - BLUE BOX", "address": {"city": "SYRACUSE", "state": "UT", "street": "1979 W 1900 S", "postcode": "84075"}}},
{"geometry": {"type": "Point", "coordinates": [-112.0626561029, 41.084757634]}, "type": "Feature", "properties": {"collection_times": [{"days": "Mon-Fri", "time": "10:00am"}, {"days": "Sat-Sun", "time": "Closed"}], "id": "8407500002", "name": "USPS COLLECTION BOX - BLUE BOX", "address": {"city": "SYRACUSE", "state": "UT", "street": "1979 W 1900 S", "postcode": "84075"}}},
{"geometry": {"type": "Point", "coordinates": [-109.5430482517, 40.4564428507]}, "type": "Feature", "properties": {"collection_times": [{"days": "Mon-Fri", "time": "4:15pm"}, {"days": "Sat", "time": "4:00pm"}, {"days": "Sun", "time": "Closed"}], "id": "8407800001", "name": "USPS COLLECTION BOX - PO LOBBY", "address": {"city": "VERNAL", "state": "UT", "street": "67 N 800 W", "postcode": "84078"}}},
{"geometry": {"type": "Point", "coordinates": [-109.5424290295, 40.4556582243]}, "type": "Feature", "properties": {"collection_times": [{"days": "Mon-Fri", "time": "4:15pm"}, {"days": "Sat", "time": "4:00pm"}, {"days": "Sun", "time": "Closed"}], "id": "8407800002", "name": "USPS COLLECTION BOX - BLUE BOX", "address": {"city": "VERNAL", "state": "UT", "street": "820 W MAIN ST", "postcode": "84078"}}},
{"geometry": {"type": "Point", "coordinates": [-109.5430482517, 40.4564428507]}, "type": "Feature", "properties": {"collection_times": [{"days": "Mon-Fri", "time": "4:15pm"}, {"days": "Sat", "time": "4:00pm"}, {"days": "Sun", "time": "Closed"}], "id": "8407800005", "name": "USPS COLLECTION BOX - PO LOBBY", "address": {"city": "VERNAL", "state": "UT", "street": "67 N 800 W", "postcode": "84078"}}},
{"geometry": {"type": "Point", "coordinates": [-112.4635596732, 40.0434495049]}, "type": "Feature", "properties": {"collection_times": [{"days": "Mon-Fri", "time": "12:45pm"}, {"days": "Sat", "time": "12:15pm"}, {"days": "Sun", "time": "Closed"}], "id": "8408000001", "name": "USPS COLLECTION BOX - BLUE BOX", "address": {"city": "VERNON", "state": "UT", "street": "20 N MAIN ST", "postcode": "84080"}}},
{"geometry": {"type": "Point", "coordinates": [-112.4635596732, 40.0434495049]}, "type": "Feature", "properties": {"collection_times": [{"days": "Mon-Fri", "time": "12:45pm"}, {"days": "Sat", "time": "12:15pm"}, {"days": "Sun", "time": "Closed"}], "id": "8408000002", "name": "USPS COLLECTION BOX - PO LOBBY", "address": {"city": "VERNON", "state": "UT", "street": "20 N MAIN ST", "postcode": "84080"}}},
{"geometry": {"type": "Point", "coordinates": [-111.4170393713, 40.3821502298]}, "type": "Feature", "properties": {"collection_times": [{"days": "Mon-Fri", "time": "10:45am"}, {"days": "Sat", "time": "9:45am"}, {"days": "Sun", "time": "Closed"}], "id": "8408200001", "name": "USPS COLLECTION BOX - PO LOBBY", "address": {"city": "WALLSBURG", "state": "UT", "street": "154 W MAIN ST", "postcode": "84082"}}},
{"geometry": {"type": "Point", "coordinates": [-111.4170393713, 40.3821502298]}, "type": "Feature", "properties": {"collection_times": [{"days": "Mon-Fri", "time": "4:00pm"}, {"days": "Sat", "time": "10:00am"}, {"days": "Sun", "time": "Closed"}], "id": "8408200002", "name": "USPS COLLECTION BOX - BLUE BOX", "address": {"city": "WALLSBURG", "state": "UT", "street": "154 W MAIN ST", "postcode": "84082"}}},
{"geometry": {"type": "Point", "coordinates": [-114.0363488745, 40.7373131837]}, "type": "Feature", "properties": {"collection_times": [{"days": "Mon-Fri", "time": "4:30pm"}, {"days": "Sat", "time": "12:00pm"}, {"days": "Sun", "time": "Closed"}], "id": "8408300001", "name": "USPS COLLECTION BOX - BLUE BOX", "address": {"city": "WENDOVER", "state": "UT", "street": "550 E WENDOVER BLVD", "postcode": "84083"}}},
{"geometry": {"type": "Point", "coordinates": [-114.0363488745, 40.7373131837]}, "type": "Feature", "properties": {"collection_times": [{"days": "Mon-Fri", "time": "4:30pm"}, {"days": "Sat", "time": "12:00pm"}, {"days": "Sun", "time": "Closed"}], "id": "8408300002", "name": "USPS COLLECTION BOX - PO LOBBY", "address": {"city": "WENDOVER", "state": "UT", "street": "550 E WENDOVER BLVD", "postcode": "84083"}}},
{"geometry": {"type": "Point", "coordinates": [-111.9385717114, 40.5838194406]}, "type": "Feature", "properties": {"collection_times": [{"days": "Mon-Fri", "time": "4:00pm"}, {"days": "Sat", "time": "2:00pm"}, {"days": "Sun", "time": "Closed"}], "id": "8408400001", "name": "USPS COLLECTION BOX - BLUE BOX", "address": {"city": "WEST JORDAN", "state": "UT", "street": "9215 S REDWOOD RD", "postcode": "84084"}}},
{"geometry": {"type": "Point", "coordinates": [-111.9565266978, 40.5877352084]}, "type": "Feature", "properties": {"collection_times": [{"days": "Mon-Fri", "time": "4:00pm"}, {"days": "Sat", "time": "2:15pm"}, {"days": "Sun", "time": "Closed"}], "id": "8408400007", "name": "USPS COLLECTION BOX - BLUE BOX", "address": {"city": "WEST JORDAN", "state": "UT", "street": "2640 W 9000 S", "postcode": "84084"}}},
{"geometry": {"type": "Point", "coordinates": [-111.9781537532, 40.6359550506]}, "type": "Feature", "properties": {"collection_times": [{"days": "Mon-Fri", "time": "4:15pm"}, {"days": "Sat", "time": "2:15pm"}, {"days": "Sun", "time": "Closed"}], "id": "8408400011", "name": "USPS COLLECTION BOX - BLUE BOX", "address": {"city": "WEST JORDAN", "state": "UT", "street": "6321 S DIXIE DR", "postcode": "84084"}}},
{"geometry": {"type": "Point", "coordinates": [-111.9750340908, 40.5878818953]}, "type": "Feature", "properties": {"collection_times": [{"days": "Mon-Fri", "time": "4:15pm"}, {"days": "Sat", "time": "2:15pm"}, {"days": "Sun", "time": "Closed"}], "id": "8408400015", "name": "USPS COLLECTION BOX - BLUE BOX", "address": {"city": "WEST JORDAN", "state": "UT", "street": "3580 W 9000 S", "postcode": "84084"}}},
{"geometry": {"type": "Point", "coordinates": [-111.9291761011, 40.6045571913]}, "type": "Feature", "properties": {"collection_times": [{"days": "Mon-Fri", "time": "3:45pm"}, {"days": "Sat", "time": "1:45pm"}, {"days": "Sun", "time": "Closed"}], "id": "8408400018", "name": "USPS COLLECTION BOX - BLUE BOX", "address": {"city": "WEST JORDAN", "state": "UT", "street": "8060 S 1300 W", "postcode": "84084"}}},
{"geometry": {"type": "Point", "coordinates": [-111.9387326291, 40.6065537196]}, "type": "Feature", "properties": {"collection_times": [{"days": "Mon-Fri", "time": "3:45pm"}, {"days": "Sat", "time": "1:45pm"}, {"days": "Sun", "time": "Closed"}], "id": "8408400020", "name": "USPS COLLECTION BOX - BLUE BOX", "address": {"city": "WEST JORDAN", "state": "UT", "street": "8000 S REDWOOD RD", "postcode": "84084"}}},
{"geometry": {"type": "Point", "coordinates": [-111.9415315877, 40.5877667744]}, "type": "Feature", "properties": {"collection_times": [{"days": "Mon-Fri", "time": "4:00pm"}, {"days": "Sat", "time": "2:00pm"}, {"days": "Sun", "time": "Closed"}], "id": "8408400027", "name": "USPS COLLECTION BOX - BLUE BOX", "address": {"city": "WEST JORDAN", "state": "UT", "street": "1820 W 9000 S", "postcode": "84084"}}},
{"geometry": {"type": "Point", "coordinates": [-111.9361384001, 40.5876997197]}, "type": "Feature", "properties": {"collection_times": [{"days": "Mon-Fri", "time": "4:00pm"}, {"days": "Sat", "time": "2:00pm"}, {"days": "Sun", "time": "Closed"}], "id": "8408400028", "name": "USPS COLLECTION BOX - BLUE BOX", "address": {"city": "WEST JORDAN", "state": "UT", "street": "1593 W 9000 S", "postcode": "84084"}}},
{"geometry": {"type": "Point", "coordinates": [-111.9674217499, 40.6074149138]}, "type": "Feature", "properties": {"collection_times": [{"days": "Mon-Fri", "time": "5:30pm"}, {"days": "Sat", "time": "3:00pm"}, {"days": "Sun", "time": "Closed"}], "id": "8408400029", "name": "USPS COLLECTION BOX - PO LOBBY", "address": {"city": "WEST JORDAN", "state": "UT", "street": "7901 S 3200 W", "postcode": "84084"}}},
{"geometry": {"type": "Point", "coordinates": [-111.9674217499, 40.6074149138]}, "type": "Feature", "properties": {"collection_times": [{"days": "Mon-Fri", "time": "5:30pm"}, {"days": "Sat", "time": "3:00pm"}, {"days": "Sun", "time": "Closed"}], "id": "8408400032", "name": "USPS COLLECTION BOX - BLUE BOX", "address": {"city": "WEST JORDAN", "state": "UT", "street": "7901 S 3200 W", "postcode": "84084"}}},
{"geometry": {"type": "Point", "coordinates": [-111.9674217499, 40.6074149138]}, "type": "Feature", "properties": {"collection_times": [{"days": "Mon-Fri", "time": "5:30pm"}, {"days": "Sat", "time": "3:00pm"}, {"days": "Sun", "time": "Closed"}], "id": "8408400035", "name": "USPS COLLECTION BOX - BLUE BOX", "address": {"city": "WEST JORDAN", "state": "UT", "street": "7901 S 3200 W", "postcode": "84084"}}},
{"geometry": {"type": "Point", "coordinates": [-111.9291814184, 40.6246506259]}, "type": "Feature", "properties": {"collection_times": [{"days": "Mon-Fri", "time": "3:45pm"}, {"days": "Sat", "time": "1:45pm"}, {"days": "Sun", "time": "Closed"}], "id": "8408400036", "name": "USPS COLLECTION BOX - BLUE BOX", "address": {"city": "WEST JORDAN", "state": "UT", "street": "6995 S 1300 W", "postcode": "84084"}}},
{"geometry": {"type": "Point", "coordinates": [-111.9806497612, 40.6111980057]}, "type": "Feature", "properties": {"collection_times": [{"days": "Mon-Fri", "time": "4:15pm"}, {"days": "Sat", "time": "2:15pm"}, {"days": "Sun", "time": "Closed"}], "id": "8408400037", "name": "USPS COLLECTION BOX - BLUE BOX", "address": {"city": "WEST JORDAN", "state": "UT", "street": "7671 S 3800 W", "postcode": "84084"}}},
{"geometry": {"type": "Point", "coordinates": [-111.9674217499, 40.6074149138]}, "type": "Feature", "properties": {"collection_times": [{"days": "Mon-Fri", "time": "5:30pm"}, {"days": "Sat", "time": "3:00pm"}, {"days": "Sun", "time": "Closed"}], "id": "8408400038", "name": "USPS COLLECTION BOX - APC", "address": {"city": "WEST JORDAN", "state": "UT", "street": "7901 S 3200 W", "postcode": "84084"}}},
{"geometry": {"type": "Point", "coordinates": [-111.9674217499, 40.6074149138]}, "type": "Feature", "properties": {"collection_times": [{"days": "Mon-Fri", "time": "5:30pm"}, {"days": "Sat", "time": "3:00pm"}, {"days": "Sun", "time": "Closed"}], "id": "8408400039", "name": "USPS COLLECTION BOX - PO LOBBY", "address": {"city": "WEST JORDAN", "state": "UT", "street": "7901 S 3200 W", "postcode": "84084"}}},
{"geometry": {"type": "Point", "coordinates": [-111.9674217499, 40.6074149138]}, "type": "Feature", "properties": {"collection_times": [{"days": "Mon-Fri", "time": "5:30pm"}, {"days": "Sat", "time": "3:00pm"}, {"days": "Sun", "time": "Closed"}], "id": "8408400040", "name": "USPS COLLECTION BOX - PO LOBBY", "address": {"city": "WEST JORDAN", "state": "UT", "street": "7901 S 3200 W", "postcode": "84084"}}},
{"geometry": {"type": "Point", "coordinates": [-109.9192619171, 40.4840264126]}, "type": "Feature", "properties": {"collection_times": [{"days": "Mon-Fri", "time": "12:45pm"}, {"days": "Sat", "time": "11:30am"}, {"days": "Sun", "time": "Closed"}], "id": "8408500001", "name": "USPS COLLECTION BOX - PO LOBBY", "address": {"city": "WHITEROCKS", "state": "UT", "street": "11444 N WHITEROCKS HWY", "postcode": "84085"}}},
{"geometry": {"type": "Point", "coordinates": [-111.1628479878, 41.5227476349]}, "type": "Feature", "properties": {"collection_times": [{"days": "Mon-Fri", "time": "3:15pm"}, {"days": "Sat", "time": "10:30am"}, {"days": "Sun", "time": "Closed"}], "id": "8408600002", "name": "USPS COLLECTION BOX - PO LOBBY", "address": {"city": "WOODRUFF", "state": "UT", "street": "40 S MAIN ST", "postcode": "84086"}}},
{"geometry": {"type": "Point", "coordinates": [-111.8331415062, 40.6030328259]}, "type": "Feature", "properties": {"collection_times": [{"days": "Mon-Fri", "time": "2:45pm"}, {"days": "Sat-Sun", "time": "Closed"}], "id": "8409300000", "name": "USPS COLLECTION BOX - BLUE BOX", "address": {"city": "SANDY", "state": "UT", "street": "8160 S HIGHLAND DR", "postcode": "84093"}}},
{"geometry": {"type": "Point", "coordinates": [-111.8318429409, 40.5948183509]}, "type": "Feature", "properties": {"collection_times": [{"days": "Mon-Sat", "time": "3:00pm"}, {"days": "Sun", "time": "Closed"}], "id": "8409300001", "name": "USPS COLLECTION BOX - BLUE BOX", "address": {"city": "SANDY", "state": "UT", "street": "8600 S HIGHLAND DR", "postcode": "84093"}}},
{"geometry": {"type": "Point", "coordinates": [-111.8339741813, 40.5825037381]}, "type": "Feature", "properties": {"collection_times": [{"days": "Mon-Fri", "time": "5:30pm"}, {"days": "Sat", "time": "3:00pm"}, {"days": "Sun", "time": "Closed"}], "id": "8409300003", "name": "USPS COLLECTION BOX - BLUE BOX", "address": {"city": "SANDY", "state": "UT", "street": "9265 S HIGHLAND DR", "postcode": "84093"}}},
{"geometry": {"type": "Point", "coordinates": [-111.8338922623, 40.5822370025]}, "type": "Feature", "properties": {"collection_times": [{"days": "Mon-Fri", "time": "5:30pm"}, {"days": "Sat", "time": "3:00pm"}, {"days": "Sun", "time": "Closed"}], "id": "8409300004", "name": "USPS COLLECTION BOX - PO LOBBY", "address": {"city": "SANDY", "state": "UT", "street": "9265 S HIGHLAND DR", "postcode": "84093"}}},
{"geometry": {"type": "Point", "coordinates": [-111.8339741813, 40.5825037381]}, "type": "Feature", "properties": {"collection_times": [{"days": "Mon-Fri", "time": "5:30pm"}, {"days": "Sat", "time": "3:00pm"}, {"days": "Sun", "time": "Closed"}], "id": "8409300006", "name": "USPS COLLECTION BOX - APC", "address": {"city": "SANDY", "state": "UT", "street": "9265 S HIGHLAND DR", "postcode": "84093"}}},
{"geometry": {"type": "Point", "coordinates": [-111.8532198292, 40.5584188118]}, "type": "Feature", "properties": {"collection_times": [{"days": "Mon-Sat", "time": "2:30pm"}, {"days": "Sun", "time": "Closed"}], "id": "8409400000", "name": "USPS COLLECTION BOX - BLUE BOX", "address": {"city": "SANDY", "state": "UT", "street": "10575 S 1300 E", "postcode": "84094"}}},
{"geometry": {"type": "Point", "coordinates": [-111.8531419991, 40.5958869787]}, "type": "Feature", "properties": {"collection_times": [{"days": "Mon-Sat", "time": "3:00pm"}, {"days": "Sun", "time": "Closed"}], "id": "8409400001", "name": "USPS COLLECTION BOX - BLUE BOX", "address": {"city": "SANDY", "state": "UT", "street": "8550 S 1300 E", "postcode": "84094"}}},
{"geometry": {"type": "Point", "coordinates": [-111.8681285186, 40.5805423627]}, "type": "Feature", "properties": {"collection_times": [{"days": "Mon-Fri", "time": "5:00pm"}, {"days": "Sat", "time": "12:30pm"}, {"days": "Sun", "time": "Closed"}], "id": "8409400004", "name": "USPS COLLECTION BOX - BLUE BOX", "address": {"city": "SANDY", "state": "UT", "street": "826 E 9400 S", "postcode": "84094"}}},
{"geometry": {"type": "Point", "coordinates": [-111.8612988037, 40.5763024556]}, "type": "Feature", "properties": {"collection_times": [{"days": "Mon-Fri", "time": "5:00pm"}, {"days": "Sat", "time": "12:30pm"}, {"days": "Sun", "time": "Closed"}], "id": "8409400005", "name": "USPS COLLECTION BOX - BLUE BOX", "address": {"city": "SANDY", "state": "UT", "street": "825 E 9400 S", "postcode": "84094"}}},
{"geometry": {"type": "Point", "coordinates": [-111.9386616515, 40.5675941491]}, "type": "Feature", "properties": {"collection_times": [{"days": "Mon-Fri", "time": "4:30pm"}, {"days": "Sat", "time": "2:00pm"}, {"days": "Sun", "time": "Closed"}], "id": "8409500000", "name": "USPS COLLECTION BOX - BLUE BOX", "address": {"city": "SOUTH JORDAN", "state": "UT", "street": "10102 S REDWOOD RD", "postcode": "84095"}}},
{"geometry": {"type": "Point", "coordinates": [-111.9386616515, 40.5675941491]}, "type": "Feature", "properties": {"collection_times": [{"days": "Mon-Fri", "time": "5:00pm"}, {"days": "Sat", "time": "2:00pm"}, {"days": "Sun", "time": "Closed"}], "id": "8409500012", "name": "USPS COLLECTION BOX - PO LOBBY", "address": {"city": "SOUTH JORDAN", "state": "UT", "street": "10102 S REDWOOD RD", "postcode": "84095"}}},
{"geometry": {"type": "Point", "coordinates": [-111.9386616515, 40.5675941491]}, "type": "Feature", "properties": {"collection_times": [{"days": "Mon-Fri", "time": "4:30pm"}, {"days": "Sat", "time": "2:00pm"}, {"days": "Sun", "time": "Closed"}], "id": "8409500013", "name": "USPS COLLECTION BOX - BLUE BOX", "address": {"city": "SOUTH JORDAN", "state": "UT", "street": "10102 S REDWOOD RD", "postcode": "84095"}}},
{"geometry": {"type": "Point", "coordinates": [-111.910307203, 40.5578788363]}, "type": "Feature", "properties": {"collection_times": [{"days": "Mon-Fri", "time": "2:15pm"}, {"days": "Sat-Sun", "time": "Closed"}], "id": "8409500018", "name": "USPS COLLECTION BOX - BLUE BOX", "address": {"city": "SOUTH JORDAN", "state": "UT", "street": "10653 S RIVER FRONT PKWY", "postcode": "84095"}}},
{"geometry": {"type": "Point", "coordinates": [-111.9032712936, 40.5551133705]}, "type": "Feature", "properties": {"collection_times": [{"days": "Mon-Fri", "time": "2:45pm"}, {"days": "Sat-Sun", "time": "Closed"}], "id": "8409500019", "name": "USPS COLLECTION BOX - BLUE BOX", "address": {"city": "SOUTH JORDAN", "state": "UT", "street": "10705 S JORDAN GTWY", "postcode": "84095"}}},
{"geometry": {"type": "Point", "coordinates": [-111.9032712936, 40.5551133705]}, "type": "Feature", "properties": {"collection_times": [{"days": "Mon-Fri", "time": "2:45pm"}, {"days": "Sat-Sun", "time": "Closed"}], "id": "8409500020", "name": "USPS COLLECTION BOX - BLUE BOX", "address": {"city": "SOUTH JORDAN", "state": "UT", "street": "10705 S JORDAN GTWY", "postcode": "84095"}}},
{"geometry": {"type": "Point", "coordinates": [-111.9042955107, 40.5589443531]}, "type": "Feature", "properties": {"collection_times": [{"days": "Mon-Fri", "time": "2:00pm"}, {"days": "Sat-Sun", "time": "Closed"}], "id": "8409500022", "name": "USPS COLLECTION BOX - BLUE BOX", "address": {"city": "SOUTH JORDAN", "state": "UT", "street": "406 SOUTH JORDAN PKWY", "postcode": "84095"}}},
{"geometry": {"type": "Point", "coordinates": [-111.9238793963, 40.5613540406]}, "type": "Feature", "properties": {"collection_times": [{"days": "Mon-Fri", "time": "2:00pm"}, {"days": "Sat-Sun", "time": "Closed"}], "id": "8409500025", "name": "USPS COLLECTION BOX - BLUE BOX", "address": {"city": "SOUTH JORDAN", "state": "UT", "street": "1122 SOUTH JORDAN PKWY", "postcode": "84095"}}},
{"geometry": {"type": "Point", "coordinates": [-111.9386616515, 40.5675941491]}, "type": "Feature", "properties": {"collection_times": [{"days": "Mon-Fri", "time": "5:00pm"}, {"days": "Sat", "time": "2:00pm"}, {"days": "Sun", "time": "Closed"}], "id": "8409500027", "name": "USPS COLLECTION BOX - APC", "address": {"city": "SOUTH JORDAN", "state": "UT", "street": "10102 S REDWOOD RD", "postcode": "84095"}}},
{"geometry": {"type": "Point", "coordinates": [-111.9386616515, 40.5675941491]}, "type": "Feature", "properties": {"collection_times": [{"days": "Mon-Fri", "time": "5:00pm"}, {"days": "Sat", "time": "2:00pm"}, {"days": "Sun", "time": "Closed"}], "id": "8409500028", "name": "USPS COLLECTION BOX - PO LOBBY", "address": {"city": "SOUTH JORDAN", "state": "UT", "street": "10102 S REDWOOD RD", "postcode": "84095"}}},
{"geometry": {"type": "Point", "coordinates": [-111.6870344501, 40.2823945722]}, "type": "Feature", "properties": {"collection_times": [{"days": "Mon-Fri", "time": "3:45pm"}, {"days": "Sat", "time": "3:00pm"}, {"days": "Sun", "time": "Closed"}], "id": "8409700018", "name": "USPS COLLECTION BOX - BLUE BOX", "address": {"city": "OREM", "state": "UT", "street": "345 E 800 S", "postcode": "84097"}}},
{"geometry": {"type": "Point", "coordinates": [-111.6737782518, 40.2750397059]}, "type": "Feature", "properties": {"collection_times": [{"days": "Mon-Fri", "time": "5:00pm"}, {"days": "Sat", "time": "4:00pm"}, {"days": "Sun", "time": "Closed"}], "id": "8409700020", "name": "USPS COLLECTION BOX - BLUE BOX", "address": {"city": "OREM", "state": "UT", "street": "877 E 1200 S", "postcode": "84097"}}},
{"geometry": {"type": "Point", "coordinates": [-111.6737782518, 40.2750397059]}, "type": "Feature", "properties": {"collection_times": [{"days": "Mon-Fri", "time": "5:00pm"}, {"days": "Sat", "time": "4:00pm"}, {"days": "Sun", "time": "Closed"}], "id": "8409700021", "name": "USPS COLLECTION BOX - BLUE BOX", "address": {"city": "OREM", "state": "UT", "street": "877 E 1200 S", "postcode": "84097"}}},
{"geometry": {"type": "Point", "coordinates": [-111.6737782518, 40.2750397059]}, "type": "Feature", "properties": {"collection_times": [{"days": "Mon-Fri", "time": "5:00pm"}, {"days": "Sat", "time": "4:30pm"}, {"days": "Sun", "time": "Closed"}], "id": "8409700023", "name": "USPS COLLECTION BOX - PO LOBBY", "address": {"city": "OREM", "state": "UT", "street": "877 E 1200 S", "postcode": "84097"}}},
{"geometry": {"type": "Point", "coordinates": [-111.6737782518, 40.2750397059]}, "type": "Feature", "properties": {"collection_times": [{"days": "Mon-Fri", "time": "5:00pm"}, {"days": "Sat", "time": "4:30pm"}, {"days": "Sun", "time": "Closed"}], "id": "8409700028", "name": "USPS COLLECTION BOX - APC", "address": {"city": "OREM", "state": "UT", "street": "877 E 1200 S", "postcode": "84097"}}},
{"geometry": {"type": "Point", "coordinates": [-111.6894006996, 40.2733219454]}, "type": "Feature", "properties": {"collection_times": [{"days": "Mon-Fri", "time": "4:00pm"}, {"days": "Sat", "time": "3:00pm"}, {"days": "Sun", "time": "Closed"}], "id": "8409700030", "name": "USPS COLLECTION BOX - BLUE BOX", "address": {"city": "OREM", "state": "UT", "street": "250 E UNIVERSITY PKWY", "postcode": "84097"}}},
{"geometry": {"type": "Point", "coordinates": [-111.6737782518, 40.2750397059]}, "type": "Feature", "properties": {"collection_times": [{"days": "Mon-Fri", "time": "5:00pm"}, {"days": "Sat", "time": "4:30pm"}, {"days": "Sun", "time": "Closed"}], "id": "8409700031", "name": "USPS COLLECTION BOX - PO LOBBY", "address": {"city": "OREM", "state": "UT", "street": "877 E 1200 S", "postcode": "84097"}}},
{"geometry": {"type": "Point", "coordinates": [-111.6901692914, 40.2804616173]}, "type": "Feature", "properties": {"collection_times": [{"days": "Mon-Fri", "time": "4:00pm"}, {"days": "Sat", "time": "3:00pm"}, {"days": "Sun", "time": "Closed"}], "id": "8409700034", "name": "USPS COLLECTION BOX - BLUE BOX", "address": {"city": "OREM", "state": "UT", "street": "901 S OREM BLVD", "postcode": "84097"}}},
{"geometry": {"type": "Point", "coordinates": [-111.5445751444, 40.7242727821]}, "type": "Feature", "properties": {"collection_times": [{"days": "Mon-Fri", "time": "5:30pm"}, {"days": "Sat", "time": "12:45pm"}, {"days": "Sun", "time": "Closed"}], "id": "8409800002", "name": "USPS COLLECTION BOX - PO LOBBY", "address": {"city": "SNYDERVILLE", "state": "UT", "street": "6440 HIGHWAY 224", "postcode": "84098"}}},
{"geometry": {"type": "Point", "coordinates": [-111.5445751444, 40.7242727821]}, "type": "Feature", "properties": {"collection_times": [{"days": "Mon-Fri", "time": "4:30pm"}, {"days": "Sat", "time": "12:45pm"}, {"days": "Sun", "time": "Closed"}], "id": "8409800003", "name": "USPS COLLECTION BOX - BLUE BOX", "address": {"city": "SNYDERVILLE", "state": "UT", "street": "6440 HIGHWAY 224", "postcode": "84098"}}},
{"geometry": {"type": "Point", "coordinates": [-111.5474870757, 40.7247903137]}, "type": "Feature", "properties": {"collection_times": [{"days": "Mon-Sat", "time": "11:00am"}, {"days": "Sun", "time": "Closed"}], "id": "8409800007", "name": "USPS COLLECTION BOX - BLUE BOX", "address": {"city": "SNYDERVILLE", "state": "UT", "street": "6541 N LANDMARK DR", "postcode": "84098"}}},
{"geometry": {"type": "Point", "coordinates": [-111.57111985, 40.7507232946]}, "type": "Feature", "properties": {"collection_times": [{"days": "Mon-Sat", "time": "10:30am"}, {"days": "Sun", "time": "Closed"}], "id": "8409800008", "name": "USPS COLLECTION BOX - BLUE BOX", "address": {"city": "SNYDERVILLE", "state": "UT", "street": "3151 KILBY RD", "postcode": "84098"}}},
{"geometry": {"type": "Point", "coordinates": [-111.5445751444, 40.7242727821]}, "type": "Feature", "properties": {"collection_times": [{"days": "Mon-Fri", "time": "5:30pm"}, {"days": "Sat", "time": "12:45pm"}, {"days": "Sun", "time": "Closed"}], "id": "8409800009", "name": "USPS COLLECTION BOX - PO LOBBY", "address": {"city": "SNYDERVILLE", "state": "UT", "street": "6440 HIGHWAY 224", "postcode": "84098"}}},
{"geometry": {"type": "Point", "coordinates": [-111.5445751444, 40.7242727821]}, "type": "Feature", "properties": {"collection_times": [{"days": "Mon-Fri", "time": "5:30pm"}, {"days": "Sat", "time": "12:45pm"}, {"days": "Sun", "time": "Closed"}], "id": "8409800010", "name": "USPS COLLECTION BOX - PO LOBBY", "address": {"city": "SNYDERVILLE", "state": "UT", "street": "6440 HIGHWAY 224", "postcode": "84098"}}}
]}
