{"type": "FeatureCollection", "features": [
{"geometry": {"type": "Point", "coordinates": [-111.8972891024, 40.751896063]}, "type": "Feature", "properties": {"collection_times": [{"days": "Mon-Fri", "time": "5:00pm"}, {"days": "Sat-Sun", "time": "Closed"}], "id": "8410100002", "name": "USPS COLLECTION BOX - BLUE BOX", "address": {"city": "SALT LAKE CITY", "state": "UT", "street": "215 W 800 S", "postcode": "84101"}}},
{"geometry": {"type": "Point", "coordinates": [-111.8913199066, 40.7672926307]}, "type": "Feature", "properties": {"collection_times": [{"days": "Mon-Fri", "time": "2:00pm"}, {"days": "Sat-Sun", "time": "Closed"}], "id": "8410100016", "name": "USPS COLLECTION BOX - BLUE BOX", "address": {"city": "SALT LAKE CITY", "state": "UT", "street": "8 W 100 S", "postcode": "84101"}}},
{"geometry": {"type": "Point", "coordinates": [-111.8976309503, 40.7650279947]}, "type": "Feature", "properties": {"collection_times": [{"days": "Mon-Fri", "time": "6:00pm"}, {"days": "Sat", "time": "5:00pm"}, {"days": "Sun", "time": "Closed"}], "id": "8410100041", "name": "USPS COLLECTION BOX - BLUE BOX", "address": {"city": "SALT LAKE CITY", "state": "UT", "street": "230 W 200 S", "postcode": "84101"}}},
{"geometry": {"type": "Point", "coordinates": [-111.8917569998, 40.7629349437]}, "type": "Feature", "properties": {"collection_times": [{"days": "Mon-Fri", "time": "5:00pm"}, {"days": "Sat-Sun", "time": "Closed"}], "id": "8410100048", "name": "USPS COLLECTION BOX - BLUE BOX", "address": {"city": "SALT LAKE CITY", "state": "UT", "street": "20 W 300 S", "postcode": "84101"}}},
{"geometry": {"type": "Point", "coordinates": [-111.8930972637, 40.7649838003]}, "type": "Feature", "properties": {"collection_times": [{"days": "Mon-Fri", "time": "5:00pm"}, {"days": "Sat-Sun", "time": "Closed"}], "id": "8410100096", "name": "USPS COLLECTION BOX - BLUE BOX", "address": {"city": "SALT LAKE CITY", "state": "UT", "street": "55 W 200 S", "postcode": "84101"}}},
{"geometry": {"type": "Point", "coordinates": [-111.8976309503, 40.7650279947]}, "type": "Feature", "properties": {"collection_times": [{"days": "Mon-Fri", "time": "5:00pm"}, {"days": "Sat-Sun", "time": "Closed"}], "id": "8410100101", "name": "USPS COLLECTION BOX - PO LOBBY", "address": {"city": "SALT LAKE CITY", "state": "UT", "street": "230 W 200 S", "postcode": "84101"}}},
{"geometry": {"type": "Point", "coordinates": [-111.8973580043, 40.7605828288]}, "type": "Feature", "properties": {"collection_times": [{"days": "Mon-Fri", "time": "5:30pm"}, {"days": "Sat", "time": "2:00pm"}, {"days": "Sun", "time": "Closed"}], "id": "8410100102", "name": "USPS COLLECTION BOX - PO LOBBY", "address": {"city": "SALT LAKE CITY", "state": "UT", "street": "230 W 200 S", "postcode": "84101"}}},
{"geometry": {"type": "Point", "coordinates": [-111.8917569998, 40.7629349437]}, "type": "Feature", "properties": {"collection_times": [{"days": "Mon-Fri", "time": "5:00pm"}, {"days": "Sat-Sun", "time": "Closed"}], "id": "8410100106", "name": "USPS COLLECTION BOX - BLUE BOX", "address": {"city": "SALT LAKE CITY", "state": "UT", "street": "20 W 300 S", "postcode": "84101"}}},
{"geometry": {"type": "Point", "coordinates": [-111.8911404092, 40.7693197334]}, "type": "Feature", "properties": {"collection_times": [{"days": "Mon-Fri", "time": "5:00pm"}, {"days": "Sat-Sun", "time": "Closed"}], "id": "8410100107", "name": "USPS COLLECTION BOX - BLUE BOX", "address": {"city": "SALT LAKE CITY", "state": "UT", "street": "4 S MAIN ST", "postcode": "84101"}}},
{"geometry": {"type": "Point", "coordinates": [-111.8911404092, 40.7693197334]}, "type": "Feature", "properties": {"collection_times": [{"days": "Mon-Fri", "time": "5:00pm"}, {"days": "Sat-Sun", "time": "Closed"}], "id": "8410100110", "name": "USPS COLLECTION BOX - BLUE BOX", "address": {"city": "SALT LAKE CITY", "state": "UT", "street": "4 S MAIN ST", "postcode": "84101"}}},
{"geometry": {"type": "Point", "coordinates": [-111.8917569998, 40.7629349437]}, "type": "Feature", "properties": {"collection_times": [{"days": "Mon-Fri", "time": "5:00pm"}, {"days": "Sat-Sun", "time": "Closed"}], "id": "8410100123", "name": "USPS COLLECTION BOX - BLUE BOX", "address": {"city": "SALT LAKE CITY", "state": "UT", "street": "20 W 300 S", "postcode": "84101"}}},
{"geometry": {"type": "Point", "coordinates": [-111.8973580043, 40.7605828288]}, "type": "Feature", "properties": {"collection_times": [{"days": "Mon-Fri", "time": "5:30pm"}, {"days": "Sat", "time": "2:00pm"}, {"days": "Sun", "time": "Closed"}], "id": "8410100129", "name": "USPS COLLECTION BOX - APC", "address": {"city": "SALT LAKE CITY", "state": "UT", "street": "230 W 200 S", "postcode": "84101"}}},
{"geometry": {"type": "Point", "coordinates": [-111.9024142825, 40.7704866551]}, "type": "Feature", "properties": {"collection_times": [{"days": "Mon-Fri", "time": "2:00pm"}, {"days": "Sat-Sun", "time": "Closed"}], "id": "8410100131", "name": "USPS COLLECTION BOX - BLUE BOX", "address": {"city": "SALT LAKE CITY", "state": "UT", "street": "172 S RIO GRANDE ST", "postcode": "84101"}}},
{"geometry": {"type": "Point", "coordinates": [-111.8911404092, 40.7693197334]}, "type": "Feature", "properties": {"collection_times": [{"days": "Mon-Fri", "time": "5:00pm"}, {"days": "Sat-Sun", "time": "Closed"}], "id": "8410100132", "name": "USPS COLLECTION BOX - BLUE BOX", "address": {"city": "SALT LAKE CITY", "state": "UT", "street": "4 S MAIN ST", "postcode": "84101"}}},
{"geometry": {"type": "Point", "coordinates": [-111.8911646661, 40.7662697413]}, "type": "Feature", "properties": {"collection_times": [{"days": "Mon-Fri", "time": "5:00pm"}, {"days": "Sat-Sun", "time": "Closed"}], "id": "8410100133", "name": "USPS COLLECTION BOX - BLUE BOX", "address": {"city": "SALT LAKE CITY", "state": "UT", "street": "136 S MAIN ST", "postcode": "84101"}}},
{"geometry": {"type": "Point", "coordinates": [-111.8596166154, 40.7688699917]}, "type": "Feature", "properties": {"collection_times": [{"days": "Mon-Fri", "time": "5:00pm"}, {"days": "Sat-Sun", "time": "Closed"}], "id": "8410200009", "name": "USPS COLLECTION BOX - BLUE BOX", "address": {"city": "SALT LAKE CITY", "state": "UT", "street": "24 S 1100 E", "postcode": "84102"}}},
{"geometry": {"type": "Point", "coordinates": [-111.876740862, 40.7649627954]}, "type": "Feature", "properties": {"collection_times": [{"days": "Mon-Fri", "time": "5:00pm"}, {"days": "Sat-Sun", "time": "Closed"}], "id": "8410200020", "name": "USPS COLLECTION BOX - BLUE BOX", "address": {"city": "SALT LAKE CITY", "state": "UT", "street": "500 E 200 S", "postcode": "84102"}}},
{"geometry": {"type": "Point", "coordinates": [-111.8739703576, 40.7661384329]}, "type": "Feature", "properties": {"collection_times": [{"days": "Mon-Fri", "time": "5:00pm"}, {"days": "Sat", "time": "4:00pm"}, {"days": "Sun", "time": "Closed"}], "id": "8410200023", "name": "USPS COLLECTION BOX - BLUE BOX", "address": {"city": "SALT LAKE CITY", "state": "UT", "street": "150 S 600 E", "postcode": "84102"}}},
{"geometry": {"type": "Point", "coordinates": [-111.9106610128, 40.7562157731]}, "type": "Feature", "properties": {"collection_times": [{"days": "Mon-Fri", "time": "1:00pm"}, {"days": "Sat", "time": "4:00pm"}, {"days": "Sun", "time": "Closed"}], "id": "8410200036", "name": "USPS COLLECTION BOX - BLUE BOX", "address": {"city": "SALT LAKE CITY", "state": "UT", "street": "675 E 600 S", "postcode": "84102"}}},
{"geometry": {"type": "Point", "coordinates": [-111.8698501115, 40.7693442517]}, "type": "Feature", "properties": {"collection_times": [{"days": "Mon-Fri", "time": "5:00pm"}, {"days": "Sat-Sun", "time": "Closed"}], "id": "8410200042", "name": "USPS COLLECTION BOX - BLUE BOX", "address": {"city": "SALT LAKE CITY", "state": "UT", "street": "731 E SOUTH TEMPLE", "postcode": "84102"}}},
{"geometry": {"type": "Point", "coordinates": [-111.876740862, 40.7649627954]}, "type": "Feature", "properties": {"collection_times": [{"days": "Mon-Fri", "time": "5:00pm"}, {"days": "Sat-Sun", "time": "Closed"}], "id": "8410200043", "name": "USPS COLLECTION BOX - BLUE BOX", "address": {"city": "SALT LAKE CITY", "state": "UT", "street": "500 E 200 S", "postcode": "84102"}}},
{"geometry": {"type": "Point", "coordinates": [-111.866325975, 40.7627814016]}, "type": "Feature", "properties": {"collection_times": [{"days": "Mon-Fri", "time": "5:00pm"}, {"days": "Sat-Sun", "time": "Closed"}], "id": "8410200048", "name": "USPS COLLECTION BOX - EXPRESS", "address": {"city": "SALT LAKE CITY", "state": "UT", "street": "551 E 500 S", "postcode": "84102"}}},
{"geometry": {"type": "Point", "coordinates": [-111.8740434568, 40.7671778651]}, "type": "Feature", "properties": {"collection_times": [{"days": "Mon-Fri", "time": "2:00pm"}, {"days": "Sat", "time": "4:00pm"}, {"days": "Sun", "time": "Closed"}], "id": "8410200049", "name": "USPS COLLECTION BOX - BLUE BOX", "address": {"city": "SALT LAKE CITY", "state": "UT", "street": "100 S 600 E", "postcode": "84102"}}},
{"geometry": {"type": "Point", "coordinates": [-111.8752840413, 40.7585769505]}, "type": "Feature", "properties": {"collection_times": [{"days": "Mon-Fri", "time": "5:00pm"}, {"days": "Sat-Sun", "time": "Closed"}], "id": "8410200060", "name": "USPS COLLECTION BOX - BLUE BOX", "address": {"city": "SALT LAKE CITY", "state": "UT", "street": "551 E 500 S", "postcode": "84102"}}},
{"geometry": {"type": "Point", "coordinates": [-111.8667176362, 40.7520008903]}, "type": "Feature", "properties": {"collection_times": [{"days": "Mon-Fri", "time": "1:00pm"}, {"days": "Sat", "time": "4:00pm"}, {"days": "Sun", "time": "Closed"}], "id": "8410200061", "name": "USPS COLLECTION BOX - BLUE BOX", "address": {"city": "SALT LAKE CITY", "state": "UT", "street": "876 E 800 S", "postcode": "84102"}}},
{"geometry": {"type": "Point", "coordinates": [-111.8698501115, 40.7693442517]}, "type": "Feature", "properties": {"collection_times": [{"days": "Mon-Fri", "time": "5:00pm"}, {"days": "Sat-Sun", "time": "Closed"}], "id": "8410200063", "name": "USPS COLLECTION BOX - BLUE BOX", "address": {"city": "SALT LAKE CITY", "state": "UT", "street": "731 E SOUTH TEMPLE", "postcode": "84102"}}},
{"geometry": {"type": "Point", "coordinates": [-111.8804776579, 40.7766506592]}, "type": "Feature", "properties": {"collection_times": [{"days": "Mon-Sat", "time": "1:00pm"}, {"days": "Sun", "time": "Closed"}], "id": "8410300004", "name": "USPS COLLECTION BOX - BLUE BOX", "address": {"city": "SALT LAKE CITY", "state": "UT", "street": "702 THIRD AVE", "postcode": "84103"}}},
{"geometry": {"type": "Point", "coordinates": [-111.8821140277, 40.7716817681]}, "type": "Feature", "properties": {"collection_times": [{"days": "Mon-Fri", "time": "2:00pm"}, {"days": "Sat", "time": "1:00pm"}, {"days": "Sun", "time": "Closed"}], "id": "8410300010", "name": "USPS COLLECTION BOX - BLUE BOX", "address": {"city": "SALT LAKE CITY", "state": "UT", "street": "256 SECOND AVE", "postcode": "84103"}}},
{"geometry": {"type": "Point", "coordinates": [-111.851695226, 40.7768618579]}, "type": "Feature", "properties": {"collection_times": [{"days": "Mon-Sat", "time": "1:00pm"}, {"days": "Sun", "time": "Closed"}], "id": "8410300035", "name": "USPS COLLECTION BOX - BLUE BOX", "address": {"city": "SALT LAKE CITY", "state": "UT", "street": "1260 E FAIRFAX RD", "postcode": "84103"}}},
{"geometry": {"type": "Point", "coordinates": [-111.8784251438, 40.7795920217]}, "type": "Feature", "properties": {"collection_times": [{"days": "Mon-Fri", "time": "1:00pm"}, {"days": "Sat-Sun", "time": "Closed"}], "id": "8410300038", "name": "USPS COLLECTION BOX - BLUE BOX", "address": {"city": "SALT LAKE CITY", "state": "UT", "street": "370 NINTH AVE", "postcode": "84103"}}},
{"geometry": {"type": "Point", "coordinates": [-111.9168792545, 40.7514018731]}, "type": "Feature", "properties": {"collection_times": [{"days": "Mon-Sat", "time": "1:00pm"}, {"days": "Sun", "time": "Closed"}], "id": "8410400014", "name": "USPS COLLECTION BOX - BLUE BOX", "address": {"city": "SALT LAKE CITY", "state": "UT", "street": "820 S 900 W", "postcode": "84104"}}},
{"geometry": {"type": "Point", "coordinates": [-111.977209131, 40.726530107]}, "type": "Feature", "properties": {"collection_times": [{"days": "Mon-Fri", "time": "4:00pm"}, {"days": "Sat-Sun", "time": "Closed"}], "id": "8410400018", "name": "USPS COLLECTION BOX - BLUE BOX", "address": {"city": "SALT LAKE CITY", "state": "UT", "street": "2098 S 3600 W", "postcode": "84104"}}},
{"geometry": {"type": "Point", "coordinates": [-111.9461306202, 40.7404528381]}, "type": "Feature", "properties": {"collection_times": [{"days": "Mon-Fri", "time": "4:00pm"}, {"days": "Sat-Sun", "time": "Closed"}], "id": "8410400029", "name": "USPS COLLECTION BOX - BLUE BOX", "address": {"city": "SALT LAKE CITY", "state": "UT", "street": "1953 W CALIFORNIA AVE", "postcode": "84104"}}},
{"geometry": {"type": "Point", "coordinates": [-111.9564912091, 40.7404729552]}, "type": "Feature", "properties": {"collection_times": [{"days": "Mon-Fri", "time": "4:00pm"}, {"days": "Sat-Sun", "time": "Closed"}], "id": "8410400038", "name": "USPS COLLECTION BOX - BLUE BOX", "address": {"city": "SALT LAKE CITY", "state": "UT", "street": "2597 CALIFORNIA AVE", "postcode": "84104"}}},
{"geometry": {"type": "Point", "coordinates": [-111.9895944258, 40.7307331451]}, "type": "Feature", "properties": {"collection_times": [{"days": "Mon-Fri", "time": "4:00pm"}, {"days": "Sat-Sun", "time": "Closed"}], "id": "8410400041", "name": "USPS COLLECTION BOX - BLUE BOX", "address": {"city": "SALT LAKE CITY", "state": "UT", "street": "1825 S 4130 W", "postcode": "84104"}}},
{"geometry": {"type": "Point", "coordinates": [-112.0056914435, 40.741172579]}, "type": "Feature", "properties": {"collection_times": [{"days": "Mon-Fri", "time": "1:00pm"}, {"days": "Sat-Sun", "time": "Closed"}], "id": "8410400044", "name": "USPS COLLECTION BOX - BLUE BOX", "address": {"city": "SALT LAKE CITY", "state": "UT", "street": "1275 S 4800 W", "postcode": "84104"}}},
{"geometry": {"type": "Point", "coordinates": [-111.8478842296, 40.7371251203]}, "type": "Feature", "properties": {"collection_times": [{"days": "Mon-Fri", "time": "1:00pm"}, {"days": "Sat", "time": "2:00pm"}, {"days": "Sun", "time": "Closed"}], "id": "8410500030", "name": "USPS COLLECTION BOX - BLUE BOX", "address": {"city": "SALT LAKE CITY", "state": "UT", "street": "1500 E EMERSON AVE", "postcode": "84105"}}},
{"geometry": {"type": "Point", "coordinates": [-111.8597039855, 40.7126471284]}, "type": "Feature", "properties": {"collection_times": [{"days": "Mon-Fri", "time": "1:00pm"}, {"days": "Sat", "time": "3:00pm"}, {"days": "Sun", "time": "Closed"}], "id": "8410600010", "name": "USPS COLLECTION BOX - BLUE BOX", "address": {"city": "SALT LAKE CITY", "state": "UT", "street": "1100 E 2700 S", "postcode": "84106"}}},
{"geometry": {"type": "Point", "coordinates": [-111.8713430057, 40.6993024343]}, "type": "Feature", "properties": {"collection_times": [{"days": "Mon-Fri", "time": "1:00pm"}, {"days": "Sat-Sun", "time": "Closed"}], "id": "8410600011", "name": "USPS COLLECTION BOX - BLUE BOX", "address": {"city": "SALT LAKE CITY", "state": "UT", "street": "3330 S 700 E", "postcode": "84106"}}},
{"geometry": {"type": "Point", "coordinates": [-111.8436625685, 40.7077228627]}, "type": "Feature", "properties": {"collection_times": [{"days": "Mon-Fri", "time": "1:00pm"}, {"days": "Sat", "time": "3:00pm"}, {"days": "Sun", "time": "Closed"}], "id": "8410600013", "name": "USPS COLLECTION BOX - BLUE BOX", "address": {"city": "SALT LAKE CITY", "state": "UT", "street": "2910 S IMPERIAL ST", "postcode": "84106"}}},
{"geometry": {"type": "Point", "coordinates": [-111.8527450522, 40.7055592309]}, "type": "Feature", "properties": {"collection_times": [{"days": "Mon-Fri", "time": "3:00pm"}, {"days": "Sat", "time": "4:00pm"}, {"days": "Sun", "time": "Closed"}], "id": "8410600014", "name": "USPS COLLECTION BOX - BLUE BOX", "address": {"city": "SALT LAKE CITY", "state": "UT", "street": "3015 S HIGHLAND DR", "postcode": "84106"}}},
{"geometry": {"type": "Point", "coordinates": [-111.865435558, 40.6903485791]}, "type": "Feature", "properties": {"collection_times": [{"days": "Mon-Fri", "time": "1:00pm"}, {"days": "Sat", "time": "3:00pm"}, {"days": "Sun", "time": "Closed"}], "id": "8410600021", "name": "USPS COLLECTION BOX - BLUE BOX", "address": {"city": "SALT LAKE CITY", "state": "UT", "street": "3725 S 900 E", "postcode": "84106"}}},
{"geometry": {"type": "Point", "coordinates": [-111.8604961249, 40.7028682137]}, "type": "Feature", "properties": {"collection_times": [{"days": "Mon-Fri", "time": "4:00pm"}, {"days": "Sat-Sun", "time": "Closed"}], "id": "8410600029", "name": "USPS COLLECTION BOX - BLUE BOX", "address": {"city": "SALT LAKE CITY", "state": "UT", "street": "1143 BRICKYARD RD", "postcode": "84106"}}},
{"geometry": {"type": "Point", "coordinates": [-111.8538365576, 40.7241681879]}, "type": "Feature", "properties": {"collection_times": [{"days": "Mon-Fri", "time": "5:00pm"}, {"days": "Sat-Sun", "time": "Closed"}], "id": "8410600033", "name": "USPS COLLECTION BOX - BLUE BOX", "address": {"city": "SALT LAKE CITY", "state": "UT", "street": "2150 S 1300 E", "postcode": "84106"}}},
{"geometry": {"type": "Point", "coordinates": [-111.8596376268, 40.7274852487]}, "type": "Feature", "properties": {"collection_times": [{"days": "Mon-Fri", "time": "6:00pm"}, {"days": "Sat", "time": "5:00pm"}, {"days": "Sun", "time": "Closed"}], "id": "8410600044", "name": "USPS COLLECTION BOX - BLUE BOX", "address": {"city": "SALT LAKE CITY", "state": "UT", "street": "1953 S 1100 E", "postcode": "84106"}}},
{"geometry": {"type": "Point", "coordinates": [-111.8596376268, 40.7274852487]}, "type": "Feature", "properties": {"collection_times": [{"days": "Mon-Fri", "time": "6:00pm"}, {"days": "Sat", "time": "4:45pm"}, {"days": "Sun", "time": "Closed"}], "id": "8410600048", "name": "USPS COLLECTION BOX - PO LOBBY", "address": {"city": "SALT LAKE CITY", "state": "UT", "street": "1953 S 1100 E", "postcode": "84106"}}},
{"geometry": {"type": "Point", "coordinates": [-111.8456920404, 40.715553225]}, "type": "Feature", "properties": {"collection_times": [{"days": "Mon-Fri", "time": "1:00pm"}, {"days": "Sat", "time": "3:00pm"}, {"days": "Sun", "time": "Closed"}], "id": "8410600051", "name": "USPS COLLECTION BOX - BLUE BOX", "address": {"city": "SALT LAKE CITY", "state": "UT", "street": "1575 E STRATFORD AVE", "postcode": "84106"}}},
{"geometry": {"type": "Point", "coordinates": [-111.8596376268, 40.7274852487]}, "type": "Feature", "properties": {"collection_times": [{"days": "Mon-Fri", "time": "6:00pm"}, {"days": "Sat", "time": "4:45pm"}, {"days": "Sun", "time": "Closed"}], "id": "8410600054", "name": "USPS COLLECTION BOX - APC", "address": {"city": "SALT LAKE CITY", "state": "UT", "street": "1953 S 1100 E", "postcode": "84106"}}},
{"geometry": {"type": "Point", "coordinates": [-111.8877336126, 40.6628686939]}, "type": "Feature", "properties": {"collection_times": [{"days": "Mon-Fri", "time": "6:00pm"}, {"days": "Sat", "time": "5:00pm"}, {"days": "Sun", "time": "Closed"}], "id": "8410700005", "name": "USPS COLLECTION BOX - BLUE BOX", "address": {"city": "SALT LAKE CITY", "state": "UT", "street": "120 E ARLINGTON AVE", "postcode": "84107"}}},
{"geometry": {"type": "Point", "coordinates": [-111.8877336126, 40.6628686939]}, "type": "Feature", "properties": {"collection_times": [{"days": "Mon-Fri", "time": "6:00pm"}, {"days": "Sat", "time": "5:00pm"}, {"days": "Sun", "time": "Closed"}], "id": "8410700006", "name": "USPS COLLECTION BOX - BLUE BOX", "address": {"city": "SALT LAKE CITY", "state": "UT", "street": "120 E ARLINGTON AVE", "postcode": "84107"}}},
{"geometry": {"type": "Point", "coordinates": [-111.8999676615, 40.6553187217]}, "type": "Feature", "properties": {"collection_times": [{"days": "Mon-Fri", "time": "5:00pm"}, {"days": "Sat-Sun", "time": "Closed"}], "id": "8410700008", "name": "USPS COLLECTION BOX - BLUE BOX", "address": {"city": "SALT LAKE CITY", "state": "UT", "street": "5290 S COMMERCE DR", "postcode": "84107"}}},
{"geometry": {"type": "Point", "coordinates": [-111.8999676615, 40.6553187217]}, "type": "Feature", "properties": {"collection_times": [{"days": "Mon-Fri", "time": "5:00pm"}, {"days": "Sat-Sun", "time": "Closed"}], "id": "8410700009", "name": "USPS COLLECTION BOX - BLUE BOX", "address": {"city": "SALT LAKE CITY", "state": "UT", "street": "5290 S COMMERCE DR", "postcode": "84107"}}},
{"geometry": {"type": "Point", "coordinates": [-111.8937151257, 40.6744354539]}, "type": "Feature", "properties": {"collection_times": [{"days": "Mon-Fri", "time": "1:00pm"}, {"days": "Sat-Sun", "time": "Closed"}], "id": "8410700011", "name": "USPS COLLECTION BOX - BLUE BOX", "address": {"city": "SALT LAKE CITY", "state": "UT", "street": "79 W 4500 S", "postcode": "84107"}}},
{"geometry": {"type": "Point", "coordinates": [-111.8926448903, 40.6431109069]}, "type": "Feature", "properties": {"collection_times": [{"days": "Mon-Fri", "time": "2:00pm"}, {"days": "Sat", "time": "1:00pm"}, {"days": "Sun", "time": "Closed"}], "id": "8410700012", "name": "USPS COLLECTION BOX - BLUE BOX", "address": {"city": "SALT LAKE CITY", "state": "UT", "street": "5899 S SAGEWOOD DR", "postcode": "84107"}}},
{"geometry": {"type": "Point", "coordinates": [-111.8916646317, 40.6333026652]}, "type": "Feature", "properties": {"collection_times": [{"days": "Mon-Fri", "time": "2:00pm"}, {"days": "Sat-Sun", "time": "Closed"}], "id": "8410700023", "name": "USPS COLLECTION BOX - BLUE BOX", "address": {"city": "SALT LAKE CITY", "state": "UT", "street": "10 W WINCHESTER ST", "postcode": "84107"}}},
{"geometry": {"type": "Point", "coordinates": [-111.8843706011, 40.6459004843]}, "type": "Feature", "properties": {"collection_times": [{"days": "Mon-Fri", "time": "2:00pm"}, {"days": "Sat", "time": "1:00pm"}, {"days": "Sun", "time": "Closed"}], "id": "8410700024", "name": "USPS COLLECTION BOX - BLUE BOX", "address": {"city": "SALT LAKE CITY", "state": "UT", "street": "250 E 5770 S", "postcode": "84107"}}},
{"geometry": {"type": "Point", "coordinates": [-111.8842532939, 40.6383305732]}, "type": "Feature", "properties": {"collection_times": [{"days": "Mon-Fri", "time": "2:00pm"}, {"days": "Sat", "time": "1:00pm"}, {"days": "Sun", "time": "Closed"}], "id": "8410700025", "name": "USPS COLLECTION BOX - BLUE BOX", "address": {"city": "SALT LAKE CITY", "state": "UT", "street": "250 E 6100 S", "postcode": "84107"}}},
{"geometry": {"type": "Point", "coordinates": [-111.8827245309, 40.6869154485]}, "type": "Feature", "properties": {"collection_times": [{"days": "Mon-Fri", "time": "5:00pm"}, {"days": "Sat", "time": "3:00pm"}, {"days": "Sun", "time": "Closed"}], "id": "8410700027", "name": "USPS COLLECTION BOX - BLUE BOX", "address": {"city": "SALT LAKE CITY", "state": "UT", "street": "3905 S 300 E", "postcode": "84107"}}},
{"geometry": {"type": "Point", "coordinates": [-111.882260534, 40.6742970477]}, "type": "Feature", "properties": {"collection_times": [{"days": "Mon-Fri", "time": "4:30pm"}, {"days": "Sat-Sun", "time": "Closed"}], "id": "8410700029", "name": "USPS COLLECTION BOX - BLUE BOX", "address": {"city": "SALT LAKE CITY", "state": "UT", "street": "310 E 4500 S", "postcode": "84107"}}},
{"geometry": {"type": "Point", "coordinates": [-111.882260534, 40.6742970477]}, "type": "Feature", "properties": {"collection_times": [{"days": "Mon-Fri", "time": "4:30pm"}, {"days": "Sat-Sun", "time": "Closed"}], "id": "8410700030", "name": "USPS COLLECTION BOX - BLUE BOX", "address": {"city": "SALT LAKE CITY", "state": "UT", "street": "310 E 4500 S", "postcode": "84107"}}},
{"geometry": {"type": "Point", "coordinates": [-111.8770828616, 40.6323333407]}, "type": "Feature", "properties": {"collection_times": [{"days": "Mon-Fri", "time": "5:00pm"}, {"days": "Sat-Sun", "time": "Closed"}], "id": "8410700035", "name": "USPS COLLECTION BOX - BLUE BOX", "address": {"city": "SALT LAKE CITY", "state": "UT", "street": "488 E WINCHESTER ST", "postcode": "84107"}}},
{"geometry": {"type": "Point", "coordinates": [-111.874677767, 40.6743313535]}, "type": "Feature", "properties": {"collection_times": [{"days": "Mon-Fri", "time": "4:30pm"}, {"days": "Sat-Sun", "time": "Closed"}], "id": "8410700038", "name": "USPS COLLECTION BOX - BLUE BOX", "address": {"city": "SALT LAKE CITY", "state": "UT", "street": "575 E 4500 S", "postcode": "84107"}}},
{"geometry": {"type": "Point", "coordinates": [-111.8714128003, 40.6846940741]}, "type": "Feature", "properties": {"collection_times": [{"days": "Mon-Fri", "time": "5:00pm"}, {"days": "Sat-Sun", "time": "Closed"}], "id": "8410700043", "name": "USPS COLLECTION BOX - BLUE BOX", "address": {"city": "SALT LAKE CITY", "state": "UT", "street": "4001 S 700 E", "postcode": "84107"}}},
{"geometry": {"type": "Point", "coordinates": [-111.8714128003, 40.6846940741]}, "type": "Feature", "properties": {"collection_times": [{"days": "Mon-Fri", "time": "5:00pm"}, {"days": "Sat-Sun", "time": "Closed"}], "id": "8410700044", "name": "USPS COLLECTION BOX - BLUE BOX", "address": {"city": "SALT LAKE CITY", "state": "UT", "street": "4001 S 700 E", "postcode": "84107"}}},
{"geometry": {"type": "Point", "coordinates": [-111.882260534, 40.6742970477]}, "type": "Feature", "properties": {"collection_times": [{"days": "Mon-Fri", "time": "4:30pm"}, {"days": "Sat-Sun", "time": "Closed"}], "id": "8410700070", "name": "USPS COLLECTION BOX - BLUE BOX", "address": {"city": "SALT LAKE CITY", "state": "UT", "street": "310 E 4500 S", "postcode": "84107"}}},
{"geometry": {"type": "Point", "coordinates": [-111.8714128003, 40.6846940741]}, "type": "Feature", "properties": {"collection_times": [{"days": "Mon-Fri", "time": "9:00am"}, {"days": "Sat-Sun", "time": "Closed"}], "id": "8410700074", "name": "USPS COLLECTION BOX - BLUE BOX", "address": {"city": "SALT LAKE CITY", "state": "UT", "street": "4001 S 700 E", "postcode": "84107"}}},
{"geometry": {"type": "Point", "coordinates": [-111.8881080835, 40.6631104648]}, "type": "Feature", "properties": {"collection_times": [{"days": "Mon-Fri", "time": "6:00pm"}, {"days": "Sat", "time": "3:30pm"}, {"days": "Sun", "time": "Closed"}], "id": "8410700075", "name": "USPS COLLECTION BOX - APC", "address": {"city": "SALT LAKE CITY", "state": "UT", "street": "4989 S STATE ST", "postcode": "84107"}}},
{"geometry": {"type": "Point", "coordinates": [-111.8713265436, 40.6858406243]}, "type": "Feature", "properties": {"collection_times": [{"days": "Mon-Fri", "time": "5:00pm"}, {"days": "Sat-Sun", "time": "Closed"}], "id": "8410700085", "name": "USPS COLLECTION BOX - BLUE BOX", "address": {"city": "SALT LAKE CITY", "state": "UT", "street": "3949 S 700 E", "postcode": "84107"}}},
{"geometry": {"type": "Point", "coordinates": [-111.8872620845, 40.6492502576]}, "type": "Feature", "properties": {"collection_times": [{"days": "Mon-Fri", "time": "2:00pm"}, {"days": "Sat-Sun", "time": "Closed"}], "id": "8410700095", "name": "USPS COLLECTION BOX - BLUE BOX", "address": {"city": "SALT LAKE CITY", "state": "UT", "street": "111 E 5600 S", "postcode": "84107"}}},
{"geometry": {"type": "Point", "coordinates": [-111.8943102963, 40.6589136491]}, "type": "Feature", "properties": {"collection_times": [{"days": "Mon-Fri", "time": "2:00pm"}, {"days": "Sat-Sun", "time": "Closed"}], "id": "8410700096", "name": "USPS COLLECTION BOX - BLUE BOX", "address": {"city": "SALT LAKE CITY", "state": "UT", "street": "5169 S COTTONWOOD ST", "postcode": "84107"}}},
{"geometry": {"type": "Point", "coordinates": [-111.8937352302, 40.6603466361]}, "type": "Feature", "properties": {"collection_times": [{"days": "Mon-Fri", "time": "2:00pm"}, {"days": "Sat-Sun", "time": "Closed"}], "id": "8410700097", "name": "USPS COLLECTION BOX - BLUE BOX", "address": {"city": "SALT LAKE CITY", "state": "UT", "street": "5121 S COTTONWOOD ST", "postcode": "84107"}}},
{"geometry": {"type": "Point", "coordinates": [-111.8713595672, 40.631912811]}, "type": "Feature", "properties": {"collection_times": [{"days": "Mon-Fri", "time": "1:00pm"}, {"days": "Sat-Sun", "time": "Closed"}], "id": "8410700098", "name": "USPS COLLECTION BOX - BLUE BOX", "address": {"city": "SALT LAKE CITY", "state": "UT", "street": "746 E WINCHESTER ST", "postcode": "84107"}}},
{"geometry": {"type": "Point", "coordinates": [-111.8881080835, 40.6631104648]}, "type": "Feature", "properties": {"collection_times": [{"days": "Mon-Fri", "time": "6:00pm"}, {"days": "Sat", "time": "3:30pm"}, {"days": "Sun", "time": "Closed"}], "id": "8410700099", "name": "USPS COLLECTION BOX - PO LOBBY", "address": {"city": "SALT LAKE CITY", "state": "UT", "street": "4989 S STATE ST", "postcode": "84107"}}},
{"geometry": {"type": "Point", "coordinates": [-111.8422004123, 40.741491763]}, "type": "Feature", "properties": {"collection_times": [{"days": "Mon-Fri", "time": "1:00pm"}, {"days": "Sat", "time": "2:00pm"}, {"days": "Sun", "time": "Closed"}], "id": "8410800002", "name": "USPS COLLECTION BOX - BLUE BOX", "address": {"city": "SALT LAKE CITY", "state": "UT", "street": "1305 S 1700 E", "postcode": "84108"}}},
{"geometry": {"type": "Point", "coordinates": [-111.8250407099, 40.7260580137]}, "type": "Feature", "properties": {"collection_times": [{"days": "Mon-Fri", "time": "3:00pm"}, {"days": "Sat", "time": "2:00pm"}, {"days": "Sun", "time": "Closed"}], "id": "8410800005", "name": "USPS COLLECTION BOX - BLUE BOX", "address": {"city": "SALT LAKE CITY", "state": "UT", "street": "2080 S 2300 E", "postcode": "84108"}}},
{"geometry": {"type": "Point", "coordinates": [-111.8278324691, 40.7402816863]}, "type": "Feature", "properties": {"collection_times": [{"days": "Mon-Fri", "time": "5:00pm"}, {"days": "Sat", "time": "2:00pm"}, {"days": "Sun", "time": "Closed"}], "id": "8410800009", "name": "USPS COLLECTION BOX - BLUE BOX", "address": {"city": "SALT LAKE CITY", "state": "UT", "street": "1351 S 2200 E", "postcode": "84108"}}},
{"geometry": {"type": "Point", "coordinates": [-111.82594, 40.75079]}, "type": "Feature", "properties": {"collection_times": [{"days": "Mon-Fri", "time": "6:00pm"}, {"days": "Sat", "time": "5:00pm"}, {"days": "Sun", "time": "Closed"}], "id": "8410800013", "name": "USPS COLLECTION BOX - BLUE BOX", "address": {"city": "SALT LAKE CITY", "state": "UT", "street": "2255 E SUNNYSIDE AVE", "postcode": "84108"}}},
{"geometry": {"type": "Point", "coordinates": [-111.8259409934, 40.750818514]}, "type": "Feature", "properties": {"collection_times": [{"days": "Mon-Fri", "time": "5:30pm"}, {"days": "Sat", "time": "4:00pm"}, {"days": "Sun", "time": "Closed"}], "id": "8410800017", "name": "USPS COLLECTION BOX - PO LOBBY", "address": {"city": "SALT LAKE CITY", "state": "UT", "street": "2255 E SUNNYSIDE AVE", "postcode": "84108"}}},
{"geometry": {"type": "Point", "coordinates": [-111.8259409934, 40.750818514]}, "type": "Feature", "properties": {"collection_times": [{"days": "Mon-Fri", "time": "5:30pm"}, {"days": "Sat", "time": "4:00pm"}, {"days": "Sun", "time": "Closed"}], "id": "8410800018", "name": "USPS COLLECTION BOX - PO LOBBY", "address": {"city": "SALT LAKE CITY", "state": "UT", "street": "2255 E SUNNYSIDE AVE", "postcode": "84108"}}},
{"geometry": {"type": "Point", "coordinates": [-111.8259409934, 40.750818514]}, "type": "Feature", "properties": {"collection_times": [{"days": "Mon-Fri", "time": "5:30pm"}, {"days": "Sat", "time": "4:00pm"}, {"days": "Sun", "time": "Closed"}], "id": "8410800019", "name": "USPS COLLECTION BOX - PO LOBBY", "address": {"city": "SALT LAKE CITY", "state": "UT", "street": "2255 E SUNNYSIDE AVE", "postcode": "84108"}}},
{"geometry": {"type": "Point", "coordinates": [-111.8259409934, 40.750818514]}, "type": "Feature", "properties": {"collection_times": [{"days": "Mon-Fri", "time": "5:30pm"}, {"days": "Sat", "time": "4:00pm"}, {"days": "Sun", "time": "Closed"}], "id": "8410800021", "name": "USPS COLLECTION BOX - APC", "address": {"city": "SALT LAKE CITY", "state": "UT", "street": "2255 E SUNNYSIDE AVE", "postcode": "84108"}}},
{"geometry": {"type": "Point", "coordinates": [-111.8236910527, 40.6998347659]}, "type": "Feature", "properties": {"collection_times": [{"days": "Mon-Fri", "time": "4:00pm"}, {"days": "Sat", "time": "2:00pm"}, {"days": "Sun", "time": "Closed"}], "id": "8410900008", "name": "USPS COLLECTION BOX - BLUE BOX", "address": {"city": "SALT LAKE CITY", "state": "UT", "street": "2330 E 3300 S", "postcode": "84109"}}},
{"geometry": {"type": "Point", "coordinates": [-111.8005944217, 40.700951022]}, "type": "Feature", "properties": {"collection_times": [{"days": "Mon-Fri", "time": "1:00pm"}, {"days": "Sat", "time": "2:00pm"}, {"days": "Sun", "time": "Closed"}], "id": "8410900010", "name": "USPS COLLECTION BOX - BLUE BOX", "address": {"city": "SALT LAKE CITY", "state": "UT", "street": "3215 S VALLEY ST", "postcode": "84109"}}},
{"geometry": {"type": "Point", "coordinates": [-111.8092376601, 40.6992704944]}, "type": "Feature", "properties": {"collection_times": [{"days": "Mon-Fri", "time": "5:30pm"}, {"days": "Sat", "time": "2:30pm"}, {"days": "Sun", "time": "Closed"}], "id": "8410900028", "name": "USPS COLLECTION BOX - PO LOBBY", "address": {"city": "SALT LAKE CITY", "state": "UT", "street": "3350 S 2940 E", "postcode": "84109"}}},
{"geometry": {"type": "Point", "coordinates": [-111.8092376601, 40.6992704944]}, "type": "Feature", "properties": {"collection_times": [{"days": "Mon-Fri", "time": "5:30pm"}, {"days": "Sat", "time": "2:30pm"}, {"days": "Sun", "time": "Closed"}], "id": "8410900029", "name": "USPS COLLECTION BOX - PO LOBBY", "address": {"city": "SALT LAKE CITY", "state": "UT", "street": "3350 S 2940 E", "postcode": "84109"}}},
{"geometry": {"type": "Point", "coordinates": [-111.8340443958, 40.6997862051]}, "type": "Feature", "properties": {"collection_times": [{"days": "Mon-Sat", "time": "4:00pm"}, {"days": "Sun", "time": "Closed"}], "id": "8410900030", "name": "USPS COLLECTION BOX - BLUE BOX", "address": {"city": "SALT LAKE CITY", "state": "UT", "street": "2000 E 3300 S", "postcode": "84109"}}},
{"geometry": {"type": "Point", "coordinates": [-111.8092762852, 40.6988789525]}, "type": "Feature", "properties": {"collection_times": [{"days": "Mon-Fri", "time": "6:00pm"}, {"days": "Sat", "time": "5:00pm"}, {"days": "Sun", "time": "Closed"}], "id": "8410900034", "name": "USPS COLLECTION BOX - BLUE BOX", "address": {"city": "SALT LAKE CITY", "state": "UT", "street": "3350 S 2940 E", "postcode": "84109"}}},
{"geometry": {"type": "Point", "coordinates": [-111.8092376601, 40.6992704944]}, "type": "Feature", "properties": {"collection_times": [{"days": "Mon-Fri", "time": "5:30pm"}, {"days": "Sat", "time": "2:30pm"}, {"days": "Sun", "time": "Closed"}], "id": "8410900035", "name": "USPS COLLECTION BOX - APC", "address": {"city": "SALT LAKE CITY", "state": "UT", "street": "3350 S 2940 E", "postcode": "84109"}}},
{"geometry": {"type": "Point", "coordinates": [-111.8824239814, 40.749729302]}, "type": "Feature", "properties": {"collection_times": [{"days": "Mon-Fri", "time": "2:00pm"}, {"days": "Sat", "time": "4:00pm"}, {"days": "Sun", "time": "Closed"}], "id": "8411100003", "name": "USPS COLLECTION BOX - BLUE BOX", "address": {"city": "SALT LAKE CITY", "state": "UT", "street": "300 E 900 S", "postcode": "84111"}}},
{"geometry": {"type": "Point", "coordinates": [-111.8795731558, 40.7628226133]}, "type": "Feature", "properties": {"collection_times": [{"days": "Mon-Fri", "time": "3:00pm"}, {"days": "Sat-Sun", "time": "Closed"}], "id": "8411100045", "name": "USPS COLLECTION BOX - BLUE BOX", "address": {"city": "SALT LAKE CITY", "state": "UT", "street": "400 E 300 S", "postcode": "84111"}}},
{"geometry": {"type": "Point", "coordinates": [-111.882340023, 40.7671686764]}, "type": "Feature", "properties": {"collection_times": [{"days": "Mon-Fri", "time": "3:00pm"}, {"days": "Sat-Sun", "time": "Closed"}], "id": "8411100050", "name": "USPS COLLECTION BOX - BLUE BOX", "address": {"city": "SALT LAKE CITY", "state": "UT", "street": "300 E 100 S", "postcode": "84111"}}},
{"geometry": {"type": "Point", "coordinates": [-111.8853124949, 40.7627245095]}, "type": "Feature", "properties": {"collection_times": [{"days": "Mon-Fri", "time": "3:00pm"}, {"days": "Sat-Sun", "time": "Closed"}], "id": "8411100053", "name": "USPS COLLECTION BOX - BLUE BOX", "address": {"city": "SALT LAKE CITY", "state": "UT", "street": "200 E 300 S", "postcode": "84111"}}},
{"geometry": {"type": "Point", "coordinates": [-111.8880559494, 40.7693136128]}, "type": "Feature", "properties": {"collection_times": [{"days": "Mon-Fri", "time": "9:30am"}, {"days": "Sat-Sun", "time": "Closed"}], "id": "8411100058", "name": "USPS COLLECTION BOX - BLUE BOX", "address": {"city": "SALT LAKE CITY", "state": "UT", "street": "102 E SOUTH TEMPLE", "postcode": "84111"}}},
{"geometry": {"type": "Point", "coordinates": [-111.888113815, 40.7655646978]}, "type": "Feature", "properties": {"collection_times": [{"days": "Mon-Fri", "time": "5:00pm"}, {"days": "Sat-Sun", "time": "Closed"}], "id": "8411100060", "name": "USPS COLLECTION BOX - BLUE BOX", "address": {"city": "SALT LAKE CITY", "state": "UT", "street": "185 S STATE ST", "postcode": "84111"}}},
{"geometry": {"type": "Point", "coordinates": [-111.8908047065, 40.7650682459]}, "type": "Feature", "properties": {"collection_times": [{"days": "Mon-Fri", "time": "5:00pm"}, {"days": "Sat-Sun", "time": "Closed"}], "id": "8411100071", "name": "USPS COLLECTION BOX - BLUE BOX", "address": {"city": "SALT LAKE CITY", "state": "UT", "street": "5 E 200 S", "postcode": "84111"}}},
{"geometry": {"type": "Point", "coordinates": [-111.8881185468, 40.7644858392]}, "type": "Feature", "properties": {"collection_times": [{"days": "Mon-Fri", "time": "4:00pm"}, {"days": "Sat-Sun", "time": "Closed"}], "id": "8411100089", "name": "USPS COLLECTION BOX - BLUE BOX", "address": {"city": "SALT LAKE CITY", "state": "UT", "street": "215 S STATE ST", "postcode": "84111"}}},
{"geometry": {"type": "Point", "coordinates": [-111.8836528465, 40.7627221574]}, "type": "Feature", "properties": {"collection_times": [{"days": "Mon-Fri", "time": "3:00pm"}, {"days": "Sat-Sun", "time": "Closed"}], "id": "8411100091", "name": "USPS COLLECTION BOX - BLUE BOX", "address": {"city": "SALT LAKE CITY", "state": "UT", "street": "250 E 300 S", "postcode": "84111"}}},
{"geometry": {"type": "Point", "coordinates": [-111.8824181833, 40.7562584452]}, "type": "Feature", "properties": {"collection_times": [{"days": "Mon-Fri", "time": "3:00pm"}, {"days": "Sat", "time": "4:00pm"}, {"days": "Sun", "time": "Closed"}], "id": "8411100094", "name": "USPS COLLECTION BOX - BLUE BOX", "address": {"city": "SALT LAKE CITY", "state": "UT", "street": "300 E 600 S", "postcode": "84111"}}},
{"geometry": {"type": "Point", "coordinates": [-111.8876726787, 40.7629590144]}, "type": "Feature", "properties": {"collection_times": [{"days": "Mon-Fri", "time": "4:00pm"}, {"days": "Sat-Sun", "time": "Closed"}], "id": "8411100099", "name": "USPS COLLECTION BOX - BLUE BOX", "address": {"city": "SALT LAKE CITY", "state": "UT", "street": "111 E 300 S", "postcode": "84111"}}},
{"geometry": {"type": "Point", "coordinates": [-111.8876726787, 40.7629590144]}, "type": "Feature", "properties": {"collection_times": [{"days": "Mon-Fri", "time": "4:00pm"}, {"days": "Sat-Sun", "time": "Closed"}], "id": "8411100102", "name": "USPS COLLECTION BOX - BLUE BOX", "address": {"city": "SALT LAKE CITY", "state": "UT", "street": "111 E 300 S", "postcode": "84111"}}},
{"geometry": {"type": "Point", "coordinates": [-111.8902592006, 40.7648761111]}, "type": "Feature", "properties": {"collection_times": [{"days": "Mon-Fri", "time": "3:00pm"}, {"days": "Sat-Sun", "time": "Closed"}], "id": "8411100135", "name": "USPS COLLECTION BOX - BLUE BOX", "address": {"city": "SALT LAKE CITY", "state": "UT", "street": "26 E 200 S", "postcode": "84111"}}},
{"geometry": {"type": "Point", "coordinates": [-111.8796172133, 40.7693286781]}, "type": "Feature", "properties": {"collection_times": [{"days": "Mon-Fri", "time": "5:00pm"}, {"days": "Sat-Sun", "time": "Closed"}], "id": "8411100145", "name": "USPS COLLECTION BOX - BLUE BOX", "address": {"city": "SALT LAKE CITY", "state": "UT", "street": "400 E SOUTH TEMPLE", "postcode": "84111"}}},
{"geometry": {"type": "Point", "coordinates": [-111.8901389202, 40.7614663012]}, "type": "Feature", "properties": {"collection_times": [{"days": "Mon-Fri", "time": "5:00pm"}, {"days": "Sat-Sun", "time": "Closed"}], "id": "8411100153", "name": "USPS COLLECTION BOX - BLUE BOX", "address": {"city": "SALT LAKE CITY", "state": "UT", "street": "5 E EXCHANGE PL", "postcode": "84111"}}},
{"geometry": {"type": "Point", "coordinates": [-111.8791505349, 40.767174705]}, "type": "Feature", "properties": {"collection_times": [{"days": "Mon-Fri", "time": "5:00pm"}, {"days": "Sat-Sun", "time": "Closed"}], "id": "8411100158", "name": "USPS COLLECTION BOX - BLUE BOX", "address": {"city": "SALT LAKE CITY", "state": "UT", "street": "440 E 100 S", "postcode": "84111"}}},
{"geometry": {"type": "Point", "coordinates": [-111.8876726787, 40.7629590144]}, "type": "Feature", "properties": {"collection_times": [{"days": "Mon-Fri", "time": "4:00pm"}, {"days": "Sat-Sun", "time": "Closed"}], "id": "8411100162", "name": "USPS COLLECTION BOX - BLUE BOX", "address": {"city": "SALT LAKE CITY", "state": "UT", "street": "111 E 300 S", "postcode": "84111"}}},
{"geometry": {"type": "Point", "coordinates": [-111.8900938635, 40.7605068606]}, "type": "Feature", "properties": {"collection_times": [{"days": "Mon-Fri", "time": "4:00pm"}, {"days": "Sat-Sun", "time": "Closed"}], "id": "8411100169", "name": "USPS COLLECTION BOX - BLUE BOX", "address": {"city": "SALT LAKE CITY", "state": "UT", "street": "34 E 400 S", "postcode": "84111"}}},
{"geometry": {"type": "Point", "coordinates": [-111.8851887737, 40.7584302392]}, "type": "Feature", "properties": {"collection_times": [{"days": "Mon-Fri", "time": "5:00pm"}, {"days": "Sat-Sun", "time": "Closed"}], "id": "8411100173", "name": "USPS COLLECTION BOX - BLUE BOX", "address": {"city": "SALT LAKE CITY", "state": "UT", "street": "200 E 500 S", "postcode": "84111"}}},
{"geometry": {"type": "Point", "coordinates": [-111.8795818474, 40.758452941]}, "type": "Feature", "properties": {"collection_times": [{"days": "Mon-Fri", "time": "5:00pm"}, {"days": "Sat-Sun", "time": "Closed"}], "id": "8411100175", "name": "USPS COLLECTION BOX - BLUE BOX", "address": {"city": "SALT LAKE CITY", "state": "UT", "street": "400 E 500 S", "postcode": "84111"}}},
{"geometry": {"type": "Point", "coordinates": [-111.8791505349, 40.767174705]}, "type": "Feature", "properties": {"collection_times": [{"days": "Mon-Fri", "time": "5:00pm"}, {"days": "Sat-Sun", "time": "Closed"}], "id": "8411100176", "name": "USPS COLLECTION BOX - BLUE BOX", "address": {"city": "SALT LAKE CITY", "state": "UT", "street": "440 E 100 S", "postcode": "84111"}}},
{"geometry": {"type": "Point", "coordinates": [-111.8441527472, 40.7669445395]}, "type": "Feature", "properties": {"collection_times": [{"days": "Mon-Fri", "time": "3:00pm"}, {"days": "Sat-Sun", "time": "Closed"}], "id": "8411200007", "name": "USPS COLLECTION BOX - BLUE BOX", "address": {"city": "SALT LAKE CITY", "state": "UT", "street": "200 S CENTRAL CAMPUS DR", "postcode": "84112"}}},
{"geometry": {"type": "Point", "coordinates": [-111.8473031797, 40.7615419487]}, "type": "Feature", "properties": {"collection_times": [{"days": "Mon-Fri", "time": "4:30pm"}, {"days": "Sat-Sun", "time": "Closed"}], "id": "8411200014", "name": "USPS COLLECTION BOX - BLUE BOX", "address": {"city": "SALT LAKE CITY", "state": "UT", "street": "270 S 1500 E", "postcode": "84112"}}},
{"geometry": {"type": "Point", "coordinates": [-111.8413624442, 40.7584346985]}, "type": "Feature", "properties": {"collection_times": [{"days": "Mon-Fri", "time": "3:00pm"}, {"days": "Sat-Sun", "time": "Closed"}], "id": "8411300002", "name": "USPS COLLECTION BOX - BLUE BOX", "address": {"city": "SALT LAKE CITY", "state": "UT", "street": "500 S FOOTHILL DR", "postcode": "84113"}}},
{"geometry": {"type": "Point", "coordinates": [-111.8910723953, 40.7306638595]}, "type": "Feature", "properties": {"collection_times": [{"days": "Mon-Fri", "time": "2:00pm"}, {"days": "Sat", "time": "3:00pm"}, {"days": "Sun", "time": "Closed"}], "id": "8411500010", "name": "USPS COLLECTION BOX - BLUE BOX", "address": {"city": "SALT LAKE CITY", "state": "UT", "street": "1810 S MAIN ST", "postcode": "84115"}}},
{"geometry": {"type": "Point", "coordinates": [-111.8909881436, 40.7407656436]}, "type": "Feature", "properties": {"collection_times": [{"days": "Mon-Fri", "time": "5:00pm"}, {"days": "Sat-Sun", "time": "Closed"}], "id": "8411500035", "name": "USPS COLLECTION BOX - BLUE BOX", "address": {"city": "SALT LAKE CITY", "state": "UT", "street": "1333 S MAIN ST", "postcode": "84115"}}},
{"geometry": {"type": "Point", "coordinates": [-111.8911313178, 40.7355464565]}, "type": "Feature", "properties": {"collection_times": [{"days": "Mon-Fri", "time": "2:00pm"}, {"days": "Sat", "time": "4:00pm"}, {"days": "Sun", "time": "Closed"}], "id": "8411500038", "name": "USPS COLLECTION BOX - BLUE BOX", "address": {"city": "SALT LAKE CITY", "state": "UT", "street": "1560 S MAIN ST", "postcode": "84115"}}},
{"geometry": {"type": "Point", "coordinates": [-111.89396439, 40.7021111033]}, "type": "Feature", "properties": {"collection_times": [{"days": "Mon-Fri", "time": "6:00pm"}, {"days": "Sat", "time": "5:00pm"}, {"days": "Sun", "time": "Closed"}], "id": "8411500064", "name": "USPS COLLECTION BOX - BLUE BOX", "address": {"city": "SALT LAKE CITY", "state": "UT", "street": "3161 S WEST TEMPLE", "postcode": "84115"}}},
{"geometry": {"type": "Point", "coordinates": [-111.8939801085, 40.7020433503]}, "type": "Feature", "properties": {"collection_times": [{"days": "Mon-Fri", "time": "5:45pm"}, {"days": "Sat", "time": "4:00pm"}, {"days": "Sun", "time": "Closed"}], "id": "8411500079", "name": "USPS COLLECTION BOX - PO LOBBY", "address": {"city": "SALT LAKE CITY", "state": "UT", "street": "3161 S WEST TEMPLE", "postcode": "84115"}}},
{"geometry": {"type": "Point", "coordinates": [-111.8769999155, 40.6905946734]}, "type": "Feature", "properties": {"collection_times": [{"days": "Mon-Fri", "time": "3:00pm"}, {"days": "Sat-Sun", "time": "Closed"}], "id": "8411500084", "name": "USPS COLLECTION BOX - BLUE BOX", "address": {"city": "SALT LAKE CITY", "state": "UT", "street": "3710 S 500 W", "postcode": "84115"}}},
{"geometry": {"type": "Point", "coordinates": [-111.8922776483, 40.7146510774]}, "type": "Feature", "properties": {"collection_times": [{"days": "Mon-Fri", "time": "5:00pm"}, {"days": "Sat-Sun", "time": "Closed"}], "id": "8411500092", "name": "USPS COLLECTION BOX - BLUE BOX", "address": {"city": "SALT LAKE CITY", "state": "UT", "street": "2000 S 150 E", "postcode": "84115"}}},
{"geometry": {"type": "Point", "coordinates": [-111.8850688786, 40.7178394013]}, "type": "Feature", "properties": {"collection_times": [{"days": "Mon-Fri", "time": "5:00pm"}, {"days": "Sat-Sun", "time": "Closed"}], "id": "8411500098", "name": "USPS COLLECTION BOX - BLUE BOX", "address": {"city": "SALT LAKE CITY", "state": "UT", "street": "220 MORRIS AVE", "postcode": "84115"}}},
{"geometry": {"type": "Point", "coordinates": [-111.8922776483, 40.7146510774]}, "type": "Feature", "properties": {"collection_times": [{"days": "Mon-Fri", "time": "5:00pm"}, {"days": "Sat-Sun", "time": "Closed"}], "id": "8411500099", "name": "USPS COLLECTION BOX - BLUE BOX", "address": {"city": "SALT LAKE CITY", "state": "UT", "street": "2000 S 150 E", "postcode": "84115"}}},
{"geometry": {"type": "Point", "coordinates": [-111.8939801085, 40.7020433503]}, "type": "Feature", "properties": {"collection_times": [{"days": "Mon-Fri", "time": "5:45pm"}, {"days": "Sat", "time": "4:00pm"}, {"days": "Sun", "time": "Closed"}], "id": "8411500101", "name": "USPS COLLECTION BOX - PO LOBBY", "address": {"city": "SALT LAKE CITY", "state": "UT", "street": "3161 S WEST TEMPLE", "postcode": "84115"}}},
{"geometry": {"type": "Point", "coordinates": [-111.9247024883, 40.7824368633]}, "type": "Feature", "properties": {"collection_times": [{"days": "Mon-Sat", "time": "1:00pm"}, {"days": "Sun", "time": "Closed"}], "id": "8411600019", "name": "USPS COLLECTION BOX - BLUE BOX", "address": {"city": "SALT LAKE CITY", "state": "UT", "street": "1174 W 600 N", "postcode": "84116"}}},
{"geometry": {"type": "Point", "coordinates": [-111.9393560485, 40.7870697088]}, "type": "Feature", "properties": {"collection_times": [{"days": "Mon-Sat", "time": "6:00pm"}, {"days": "Sun", "time": "Closed"}], "id": "8411600021", "name": "USPS COLLECTION BOX - BLUE BOX", "address": {"city": "SALT LAKE CITY", "state": "UT", "street": "801 N REDWOOD RD", "postcode": "84116"}}},
{"geometry": {"type": "Point", "coordinates": [-111.9393560485, 40.7870697088]}, "type": "Feature", "properties": {"collection_times": [{"days": "Mon-Fri", "time": "5:30pm"}, {"days": "Sat", "time": "4:30pm"}, {"days": "Sun", "time": "Closed"}], "id": "8411600041", "name": "USPS COLLECTION BOX - PO LOBBY", "address": {"city": "SALT LAKE CITY", "state": "UT", "street": "801 N REDWOOD RD", "postcode": "84116"}}},
{"geometry": {"type": "Point", "coordinates": [-111.9393560485, 40.7870697088]}, "type": "Feature", "properties": {"collection_times": [{"days": "Mon-Fri", "time": "5:30pm"}, {"days": "Sat", "time": "4:30pm"}, {"days": "Sun", "time": "Closed"}], "id": "8411600042", "name": "USPS COLLECTION BOX - PO LOBBY", "address": {"city": "SALT LAKE CITY", "state": "UT", "street": "801 N REDWOOD RD", "postcode": "84116"}}},
{"geometry": {"type": "Point", "coordinates": [-112.0058546791, 40.7731231405]}, "type": "Feature", "properties": {"collection_times": [{"days": "Mon-Fri", "time": "5:00pm"}, {"days": "Sat-Sun", "time": "Closed"}], "id": "8411600046", "name": "USPS COLLECTION BOX - BLUE BOX", "address": {"city": "SALT LAKE CITY", "state": "UT", "street": "175 N WRIGHT BROTHERS DR", "postcode": "84116"}}},
{"geometry": {"type": "Point", "coordinates": [-111.8329576443, 40.6658447988]}, "type": "Feature", "properties": {"collection_times": [{"days": "Mon-Sat", "time": "3:00pm"}, {"days": "Sun", "time": "Closed"}], "id": "8411700005", "name": "USPS COLLECTION BOX - BLUE BOX", "address": {"city": "SALT LAKE CITY", "state": "UT", "street": "2040 E MURRAY HOLLADAY RD", "postcode": "84117"}}},
{"geometry": {"type": "Point", "coordinates": [-111.85439426, 40.6559276315]}, "type": "Feature", "properties": {"collection_times": [{"days": "Mon-Fri", "time": "2:30pm"}, {"days": "Sat", "time": "3:00pm"}, {"days": "Sun", "time": "Closed"}], "id": "8411700018", "name": "USPS COLLECTION BOX - BLUE BOX", "address": {"city": "SALT LAKE CITY", "state": "UT", "street": "5255 S 1300 E", "postcode": "84117"}}},
{"geometry": {"type": "Point", "coordinates": [-111.8652436782, 40.6685669379]}, "type": "Feature", "properties": {"collection_times": [{"days": "Mon-Fri", "time": "4:30pm"}, {"days": "Sat", "time": "3:00pm"}, {"days": "Sun", "time": "Closed"}], "id": "8411700020", "name": "USPS COLLECTION BOX - BLUE BOX", "address": {"city": "SALT LAKE CITY", "state": "UT", "street": "4670 S 900 E", "postcode": "84117"}}},
{"geometry": {"type": "Point", "coordinates": [-111.8270660346, 40.6742130577]}, "type": "Feature", "properties": {"collection_times": [{"days": "Mon-Fri", "time": "4:15pm"}, {"days": "Sat", "time": "2:00pm"}, {"days": "Sun", "time": "Closed"}], "id": "8411700026", "name": "USPS COLLECTION BOX - BLUE BOX", "address": {"city": "SALT LAKE CITY", "state": "UT", "street": "2220 E 4500 S", "postcode": "84117"}}},
{"geometry": {"type": "Point", "coordinates": [-111.8653465867, 40.6607912052]}, "type": "Feature", "properties": {"collection_times": [{"days": "Mon-Fri", "time": "2:00pm"}, {"days": "Sat", "time": "3:00pm"}, {"days": "Sun", "time": "Closed"}], "id": "8411700027", "name": "USPS COLLECTION BOX - BLUE BOX", "address": {"city": "SALT LAKE CITY", "state": "UT", "street": "4970 S 900 E", "postcode": "84117"}}},
{"geometry": {"type": "Point", "coordinates": [-111.8423067846, 40.6634328509]}, "type": "Feature", "properties": {"collection_times": [{"days": "Mon-Fri", "time": "6:00pm"}, {"days": "Sat", "time": "4:45pm"}, {"days": "Sun", "time": "Closed"}], "id": "8411700028", "name": "USPS COLLECTION BOX - PO LOBBY", "address": {"city": "SALT LAKE CITY", "state": "UT", "street": "2350 E ARBOR LN", "postcode": "84117"}}},
{"geometry": {"type": "Point", "coordinates": [-111.8423067846, 40.6634328509]}, "type": "Feature", "properties": {"collection_times": [{"days": "Mon-Fri", "time": "6:00pm"}, {"days": "Sat", "time": "5:00pm"}, {"days": "Sun", "time": "Closed"}], "id": "8411700033", "name": "USPS COLLECTION BOX - BLUE BOX", "address": {"city": "SALT LAKE CITY", "state": "UT", "street": "2350 E ARBOR LN", "postcode": "84117"}}},
{"geometry": {"type": "Point", "coordinates": [-111.9579687248, 40.6936963918]}, "type": "Feature", "properties": {"collection_times": [{"days": "Mon-Fri", "time": "3:00pm"}, {"days": "Sat-Sun", "time": "Closed"}], "id": "8411900017", "name": "USPS COLLECTION BOX - BLUE BOX", "address": {"city": "SALT LAKE CITY", "state": "UT", "street": "3600 CONSTITUTION BLVD", "postcode": "84119"}}},
{"geometry": {"type": "Point", "coordinates": [-111.9579687248, 40.693833615]}, "type": "Feature", "properties": {"collection_times": [{"days": "Mon-Sat", "time": "3:00pm"}, {"days": "Sun", "time": "Closed"}], "id": "8411900018", "name": "USPS COLLECTION BOX - BLUE BOX", "address": {"city": "SALT LAKE CITY", "state": "UT", "street": "3601 CONSTITUTION BLVD", "postcode": "84119"}}},
{"geometry": {"type": "Point", "coordinates": [-111.9388734012, 40.7215881983]}, "type": "Feature", "properties": {"collection_times": [{"days": "Mon-Fri", "time": "2:00pm"}, {"days": "Sat-Sun", "time": "Closed"}], "id": "8411900020", "name": "USPS COLLECTION BOX - BLUE BOX", "address": {"city": "SALT LAKE CITY", "state": "UT", "street": "2261 S REDWOOD RD", "postcode": "84119"}}},
{"geometry": {"type": "Point", "coordinates": [-111.977214259, 40.7096305519]}, "type": "Feature", "properties": {"collection_times": [{"days": "Mon-Fri", "time": "1:00pm"}, {"days": "Sat-Sun", "time": "Closed"}], "id": "8411900057", "name": "USPS COLLECTION BOX - BLUE BOX", "address": {"city": "SALT LAKE CITY", "state": "UT", "street": "2734 S 3600 W", "postcode": "84119"}}},
{"geometry": {"type": "Point", "coordinates": [-111.9676938053, 40.7257249157]}, "type": "Feature", "properties": {"collection_times": [{"days": "Mon-Fri", "time": "4:00pm"}, {"days": "Sat-Sun", "time": "Closed"}], "id": "8411900059", "name": "USPS COLLECTION BOX - BLUE BOX", "address": {"city": "SALT LAKE CITY", "state": "UT", "street": "3199 W 2100 S", "postcode": "84119"}}},
{"geometry": {"type": "Point", "coordinates": [-111.9579687248, 40.6936963918]}, "type": "Feature", "properties": {"collection_times": [{"days": "Mon-Fri", "time": "3:00pm"}, {"days": "Sat-Sun", "time": "Closed"}], "id": "8411900076", "name": "USPS COLLECTION BOX - BLUE BOX", "address": {"city": "SALT LAKE CITY", "state": "UT", "street": "3600 CONSTITUTION BLVD", "postcode": "84119"}}},
{"geometry": {"type": "Point", "coordinates": [-111.9858569824, 40.6966171175]}, "type": "Feature", "properties": {"collection_times": [{"days": "Mon-Sat", "time": "3:00pm"}, {"days": "Sun", "time": "Closed"}], "id": "8412000002", "name": "USPS COLLECTION BOX - BLUE BOX", "address": {"city": "SALT LAKE CITY", "state": "UT", "street": "3955 W 3500 S", "postcode": "84120"}}},
{"geometry": {"type": "Point", "coordinates": [-111.9902840034, 40.6978995476]}, "type": "Feature", "properties": {"collection_times": [{"days": "Mon-Fri", "time": "1:00pm"}, {"days": "Sat-Sun", "time": "Closed"}], "id": "8412000004", "name": "USPS COLLECTION BOX - BLUE BOX", "address": {"city": "SALT LAKE CITY", "state": "UT", "street": "3425 S PIONEER PKWY", "postcode": "84120"}}},
{"geometry": {"type": "Point", "coordinates": [-111.9866341865, 40.69608242]}, "type": "Feature", "properties": {"collection_times": [{"days": "Mon-Fri", "time": "5:00pm"}, {"days": "Sat-Sun", "time": "Closed"}], "id": "8412000008", "name": "USPS COLLECTION BOX - BLUE BOX", "address": {"city": "SALT LAKE CITY", "state": "UT", "street": "3540 S 4000 W", "postcode": "84120"}}},
{"geometry": {"type": "Point", "coordinates": [-112.0259427979, 40.7043825273]}, "type": "Feature", "properties": {"collection_times": [{"days": "Mon-Fri", "time": "1:00pm"}, {"days": "Sat-Sun", "time": "Closed"}], "id": "8412000023", "name": "USPS COLLECTION BOX - BLUE BOX", "address": {"city": "SALT LAKE CITY", "state": "UT", "street": "3069 S COLT PLAZA DR", "postcode": "84120"}}},
{"geometry": {"type": "Point", "coordinates": [-111.9799951505, 40.7215905197]}, "type": "Feature", "properties": {"collection_times": [{"days": "Mon-Fri", "time": "4:30pm"}, {"days": "Sat-Sun", "time": "Closed"}], "id": "8412000025", "name": "USPS COLLECTION BOX - BLUE BOX", "address": {"city": "SALT LAKE CITY", "state": "UT", "street": "3739 W 2270 S", "postcode": "84120"}}},
{"geometry": {"type": "Point", "coordinates": [-111.9962277172, 40.6975341891]}, "type": "Feature", "properties": {"collection_times": [{"days": "Mon-Fri", "time": "6:00pm"}, {"days": "Sat", "time": "5:00pm"}, {"days": "Sun", "time": "Closed"}], "id": "8412000027", "name": "USPS COLLECTION BOX - BLUE BOX", "address": {"city": "SALT LAKE CITY", "state": "UT", "street": "3450 S 4400 W", "postcode": "84120"}}},
{"geometry": {"type": "Point", "coordinates": [-111.9961794823, 40.6970500805]}, "type": "Feature", "properties": {"collection_times": [{"days": "Mon-Fri", "time": "6:00pm"}, {"days": "Sat", "time": "4:00pm"}, {"days": "Sun", "time": "Closed"}], "id": "8412000028", "name": "USPS COLLECTION BOX - APC", "address": {"city": "SALT LAKE CITY", "state": "UT", "street": "3490 S 4400 W", "postcode": "84120"}}},
{"geometry": {"type": "Point", "coordinates": [-111.9961794823, 40.6970500805]}, "type": "Feature", "properties": {"collection_times": [{"days": "Mon-Fri", "time": "6:00pm"}, {"days": "Sat", "time": "4:00pm"}, {"days": "Sun", "time": "Closed"}], "id": "8412000029", "name": "USPS COLLECTION BOX - PO LOBBY", "address": {"city": "SALT LAKE CITY", "state": "UT", "street": "3490 S 4400 W", "postcode": "84120"}}},
{"geometry": {"type": "Point", "coordinates": [-111.8505839801, 40.6493577166]}, "type": "Feature", "properties": {"collection_times": [{"days": "Mon-Fri", "time": "2:30pm"}, {"days": "Sat", "time": "3:00pm"}, {"days": "Sun", "time": "Closed"}], "id": "8412100001", "name": "USPS COLLECTION BOX - BLUE BOX", "address": {"city": "SALT LAKE CITY", "state": "UT", "street": "1480 E 5600 S", "postcode": "84121"}}},
{"geometry": {"type": "Point", "coordinates": [-111.8556804106, 40.6406027076]}, "type": "Feature", "properties": {"collection_times": [{"days": "Mon-Fri", "time": "2:30pm"}, {"days": "Sat", "time": "3:00pm"}, {"days": "Sun", "time": "Closed"}], "id": "8412100003", "name": "USPS COLLECTION BOX - BLUE BOX", "address": {"city": "SALT LAKE CITY", "state": "UT", "street": "1260 E VINE ST", "postcode": "84121"}}},
{"geometry": {"type": "Point", "coordinates": [-111.8469125459, 40.6253812614]}, "type": "Feature", "properties": {"collection_times": [{"days": "Mon-Sat", "time": "1:00pm"}, {"days": "Sun", "time": "Closed"}], "id": "8412100004", "name": "USPS COLLECTION BOX - BLUE BOX", "address": {"city": "SALT LAKE CITY", "state": "UT", "street": "1590 E FORT UNION BLVD", "postcode": "84121"}}},
{"geometry": {"type": "Point", "coordinates": [-111.8247545328, 40.626522067]}, "type": "Feature", "properties": {"collection_times": [{"days": "Mon-Fri", "time": "6:00pm"}, {"days": "Sat", "time": "5:00pm"}, {"days": "Sun", "time": "Closed"}], "id": "8412100021", "name": "USPS COLLECTION BOX - BLUE BOX", "address": {"city": "SALT LAKE CITY", "state": "UT", "street": "6890 S 2300 E", "postcode": "84121"}}},
{"geometry": {"type": "Point", "coordinates": [-111.8247545328, 40.626522067]}, "type": "Feature", "properties": {"collection_times": [{"days": "Mon-Fri", "time": "5:30pm"}, {"days": "Sat", "time": "4:00pm"}, {"days": "Sun", "time": "Closed"}], "id": "8412100022", "name": "USPS COLLECTION BOX - PO LOBBY", "address": {"city": "SALT LAKE CITY", "state": "UT", "street": "6890 S 2300 E", "postcode": "84121"}}},
{"geometry": {"type": "Point", "coordinates": [-111.806069696, 40.6342089343]}, "type": "Feature", "properties": {"collection_times": [{"days": "Mon-Fri", "time": "3:00pm"}, {"days": "Sat-Sun", "time": "Closed"}], "id": "8412100027", "name": "USPS COLLECTION BOX - BLUE BOX", "address": {"city": "SALT LAKE CITY", "state": "UT", "street": "6340 S 3000 E", "postcode": "84121"}}},
{"geometry": {"type": "Point", "coordinates": [-111.8547868083, 40.628391569]}, "type": "Feature", "properties": {"collection_times": [{"days": "Mon-Fri", "time": "5:00pm"}, {"days": "Sat-Sun", "time": "Closed"}], "id": "8412100034", "name": "USPS COLLECTION BOX - BLUE BOX", "address": {"city": "SALT LAKE CITY", "state": "UT", "street": "6772 S 1300 E", "postcode": "84121"}}},
{"geometry": {"type": "Point", "coordinates": [-111.8247545328, 40.626522067]}, "type": "Feature", "properties": {"collection_times": [{"days": "Mon-Fri", "time": "5:30pm"}, {"days": "Sat", "time": "4:00pm"}, {"days": "Sun", "time": "Closed"}], "id": "8412100039", "name": "USPS COLLECTION BOX - APC", "address": {"city": "SALT LAKE CITY", "state": "UT", "street": "6890 S 2300 E", "postcode": "84121"}}},
{"geometry": {"type": "Point", "coordinates": [-111.7959530309, 40.6072469336]}, "type": "Feature", "properties": {"collection_times": [{"days": "Mon-Sat", "time": "1:00pm"}, {"days": "Sun", "time": "Closed"}], "id": "8412100040", "name": "USPS COLLECTION BOX - BLUE BOX", "address": {"city": "SALT LAKE CITY", "state": "UT", "street": "7910 S 3500 E", "postcode": "84121"}}},
{"geometry": {"type": "Point", "coordinates": [-111.8659380662, 40.6486481315]}, "type": "Feature", "properties": {"collection_times": [{"days": "Mon-Fri", "time": "2:30pm"}, {"days": "Sat", "time": "3:00pm"}, {"days": "Sun", "time": "Closed"}], "id": "8412100041", "name": "USPS COLLECTION BOX - BLUE BOX", "address": {"city": "SALT LAKE CITY", "state": "UT", "street": "5632 S 900 E", "postcode": "84121"}}},
{"geometry": {"type": "Point", "coordinates": [-111.9820726967, 40.7859447149]}, "type": "Feature", "properties": {"collection_times": [{"days": "Mon-Sat", "time": "5:00pm"}, {"days": "Sun", "time": "Closed"}], "id": "8412200002", "name": "USPS COLLECTION BOX - BLUE BOX", "address": {"city": "SALT LAKE CITY", "state": "UT", "street": "776 N TERMINAL DR", "postcode": "84122"}}},
{"geometry": {"type": "Point", "coordinates": [-111.9820726967, 40.7859447149]}, "type": "Feature", "properties": {"collection_times": [{"days": "Mon-Sat", "time": "5:00pm"}, {"days": "Sun", "time": "Closed"}], "id": "8412200003", "name": "USPS COLLECTION BOX - BLUE BOX", "address": {"city": "SALT LAKE CITY", "state": "UT", "street": "776 N TERMINAL DR", "postcode": "84122"}}},
{"geometry": {"type": "Point", "coordinates": [-111.9794934221, 40.7764923805]}, "type": "Feature", "properties": {"collection_times": [{"days": "Mon-Sat", "time": "7:00pm"}, {"days": "Sun", "time": "Closed"}], "id": "8412200004", "name": "USPS COLLECTION BOX - PO LOBBY", "address": {"city": "SALT LAKE CITY", "state": "UT", "street": "320 N 3700 W", "postcode": "84122"}}},
{"geometry": {"type": "Point", "coordinates": [-111.9794934221, 40.7764923805]}, "type": "Feature", "properties": {"collection_times": [{"days": "Mon-Sat", "time": "6:00pm"}, {"days": "Sun", "time": "Closed"}], "id": "8412200005", "name": "USPS COLLECTION BOX - BLUE BOX", "address": {"city": "SALT LAKE CITY", "state": "UT", "street": "320 N 3700 W", "postcode": "84122"}}},
{"geometry": {"type": "Point", "coordinates": [-111.9054820185, 40.6857137847]}, "type": "Feature", "properties": {"collection_times": [{"days": "Mon-Fri", "time": "3:00pm"}, {"days": "Sat-Sun", "time": "Closed"}], "id": "8412300022", "name": "USPS COLLECTION BOX - BLUE BOX", "address": {"city": "SALT LAKE CITY", "state": "UT", "street": "3950 S 500 W", "postcode": "84123"}}},
{"geometry": {"type": "Point", "coordinates": [-111.9089812111, 40.6538992863]}, "type": "Feature", "properties": {"collection_times": [{"days": "Mon-Fri", "time": "3:00pm"}, {"days": "Sat", "time": "2:00pm"}, {"days": "Sun", "time": "Closed"}], "id": "8412300029", "name": "USPS COLLECTION BOX - BLUE BOX", "address": {"city": "SALT LAKE CITY", "state": "UT", "street": "665 W 5300 S", "postcode": "84123"}}},
{"geometry": {"type": "Point", "coordinates": [-111.9214162998, 40.6634415409]}, "type": "Feature", "properties": {"collection_times": [{"days": "Mon-Fri", "time": "5:00pm"}, {"days": "Sat-Sun", "time": "Closed"}], "id": "8412300036", "name": "USPS COLLECTION BOX - BLUE BOX", "address": {"city": "SALT LAKE CITY", "state": "UT", "street": "5251 S GREEN ST", "postcode": "84123"}}},
{"geometry": {"type": "Point", "coordinates": [-111.9147692397, 40.675138811]}, "type": "Feature", "properties": {"collection_times": [{"days": "Mon-Fri", "time": "3:00pm"}, {"days": "Sat-Sun", "time": "Closed"}], "id": "8412300039", "name": "USPS COLLECTION BOX - BLUE BOX", "address": {"city": "SALT LAKE CITY", "state": "UT", "street": "815 W LEVOY DR", "postcode": "84123"}}},
{"geometry": {"type": "Point", "coordinates": [-111.9224159934, 40.6718907035]}, "type": "Feature", "properties": {"collection_times": [{"days": "Mon-Fri", "time": "3:00pm"}, {"days": "Sat-Sun", "time": "Closed"}], "id": "8412300048", "name": "USPS COLLECTION BOX - BLUE BOX", "address": {"city": "SALT LAKE CITY", "state": "UT", "street": "4555 S ATHERTON DR", "postcode": "84123"}}},
{"geometry": {"type": "Point", "coordinates": [-111.7960023691, 40.6848580793]}, "type": "Feature", "properties": {"collection_times": [{"days": "Mon-Fri", "time": "5:00pm"}, {"days": "Sat", "time": "2:00pm"}, {"days": "Sun", "time": "Closed"}], "id": "8412400001", "name": "USPS COLLECTION BOX - BLUE BOX", "address": {"city": "SALT LAKE CITY", "state": "UT", "street": "3991 S WASATCH BLVD", "postcode": "84124"}}},
{"geometry": {"type": "Point", "coordinates": [-111.824088791, 40.6871381648]}, "type": "Feature", "properties": {"collection_times": [{"days": "Mon-Fri", "time": "1:00pm"}, {"days": "Sat", "time": "2:00pm"}, {"days": "Sun", "time": "Closed"}], "id": "8412400003", "name": "USPS COLLECTION BOX - BLUE BOX", "address": {"city": "SALT LAKE CITY", "state": "UT", "street": "2325 E 3900 S", "postcode": "84124"}}},
{"geometry": {"type": "Point", "coordinates": [-111.8578856645, 40.6870623579]}, "type": "Feature", "properties": {"collection_times": [{"days": "Mon-Fri", "time": "5:00pm"}, {"days": "Sat-Sun", "time": "Closed"}], "id": "8412400015", "name": "USPS COLLECTION BOX - BLUE BOX", "address": {"city": "SALT LAKE CITY", "state": "UT", "street": "1151 E 3900 S", "postcode": "84124"}}},
{"geometry": {"type": "Point", "coordinates": [-111.8430450564, 40.6804816212]}, "type": "Feature", "properties": {"collection_times": [{"days": "Mon-Fri", "time": "5:00pm"}, {"days": "Sat", "time": "2:00pm"}, {"days": "Sun", "time": "Closed"}], "id": "8412400021", "name": "USPS COLLECTION BOX - BLUE BOX", "address": {"city": "SALT LAKE CITY", "state": "UT", "street": "4190 S HIGHLAND DR", "postcode": "84124"}}},
{"geometry": {"type": "Point", "coordinates": [-111.8024974114, 40.6731600228]}, "type": "Feature", "properties": {"collection_times": [{"days": "Mon-Fri", "time": "5:00pm"}, {"days": "Sat-Sun", "time": "Closed"}], "id": "8412400026", "name": "USPS COLLECTION BOX - BLUE BOX", "address": {"city": "SALT LAKE CITY", "state": "UT", "street": "4525 S WASATCH BLVD", "postcode": "84124"}}},
{"geometry": {"type": "Point", "coordinates": [-111.8545899409, 40.6870942978]}, "type": "Feature", "properties": {"collection_times": [{"days": "Mon-Fri", "time": "5:00pm"}, {"days": "Sat-Sun", "time": "Closed"}], "id": "8412400032", "name": "USPS COLLECTION BOX - BLUE BOX", "address": {"city": "SALT LAKE CITY", "state": "UT", "street": "1285 E 3900 S", "postcode": "84124"}}},
{"geometry": {"type": "Point", "coordinates": [-111.8446925334, 40.6858072292]}, "type": "Feature", "properties": {"collection_times": [{"days": "Mon-Fri", "time": "5:00pm"}, {"days": "Sat", "time": "2:00pm"}, {"days": "Sun", "time": "Closed"}], "id": "8412400035", "name": "USPS COLLECTION BOX - BLUE BOX", "address": {"city": "SALT LAKE CITY", "state": "UT", "street": "3950 S HIGHLAND DR", "postcode": "84124"}}},
{"geometry": {"type": "Point", "coordinates": [-111.8261259841, 40.6802610572]}, "type": "Feature", "properties": {"collection_times": [{"days": "Mon-Fri", "time": "5:00pm"}, {"days": "Sat-Sun", "time": "Closed"}], "id": "8412400036", "name": "USPS COLLECTION BOX - BLUE BOX", "address": {"city": "SALT LAKE CITY", "state": "UT", "street": "1150 E 3900 S", "postcode": "84124"}}},
{"geometry": {"type": "Point", "coordinates": [-111.9579401846, 40.6768923784]}, "type": "Feature", "properties": {"collection_times": [{"days": "Mon-Fri", "time": "4:00pm"}, {"days": "Sat-Sun", "time": "Closed"}], "id": "8412900001", "name": "USPS COLLECTION BOX - BLUE BOX", "address": {"city": "SALT LAKE CITY", "state": "UT", "street": "4315 S 2700 W", "postcode": "84129"}}},
{"geometry": {"type": "Point", "coordinates": [-111.9393353554, 40.6725885756]}, "type": "Feature", "properties": {"collection_times": [{"days": "Mon-Fri", "time": "3:00pm"}, {"days": "Sat-Sun", "time": "Closed"}], "id": "8412900002", "name": "USPS COLLECTION BOX - BLUE BOX", "address": {"city": "SALT LAKE CITY", "state": "UT", "street": "1750 W 4500 S", "postcode": "84129"}}},
{"geometry": {"type": "Point", "coordinates": [-111.9868740251, 40.6512413178]}, "type": "Feature", "properties": {"collection_times": [{"days": "Mon-Fri", "time": "6:00pm"}, {"days": "Sat", "time": "5:00pm"}, {"days": "Sun", "time": "Closed"}], "id": "8412900005", "name": "USPS COLLECTION BOX - BLUE BOX", "address": {"city": "SALT LAKE CITY", "state": "UT", "street": "5495 S 4015 W", "postcode": "84129"}}},
{"geometry": {"type": "Point", "coordinates": [-111.9868740251, 40.6512413178]}, "type": "Feature", "properties": {"collection_times": [{"days": "Mon-Fri", "time": "5:30pm"}, {"days": "Sat", "time": "3:00pm"}, {"days": "Sun", "time": "Closed"}], "id": "8412900009", "name": "USPS COLLECTION BOX - PO LOBBY", "address": {"city": "SALT LAKE CITY", "state": "UT", "street": "5495 S 4015 W", "postcode": "84129"}}},
{"geometry": {"type": "Point", "coordinates": [-111.9576108223, 40.6676352654]}, "type": "Feature", "properties": {"collection_times": [{"days": "Mon-Fri", "time": "4:00pm"}, {"days": "Sat-Sun", "time": "Closed"}], "id": "8412900011", "name": "USPS COLLECTION BOX - BLUE BOX", "address": {"city": "SALT LAKE CITY", "state": "UT", "street": "2680 W 4700 S", "postcode": "84129"}}},
{"geometry": {"type": "Point", "coordinates": [-111.9868740251, 40.6512413178]}, "type": "Feature", "properties": {"collection_times": [{"days": "Mon-Fri", "time": "5:30pm"}, {"days": "Sat", "time": "3:00pm"}, {"days": "Sun", "time": "Closed"}], "id": "8412900012", "name": "USPS COLLECTION BOX - APC", "address": {"city": "SALT LAKE CITY", "state": "UT", "street": "5495 S 4015 W", "postcode": "84129"}}},
{"geometry": {"type": "Point", "coordinates": [-111.8382473628, 40.7693608131]}, "type": "Feature", "properties": {"collection_times": [{"days": "Mon-Fri", "time": "3:00pm"}, {"days": "Sat-Sun", "time": "Closed"}], "id": "8413200003", "name": "USPS COLLECTION BOX - BLUE BOX", "address": {"city": "SALT LAKE CITY", "state": "UT", "street": "50 N MEDICAL DR", "postcode": "84132"}}},
{"geometry": {"type": "Point", "coordinates": [-111.8997529482, 40.7704515013]}, "type": "Feature", "properties": {"collection_times": [{"days": "Mon-Fri", "time": "5:00pm"}, {"days": "Sat-Sun", "time": "Closed"}], "id": "8418000000", "name": "USPS COLLECTION BOX - BLUE BOX", "address": {"city": "SALT LAKE CITY", "state": "UT", "street": "55 N 300 W", "postcode": "84180"}}},
{"geometry": {"type": "Point", "coordinates": [-111.8997529482, 40.7704515013]}, "type": "Feature", "properties": {"collection_times": [{"days": "Mon-Fri", "time": "5:00pm"}, {"days": "Sat-Sun", "time": "Closed"}], "id": "8418000001", "name": "USPS COLLECTION BOX - BLUE BOX", "address": {"city": "SALT LAKE CITY", "state": "UT", "street": "55 N 300 W", "postcode": "84180"}}},
{"geometry": {"type": "Point", "coordinates": [-111.9401258934, 40.72591403]}, "type": "Feature", "properties": {"collection_times": [{"days": "Mon-Fri", "time": "5:00pm"}, {"days": "Sat-Sun", "time": "Closed"}], "id": "8419900004", "name": "USPS COLLECTION BOX - EXPRESS", "address": {"city": "SALT LAKE CITY", "state": "UT", "street": "1760 W 2100 S", "postcode": "84199"}}},
{"geometry": {"type": "Point", "coordinates": [-111.9406431078, 40.7258882541]}, "type": "Feature", "properties": {"collection_times": [{"days": "Mon-Sat", "time": "8:15pm"}, {"days": "Sun", "time": "Closed"}], "id": "8419900005", "name": "USPS COLLECTION BOX - PO LOBBY", "address": {"city": "SALT LAKE CITY", "state": "UT", "street": "1760 W 2100 S", "postcode": "84199"}}},
{"geometry": {"type": "Point", "coordinates": [-111.9406431078, 40.7258882541]}, "type": "Feature", "properties": {"collection_times": [{"days": "Mon-Sat", "time": "8:15pm"}, {"days": "Sun", "time": "Closed"}], "id": "8419900006", "name": "USPS COLLECTION BOX - PO LOBBY", "address": {"city": "SALT LAKE CITY", "state": "UT", "street": "1760 W 2100 S", "postcode": "84199"}}},
{"geometry": {"type": "Point", "coordinates": [-111.9406431078, 40.7258882541]}, "type": "Feature", "properties": {"collection_times": [{"days": "Mon-Sat", "time": "8:15pm"}, {"days": "Sun", "time": "Closed"}], "id": "8419900008", "name": "USPS COLLECTION BOX - BLUE BOX", "address": {"city": "SALT LAKE CITY", "state": "UT", "street": "1760 W 2100 S", "postcode": "84199"}}},
{"geometry": {"type": "Point", "coordinates": [-111.9406431078, 40.7258882541]}, "type": "Feature", "properties": {"collection_times": [{"days": "Mon-Sat", "time": "8:15pm"}, {"days": "Sun", "time": "Closed"}], "id": "8419900009", "name": "USPS COLLECTION BOX - BLUE BOX", "address": {"city": "SALT LAKE CITY", "state": "UT", "street": "1760 W 2100 S", "postcode": "84199"}}},
{"geometry": {"type": "Point", "coordinates": [-111.9401258934, 40.72591403]}, "type": "Feature", "properties": {"collection_times": [{"days": "Mon-Fri", "time": "5:00pm"}, {"days": "Sat-Sun", "time": "Closed"}], "id": "8419900010", "name": "USPS COLLECTION BOX - EXPRESS", "address": {"city": "SALT LAKE CITY", "state": "UT", "street": "1760 W 2100 S", "postcode": "84199"}}},
{"geometry": {"type": "Point", "coordinates": [-111.9406431078, 40.7258882541]}, "type": "Feature", "properties": {"collection_times": [{"days": "Mon-Sat", "time": "8:15pm"}, {"days": "Sun", "time": "Closed"}], "id": "8419900012", "name": "USPS COLLECTION BOX - BLUE BOX", "address": {"city": "SALT LAKE CITY", "state": "UT", "street": "1760 W 2100 S", "postcode": "84199"}}},
{"geometry": {"type": "Point", "coordinates": [-111.9406431078, 40.7258882541]}, "type": "Feature", "properties": {"collection_times": [{"days": "Mon-Sat", "time": "8:15pm"}, {"days": "Sun", "time": "Closed"}], "id": "8419900015", "name": "USPS COLLECTION BOX - APC", "address": {"city": "SALT LAKE CITY", "state": "UT", "street": "1760 W 2100 S", "postcode": "84199"}}}
]}
