{"type": "FeatureCollection", "features": [
{"geometry": {"type": "Point", "coordinates": [-112.1261282256, 41.6166044677]}, "type": "Feature", "properties": {"collection_times": [{"days": "Mon-Fri", "time": "4:00pm"}, {"days": "Sat", "time": "11:00am"}, {"days": "Sun", "time": "Closed"}], "id": "8430100000", "name": "USPS COLLECTION BOX - BLUE BOX", "address": {"city": "BEAR RIVER CITY", "state": "UT", "street": "4670 W 5900 N", "postcode": "84301"}}},
{"geometry": {"type": "Point", "coordinates": [-112.1261282256, 41.6166044677]}, "type": "Feature", "properties": {"collection_times": [{"days": "Mon-Fri", "time": "2:15pm"}, {"days": "Sat", "time": "10:45am"}, {"days": "Sun", "time": "Closed"}], "id": "8430100001", "name": "USPS COLLECTION BOX - PO LOBBY", "address": {"city": "BEAR RIVER CITY", "state": "UT", "street": "4670 W 5900 N", "postcode": "84301"}}},
{"geometry": {"type": "Point", "coordinates": [-112.1261282256, 41.6166044677]}, "type": "Feature", "properties": {"collection_times": [{"days": "Mon-Fri", "time": "2:15pm"}, {"days": "Sat", "time": "10:45am"}, {"days": "Sun", "time": "Closed"}], "id": "8430100002", "name": "USPS COLLECTION BOX - PO LOBBY", "address": {"city": "BEAR RIVER CITY", "state": "UT", "street": "4670 W 5900 N", "postcode": "84301"}}},
{"geometry": {"type": "Point", "coordinates": [-112.0155016523, 41.5160472467]}, "type": "Feature", "properties": {"collection_times": [{"days": "Mon-Sat", "time": "12:00pm"}, {"days": "Sun", "time": "Closed"}], "id": "8430200008", "name": "USPS COLLECTION BOX - BLUE BOX", "address": {"city": "BRIGHAM CITY", "state": "UT", "street": "260 N MAIN ST", "postcode": "84302"}}},
{"geometry": {"type": "Point", "coordinates": [-112.0173911536, 41.5100098076]}, "type": "Feature", "properties": {"collection_times": [{"days": "Mon-Fri", "time": "5:15pm"}, {"days": "Sat", "time": "1:30pm"}, {"days": "Sun", "time": "Closed"}], "id": "8430200009", "name": "USPS COLLECTION BOX - BLUE BOX", "address": {"city": "BRIGHAM CITY", "state": "UT", "street": "16 S 100 W", "postcode": "84302"}}},
{"geometry": {"type": "Point", "coordinates": [-112.0173911536, 41.5100098076]}, "type": "Feature", "properties": {"collection_times": [{"days": "Mon-Fri", "time": "5:15pm"}, {"days": "Sat", "time": "1:30pm"}, {"days": "Sun", "time": "Closed"}], "id": "8430200010", "name": "USPS COLLECTION BOX - BLUE BOX", "address": {"city": "BRIGHAM CITY", "state": "UT", "street": "16 S 100 W", "postcode": "84302"}}},
{"geometry": {"type": "Point", "coordinates": [-112.0173911536, 41.5100098076]}, "type": "Feature", "properties": {"collection_times": [{"days": "Mon-Fri", "time": "5:30pm"}, {"days": "Sat", "time": "3:30pm"}, {"days": "Sun", "time": "Closed"}], "id": "8430200012", "name": "USPS COLLECTION BOX - PO LOBBY", "address": {"city": "BRIGHAM CITY", "state": "UT", "street": "16 S 100 W", "postcode": "84302"}}},
{"geometry": {"type": "Point", "coordinates": [-112.0173911536, 41.5100098076]}, "type": "Feature", "properties": {"collection_times": [{"days": "Mon-Fri", "time": "5:15pm"}, {"days": "Sat", "time": "1:30pm"}, {"days": "Sun", "time": "Closed"}], "id": "8430200013", "name": "USPS COLLECTION BOX - BLUE BOX", "address": {"city": "BRIGHAM CITY", "state": "UT", "street": "16 S 100 W", "postcode": "84302"}}},
{"geometry": {"type": "Point", "coordinates": [-112.0442869383, 41.4554621058]}, "type": "Feature", "properties": {"collection_times": [{"days": "Mon-Sat", "time": "9:00am"}, {"days": "Sun", "time": "Closed"}], "id": "8430200015", "name": "USPS COLLECTION BOX - BLUE BOX", "address": {"city": "BRIGHAM CITY", "state": "UT", "street": "1195 W 3000 S", "postcode": "84302"}}},
{"geometry": {"type": "Point", "coordinates": [-112.0155766533, 41.5134679478]}, "type": "Feature", "properties": {"collection_times": [{"days": "Mon-Sat", "time": "8:15am"}, {"days": "Sun", "time": "Closed"}], "id": "8430200016", "name": "USPS COLLECTION BOX - BLUE BOX", "address": {"city": "BRIGHAM CITY", "state": "UT", "street": "409 N MAIN ST", "postcode": "84302"}}},
{"geometry": {"type": "Point", "coordinates": [-112.0236328423, 41.4856383172]}, "type": "Feature", "properties": {"collection_times": [{"days": "Mon-Sat", "time": "10:00am"}, {"days": "Sun", "time": "Closed"}], "id": "8430200018", "name": "USPS COLLECTION BOX - BLUE BOX", "address": {"city": "BRIGHAM CITY", "state": "UT", "street": "1200 S COMMERCE WAY", "postcode": "84302"}}},
{"geometry": {"type": "Point", "coordinates": [-112.0561737242, 41.5353362826]}, "type": "Feature", "properties": {"collection_times": [{"days": "Mon-Sat", "time": "10:30am"}, {"days": "Sun", "time": "Closed"}], "id": "8430200019", "name": "USPS COLLECTION BOX - BLUE BOX", "address": {"city": "BRIGHAM CITY", "state": "UT", "street": "10870 N HIGHWAY 38", "postcode": "84302"}}},
{"geometry": {"type": "Point", "coordinates": [-112.0173911536, 41.5100098076]}, "type": "Feature", "properties": {"collection_times": [{"days": "Mon-Fri", "time": "5:30pm"}, {"days": "Sat", "time": "3:30pm"}, {"days": "Sun", "time": "Closed"}], "id": "8430200020", "name": "USPS COLLECTION BOX - PO LOBBY", "address": {"city": "BRIGHAM CITY", "state": "UT", "street": "16 S 100 W", "postcode": "84302"}}},
{"geometry": {"type": "Point", "coordinates": [-112.0461752407, 41.9221206725]}, "type": "Feature", "properties": {"collection_times": [{"days": "Mon-Fri", "time": "3:30pm"}, {"days": "Sat", "time": "11:00am"}, {"days": "Sun", "time": "Closed"}], "id": "8430500000", "name": "USPS COLLECTION BOX - BLUE BOX", "address": {"city": "CLARKSTON", "state": "UT", "street": "155 E 100 N", "postcode": "84305"}}},
{"geometry": {"type": "Point", "coordinates": [-112.0461752407, 41.9221206725]}, "type": "Feature", "properties": {"collection_times": [{"days": "Mon-Fri", "time": "12:15pm"}, {"days": "Sat", "time": "11:00am"}, {"days": "Sun", "time": "Closed"}], "id": "8430500001", "name": "USPS COLLECTION BOX - PO LOBBY", "address": {"city": "CLARKSTON", "state": "UT", "street": "155 E 100 N", "postcode": "84305"}}},
{"geometry": {"type": "Point", "coordinates": [-112.1109916277, 41.5502379701]}, "type": "Feature", "properties": {"collection_times": [{"days": "Mon-Fri", "time": "3:45pm"}, {"days": "Sat", "time": "11:15am"}, {"days": "Sun", "time": "Closed"}], "id": "8430700000", "name": "USPS COLLECTION BOX - BLUE BOX", "address": {"city": "CORINNE", "state": "UT", "street": "2425 N 4000 W", "postcode": "84307"}}},
{"geometry": {"type": "Point", "coordinates": [-112.1109916277, 41.5502379701]}, "type": "Feature", "properties": {"collection_times": [{"days": "Mon-Fri", "time": "2:45pm"}, {"days": "Sat", "time": "11:15am"}, {"days": "Sun", "time": "Closed"}], "id": "8430700001", "name": "USPS COLLECTION BOX - PO LOBBY", "address": {"city": "CORINNE", "state": "UT", "street": "2425 N 4000 W", "postcode": "84307"}}},
{"geometry": {"type": "Point", "coordinates": [-111.8271964118, 41.2912050803]}, "type": "Feature", "properties": {"collection_times": [{"days": "Mon-Fri", "time": "4:30pm"}, {"days": "Sat", "time": "12:00pm"}, {"days": "Sun", "time": "Closed"}], "id": "8431000001", "name": "USPS COLLECTION BOX - BLUE BOX", "address": {"city": "EDEN", "state": "UT", "street": "2577 N HIGHWAY 162", "postcode": "84310"}}},
{"geometry": {"type": "Point", "coordinates": [-111.8271964118, 41.2912050803]}, "type": "Feature", "properties": {"collection_times": [{"days": "Mon-Fri", "time": "4:30pm"}, {"days": "Sat", "time": "12:00pm"}, {"days": "Sun", "time": "Closed"}], "id": "8431000002", "name": "USPS COLLECTION BOX - PO LOBBY", "address": {"city": "EDEN", "state": "UT", "street": "2577 N HIGHWAY 162", "postcode": "84310"}}},
{"geometry": {"type": "Point", "coordinates": [-112.1166626191, 41.8144304615]}, "type": "Feature", "properties": {"collection_times": [{"days": "Mon-Fri", "time": "3:45pm"}, {"days": "Sat", "time": "11:30am"}, {"days": "Sun", "time": "Closed"}], "id": "8431100000", "name": "USPS COLLECTION BOX - BLUE BOX", "address": {"city": "FIELDING", "state": "UT", "street": "25 W MAIN ST", "postcode": "84311"}}},
{"geometry": {"type": "Point", "coordinates": [-112.1166626191, 41.8144304615]}, "type": "Feature", "properties": {"collection_times": [{"days": "Mon-Fri", "time": "12:45pm"}, {"days": "Sat", "time": "11:45am"}, {"days": "Sun", "time": "Closed"}], "id": "8431100001", "name": "USPS COLLECTION BOX - PO LOBBY", "address": {"city": "FIELDING", "state": "UT", "street": "25 W MAIN ST", "postcode": "84311"}}},
{"geometry": {"type": "Point", "coordinates": [-112.1626885713, 41.7412258745]}, "type": "Feature", "properties": {"collection_times": [{"days": "Mon-Fri", "time": "4:15pm"}, {"days": "Sat", "time": "12:00pm"}, {"days": "Sun", "time": "Closed"}], "id": "8431200001", "name": "USPS COLLECTION BOX - BLUE BOX", "address": {"city": "GARLAND", "state": "UT", "street": "11 N MAIN ST", "postcode": "84312"}}},
{"geometry": {"type": "Point", "coordinates": [-112.1626885713, 41.7412258745]}, "type": "Feature", "properties": {"collection_times": [{"days": "Mon-Fri", "time": "4:15pm"}, {"days": "Sat", "time": "12:00pm"}, {"days": "Sun", "time": "Closed"}], "id": "8431200002", "name": "USPS COLLECTION BOX - PO LOBBY", "address": {"city": "GARLAND", "state": "UT", "street": "11 N MAIN ST", "postcode": "84312"}}},
{"geometry": {"type": "Point", "coordinates": [-112.1580583344, 41.7556481582]}, "type": "Feature", "properties": {"collection_times": [{"days": "Mon-Fri", "time": "9:30am"}, {"days": "Sat-Sun", "time": "Closed"}], "id": "8431200003", "name": "USPS COLLECTION BOX - BLUE BOX", "address": {"city": "GARLAND", "state": "UT", "street": "25858 N 9000 W", "postcode": "84312"}}},
{"geometry": {"type": "Point", "coordinates": [-112.0802546905, 41.6363137862]}, "type": "Feature", "properties": {"collection_times": [{"days": "Mon-Fri", "time": "4:15pm"}, {"days": "Sat", "time": "11:00am"}, {"days": "Sun", "time": "Closed"}], "id": "8431400000", "name": "USPS COLLECTION BOX - BLUE BOX", "address": {"city": "HONEYVILLE", "state": "UT", "street": "2625 W 6980 N", "postcode": "84314"}}},
{"geometry": {"type": "Point", "coordinates": [-112.0802546905, 41.6363137862]}, "type": "Feature", "properties": {"collection_times": [{"days": "Mon-Fri", "time": "2:15pm"}, {"days": "Sat", "time": "10:45am"}, {"days": "Sun", "time": "Closed"}], "id": "8431400001", "name": "USPS COLLECTION BOX - PO LOBBY", "address": {"city": "HONEYVILLE", "state": "UT", "street": "2625 W 6980 N", "postcode": "84314"}}},
{"geometry": {"type": "Point", "coordinates": [-112.1239622891, 41.1639634131]}, "type": "Feature", "properties": {"collection_times": [{"days": "Mon-Fri", "time": "4:30pm"}, {"days": "Sat", "time": "2:00pm"}, {"days": "Sun", "time": "Closed"}], "id": "8431500002", "name": "USPS COLLECTION BOX - PO LOBBY", "address": {"city": "HOOPER", "state": "UT", "street": "5948 W 5500 S", "postcode": "84315"}}},
{"geometry": {"type": "Point", "coordinates": [-112.1239622891, 41.1639634131]}, "type": "Feature", "properties": {"collection_times": [{"days": "Mon-Fri", "time": "4:00pm"}, {"days": "Sat", "time": "11:00am"}, {"days": "Sun", "time": "Closed"}], "id": "8431500003", "name": "USPS COLLECTION BOX - BLUE BOX", "address": {"city": "HOOPER", "state": "UT", "street": "5948 W 5500 S", "postcode": "84315"}}},
{"geometry": {"type": "Point", "coordinates": [-112.45510174, 41.7964850926]}, "type": "Feature", "properties": {"collection_times": [{"days": "Mon-Fri", "time": "11:45am"}, {"days": "Sat", "time": "10:45am"}, {"days": "Sun", "time": "Closed"}], "id": "8431600000", "name": "USPS COLLECTION BOX - PO LOBBY", "address": {"city": "HOWELL", "state": "UT", "street": "15960 N 17400 W", "postcode": "84316"}}},
{"geometry": {"type": "Point", "coordinates": [-111.7615262628, 41.2552332476]}, "type": "Feature", "properties": {"collection_times": [{"days": "Mon-Fri", "time": "4:30pm"}, {"days": "Sat", "time": "11:30am"}, {"days": "Sun", "time": "Closed"}], "id": "8431700000", "name": "USPS COLLECTION BOX - PO LOBBY", "address": {"city": "HUNTSVILLE", "state": "UT", "street": "7785 E 500 S", "postcode": "84317"}}},
{"geometry": {"type": "Point", "coordinates": [-111.7615262628, 41.2552332476]}, "type": "Feature", "properties": {"collection_times": [{"days": "Mon-Fri", "time": "4:15pm"}, {"days": "Sat", "time": "11:30am"}, {"days": "Sun", "time": "Closed"}], "id": "8431700001", "name": "USPS COLLECTION BOX - BLUE BOX", "address": {"city": "HUNTSVILLE", "state": "UT", "street": "7785 E 500 S", "postcode": "84317"}}},
{"geometry": {"type": "Point", "coordinates": [-111.7615262628, 41.2552332476]}, "type": "Feature", "properties": {"collection_times": [{"days": "Mon-Fri", "time": "4:30pm"}, {"days": "Sat", "time": "11:30am"}, {"days": "Sun", "time": "Closed"}], "id": "8431700002", "name": "USPS COLLECTION BOX - PO LOBBY", "address": {"city": "HUNTSVILLE", "state": "UT", "street": "7785 E 500 S", "postcode": "84317"}}},
{"geometry": {"type": "Point", "coordinates": [-111.8243602397, 41.7985945347]}, "type": "Feature", "properties": {"collection_times": [{"days": "Mon-Fri", "time": "4:15pm"}, {"days": "Sat", "time": "10:45am"}, {"days": "Sun", "time": "Closed"}], "id": "8431800001", "name": "USPS COLLECTION BOX - BLUE BOX", "address": {"city": "HYDE PARK", "state": "UT", "street": "25 S 200 W", "postcode": "84318"}}},
{"geometry": {"type": "Point", "coordinates": [-111.8243602397, 41.7985945347]}, "type": "Feature", "properties": {"collection_times": [{"days": "Mon-Fri", "time": "4:30pm"}, {"days": "Sat", "time": "10:45am"}, {"days": "Sun", "time": "Closed"}], "id": "8431800002", "name": "USPS COLLECTION BOX - PO LOBBY", "address": {"city": "HYDE PARK", "state": "UT", "street": "25 S 200 W", "postcode": "84318"}}},
{"geometry": {"type": "Point", "coordinates": [-111.8243602397, 41.7985945347]}, "type": "Feature", "properties": {"collection_times": [{"days": "Mon-Fri", "time": "4:30pm"}, {"days": "Sat", "time": "10:45am"}, {"days": "Sun", "time": "Closed"}], "id": "8431800003", "name": "USPS COLLECTION BOX - PO LOBBY", "address": {"city": "HYDE PARK", "state": "UT", "street": "25 S 200 W", "postcode": "84318"}}},
{"geometry": {"type": "Point", "coordinates": [-111.8243602397, 41.7985945347]}, "type": "Feature", "properties": {"collection_times": [{"days": "Mon-Fri", "time": "4:30pm"}, {"days": "Sat", "time": "10:45am"}, {"days": "Sun", "time": "Closed"}], "id": "8431800004", "name": "USPS COLLECTION BOX - PO LOBBY", "address": {"city": "HYDE PARK", "state": "UT", "street": "25 S 200 W", "postcode": "84318"}}},
{"geometry": {"type": "Point", "coordinates": [-111.8243602397, 41.7985945347]}, "type": "Feature", "properties": {"collection_times": [{"days": "Mon-Fri", "time": "4:30pm"}, {"days": "Sat", "time": "10:45am"}, {"days": "Sun", "time": "Closed"}], "id": "8431800005", "name": "USPS COLLECTION BOX - PO LOBBY", "address": {"city": "HYDE PARK", "state": "UT", "street": "25 S 200 W", "postcode": "84318"}}},
{"geometry": {"type": "Point", "coordinates": [-111.8539334546, 41.6340843198]}, "type": "Feature", "properties": {"collection_times": [{"days": "Mon-Fri", "time": "4:30pm"}, {"days": "Sat", "time": "12:00pm"}, {"days": "Sun", "time": "Closed"}], "id": "8431900001", "name": "USPS COLLECTION BOX - BLUE BOX", "address": {"city": "HYRUM", "state": "UT", "street": "45 E MAIN ST", "postcode": "84319"}}},
{"geometry": {"type": "Point", "coordinates": [-111.8539334546, 41.6340843198]}, "type": "Feature", "properties": {"collection_times": [{"days": "Mon-Fri", "time": "4:30pm"}, {"days": "Sat", "time": "12:00pm"}, {"days": "Sun", "time": "Closed"}], "id": "8431900002", "name": "USPS COLLECTION BOX - PO LOBBY", "address": {"city": "HYRUM", "state": "UT", "street": "45 E MAIN ST", "postcode": "84319"}}},
{"geometry": {"type": "Point", "coordinates": [-111.8332445991, 41.6335770021]}, "type": "Feature", "properties": {"collection_times": [{"days": "Mon-Sat", "time": "12:00pm"}, {"days": "Sun", "time": "Closed"}], "id": "8431900003", "name": "USPS COLLECTION BOX - BLUE BOX", "address": {"city": "HYRUM", "state": "UT", "street": "780 E MAIN ST", "postcode": "84319"}}},
{"geometry": {"type": "Point", "coordinates": [-111.856582146, 41.9746065623]}, "type": "Feature", "properties": {"collection_times": [{"days": "Mon-Fri", "time": "4:15pm"}, {"days": "Sat", "time": "11:30am"}, {"days": "Sun", "time": "Closed"}], "id": "8432000001", "name": "USPS COLLECTION BOX - BLUE BOX", "address": {"city": "LEWISTON", "state": "UT", "street": "61 S MAIN ST", "postcode": "84320"}}},
{"geometry": {"type": "Point", "coordinates": [-111.856582146, 41.9746065623]}, "type": "Feature", "properties": {"collection_times": [{"days": "Mon-Fri", "time": "2:45pm"}, {"days": "Sat", "time": "12:00pm"}, {"days": "Sun", "time": "Closed"}], "id": "8432000002", "name": "USPS COLLECTION BOX - PO LOBBY", "address": {"city": "LEWISTON", "state": "UT", "street": "61 S MAIN ST", "postcode": "84320"}}},
{"geometry": {"type": "Point", "coordinates": [-111.8367900253, 41.7352898962]}, "type": "Feature", "properties": {"collection_times": [{"days": "Mon-Sat", "time": "5:45pm"}, {"days": "Sun", "time": "Closed"}], "id": "8432100006", "name": "USPS COLLECTION BOX - PO LOBBY", "address": {"city": "LOGAN", "state": "UT", "street": "75 W 200 N", "postcode": "84321"}}},
{"geometry": {"type": "Point", "coordinates": [-111.8011682115, 41.7494024813]}, "type": "Feature", "properties": {"collection_times": [{"days": "Mon-Fri", "time": "4:15pm"}, {"days": "Sat", "time": "5:00pm"}, {"days": "Sun", "time": "Closed"}], "id": "8432100020", "name": "USPS COLLECTION BOX - BLUE BOX", "address": {"city": "LOGAN", "state": "UT", "street": "1305 E 1000 N", "postcode": "84321"}}},
{"geometry": {"type": "Point", "coordinates": [-111.8344924845, 41.7455515516]}, "type": "Feature", "properties": {"collection_times": [{"days": "Mon-Fri", "time": "4:30pm"}, {"days": "Sat", "time": "4:45pm"}, {"days": "Sun", "time": "Closed"}], "id": "8432100022", "name": "USPS COLLECTION BOX - BLUE BOX", "address": {"city": "LOGAN", "state": "UT", "street": "750 N MAIN ST", "postcode": "84321"}}},
{"geometry": {"type": "Point", "coordinates": [-111.8349701296, 41.7332235927]}, "type": "Feature", "properties": {"collection_times": [{"days": "Mon-Fri", "time": "4:00pm"}, {"days": "Sat", "time": "4:30pm"}, {"days": "Sun", "time": "Closed"}], "id": "8432100024", "name": "USPS COLLECTION BOX - BLUE BOX", "address": {"city": "LOGAN", "state": "UT", "street": "99 N MAIN ST", "postcode": "84321"}}},
{"geometry": {"type": "Point", "coordinates": [-111.8367900253, 41.7352898962]}, "type": "Feature", "properties": {"collection_times": [{"days": "Mon-Sat", "time": "5:45pm"}, {"days": "Sun", "time": "Closed"}], "id": "8432100038", "name": "USPS COLLECTION BOX - BLUE BOX", "address": {"city": "LOGAN", "state": "UT", "street": "75 W 200 N", "postcode": "84321"}}},
{"geometry": {"type": "Point", "coordinates": [-111.8367900253, 41.7352898962]}, "type": "Feature", "properties": {"collection_times": [{"days": "Mon-Sat", "time": "5:45pm"}, {"days": "Sun", "time": "Closed"}], "id": "8432100039", "name": "USPS COLLECTION BOX - APC", "address": {"city": "LOGAN", "state": "UT", "street": "75 W 200 N", "postcode": "84321"}}},
{"geometry": {"type": "Point", "coordinates": [-111.8367900253, 41.7352898962]}, "type": "Feature", "properties": {"collection_times": [{"days": "Mon-Sat", "time": "5:45pm"}, {"days": "Sun", "time": "Closed"}], "id": "8432100040", "name": "USPS COLLECTION BOX - PO LOBBY", "address": {"city": "LOGAN", "state": "UT", "street": "75 W 200 N", "postcode": "84321"}}},
{"geometry": {"type": "Point", "coordinates": [-111.9790550897, 41.7103441631]}, "type": "Feature", "properties": {"collection_times": [{"days": "Mon-Fri", "time": "4:15pm"}, {"days": "Sat", "time": "11:30am"}, {"days": "Sun", "time": "Closed"}], "id": "8432500000", "name": "USPS COLLECTION BOX - BLUE BOX", "address": {"city": "MENDON", "state": "UT", "street": "120 N 100 W", "postcode": "84325"}}},
{"geometry": {"type": "Point", "coordinates": [-111.9790550897, 41.7103441631]}, "type": "Feature", "properties": {"collection_times": [{"days": "Mon-Fri", "time": "4:15pm"}, {"days": "Sat", "time": "11:30am"}, {"days": "Sun", "time": "Closed"}], "id": "8432500001", "name": "USPS COLLECTION BOX - PO LOBBY", "address": {"city": "MENDON", "state": "UT", "street": "120 N 100 W", "postcode": "84325"}}},
{"geometry": {"type": "Point", "coordinates": [-111.9790550897, 41.7103441631]}, "type": "Feature", "properties": {"collection_times": [{"days": "Mon-Fri", "time": "4:15pm"}, {"days": "Sat", "time": "11:30am"}, {"days": "Sun", "time": "Closed"}], "id": "8432500002", "name": "USPS COLLECTION BOX - PO LOBBY", "address": {"city": "MENDON", "state": "UT", "street": "120 N 100 W", "postcode": "84325"}}},
{"geometry": {"type": "Point", "coordinates": [-111.8254843083, 41.6849955106]}, "type": "Feature", "properties": {"collection_times": [{"days": "Mon-Fri", "time": "4:45pm"}, {"days": "Sat", "time": "11:45am"}, {"days": "Sun", "time": "Closed"}], "id": "8432600000", "name": "USPS COLLECTION BOX - BLUE BOX", "address": {"city": "MILLVILLE", "state": "UT", "street": "70 W 200 N", "postcode": "84326"}}},
{"geometry": {"type": "Point", "coordinates": [-111.8254843083, 41.6849955106]}, "type": "Feature", "properties": {"collection_times": [{"days": "Mon-Fri", "time": "4:45pm"}, {"days": "Sat", "time": "11:45am"}, {"days": "Sun", "time": "Closed"}], "id": "8432600001", "name": "USPS COLLECTION BOX - PO LOBBY", "address": {"city": "MILLVILLE", "state": "UT", "street": "70 W 200 N", "postcode": "84326"}}},
{"geometry": {"type": "Point", "coordinates": [-111.8254843083, 41.6849955106]}, "type": "Feature", "properties": {"collection_times": [{"days": "Mon-Fri", "time": "4:45pm"}, {"days": "Sat", "time": "11:45am"}, {"days": "Sun", "time": "Closed"}], "id": "8432600002", "name": "USPS COLLECTION BOX - PO LOBBY", "address": {"city": "MILLVILLE", "state": "UT", "street": "70 W 200 N", "postcode": "84326"}}},
{"geometry": {"type": "Point", "coordinates": [-111.9883906023, 41.8625299015]}, "type": "Feature", "properties": {"collection_times": [{"days": "Mon-Fri", "time": "4:00pm"}, {"days": "Sat", "time": "10:30am"}, {"days": "Sun", "time": "Closed"}], "id": "8432700000", "name": "USPS COLLECTION BOX - BLUE BOX", "address": {"city": "NEWTON", "state": "UT", "street": "8 N CENTER ST", "postcode": "84327"}}},
{"geometry": {"type": "Point", "coordinates": [-111.9883906023, 41.8625299015]}, "type": "Feature", "properties": {"collection_times": [{"days": "Mon-Fri", "time": "11:45am"}, {"days": "Sat", "time": "10:30am"}, {"days": "Sun", "time": "Closed"}], "id": "8432700001", "name": "USPS COLLECTION BOX - PO LOBBY", "address": {"city": "NEWTON", "state": "UT", "street": "8 N CENTER ST", "postcode": "84327"}}},
{"geometry": {"type": "Point", "coordinates": [-111.8361990273, 41.5708252348]}, "type": "Feature", "properties": {"collection_times": [{"days": "Mon-Fri", "time": "4:30pm"}, {"days": "Sat", "time": "11:30am"}, {"days": "Sun", "time": "Closed"}], "id": "8432800000", "name": "USPS COLLECTION BOX - BLUE BOX", "address": {"city": "PARADISE", "state": "UT", "street": "125 W 8900 S", "postcode": "84328"}}},
{"geometry": {"type": "Point", "coordinates": [-111.8361990273, 41.5708252348]}, "type": "Feature", "properties": {"collection_times": [{"days": "Mon-Fri", "time": "4:30pm"}, {"days": "Sat", "time": "11:30am"}, {"days": "Sun", "time": "Closed"}], "id": "8432800001", "name": "USPS COLLECTION BOX - PO LOBBY", "address": {"city": "PARADISE", "state": "UT", "street": "125 W 8900 S", "postcode": "84328"}}},
{"geometry": {"type": "Point", "coordinates": [-113.3626864189, 41.8262633257]}, "type": "Feature", "properties": {"collection_times": [{"days": "Mon-Sat", "time": "12:45pm"}, {"days": "Sun", "time": "Closed"}], "id": "8432900001", "name": "USPS COLLECTION BOX - PO LOBBY", "address": {"city": "PARK VALLEY", "state": "UT", "street": "57560 W 17600 N", "postcode": "84329"}}},
{"geometry": {"type": "Point", "coordinates": [-112.1389273473, 41.8722129338]}, "type": "Feature", "properties": {"collection_times": [{"days": "Mon-Fri", "time": "3:30pm"}, {"days": "Sat", "time": "11:00am"}, {"days": "Sun", "time": "Closed"}], "id": "8433000000", "name": "USPS COLLECTION BOX - BLUE BOX", "address": {"city": "PLYMOUTH", "state": "UT", "street": "5046 W 20300 N", "postcode": "84330"}}},
{"geometry": {"type": "Point", "coordinates": [-112.1389273473, 41.8722129338]}, "type": "Feature", "properties": {"collection_times": [{"days": "Mon-Fri", "time": "11:45am"}, {"days": "Sat", "time": "11:15am"}, {"days": "Sun", "time": "Closed"}], "id": "8433000001", "name": "USPS COLLECTION BOX - PO LOBBY", "address": {"city": "PLYMOUTH", "state": "UT", "street": "5046 W 20300 N", "postcode": "84330"}}},
{"geometry": {"type": "Point", "coordinates": [-111.8286668238, 41.7101387965]}, "type": "Feature", "properties": {"collection_times": [{"days": "Mon-Fri", "time": "4:30pm"}, {"days": "Sat", "time": "12:00pm"}, {"days": "Sun", "time": "Closed"}], "id": "8433200001", "name": "USPS COLLECTION BOX - BLUE BOX", "address": {"city": "PROVIDENCE", "state": "UT", "street": "411 W 100 N", "postcode": "84332"}}},
{"geometry": {"type": "Point", "coordinates": [-111.8286668238, 41.7101387965]}, "type": "Feature", "properties": {"collection_times": [{"days": "Mon-Fri", "time": "5:00pm"}, {"days": "Sat", "time": "12:00pm"}, {"days": "Sun", "time": "Closed"}], "id": "8433200002", "name": "USPS COLLECTION BOX - PO LOBBY", "address": {"city": "PROVIDENCE", "state": "UT", "street": "411 W 100 N", "postcode": "84332"}}},
{"geometry": {"type": "Point", "coordinates": [-111.8286668238, 41.7101387965]}, "type": "Feature", "properties": {"collection_times": [{"days": "Mon-Fri", "time": "5:00pm"}, {"days": "Sat", "time": "12:00pm"}, {"days": "Sun", "time": "Closed"}], "id": "8433200003", "name": "USPS COLLECTION BOX - PO LOBBY", "address": {"city": "PROVIDENCE", "state": "UT", "street": "411 W 100 N", "postcode": "84332"}}},
{"geometry": {"type": "Point", "coordinates": [-111.8086381928, 41.922504339]}, "type": "Feature", "properties": {"collection_times": [{"days": "Mon-Fri", "time": "4:15pm"}, {"days": "Sat", "time": "12:30pm"}, {"days": "Sun", "time": "Closed"}], "id": "8433300001", "name": "USPS COLLECTION BOX - BLUE BOX", "address": {"city": "RICHMOND", "state": "UT", "street": "3 S STATE ST", "postcode": "84333"}}},
{"geometry": {"type": "Point", "coordinates": [-111.8086381928, 41.922504339]}, "type": "Feature", "properties": {"collection_times": [{"days": "Mon-Fri", "time": "4:15pm"}, {"days": "Sat", "time": "12:30pm"}, {"days": "Sun", "time": "Closed"}], "id": "8433300002", "name": "USPS COLLECTION BOX - PO LOBBY", "address": {"city": "RICHMOND", "state": "UT", "street": "3 S STATE ST", "postcode": "84333"}}},
{"geometry": {"type": "Point", "coordinates": [-112.1495113308, 41.7901131914]}, "type": "Feature", "properties": {"collection_times": [{"days": "Mon-Fri", "time": "4:15pm"}, {"days": "Sat", "time": "11:45am"}, {"days": "Sun", "time": "Closed"}], "id": "8433400000", "name": "USPS COLLECTION BOX - BLUE BOX", "address": {"city": "RIVERSIDE", "state": "UT", "street": "15445 N 5400 W", "postcode": "84334"}}},
{"geometry": {"type": "Point", "coordinates": [-112.1495113308, 41.7901131914]}, "type": "Feature", "properties": {"collection_times": [{"days": "Mon-Fri", "time": "12:00pm"}, {"days": "Sat", "time": "11:45am"}, {"days": "Sun", "time": "Closed"}], "id": "8433400001", "name": "USPS COLLECTION BOX - PO LOBBY", "address": {"city": "RIVERSIDE", "state": "UT", "street": "15445 N 5400 W", "postcode": "84334"}}},
{"geometry": {"type": "Point", "coordinates": [-111.8324852359, 41.8400405696]}, "type": "Feature", "properties": {"collection_times": [{"days": "Mon-Fri", "time": "4:30pm"}, {"days": "Sat", "time": "12:00pm"}, {"days": "Sun", "time": "Closed"}], "id": "8433500000", "name": "USPS COLLECTION BOX - BLUE BOX", "address": {"city": "SMITHFIELD", "state": "UT", "street": "170 N MAIN ST", "postcode": "84335"}}},
{"geometry": {"type": "Point", "coordinates": [-111.8324852359, 41.8400405696]}, "type": "Feature", "properties": {"collection_times": [{"days": "Mon-Fri", "time": "4:30pm"}, {"days": "Sat", "time": "12:00pm"}, {"days": "Sun", "time": "Closed"}], "id": "8433500001", "name": "USPS COLLECTION BOX - BLUE BOX", "address": {"city": "SMITHFIELD", "state": "UT", "street": "170 N MAIN ST", "postcode": "84335"}}},
{"geometry": {"type": "Point", "coordinates": [-111.8324852359, 41.8400405696]}, "type": "Feature", "properties": {"collection_times": [{"days": "Mon-Fri", "time": "4:55pm"}, {"days": "Sat", "time": "12:00pm"}, {"days": "Sun", "time": "Closed"}], "id": "8433500004", "name": "USPS COLLECTION BOX - PO LOBBY", "address": {"city": "SMITHFIELD", "state": "UT", "street": "170 N MAIN ST", "postcode": "84335"}}},
{"geometry": {"type": "Point", "coordinates": [-112.7155385608, 41.9656060152]}, "type": "Feature", "properties": {"collection_times": [{"days": "Mon-Fri", "time": "3:00pm"}, {"days": "Sat", "time": "11:45am"}, {"days": "Sun", "time": "Closed"}], "id": "8433600000", "name": "USPS COLLECTION BOX - BLUE BOX", "address": {"city": "SNOWVILLE", "state": "UT", "street": "115 W MAIN ST", "postcode": "84336"}}},
{"geometry": {"type": "Point", "coordinates": [-112.7155385608, 41.9656060152]}, "type": "Feature", "properties": {"collection_times": [{"days": "Mon-Fri", "time": "2:45pm"}, {"days": "Sat", "time": "11:45am"}, {"days": "Sun", "time": "Closed"}], "id": "8433600001", "name": "USPS COLLECTION BOX - PO LOBBY", "address": {"city": "SNOWVILLE", "state": "UT", "street": "115 W MAIN ST", "postcode": "84336"}}},
{"geometry": {"type": "Point", "coordinates": [-112.6577753013, 41.8477413327]}, "type": "Feature", "properties": {"collection_times": [{"days": "Mon-Fri", "time": "12:00pm"}, {"days": "Sat", "time": "11:45am"}, {"days": "Sun", "time": "Closed"}], "id": "8433600002", "name": "USPS COLLECTION BOX - PO LOBBY", "address": {"city": "SNOWVILLE", "state": "UT", "street": "11625 N GROUSE CREEK RD", "postcode": "84336"}}},
{"geometry": {"type": "Point", "coordinates": [-112.1659215142, 41.7104302934]}, "type": "Feature", "properties": {"collection_times": [{"days": "Mon-Fri", "time": "4:30pm"}, {"days": "Sat", "time": "2:45pm"}, {"days": "Sun", "time": "Closed"}], "id": "8433700002", "name": "USPS COLLECTION BOX - BLUE BOX", "address": {"city": "TREMONTON", "state": "UT", "street": "111 S TREMONT ST", "postcode": "84337"}}},
{"geometry": {"type": "Point", "coordinates": [-112.1659215142, 41.7104302934]}, "type": "Feature", "properties": {"collection_times": [{"days": "Mon-Fri", "time": "4:30pm"}, {"days": "Sat", "time": "2:45pm"}, {"days": "Sun", "time": "Closed"}], "id": "8433700003", "name": "USPS COLLECTION BOX - BLUE BOX", "address": {"city": "TREMONTON", "state": "UT", "street": "111 S TREMONT ST", "postcode": "84337"}}},
{"geometry": {"type": "Point", "coordinates": [-112.1659215142, 41.7104302934]}, "type": "Feature", "properties": {"collection_times": [{"days": "Mon-Fri", "time": "4:30pm"}, {"days": "Sat", "time": "2:45pm"}, {"days": "Sun", "time": "Closed"}], "id": "8433700004", "name": "USPS COLLECTION BOX - PO LOBBY", "address": {"city": "TREMONTON", "state": "UT", "street": "111 S TREMONT ST", "postcode": "84337"}}},
{"geometry": {"type": "Point", "coordinates": [-112.1659215142, 41.7104302934]}, "type": "Feature", "properties": {"collection_times": [{"days": "Mon-Fri", "time": "4:30pm"}, {"days": "Sat", "time": "2:45pm"}, {"days": "Sun", "time": "Closed"}], "id": "8433700005", "name": "USPS COLLECTION BOX - PO LOBBY", "address": {"city": "TREMONTON", "state": "UT", "street": "111 S TREMONT ST", "postcode": "84337"}}},
{"geometry": {"type": "Point", "coordinates": [-111.9428574163, 41.917533697]}, "type": "Feature", "properties": {"collection_times": [{"days": "Mon-Fri", "time": "3:30pm"}, {"days": "Sat", "time": "10:15am"}, {"days": "Sun", "time": "Closed"}], "id": "8433800000", "name": "USPS COLLECTION BOX - BLUE BOX", "address": {"city": "TRENTON", "state": "UT", "street": "11 E MAIN ST", "postcode": "84338"}}},
{"geometry": {"type": "Point", "coordinates": [-111.9428574163, 41.917533697]}, "type": "Feature", "properties": {"collection_times": [{"days": "Mon-Fri", "time": "11:45am"}, {"days": "Sat", "time": "10:15am"}, {"days": "Sun", "time": "Closed"}], "id": "8433800001", "name": "USPS COLLECTION BOX - PO LOBBY", "address": {"city": "TRENTON", "state": "UT", "street": "11 E MAIN ST", "postcode": "84338"}}},
{"geometry": {"type": "Point", "coordinates": [-111.9310742684, 41.6387018339]}, "type": "Feature", "properties": {"collection_times": [{"days": "Mon-Fri", "time": "4:00pm"}, {"days": "Sat", "time": "11:30am"}, {"days": "Sun", "time": "Closed"}], "id": "8433900001", "name": "USPS COLLECTION BOX - BLUE BOX", "address": {"city": "WELLSVILLE", "state": "UT", "street": "115 E MAIN ST", "postcode": "84339"}}},
{"geometry": {"type": "Point", "coordinates": [-111.9310742684, 41.6387018339]}, "type": "Feature", "properties": {"collection_times": [{"days": "Mon-Fri", "time": "4:00pm"}, {"days": "Sat", "time": "11:30am"}, {"days": "Sun", "time": "Closed"}], "id": "8433900003", "name": "USPS COLLECTION BOX - PO LOBBY", "address": {"city": "WELLSVILLE", "state": "UT", "street": "115 E MAIN ST", "postcode": "84339"}}},
{"geometry": {"type": "Point", "coordinates": [-111.9310742684, 41.6387018339]}, "type": "Feature", "properties": {"collection_times": [{"days": "Mon-Fri", "time": "4:00pm"}, {"days": "Sat", "time": "11:30am"}, {"days": "Sun", "time": "Closed"}], "id": "8433900004", "name": "USPS COLLECTION BOX - PO LOBBY", "address": {"city": "WELLSVILLE", "state": "UT", "street": "115 E MAIN ST", "postcode": "84339"}}},
{"geometry": {"type": "Point", "coordinates": [-112.0363678462, 41.4053589402]}, "type": "Feature", "properties": {"collection_times": [{"days": "Mon-Fri", "time": "4:30pm"}, {"days": "Sat", "time": "12:00pm"}, {"days": "Sun", "time": "Closed"}], "id": "8434000002", "name": "USPS COLLECTION BOX - PO LOBBY", "address": {"city": "WILLARD", "state": "UT", "street": "196 S MAIN ST", "postcode": "84340"}}},
{"geometry": {"type": "Point", "coordinates": [-112.0363678462, 41.4053589402]}, "type": "Feature", "properties": {"collection_times": [{"days": "Mon-Fri", "time": "4:30pm"}, {"days": "Sat", "time": "12:00pm"}, {"days": "Sun", "time": "Closed"}], "id": "8434000003", "name": "USPS COLLECTION BOX - BLUE BOX", "address": {"city": "WILLARD", "state": "UT", "street": "196 S MAIN ST", "postcode": "84340"}}},
{"geometry": {"type": "Point", "coordinates": [-111.8238039118, 41.7629845793]}, "type": "Feature", "properties": {"collection_times": [{"days": "Mon-Fri", "time": "4:45pm"}, {"days": "Sat", "time": "4:00pm"}, {"days": "Sun", "time": "Closed"}], "id": "8434100000", "name": "USPS COLLECTION BOX - BLUE BOX", "address": {"city": "LOGAN", "state": "UT", "street": "1721 N 400 E", "postcode": "84341"}}},
{"geometry": {"type": "Point", "coordinates": [-111.8238039118, 41.7629845793]}, "type": "Feature", "properties": {"collection_times": [{"days": "Mon-Fri", "time": "5:00pm"}, {"days": "Sat", "time": "3:30pm"}, {"days": "Sun", "time": "Closed"}], "id": "8434100002", "name": "USPS COLLECTION BOX - PO LOBBY", "address": {"city": "LOGAN", "state": "UT", "street": "1721 N 400 E", "postcode": "84341"}}},
{"geometry": {"type": "Point", "coordinates": [-111.8238039118, 41.7629845793]}, "type": "Feature", "properties": {"collection_times": [{"days": "Mon-Fri", "time": "5:00pm"}, {"days": "Sat", "time": "3:30pm"}, {"days": "Sun", "time": "Closed"}], "id": "8434100003", "name": "USPS COLLECTION BOX - PO LOBBY", "address": {"city": "LOGAN", "state": "UT", "street": "1721 N 400 E", "postcode": "84341"}}}
]}
