{"type": "FeatureCollection", "features": [
{"geometry": {"type": "Point", "coordinates": [-111.9704834122, 41.22302322]}, "type": "Feature", "properties": {"collection_times": [{"days": "Mon-Fri", "time": "3:45pm"}, {"days": "Sat", "time": "4:00pm"}, {"days": "Sun", "time": "Closed"}], "id": "8440100013", "name": "USPS COLLECTION BOX - BLUE BOX", "address": {"city": "OGDEN", "state": "UT", "street": "2389 WASHINGTON BLVD", "postcode": "84401"}}},
{"geometry": {"type": "Point", "coordinates": [-111.9765437088, 41.1991900054]}, "type": "Feature", "properties": {"collection_times": [{"days": "Mon-Fri", "time": "4:15pm"}, {"days": "Sat", "time": "5:00pm"}, {"days": "Sun", "time": "Closed"}], "id": "8440100018", "name": "USPS COLLECTION BOX - BLUE BOX", "address": {"city": "OGDEN", "state": "UT", "street": "3544 LINCOLN AVE", "postcode": "84401"}}},
{"geometry": {"type": "Point", "coordinates": [-111.9854993945, 41.196587435]}, "type": "Feature", "properties": {"collection_times": [{"days": "Mon-Sat", "time": "5:30pm"}, {"days": "Sun", "time": "Closed"}], "id": "8440100021", "name": "USPS COLLECTION BOX - BLUE BOX", "address": {"city": "OGDEN", "state": "UT", "street": "3680 PACIFIC AVE", "postcode": "84401"}}},
{"geometry": {"type": "Point", "coordinates": [-111.9705398591, 41.2157930363]}, "type": "Feature", "properties": {"collection_times": [{"days": "Mon-Fri", "time": "5:15pm"}, {"days": "Sat", "time": "4:45pm"}, {"days": "Sun", "time": "Closed"}], "id": "8440100028", "name": "USPS COLLECTION BOX - BLUE BOX", "address": {"city": "OGDEN", "state": "UT", "street": "2730 WASHINGTON BLVD", "postcode": "84401"}}},
{"geometry": {"type": "Point", "coordinates": [-111.9705398591, 41.2157930363]}, "type": "Feature", "properties": {"collection_times": [{"days": "Mon-Fri", "time": "5:15pm"}, {"days": "Sat", "time": "4:45pm"}, {"days": "Sun", "time": "Closed"}], "id": "8440100029", "name": "USPS COLLECTION BOX - BLUE BOX", "address": {"city": "OGDEN", "state": "UT", "street": "2730 WASHINGTON BLVD", "postcode": "84401"}}},
{"geometry": {"type": "Point", "coordinates": [-111.9570270886, 41.1956409932]}, "type": "Feature", "properties": {"collection_times": [{"days": "Mon-Sat", "time": "3:30pm"}, {"days": "Sun", "time": "Closed"}], "id": "8440100064", "name": "USPS COLLECTION BOX - BLUE BOX", "address": {"city": "OGDEN", "state": "UT", "street": "3710 QUINCY AVE", "postcode": "84401"}}},
{"geometry": {"type": "Point", "coordinates": [-111.9695947731, 41.2637058671]}, "type": "Feature", "properties": {"collection_times": [{"days": "Mon-Fri", "time": "4:45pm"}, {"days": "Sat", "time": "5:00pm"}, {"days": "Sun", "time": "Closed"}], "id": "8440100093", "name": "USPS COLLECTION BOX - BLUE BOX", "address": {"city": "OGDEN", "state": "UT", "street": "221 N WASHINGTON BLVD", "postcode": "84401"}}},
{"geometry": {"type": "Point", "coordinates": [-111.9644323971, 41.1679895154]}, "type": "Feature", "properties": {"collection_times": [{"days": "Mon-Fri", "time": "2:30pm"}, {"days": "Sat", "time": "3:15pm"}, {"days": "Sun", "time": "Closed"}], "id": "8440100104", "name": "USPS COLLECTION BOX - BLUE BOX", "address": {"city": "OGDEN", "state": "UT", "street": "625 E 5300 S", "postcode": "84401"}}},
{"geometry": {"type": "Point", "coordinates": [-111.9685703591, 41.1677742636]}, "type": "Feature", "properties": {"collection_times": [{"days": "Mon-Fri", "time": "2:30pm"}, {"days": "Sat", "time": "3:00pm"}, {"days": "Sun", "time": "Closed"}], "id": "8440100107", "name": "USPS COLLECTION BOX - BLUE BOX", "address": {"city": "OGDEN", "state": "UT", "street": "5300 ADAMS AVENUE PKWY", "postcode": "84401"}}},
{"geometry": {"type": "Point", "coordinates": [-111.9419093731, 41.1339757005]}, "type": "Feature", "properties": {"collection_times": [{"days": "Mon-Sat", "time": "10:00am"}, {"days": "Sun", "time": "Closed"}], "id": "8440100108", "name": "USPS COLLECTION BOX - BLUE BOX", "address": {"city": "OGDEN", "state": "UT", "street": "1600 E SOUTH WEBER DR", "postcode": "84401"}}},
{"geometry": {"type": "Point", "coordinates": [-111.9705447819, 41.2209142248]}, "type": "Feature", "properties": {"collection_times": [{"days": "Mon-Sat", "time": "4:00pm"}, {"days": "Sun", "time": "Closed"}], "id": "8440100139", "name": "USPS COLLECTION BOX - BLUE BOX", "address": {"city": "OGDEN", "state": "UT", "street": "2491 WASHINGTON BLVD", "postcode": "84401"}}},
{"geometry": {"type": "Point", "coordinates": [-111.9854993945, 41.196587435]}, "type": "Feature", "properties": {"collection_times": [{"days": "Mon-Sat", "time": "6:00pm"}, {"days": "Sun", "time": "Closed"}], "id": "8440100162", "name": "USPS COLLECTION BOX - PO LOBBY", "address": {"city": "OGDEN", "state": "UT", "street": "3680 PACIFIC AVE", "postcode": "84401"}}},
{"geometry": {"type": "Point", "coordinates": [-111.9705019978, 41.215777779]}, "type": "Feature", "properties": {"collection_times": [{"days": "Mon-Fri", "time": "5:00pm"}, {"days": "Sat", "time": "3:30pm"}, {"days": "Sun", "time": "Closed"}], "id": "8440100163", "name": "USPS COLLECTION BOX - PO LOBBY", "address": {"city": "OGDEN", "state": "UT", "street": "2730 WASHINGTON BLVD", "postcode": "84401"}}},
{"geometry": {"type": "Point", "coordinates": [-111.9731763676, 41.1977483638]}, "type": "Feature", "properties": {"collection_times": [{"days": "Mon-Fri", "time": "4:15pm"}, {"days": "Sat", "time": "5:00pm"}, {"days": "Sun", "time": "Closed"}], "id": "8440100164", "name": "USPS COLLECTION BOX - BLUE BOX", "address": {"city": "OGDEN", "state": "UT", "street": "325 36TH ST", "postcode": "84401"}}},
{"geometry": {"type": "Point", "coordinates": [-112.0176830752, 41.2166674773]}, "type": "Feature", "properties": {"collection_times": [{"days": "Mon-Sat", "time": "2:45pm"}, {"days": "Sun", "time": "Closed"}], "id": "8440100166", "name": "USPS COLLECTION BOX - BLUE BOX", "address": {"city": "OGDEN", "state": "UT", "street": "2693 COMMERCE WAY", "postcode": "84401"}}},
{"geometry": {"type": "Point", "coordinates": [-111.8883513546, 41.248475913]}, "type": "Feature", "properties": {"collection_times": [{"days": "Mon-Fri", "time": "4:00pm"}, {"days": "Sat", "time": "5:00pm"}, {"days": "Sun", "time": "Closed"}], "id": "8440100178", "name": "USPS COLLECTION BOX - BLUE BOX", "address": {"city": "OGDEN", "state": "UT", "street": "525 39TH ST", "postcode": "84401"}}},
{"geometry": {"type": "Point", "coordinates": [-111.9829321286, 41.1794747444]}, "type": "Feature", "properties": {"collection_times": [{"days": "Mon-Fri", "time": "2:15pm"}, {"days": "Sat", "time": "2:45pm"}, {"days": "Sun", "time": "Closed"}], "id": "8440100186", "name": "USPS COLLECTION BOX - BLUE BOX", "address": {"city": "OGDEN", "state": "UT", "street": "4601 S 300 W", "postcode": "84401"}}},
{"geometry": {"type": "Point", "coordinates": [-111.9226911004, 41.1441576573]}, "type": "Feature", "properties": {"collection_times": [{"days": "Mon-Sat", "time": "8:45am"}, {"days": "Sun", "time": "Closed"}], "id": "8440100194", "name": "USPS COLLECTION BOX - BLUE BOX", "address": {"city": "OGDEN", "state": "UT", "street": "2191 E 6550 S", "postcode": "84401"}}},
{"geometry": {"type": "Point", "coordinates": [-111.9509300139, 41.1793179375]}, "type": "Feature", "properties": {"collection_times": [{"days": "Mon-Fri", "time": "4:45pm"}, {"days": "Sat", "time": "4:30pm"}, {"days": "Sun", "time": "Closed"}], "id": "8440100195", "name": "USPS COLLECTION BOX - BLUE BOX", "address": {"city": "OGDEN", "state": "UT", "street": "1145 E 4600 S", "postcode": "84401"}}},
{"geometry": {"type": "Point", "coordinates": [-111.9705019978, 41.215777779]}, "type": "Feature", "properties": {"collection_times": [{"days": "Mon-Fri", "time": "5:00pm"}, {"days": "Sat", "time": "3:30pm"}, {"days": "Sun", "time": "Closed"}], "id": "8440100197", "name": "USPS COLLECTION BOX - PO LOBBY", "address": {"city": "OGDEN", "state": "UT", "street": "2730 WASHINGTON BLVD", "postcode": "84401"}}},
{"geometry": {"type": "Point", "coordinates": [-111.9955534345, 41.2572815784]}, "type": "Feature", "properties": {"collection_times": [{"days": "Mon-Fri", "time": "3:30pm"}, {"days": "Sat-Sun", "time": "Closed"}], "id": "8440100198", "name": "USPS COLLECTION BOX - BLUE BOX", "address": {"city": "OGDEN", "state": "UT", "street": "712 AMIDAN DR", "postcode": "84401"}}},
{"geometry": {"type": "Point", "coordinates": [-111.9698114028, 41.2466216637]}, "type": "Feature", "properties": {"collection_times": [{"days": "Mon-Fri", "time": "3:00pm"}, {"days": "Sat", "time": "3:15pm"}, {"days": "Sun", "time": "Closed"}], "id": "8440100210", "name": "USPS COLLECTION BOX - BLUE BOX", "address": {"city": "OGDEN", "state": "UT", "street": "1016 WASHINGTON BLVD", "postcode": "84401"}}},
{"geometry": {"type": "Point", "coordinates": [-111.9491876179, 41.1827534136]}, "type": "Feature", "properties": {"collection_times": [{"days": "Mon-Fri", "time": "3:45pm"}, {"days": "Sat", "time": "4:15pm"}, {"days": "Sun", "time": "Closed"}], "id": "8440100212", "name": "USPS COLLECTION BOX - BLUE BOX", "address": {"city": "OGDEN", "state": "UT", "street": "4401 HARRISON BLVD", "postcode": "84401"}}},
{"geometry": {"type": "Point", "coordinates": [-111.9704006066, 41.2264935069]}, "type": "Feature", "properties": {"collection_times": [{"days": "Mon-Sat", "time": "3:45pm"}, {"days": "Sun", "time": "Closed"}], "id": "8440100220", "name": "USPS COLLECTION BOX - BLUE BOX", "address": {"city": "OGDEN", "state": "UT", "street": "2225 WASHINGTON BLVD", "postcode": "84401"}}},
{"geometry": {"type": "Point", "coordinates": [-111.9706098994, 41.1684024323]}, "type": "Feature", "properties": {"collection_times": [{"days": "Mon-Sat", "time": "2:15pm"}, {"days": "Sun", "time": "Closed"}], "id": "8440100222", "name": "USPS COLLECTION BOX - BLUE BOX", "address": {"city": "OGDEN", "state": "UT", "street": "5249 S POINTE DR", "postcode": "84401"}}},
{"geometry": {"type": "Point", "coordinates": [-111.9686650335, 41.1634120759]}, "type": "Feature", "properties": {"collection_times": [{"days": "Mon-Fri", "time": "2:30pm"}, {"days": "Sat", "time": "12:00pm"}, {"days": "Sun", "time": "Closed"}], "id": "8440100224", "name": "USPS COLLECTION BOX - BLUE BOX", "address": {"city": "OGDEN", "state": "UT", "street": "5475 S 500 E", "postcode": "84401"}}},
{"geometry": {"type": "Point", "coordinates": [-111.9509300139, 41.1793179375]}, "type": "Feature", "properties": {"collection_times": [{"days": "Mon-Fri", "time": "5:00pm"}, {"days": "Sat", "time": "4:00pm"}, {"days": "Sun", "time": "Closed"}], "id": "8440300003", "name": "USPS COLLECTION BOX - APC", "address": {"city": "OGDEN", "state": "UT", "street": "1145 E 4600 S", "postcode": "84403"}}},
{"geometry": {"type": "Point", "coordinates": [-111.9430193588, 41.1593144234]}, "type": "Feature", "properties": {"collection_times": [{"days": "Mon-Fri", "time": "11:00am"}, {"days": "Sat-Sun", "time": "Closed"}], "id": "8440300004", "name": "USPS COLLECTION BOX - BLUE BOX", "address": {"city": "OGDEN", "state": "UT", "street": "5728 S 1475 E", "postcode": "84403"}}},
{"geometry": {"type": "Point", "coordinates": [-111.9509300139, 41.1793179375]}, "type": "Feature", "properties": {"collection_times": [{"days": "Mon-Fri", "time": "5:00pm"}, {"days": "Sat", "time": "4:00pm"}, {"days": "Sun", "time": "Closed"}], "id": "8440300005", "name": "USPS COLLECTION BOX - PO LOBBY", "address": {"city": "OGDEN", "state": "UT", "street": "1145 E 4600 S", "postcode": "84403"}}},
{"geometry": {"type": "Point", "coordinates": [-111.9509300139, 41.1793179375]}, "type": "Feature", "properties": {"collection_times": [{"days": "Mon-Fri", "time": "5:00pm"}, {"days": "Sat", "time": "4:00pm"}, {"days": "Sun", "time": "Closed"}], "id": "8440300007", "name": "USPS COLLECTION BOX - PO LOBBY", "address": {"city": "OGDEN", "state": "UT", "street": "1145 E 4600 S", "postcode": "84403"}}},
{"geometry": {"type": "Point", "coordinates": [-111.9551505887, 41.165490581]}, "type": "Feature", "properties": {"collection_times": [{"days": "Mon-Fri", "time": "11:00am"}, {"days": "Sat-Sun", "time": "Closed"}], "id": "8440300008", "name": "USPS COLLECTION BOX - BLUE BOX", "address": {"city": "OGDEN", "state": "UT", "street": "978 CHAMBERS ST", "postcode": "84403"}}},
{"geometry": {"type": "Point", "coordinates": [-111.9695947731, 41.2637058671]}, "type": "Feature", "properties": {"collection_times": [{"days": "Mon-Fri", "time": "5:00pm"}, {"days": "Sat", "time": "4:00pm"}, {"days": "Sun", "time": "Closed"}], "id": "8440400001", "name": "USPS COLLECTION BOX - APC", "address": {"city": "OGDEN", "state": "UT", "street": "221 N WASHINGTON BLVD", "postcode": "84404"}}},
{"geometry": {"type": "Point", "coordinates": [-111.9695947731, 41.2637058671]}, "type": "Feature", "properties": {"collection_times": [{"days": "Mon-Fri", "time": "5:00pm"}, {"days": "Sat", "time": "4:00pm"}, {"days": "Sun", "time": "Closed"}], "id": "8440400002", "name": "USPS COLLECTION BOX - PO LOBBY", "address": {"city": "OGDEN", "state": "UT", "street": "221 N WASHINGTON BLVD", "postcode": "84404"}}},
{"geometry": {"type": "Point", "coordinates": [-112.0801596464, 41.2979469731]}, "type": "Feature", "properties": {"collection_times": [{"days": "Mon-Sat", "time": "11:00am"}, {"days": "Sun", "time": "Closed"}], "id": "8440400004", "name": "USPS COLLECTION BOX - BLUE BOX", "address": {"city": "OGDEN", "state": "UT", "street": "4160 W 2200 N", "postcode": "84404"}}},
{"geometry": {"type": "Point", "coordinates": [-112.0276960179, 41.2938972852]}, "type": "Feature", "properties": {"collection_times": [{"days": "Mon-Sat", "time": "12:00pm"}, {"days": "Sun", "time": "Closed"}], "id": "8440400005", "name": "USPS COLLECTION BOX - BLUE BOX", "address": {"city": "OGDEN", "state": "UT", "street": "2090 N 2000 W", "postcode": "84404"}}},
{"geometry": {"type": "Point", "coordinates": [-111.9882069965, 41.3192730317]}, "type": "Feature", "properties": {"collection_times": [{"days": "Mon-Sat", "time": "1:50pm"}, {"days": "Sun", "time": "Closed"}], "id": "8441400002", "name": "USPS COLLECTION BOX - BLUE BOX", "address": {"city": "OGDEN", "state": "UT", "street": "3311 N 500 W", "postcode": "84414"}}},
{"geometry": {"type": "Point", "coordinates": [-111.9649038271, 41.305768134]}, "type": "Feature", "properties": {"collection_times": [{"days": "Mon-Sat", "time": "1:30pm"}, {"days": "Sun", "time": "Closed"}], "id": "8441400004", "name": "USPS COLLECTION BOX - BLUE BOX", "address": {"city": "OGDEN", "state": "UT", "street": "505 E 2600 N", "postcode": "84414"}}}
]}
