{"type": "FeatureCollection", "features": [
{"geometry": {"type": "Point", "coordinates": [-110.8111427304, 39.598166468]}, "type": "Feature", "properties": {"collection_times": [{"days": "Mon-Fri", "time": "5:00pm"}, {"days": "Sat", "time": "12:00pm"}, {"days": "Sun", "time": "Closed"}], "id": "8450100001", "name": "USPS COLLECTION BOX - BLUE BOX", "address": {"city": "PRICE", "state": "UT", "street": "95 S CARBON AVE", "postcode": "84501"}}},
{"geometry": {"type": "Point", "coordinates": [-110.8111427304, 39.598166468]}, "type": "Feature", "properties": {"collection_times": [{"days": "Mon-Fri", "time": "5:00pm"}, {"days": "Sat", "time": "12:00pm"}, {"days": "Sun", "time": "Closed"}], "id": "8450100002", "name": "USPS COLLECTION BOX - BLUE BOX", "address": {"city": "PRICE", "state": "UT", "street": "95 S CARBON AVE", "postcode": "84501"}}},
{"geometry": {"type": "Point", "coordinates": [-110.8112147165, 39.5983703116]}, "type": "Feature", "properties": {"collection_times": [{"days": "Mon-Fri", "time": "5:00pm"}, {"days": "Sat", "time": "12:00pm"}, {"days": "Sun", "time": "Closed"}], "id": "8450100003", "name": "USPS COLLECTION BOX - BLUE BOX", "address": {"city": "PRICE", "state": "UT", "street": "95 S CARBON AVE", "postcode": "84501"}}},
{"geometry": {"type": "Point", "coordinates": [-110.7950318243, 39.5992787236]}, "type": "Feature", "properties": {"collection_times": [{"days": "Mon-Sat", "time": "9:45am"}, {"days": "Sun", "time": "Closed"}], "id": "8450100006", "name": "USPS COLLECTION BOX - BLUE BOX", "address": {"city": "PRICE", "state": "UT", "street": "979 E MAIN ST", "postcode": "84501"}}},
{"geometry": {"type": "Point", "coordinates": [-110.8033999274, 39.6009478577]}, "type": "Feature", "properties": {"collection_times": [{"days": "Mon-Sat", "time": "10:15am"}, {"days": "Sun", "time": "Closed"}], "id": "8450100007", "name": "USPS COLLECTION BOX - BLUE BOX", "address": {"city": "PRICE", "state": "UT", "street": "406 E 100 N", "postcode": "84501"}}},
{"geometry": {"type": "Point", "coordinates": [-110.8072447115, 39.5997016338]}, "type": "Feature", "properties": {"collection_times": [{"days": "Mon-Sat", "time": "11:00am"}, {"days": "Sun", "time": "Closed"}], "id": "8450100018", "name": "USPS COLLECTION BOX - BLUE BOX", "address": {"city": "PRICE", "state": "UT", "street": "10 N 200 E", "postcode": "84501"}}},
{"geometry": {"type": "Point", "coordinates": [-110.8111427304, 39.598166468]}, "type": "Feature", "properties": {"collection_times": [{"days": "Mon-Fri", "time": "5:00pm"}, {"days": "Sat", "time": "1:30pm"}, {"days": "Sun", "time": "Closed"}], "id": "8450100019", "name": "USPS COLLECTION BOX - PO LOBBY", "address": {"city": "PRICE", "state": "UT", "street": "95 S CARBON AVE", "postcode": "84501"}}},
{"geometry": {"type": "Point", "coordinates": [-110.8111427304, 39.598166468]}, "type": "Feature", "properties": {"collection_times": [{"days": "Mon-Fri", "time": "5:00pm"}, {"days": "Sat", "time": "1:30pm"}, {"days": "Sun", "time": "Closed"}], "id": "8450100020", "name": "USPS COLLECTION BOX - PO LOBBY", "address": {"city": "PRICE", "state": "UT", "street": "95 S CARBON AVE", "postcode": "84501"}}},
{"geometry": {"type": "Point", "coordinates": [-109.4779023415, 37.6266665657]}, "type": "Feature", "properties": {"collection_times": [{"days": "Mon-Sat", "time": "2:35pm"}, {"days": "Sun", "time": "Closed"}], "id": "8451100001", "name": "USPS COLLECTION BOX - BLUE BOX", "address": {"city": "BLANDING", "state": "UT", "street": "90 N MAIN ST", "postcode": "84511"}}},
{"geometry": {"type": "Point", "coordinates": [-109.4779023415, 37.6266665657]}, "type": "Feature", "properties": {"collection_times": [{"days": "Mon-Sat", "time": "2:35pm"}, {"days": "Sun", "time": "Closed"}], "id": "8451100002", "name": "USPS COLLECTION BOX - PO LOBBY", "address": {"city": "BLANDING", "state": "UT", "street": "90 N MAIN ST", "postcode": "84511"}}},
{"geometry": {"type": "Point", "coordinates": [-109.5667438438, 37.2816665039]}, "type": "Feature", "properties": {"collection_times": [{"days": "Mon-Fri", "time": "12:15pm"}, {"days": "Sat", "time": "11:45am"}, {"days": "Sun", "time": "Closed"}], "id": "8451200001", "name": "USPS COLLECTION BOX - BLUE BOX", "address": {"city": "BLUFF", "state": "UT", "street": "55 N 500 E", "postcode": "84512"}}},
{"geometry": {"type": "Point", "coordinates": [-109.5667438438, 37.2816665039]}, "type": "Feature", "properties": {"collection_times": [{"days": "Mon-Fri", "time": "12:15pm"}, {"days": "Sat", "time": "12:00pm"}, {"days": "Sun", "time": "Closed"}], "id": "8451200002", "name": "USPS COLLECTION BOX - PO LOBBY", "address": {"city": "BLUFF", "state": "UT", "street": "55 N 500 E", "postcode": "84512"}}},
{"geometry": {"type": "Point", "coordinates": [-109.5667438438, 37.2816665039]}, "type": "Feature", "properties": {"collection_times": [{"days": "Mon-Fri", "time": "12:15pm"}, {"days": "Sat", "time": "12:00pm"}, {"days": "Sun", "time": "Closed"}], "id": "8451200003", "name": "USPS COLLECTION BOX - PO LOBBY", "address": {"city": "BLUFF", "state": "UT", "street": "55 N 500 E", "postcode": "84512"}}},
{"geometry": {"type": "Point", "coordinates": [-111.0195838001, 39.2109203328]}, "type": "Feature", "properties": {"collection_times": [{"days": "Mon-Fri", "time": "4:15pm"}, {"days": "Sat", "time": "11:15am"}, {"days": "Sun", "time": "Closed"}], "id": "8451300001", "name": "USPS COLLECTION BOX - BLUE BOX", "address": {"city": "CASTLE DALE", "state": "UT", "street": "55 S CENTER ST", "postcode": "84513"}}},
{"geometry": {"type": "Point", "coordinates": [-111.0195838001, 39.2109203328]}, "type": "Feature", "properties": {"collection_times": [{"days": "Mon-Fri", "time": "4:15pm"}, {"days": "Sat", "time": "11:15am"}, {"days": "Sun", "time": "Closed"}], "id": "8451300002", "name": "USPS COLLECTION BOX - PO LOBBY", "address": {"city": "CASTLE DALE", "state": "UT", "street": "55 S CENTER ST", "postcode": "84513"}}},
{"geometry": {"type": "Point", "coordinates": [-111.0195838001, 39.2109203328]}, "type": "Feature", "properties": {"collection_times": [{"days": "Mon-Fri", "time": "4:15pm"}, {"days": "Sat", "time": "11:15am"}, {"days": "Sun", "time": "Closed"}], "id": "8451300003", "name": "USPS COLLECTION BOX - PO LOBBY", "address": {"city": "CASTLE DALE", "state": "UT", "street": "55 S CENTER ST", "postcode": "84513"}}},
{"geometry": {"type": "Point", "coordinates": [-111.0969845648, 39.1323398892]}, "type": "Feature", "properties": {"collection_times": [{"days": "Mon-Fri", "time": "1:45pm"}, {"days": "Sat", "time": "11:45am"}, {"days": "Sun", "time": "Closed"}], "id": "8451600000", "name": "USPS COLLECTION BOX - BLUE BOX", "address": {"city": "CLAWSON", "state": "UT", "street": "10 S MAIN ST", "postcode": "84516"}}},
{"geometry": {"type": "Point", "coordinates": [-111.0969845648, 39.1323398892]}, "type": "Feature", "properties": {"collection_times": [{"days": "Mon-Fri", "time": "9:45am"}, {"days": "Sat", "time": "11:45am"}, {"days": "Sun", "time": "Closed"}], "id": "8451600001", "name": "USPS COLLECTION BOX - PO LOBBY", "address": {"city": "CLAWSON", "state": "UT", "street": "10 S MAIN ST", "postcode": "84516"}}},
{"geometry": {"type": "Point", "coordinates": [-110.8577248944, 39.3486950973]}, "type": "Feature", "properties": {"collection_times": [{"days": "Mon-Fri", "time": "4:30pm"}, {"days": "Sat", "time": "10:30am"}, {"days": "Sun", "time": "Closed"}], "id": "8451800000", "name": "USPS COLLECTION BOX - BLUE BOX", "address": {"city": "CLEVELAND", "state": "UT", "street": "290 W MAIN ST", "postcode": "84518"}}},
{"geometry": {"type": "Point", "coordinates": [-110.8577248944, 39.3486950973]}, "type": "Feature", "properties": {"collection_times": [{"days": "Mon-Fri", "time": "11:45am"}, {"days": "Sat", "time": "10:30am"}, {"days": "Sun", "time": "Closed"}], "id": "8451800001", "name": "USPS COLLECTION BOX - PO LOBBY", "address": {"city": "CLEVELAND", "state": "UT", "street": "290 W MAIN ST", "postcode": "84518"}}},
{"geometry": {"type": "Point", "coordinates": [-110.4182492253, 39.5436799619]}, "type": "Feature", "properties": {"collection_times": [{"days": "Mon-Fri", "time": "4:30pm"}, {"days": "Sat", "time": "1:00pm"}, {"days": "Sun", "time": "Closed"}], "id": "8452000000", "name": "USPS COLLECTION BOX - BLUE BOX", "address": {"city": "EAST CARBON", "state": "UT", "street": "109 WHITMORE DR", "postcode": "84520"}}},
{"geometry": {"type": "Point", "coordinates": [-110.4182492253, 39.5436799619]}, "type": "Feature", "properties": {"collection_times": [{"days": "Mon-Fri", "time": "4:45pm"}, {"days": "Sat", "time": "11:00am"}, {"days": "Sun", "time": "Closed"}], "id": "8452000001", "name": "USPS COLLECTION BOX - PO LOBBY", "address": {"city": "EAST CARBON", "state": "UT", "street": "109 WHITMORE DR", "postcode": "84520"}}},
{"geometry": {"type": "Point", "coordinates": [-110.834587039, 39.3957818412]}, "type": "Feature", "properties": {"collection_times": [{"days": "Mon-Fri", "time": "4:00pm"}, {"days": "Sat", "time": "10:45am"}, {"days": "Sun", "time": "Closed"}], "id": "8452100000", "name": "USPS COLLECTION BOX - BLUE BOX", "address": {"city": "ELMO", "state": "UT", "street": "100 E MAIN ST", "postcode": "84521"}}},
{"geometry": {"type": "Point", "coordinates": [-110.834587039, 39.3957818412]}, "type": "Feature", "properties": {"collection_times": [{"days": "Mon-Fri", "time": "11:45am"}, {"days": "Sat", "time": "10:45am"}, {"days": "Sun", "time": "Closed"}], "id": "8452100001", "name": "USPS COLLECTION BOX - PO LOBBY", "address": {"city": "ELMO", "state": "UT", "street": "100 E MAIN ST", "postcode": "84521"}}},
{"geometry": {"type": "Point", "coordinates": [-111.24918766, 38.9231108895]}, "type": "Feature", "properties": {"collection_times": [{"days": "Mon-Fri", "time": "3:45pm"}, {"days": "Sat", "time": "10:45am"}, {"days": "Sun", "time": "Closed"}], "id": "8452200000", "name": "USPS COLLECTION BOX - BLUE BOX", "address": {"city": "EMERY", "state": "UT", "street": "31 E MAIN ST", "postcode": "84522"}}},
{"geometry": {"type": "Point", "coordinates": [-111.24918766, 38.9231108895]}, "type": "Feature", "properties": {"collection_times": [{"days": "Mon-Fri", "time": "11:45am"}, {"days": "Sat", "time": "10:45am"}, {"days": "Sun", "time": "Closed"}], "id": "8452200001", "name": "USPS COLLECTION BOX - PO LOBBY", "address": {"city": "EMERY", "state": "UT", "street": "31 E MAIN ST", "postcode": "84522"}}},
{"geometry": {"type": "Point", "coordinates": [-111.134333789, 39.0909636526]}, "type": "Feature", "properties": {"collection_times": [{"days": "Mon-Fri", "time": "3:45pm"}, {"days": "Sat", "time": "11:15am"}, {"days": "Sun", "time": "Closed"}], "id": "8452300001", "name": "USPS COLLECTION BOX - BLUE BOX", "address": {"city": "FERRON", "state": "UT", "street": "60 N 100 W", "postcode": "84523"}}},
{"geometry": {"type": "Point", "coordinates": [-111.134333789, 39.0909636526]}, "type": "Feature", "properties": {"collection_times": [{"days": "Mon-Fri", "time": "4:00pm"}, {"days": "Sat", "time": "11:15am"}, {"days": "Sun", "time": "Closed"}], "id": "8452300002", "name": "USPS COLLECTION BOX - PO LOBBY", "address": {"city": "FERRON", "state": "UT", "street": "60 N 100 W", "postcode": "84523"}}},
{"geometry": {"type": "Point", "coordinates": [-111.134333789, 39.0909636526]}, "type": "Feature", "properties": {"collection_times": [{"days": "Mon-Fri", "time": "4:00pm"}, {"days": "Sat", "time": "11:15am"}, {"days": "Sun", "time": "Closed"}], "id": "8452300003", "name": "USPS COLLECTION BOX - PO LOBBY", "address": {"city": "FERRON", "state": "UT", "street": "60 N 100 W", "postcode": "84523"}}},
{"geometry": {"type": "Point", "coordinates": [-110.1620307806, 38.9955577335]}, "type": "Feature", "properties": {"collection_times": [{"days": "Mon-Fri", "time": "4:30pm"}, {"days": "Sat", "time": "11:45am"}, {"days": "Sun", "time": "Closed"}], "id": "8452500001", "name": "USPS COLLECTION BOX - BLUE BOX", "address": {"city": "GREEN RIVER", "state": "UT", "street": "20 E MAIN ST", "postcode": "84525"}}},
{"geometry": {"type": "Point", "coordinates": [-110.1620307806, 38.9955577335]}, "type": "Feature", "properties": {"collection_times": [{"days": "Mon-Fri", "time": "4:30pm"}, {"days": "Sat", "time": "11:45am"}, {"days": "Sun", "time": "Closed"}], "id": "8452500002", "name": "USPS COLLECTION BOX - PO LOBBY", "address": {"city": "GREEN RIVER", "state": "UT", "street": "20 E MAIN ST", "postcode": "84525"}}},
{"geometry": {"type": "Point", "coordinates": [-110.8573885452, 39.6916126335]}, "type": "Feature", "properties": {"collection_times": [{"days": "Mon-Sat", "time": "12:00pm"}, {"days": "Sun", "time": "Closed"}], "id": "8452600001", "name": "USPS COLLECTION BOX - BLUE BOX", "address": {"city": "HELPER", "state": "UT", "street": "1 S MAIN ST", "postcode": "84526"}}},
{"geometry": {"type": "Point", "coordinates": [-110.8568022421, 39.6916828471]}, "type": "Feature", "properties": {"collection_times": [{"days": "Mon-Fri", "time": "5:00pm"}, {"days": "Sat", "time": "12:00pm"}, {"days": "Sun", "time": "Closed"}], "id": "8452600006", "name": "USPS COLLECTION BOX - PO LOBBY", "address": {"city": "HELPER", "state": "UT", "street": "45 S MAIN ST", "postcode": "84526"}}},
{"geometry": {"type": "Point", "coordinates": [-110.8568022421, 39.6916828471]}, "type": "Feature", "properties": {"collection_times": [{"days": "Mon-Fri", "time": "5:00pm"}, {"days": "Sat", "time": "12:00pm"}, {"days": "Sun", "time": "Closed"}], "id": "8452600011", "name": "USPS COLLECTION BOX - BLUE BOX", "address": {"city": "HELPER", "state": "UT", "street": "45 S MAIN ST", "postcode": "84526"}}},
{"geometry": {"type": "Point", "coordinates": [-110.963757311, 39.328282043]}, "type": "Feature", "properties": {"collection_times": [{"days": "Mon-Fri", "time": "4:00pm"}, {"days": "Sat", "time": "11:00am"}, {"days": "Sun", "time": "Closed"}], "id": "8452800001", "name": "USPS COLLECTION BOX - BLUE BOX", "address": {"city": "HUNTINGTON", "state": "UT", "street": "45 E 100 N", "postcode": "84528"}}},
{"geometry": {"type": "Point", "coordinates": [-110.9635564068, 39.3281985879]}, "type": "Feature", "properties": {"collection_times": [{"days": "Mon-Fri", "time": "4:00pm"}, {"days": "Sat", "time": "11:30am"}, {"days": "Sun", "time": "Closed"}], "id": "8452800002", "name": "USPS COLLECTION BOX - PO LOBBY", "address": {"city": "HUNTINGTON", "state": "UT", "street": "45 E 100 N", "postcode": "84528"}}},
{"geometry": {"type": "Point", "coordinates": [-109.2564387139, 38.3107510339]}, "type": "Feature", "properties": {"collection_times": [{"days": "Mon-Fri", "time": "3:00pm"}, {"days": "Sat", "time": "10:30am"}, {"days": "Sun", "time": "Closed"}], "id": "8453000000", "name": "USPS COLLECTION BOX - BLUE BOX", "address": {"city": "LASAL", "state": "UT", "street": "2 MAIN ST", "postcode": "84530"}}},
{"geometry": {"type": "Point", "coordinates": [-109.2564387139, 38.3107510339]}, "type": "Feature", "properties": {"collection_times": [{"days": "Mon-Fri", "time": "3:00pm"}, {"days": "Sat", "time": "10:45am"}, {"days": "Sun", "time": "Closed"}], "id": "8453000001", "name": "USPS COLLECTION BOX - PO LOBBY", "address": {"city": "LASAL", "state": "UT", "street": "2 MAIN ST", "postcode": "84530"}}},
{"geometry": {"type": "Point", "coordinates": [-109.9986326511, 37.0993044852]}, "type": "Feature", "properties": {"collection_times": [{"days": "Mon-Sat", "time": "11:45am"}, {"days": "Sun", "time": "Closed"}], "id": "8453100002", "name": "USPS COLLECTION BOX - PO LOBBY", "address": {"city": "MEXICAN HAT", "state": "UT", "street": "US HWY 163 S", "postcode": "84531"}}},
{"geometry": {"type": "Point", "coordinates": [-109.3616562442, 37.1657277329]}, "type": "Feature", "properties": {"collection_times": [{"days": "Mon-Fri", "time": "12:55pm"}, {"days": "Sat", "time": "12:00pm"}, {"days": "Sun", "time": "Closed"}], "id": "8453400000", "name": "USPS COLLECTION BOX - BLUE BOX", "address": {"city": "MONTEZUMA CREEK", "state": "UT", "street": "50 CENTER ST", "postcode": "84534"}}},
{"geometry": {"type": "Point", "coordinates": [-109.3616562442, 37.1657277329]}, "type": "Feature", "properties": {"collection_times": [{"days": "Mon-Fri", "time": "12:55pm"}, {"days": "Sat", "time": "12:00pm"}, {"days": "Sun", "time": "Closed"}], "id": "8453400001", "name": "USPS COLLECTION BOX - PO LOBBY", "address": {"city": "MONTEZUMA CREEK", "state": "UT", "street": "50 CENTER ST", "postcode": "84534"}}},
{"geometry": {"type": "Point", "coordinates": [-109.2980270016, 37.2747885184]}, "type": "Feature", "properties": {"collection_times": [{"days": "Mon-Fri", "time": "12:55pm"}, {"days": "Sat", "time": "12:00pm"}, {"days": "Sun", "time": "Closed"}], "id": "8453400002", "name": "USPS COLLECTION BOX - PO LOBBY", "address": {"city": "MONTEZUMA CREEK", "state": "UT", "street": "10 STATE HWY 262", "postcode": "84534"}}},
{"geometry": {"type": "Point", "coordinates": [-109.3428493056, 37.8697874378]}, "type": "Feature", "properties": {"collection_times": [{"days": "Mon-Fri", "time": "3:20pm"}, {"days": "Sat", "time": "11:30am"}, {"days": "Sun", "time": "Closed"}], "id": "8453500001", "name": "USPS COLLECTION BOX - BLUE BOX", "address": {"city": "MONTICELLO", "state": "UT", "street": "197 S MAIN ST", "postcode": "84535"}}},
{"geometry": {"type": "Point", "coordinates": [-109.3428493056, 37.8697874378]}, "type": "Feature", "properties": {"collection_times": [{"days": "Mon-Fri", "time": "3:20pm"}, {"days": "Sat", "time": "11:30am"}, {"days": "Sun", "time": "Closed"}], "id": "8453500002", "name": "USPS COLLECTION BOX - PO LOBBY", "address": {"city": "MONTICELLO", "state": "UT", "street": "197 S MAIN ST", "postcode": "84535"}}},
{"geometry": {"type": "Point", "coordinates": [-110.2900666048, 37.0281014442]}, "type": "Feature", "properties": {"collection_times": [{"days": "Mon-Sat", "time": "11:20am"}, {"days": "Sun", "time": "Closed"}], "id": "8453600001", "name": "USPS COLLECTION BOX - BLUE BOX", "address": {"city": "MONUMENT VALLEY", "state": "UT", "street": "50 RED ROCK RD", "postcode": "84536"}}},
{"geometry": {"type": "Point", "coordinates": [-110.2900666048, 37.0281014442]}, "type": "Feature", "properties": {"collection_times": [{"days": "Mon-Sat", "time": "11:20am"}, {"days": "Sun", "time": "Closed"}], "id": "8453600002", "name": "USPS COLLECTION BOX - PO LOBBY", "address": {"city": "MONUMENT VALLEY", "state": "UT", "street": "50 RED ROCK RD", "postcode": "84536"}}},
{"geometry": {"type": "Point", "coordinates": [-111.0530323185, 39.2226882756]}, "type": "Feature", "properties": {"collection_times": [{"days": "Mon-Fri", "time": "3:30pm"}, {"days": "Sat", "time": "11:00am"}, {"days": "Sun", "time": "Closed"}], "id": "8453700000", "name": "USPS COLLECTION BOX - BLUE BOX", "address": {"city": "ORANGEVILLE", "state": "UT", "street": "350 S MAIN ST", "postcode": "84537"}}},
{"geometry": {"type": "Point", "coordinates": [-111.0530323185, 39.2226882756]}, "type": "Feature", "properties": {"collection_times": [{"days": "Mon-Fri", "time": "3:30pm"}, {"days": "Sat", "time": "11:00am"}, {"days": "Sun", "time": "Closed"}], "id": "8453700001", "name": "USPS COLLECTION BOX - PO LOBBY", "address": {"city": "ORANGEVILLE", "state": "UT", "street": "350 S MAIN ST", "postcode": "84537"}}},
{"geometry": {"type": "Point", "coordinates": [-110.5684129062, 39.5298073072]}, "type": "Feature", "properties": {"collection_times": [{"days": "Mon-Fri", "time": "4:45pm"}, {"days": "Sat", "time": "1:00pm"}, {"days": "Sun", "time": "Closed"}], "id": "8453900000", "name": "USPS COLLECTION BOX - BLUE BOX", "address": {"city": "SUNNYSIDE", "state": "UT", "street": "1 MARKET ST", "postcode": "84539"}}},
{"geometry": {"type": "Point", "coordinates": [-110.5684129062, 39.5298073072]}, "type": "Feature", "properties": {"collection_times": [{"days": "Mon-Fri", "time": "12:15pm"}, {"days": "Sat", "time": "10:30am"}, {"days": "Sun", "time": "Closed"}], "id": "8453900001", "name": "USPS COLLECTION BOX - PO LOBBY", "address": {"city": "SUNNYSIDE", "state": "UT", "street": "1 MARKET ST", "postcode": "84539"}}},
{"geometry": {"type": "Point", "coordinates": [-110.7221879054, 39.5424204203]}, "type": "Feature", "properties": {"collection_times": [{"days": "Mon-Fri", "time": "4:30pm"}, {"days": "Sat", "time": "12:00pm"}, {"days": "Sun", "time": "Closed"}], "id": "8454200001", "name": "USPS COLLECTION BOX - BLUE BOX", "address": {"city": "WELLINGTON", "state": "UT", "street": "610 E MAIN ST", "postcode": "84542"}}},
{"geometry": {"type": "Point", "coordinates": [-110.7221879054, 39.5424204203]}, "type": "Feature", "properties": {"collection_times": [{"days": "Mon-Fri", "time": "3:15pm"}, {"days": "Sat", "time": "12:00pm"}, {"days": "Sun", "time": "Closed"}], "id": "8454200002", "name": "USPS COLLECTION BOX - PO LOBBY", "address": {"city": "WELLINGTON", "state": "UT", "street": "610 E MAIN ST", "postcode": "84542"}}}
]}
