{"type": "FeatureCollection", "features": [
{"geometry": {"type": "Point", "coordinates": [-111.6586245076, 40.240139278]}, "type": "Feature", "properties": {"collection_times": [{"days": "Mon-Fri", "time": "5:00pm"}, {"days": "Sat", "time": "3:25pm"}, {"days": "Sun", "time": "Closed"}], "id": "8460100003", "name": "USPS COLLECTION BOX - BLUE BOX", "address": {"city": "PROVO", "state": "UT", "street": "498 N UNIVERSITY AVE", "postcode": "84601"}}},
{"geometry": {"type": "Point", "coordinates": [-111.6649729483, 40.232388855]}, "type": "Feature", "properties": {"collection_times": [{"days": "Mon-Fri", "time": "5:15pm"}, {"days": "Sat-Sun", "time": "Closed"}], "id": "8460100005", "name": "USPS COLLECTION BOX - BLUE BOX", "address": {"city": "PROVO", "state": "UT", "street": "360 W 100 S", "postcode": "84601"}}},
{"geometry": {"type": "Point", "coordinates": [-111.6574332071, 40.2671563423]}, "type": "Feature", "properties": {"collection_times": [{"days": "Mon-Fri", "time": "3:15pm"}, {"days": "Sat", "time": "4:05pm"}, {"days": "Sun", "time": "Closed"}], "id": "8460100008", "name": "USPS COLLECTION BOX - BLUE BOX", "address": {"city": "PROVO", "state": "UT", "street": "2500 N UNIVERSITY AVE", "postcode": "84601"}}},
{"geometry": {"type": "Point", "coordinates": [-111.6578878815, 40.2777887436]}, "type": "Feature", "properties": {"collection_times": [{"days": "Mon-Fri", "time": "3:25pm"}, {"days": "Sat", "time": "4:10pm"}, {"days": "Sun", "time": "Closed"}], "id": "8460100009", "name": "USPS COLLECTION BOX - BLUE BOX", "address": {"city": "PROVO", "state": "UT", "street": "3325 N UNIVERSITY AVE", "postcode": "84601"}}},
{"geometry": {"type": "Point", "coordinates": [-111.6639868606, 40.2478450727]}, "type": "Feature", "properties": {"collection_times": [{"days": "Mon-Fri", "time": "4:40pm"}, {"days": "Sat-Sun", "time": "Closed"}], "id": "8460100011", "name": "USPS COLLECTION BOX - BLUE BOX", "address": {"city": "PROVO", "state": "UT", "street": "1055 N 300 W", "postcode": "84601"}}},
{"geometry": {"type": "Point", "coordinates": [-111.6674774881, 40.2200597738]}, "type": "Feature", "properties": {"collection_times": [{"days": "Mon-Fri", "time": "4:45pm"}, {"days": "Sat", "time": "3:30pm"}, {"days": "Sun", "time": "Closed"}], "id": "8460100012", "name": "USPS COLLECTION BOX - BLUE BOX", "address": {"city": "PROVO", "state": "UT", "street": "1034 N 500 W", "postcode": "84601"}}},
{"geometry": {"type": "Point", "coordinates": [-111.6661469437, 40.262135217]}, "type": "Feature", "properties": {"collection_times": [{"days": "Mon-Fri", "time": "5:00pm"}, {"days": "Sat-Sun", "time": "Closed"}], "id": "8460100014", "name": "USPS COLLECTION BOX - BLUE BOX", "address": {"city": "PROVO", "state": "UT", "street": "2230 N UNIVERSITY PKWY", "postcode": "84601"}}},
{"geometry": {"type": "Point", "coordinates": [-111.6580886272, 40.2808685552]}, "type": "Feature", "properties": {"collection_times": [{"days": "Mon-Fri", "time": "3:30pm"}, {"days": "Sat-Sun", "time": "Closed"}], "id": "8460100015", "name": "USPS COLLECTION BOX - BLUE BOX", "address": {"city": "PROVO", "state": "UT", "street": "3550 N UNIVERSITY AVE", "postcode": "84601"}}},
{"geometry": {"type": "Point", "coordinates": [-111.6674248547, 40.263258045]}, "type": "Feature", "properties": {"collection_times": [{"days": "Mon-Fri", "time": "5:30pm"}, {"days": "Sat", "time": "4:00pm"}, {"days": "Sun", "time": "Closed"}], "id": "8460100016", "name": "USPS COLLECTION BOX - BLUE BOX", "address": {"city": "PROVO", "state": "UT", "street": "2250 N UNIVERSITY PKWY", "postcode": "84601"}}},
{"geometry": {"type": "Point", "coordinates": [-111.661870547, 40.2565208937]}, "type": "Feature", "properties": {"collection_times": [{"days": "Mon-Fri", "time": "6:00pm"}, {"days": "Sat-Sun", "time": "Closed"}], "id": "8460100017", "name": "USPS COLLECTION BOX - BLUE BOX", "address": {"city": "PROVO", "state": "UT", "street": "1675 N FREEDOM BLVD", "postcode": "84601"}}},
{"geometry": {"type": "Point", "coordinates": [-111.6603902164, 40.2346335466]}, "type": "Feature", "properties": {"collection_times": [{"days": "Mon-Fri", "time": "5:15pm"}, {"days": "Sat", "time": "4:50pm"}, {"days": "Sun", "time": "Closed"}], "id": "8460100024", "name": "USPS COLLECTION BOX - BLUE BOX", "address": {"city": "PROVO", "state": "UT", "street": "110 N 100 W", "postcode": "84601"}}},
{"geometry": {"type": "Point", "coordinates": [-111.6673996972, 40.243974431]}, "type": "Feature", "properties": {"collection_times": [{"days": "Mon-Fri", "time": "3:45pm"}, {"days": "Sat", "time": "3:30pm"}, {"days": "Sun", "time": "Closed"}], "id": "8460100057", "name": "USPS COLLECTION BOX - BLUE BOX", "address": {"city": "PROVO", "state": "UT", "street": "777 N 500 W", "postcode": "84601"}}},
{"geometry": {"type": "Point", "coordinates": [-111.651812156, 40.2820709413]}, "type": "Feature", "properties": {"collection_times": [{"days": "Mon-Fri", "time": "3:30pm"}, {"days": "Sat-Sun", "time": "Closed"}], "id": "8460100070", "name": "USPS COLLECTION BOX - BLUE BOX", "address": {"city": "PROVO", "state": "UT", "street": "3707 N CANYON RD", "postcode": "84601"}}},
{"geometry": {"type": "Point", "coordinates": [-111.6594931762, 40.2309389307]}, "type": "Feature", "properties": {"collection_times": [{"days": "Mon-Fri", "time": "6:15pm"}, {"days": "Sat", "time": "5:45pm"}, {"days": "Sun", "time": "Closed"}], "id": "8460100084", "name": "USPS COLLECTION BOX - BLUE BOX", "address": {"city": "PROVO", "state": "UT", "street": "45 W 200 S", "postcode": "84601"}}},
{"geometry": {"type": "Point", "coordinates": [-111.6745455866, 40.2308735918]}, "type": "Feature", "properties": {"collection_times": [{"days": "Mon-Sat", "time": "8:30pm"}, {"days": "Sun", "time": "Closed"}], "id": "8460100088", "name": "USPS COLLECTION BOX - BLUE BOX", "address": {"city": "PROVO", "state": "UT", "street": "210 E 900 S", "postcode": "84601"}}},
{"geometry": {"type": "Point", "coordinates": [-111.6451392216, 40.2619875725]}, "type": "Feature", "properties": {"collection_times": [{"days": "Mon-Fri", "time": "3:45pm"}, {"days": "Sat", "time": "4:20pm"}, {"days": "Sun", "time": "Closed"}], "id": "8460100106", "name": "USPS COLLECTION BOX - BLUE BOX", "address": {"city": "PROVO", "state": "UT", "street": "2005 N 900 E", "postcode": "84601"}}},
{"geometry": {"type": "Point", "coordinates": [-111.66054202, 40.2338217031]}, "type": "Feature", "properties": {"collection_times": [{"days": "Mon-Fri", "time": "5:15pm"}, {"days": "Sat-Sun", "time": "Closed"}], "id": "8460100155", "name": "USPS COLLECTION BOX - BLUE BOX", "address": {"city": "PROVO", "state": "UT", "street": "1 N 100 E", "postcode": "84601"}}},
{"geometry": {"type": "Point", "coordinates": [-111.6603532287, 40.2322425978]}, "type": "Feature", "properties": {"collection_times": [{"days": "Mon-Fri", "time": "6:15pm"}, {"days": "Sat", "time": "5:30pm"}, {"days": "Sun", "time": "Closed"}], "id": "8460100158", "name": "USPS COLLECTION BOX - PO LOBBY", "address": {"city": "PROVO", "state": "UT", "street": "95 W 100 S", "postcode": "84601"}}},
{"geometry": {"type": "Point", "coordinates": [-111.6766299995, 40.2598656328]}, "type": "Feature", "properties": {"collection_times": [{"days": "Mon-Fri", "time": "5:45pm"}, {"days": "Sat", "time": "4:00pm"}, {"days": "Sun", "time": "Closed"}], "id": "8460100162", "name": "USPS COLLECTION BOX - BLUE BOX", "address": {"city": "PROVO", "state": "UT", "street": "1955 N 1120 W", "postcode": "84601"}}},
{"geometry": {"type": "Point", "coordinates": [-111.6603532287, 40.2322425978]}, "type": "Feature", "properties": {"collection_times": [{"days": "Mon-Fri", "time": "6:15pm"}, {"days": "Sat", "time": "5:30pm"}, {"days": "Sun", "time": "Closed"}], "id": "8460100164", "name": "USPS COLLECTION BOX - APC", "address": {"city": "PROVO", "state": "UT", "street": "95 W 100 S", "postcode": "84601"}}},
{"geometry": {"type": "Point", "coordinates": [-111.6588682208, 40.232363731]}, "type": "Feature", "properties": {"collection_times": [{"days": "Mon-Fri", "time": "5:15pm"}, {"days": "Sat-Sun", "time": "Closed"}], "id": "8460100165", "name": "USPS COLLECTION BOX - BLUE BOX", "address": {"city": "PROVO", "state": "UT", "street": "10 E 100 S", "postcode": "84601"}}},
{"geometry": {"type": "Point", "coordinates": [-111.6631154044, 40.2212557242]}, "type": "Feature", "properties": {"collection_times": [{"days": "Mon-Sat", "time": "8:30pm"}, {"days": "Sun", "time": "Closed"}], "id": "8460100166", "name": "USPS COLLECTION BOX - PO LOBBY", "address": {"city": "PROVO", "state": "UT", "street": "936 S 250 E", "postcode": "84601"}}},
{"geometry": {"type": "Point", "coordinates": [-111.6631154044, 40.2212557242]}, "type": "Feature", "properties": {"collection_times": [{"days": "Mon-Sat", "time": "8:30pm"}, {"days": "Sun", "time": "Closed"}], "id": "8460100167", "name": "USPS COLLECTION BOX - PO LOBBY", "address": {"city": "PROVO", "state": "UT", "street": "936 S 250 E", "postcode": "84601"}}},
{"geometry": {"type": "Point", "coordinates": [-111.6631154044, 40.2212557242]}, "type": "Feature", "properties": {"collection_times": [{"days": "Mon-Sat", "time": "8:30pm"}, {"days": "Sun", "time": "Closed"}], "id": "8460100168", "name": "USPS COLLECTION BOX - APC", "address": {"city": "PROVO", "state": "UT", "street": "936 S 250 E", "postcode": "84601"}}},
{"geometry": {"type": "Point", "coordinates": [-111.6594881316, 40.2322492867]}, "type": "Feature", "properties": {"collection_times": [{"days": "Mon-Fri", "time": "5:15pm"}, {"days": "Sat-Sun", "time": "Closed"}], "id": "8460100169", "name": "USPS COLLECTION BOX - BLUE BOX", "address": {"city": "PROVO", "state": "UT", "street": "45 E 100 S", "postcode": "84601"}}},
{"geometry": {"type": "Point", "coordinates": [-111.93739723, 38.920764115]}, "type": "Feature", "properties": {"collection_times": [{"days": "Mon-Fri", "time": "4:00pm"}, {"days": "Sat", "time": "10:30am"}, {"days": "Sun", "time": "Closed"}], "id": "8462000000", "name": "USPS COLLECTION BOX - BLUE BOX", "address": {"city": "AURORA", "state": "UT", "street": "178 W CENTER ST", "postcode": "84620"}}},
{"geometry": {"type": "Point", "coordinates": [-111.9374509579, 38.9208175318]}, "type": "Feature", "properties": {"collection_times": [{"days": "Mon-Fri", "time": "2:45pm"}, {"days": "Sat", "time": "10:30am"}, {"days": "Sun", "time": "Closed"}], "id": "8462000001", "name": "USPS COLLECTION BOX - PO LOBBY", "address": {"city": "AURORA", "state": "UT", "street": "178 W CENTER ST", "postcode": "84620"}}},
{"geometry": {"type": "Point", "coordinates": [-111.8189548637, 39.1369690638]}, "type": "Feature", "properties": {"collection_times": [{"days": "Mon-Fri", "time": "4:15pm"}, {"days": "Sat", "time": "11:45am"}, {"days": "Sun", "time": "Closed"}], "id": "8462200000", "name": "USPS COLLECTION BOX - BLUE BOX", "address": {"city": "CENTERFIELD", "state": "UT", "street": "540 N MAIN ST", "postcode": "84622"}}},
{"geometry": {"type": "Point", "coordinates": [-112.5679608581, 39.3509446549]}, "type": "Feature", "properties": {"collection_times": [{"days": "Mon-Fri", "time": "4:30pm"}, {"days": "Sat", "time": "2:00pm"}, {"days": "Sun", "time": "Closed"}], "id": "8462400001", "name": "USPS COLLECTION BOX - BLUE BOX", "address": {"city": "DELTA", "state": "UT", "street": "86 S 300 E", "postcode": "84624"}}},
{"geometry": {"type": "Point", "coordinates": [-112.55963815, 39.35146498]}, "type": "Feature", "properties": {"collection_times": [{"days": "Mon-Sat", "time": "8:30am"}, {"days": "Sun", "time": "Closed"}], "id": "8462400002", "name": "USPS COLLECTION BOX - BLUE BOX", "address": {"city": "DELTA", "state": "UT", "street": "145 WHITE SAGE AVE", "postcode": "84624"}}},
{"geometry": {"type": "Point", "coordinates": [-112.581259537, 39.352402967]}, "type": "Feature", "properties": {"collection_times": [{"days": "Mon-Sat", "time": "1:00pm"}, {"days": "Sun", "time": "Closed"}], "id": "8462400003", "name": "USPS COLLECTION BOX - BLUE BOX", "address": {"city": "DELTA", "state": "UT", "street": "291 W MAIN ST", "postcode": "84624"}}},
{"geometry": {"type": "Point", "coordinates": [-112.5679608581, 39.3509446549]}, "type": "Feature", "properties": {"collection_times": [{"days": "Mon-Fri", "time": "4:30pm"}, {"days": "Sat", "time": "2:00pm"}, {"days": "Sun", "time": "Closed"}], "id": "8462400004", "name": "USPS COLLECTION BOX - PO LOBBY", "address": {"city": "DELTA", "state": "UT", "street": "86 S 300 E", "postcode": "84624"}}},
{"geometry": {"type": "Point", "coordinates": [-112.5679608581, 39.3509446549]}, "type": "Feature", "properties": {"collection_times": [{"days": "Mon-Fri", "time": "4:30pm"}, {"days": "Sat", "time": "2:00pm"}, {"days": "Sun", "time": "Closed"}], "id": "8462400007", "name": "USPS COLLECTION BOX - PO LOBBY", "address": {"city": "DELTA", "state": "UT", "street": "86 S 300 E", "postcode": "84624"}}},
{"geometry": {"type": "Point", "coordinates": [-111.9561704093, 39.9510582725]}, "type": "Feature", "properties": {"collection_times": [{"days": "Mon-Fri", "time": "3:00pm"}, {"days": "Sat", "time": "10:30am"}, {"days": "Sun", "time": "Closed"}], "id": "8462600000", "name": "USPS COLLECTION BOX - BLUE BOX", "address": {"city": "ELBERTA", "state": "UT", "street": "15156 S 12800 W", "postcode": "84626"}}},
{"geometry": {"type": "Point", "coordinates": [-111.9561704093, 39.9510582725]}, "type": "Feature", "properties": {"collection_times": [{"days": "Mon-Fri", "time": "11:45am"}, {"days": "Sat", "time": "10:30am"}, {"days": "Sun", "time": "Closed"}], "id": "8462600001", "name": "USPS COLLECTION BOX - PO LOBBY", "address": {"city": "ELBERTA", "state": "UT", "street": "15156 S 12800 W", "postcode": "84626"}}},
{"geometry": {"type": "Point", "coordinates": [-111.5854813944, 39.3616836897]}, "type": "Feature", "properties": {"collection_times": [{"days": "Mon-Fri", "time": "4:30pm"}, {"days": "Sat", "time": "12:15pm"}, {"days": "Sun", "time": "Closed"}], "id": "8462700001", "name": "USPS COLLECTION BOX - BLUE BOX", "address": {"city": "EPHRAIM", "state": "UT", "street": "55 E 100 N", "postcode": "84627"}}},
{"geometry": {"type": "Point", "coordinates": [-111.5854813944, 39.3616836897]}, "type": "Feature", "properties": {"collection_times": [{"days": "Mon-Fri", "time": "4:30pm"}, {"days": "Sat", "time": "12:15pm"}, {"days": "Sun", "time": "Closed"}], "id": "8462700002", "name": "USPS COLLECTION BOX - PO LOBBY", "address": {"city": "EPHRAIM", "state": "UT", "street": "55 E 100 N", "postcode": "84627"}}},
{"geometry": {"type": "Point", "coordinates": [-111.5854813944, 39.3616836897]}, "type": "Feature", "properties": {"collection_times": [{"days": "Mon-Fri", "time": "4:30pm"}, {"days": "Sat", "time": "12:15pm"}, {"days": "Sun", "time": "Closed"}], "id": "8462700003", "name": "USPS COLLECTION BOX - PO LOBBY", "address": {"city": "EPHRAIM", "state": "UT", "street": "55 E 100 N", "postcode": "84627"}}},
{"geometry": {"type": "Point", "coordinates": [-112.1270407346, 39.925969839]}, "type": "Feature", "properties": {"collection_times": [{"days": "Mon-Fri", "time": "4:30pm"}, {"days": "Sat", "time": "11:30am"}, {"days": "Sun", "time": "Closed"}], "id": "8462800000", "name": "USPS COLLECTION BOX - BLUE BOX", "address": {"city": "EUREKA", "state": "UT", "street": "482 E MAIN ST", "postcode": "84628"}}},
{"geometry": {"type": "Point", "coordinates": [-112.1270407346, 39.925969839]}, "type": "Feature", "properties": {"collection_times": [{"days": "Mon-Sat", "time": "11:45am"}, {"days": "Sun", "time": "Closed"}], "id": "8462800001", "name": "USPS COLLECTION BOX - PO LOBBY", "address": {"city": "EUREKA", "state": "UT", "street": "482 E MAIN ST", "postcode": "84628"}}},
{"geometry": {"type": "Point", "coordinates": [-111.6356064934, 39.6284394739]}, "type": "Feature", "properties": {"collection_times": [{"days": "Mon-Fri", "time": "4:00pm"}, {"days": "Sat", "time": "11:30am"}, {"days": "Sun", "time": "Closed"}], "id": "8462900001", "name": "USPS COLLECTION BOX - BLUE BOX", "address": {"city": "FAIRVIEW", "state": "UT", "street": "62 W CENTER ST", "postcode": "84629"}}},
{"geometry": {"type": "Point", "coordinates": [-111.6356064934, 39.6284394739]}, "type": "Feature", "properties": {"collection_times": [{"days": "Mon-Fri", "time": "4:15pm"}, {"days": "Sat", "time": "11:30am"}, {"days": "Sun", "time": "Closed"}], "id": "8462900002", "name": "USPS COLLECTION BOX - PO LOBBY", "address": {"city": "FAIRVIEW", "state": "UT", "street": "62 W CENTER ST", "postcode": "84629"}}},
{"geometry": {"type": "Point", "coordinates": [-112.3213575974, 38.968880249]}, "type": "Feature", "properties": {"collection_times": [{"days": "Mon-Fri", "time": "4:00pm"}, {"days": "Sat", "time": "12:00pm"}, {"days": "Sun", "time": "Closed"}], "id": "8463100001", "name": "USPS COLLECTION BOX - BLUE BOX", "address": {"city": "FILLMORE", "state": "UT", "street": "60 E CENTER ST", "postcode": "84631"}}},
{"geometry": {"type": "Point", "coordinates": [-112.3213575974, 38.968880249]}, "type": "Feature", "properties": {"collection_times": [{"days": "Mon-Fri", "time": "4:00pm"}, {"days": "Sat", "time": "12:00pm"}, {"days": "Sun", "time": "Closed"}], "id": "8463100005", "name": "USPS COLLECTION BOX - PO LOBBY", "address": {"city": "FILLMORE", "state": "UT", "street": "60 E CENTER ST", "postcode": "84631"}}},
{"geometry": {"type": "Point", "coordinates": [-112.3236797901, 38.9810140505]}, "type": "Feature", "properties": {"collection_times": [{"days": "Mon-Fri", "time": "4:15pm"}, {"days": "Sat", "time": "11:45am"}, {"days": "Sun", "time": "Closed"}], "id": "8463100006", "name": "USPS COLLECTION BOX - PO LOBBY", "address": {"city": "FILLMORE", "state": "UT", "street": "556 N MAIN ST", "postcode": "84631"}}},
{"geometry": {"type": "Point", "coordinates": [-112.3259736505, 38.9645318766]}, "type": "Feature", "properties": {"collection_times": [{"days": "Mon-Fri", "time": "11:45am"}, {"days": "Sat", "time": "11:00am"}, {"days": "Sun", "time": "Closed"}], "id": "8463100007", "name": "USPS COLLECTION BOX - PO LOBBY", "address": {"city": "FILLMORE", "state": "UT", "street": "85 W 200 S", "postcode": "84631"}}},
{"geometry": {"type": "Point", "coordinates": [-111.6345192344, 39.6275960099]}, "type": "Feature", "properties": {"collection_times": [{"days": "Mon-Fri", "time": "4:30pm"}, {"days": "Sat", "time": "10:30am"}, {"days": "Sun", "time": "Closed"}], "id": "8463200000", "name": "USPS COLLECTION BOX - BLUE BOX", "address": {"city": "FOUNTAIN GREEN", "state": "UT", "street": "54 S STATE ST", "postcode": "84632"}}},
{"geometry": {"type": "Point", "coordinates": [-111.6345192344, 39.6275960099]}, "type": "Feature", "properties": {"collection_times": [{"days": "Mon-Fri", "time": "1:45pm"}, {"days": "Sat", "time": "10:30am"}, {"days": "Sun", "time": "Closed"}], "id": "8463200001", "name": "USPS COLLECTION BOX - PO LOBBY", "address": {"city": "FOUNTAIN GREEN", "state": "UT", "street": "54 S STATE ST", "postcode": "84632"}}},
{"geometry": {"type": "Point", "coordinates": [-111.9003065485, 39.9512197445]}, "type": "Feature", "properties": {"collection_times": [{"days": "Mon-Fri", "time": "3:45pm"}, {"days": "Sat", "time": "11:30am"}, {"days": "Sun", "time": "Closed"}], "id": "8463300000", "name": "USPS COLLECTION BOX - BLUE BOX", "address": {"city": "GOSHEN", "state": "UT", "street": "80 S CENTER ST", "postcode": "84633"}}},
{"geometry": {"type": "Point", "coordinates": [-111.9003711503, 39.9511600259]}, "type": "Feature", "properties": {"collection_times": [{"days": "Mon-Fri", "time": "11:45am"}, {"days": "Sat", "time": "11:30am"}, {"days": "Sun", "time": "Closed"}], "id": "8463300001", "name": "USPS COLLECTION BOX - PO LOBBY", "address": {"city": "GOSHEN", "state": "UT", "street": "80 S CENTER ST", "postcode": "84633"}}},
{"geometry": {"type": "Point", "coordinates": [-111.8212255196, 39.1536128157]}, "type": "Feature", "properties": {"collection_times": [{"days": "Mon-Fri", "time": "4:30pm"}, {"days": "Sat", "time": "11:30am"}, {"days": "Sun", "time": "Closed"}], "id": "8463400001", "name": "USPS COLLECTION BOX - BLUE BOX", "address": {"city": "GUNNISON", "state": "UT", "street": "95 W 100 S", "postcode": "84634"}}},
{"geometry": {"type": "Point", "coordinates": [-111.8212255196, 39.1536128157]}, "type": "Feature", "properties": {"collection_times": [{"days": "Mon-Fri", "time": "4:30pm"}, {"days": "Sat", "time": "11:30am"}, {"days": "Sun", "time": "Closed"}], "id": "8463400002", "name": "USPS COLLECTION BOX - PO LOBBY", "address": {"city": "GUNNISON", "state": "UT", "street": "95 W 100 S", "postcode": "84634"}}},
{"geometry": {"type": "Point", "coordinates": [-112.6712236665, 39.3235726732]}, "type": "Feature", "properties": {"collection_times": [{"days": "Mon-Fri", "time": "4:00pm"}, {"days": "Sat", "time": "11:30am"}, {"days": "Sun", "time": "Closed"}], "id": "8463500000", "name": "USPS COLLECTION BOX - BLUE BOX", "address": {"city": "HINCKLEY", "state": "UT", "street": "5 N MAIN ST", "postcode": "84635"}}},
{"geometry": {"type": "Point", "coordinates": [-112.6712236665, 39.3235726732]}, "type": "Feature", "properties": {"collection_times": [{"days": "Mon-Fri", "time": "11:45am"}, {"days": "Sat", "time": "11:30am"}, {"days": "Sun", "time": "Closed"}], "id": "8463500001", "name": "USPS COLLECTION BOX - PO LOBBY", "address": {"city": "HINCKLEY", "state": "UT", "street": "5 N MAIN ST", "postcode": "84635"}}},
{"geometry": {"type": "Point", "coordinates": [-112.6712236665, 39.3235726732]}, "type": "Feature", "properties": {"collection_times": [{"days": "Mon-Fri", "time": "11:45am"}, {"days": "Sat", "time": "11:30am"}, {"days": "Sun", "time": "Closed"}], "id": "8463500003", "name": "USPS COLLECTION BOX - PO LOBBY", "address": {"city": "HINCKLEY", "state": "UT", "street": "5 N MAIN ST", "postcode": "84635"}}},
{"geometry": {"type": "Point", "coordinates": [-112.4377130323, 38.8003008492]}, "type": "Feature", "properties": {"collection_times": [{"days": "Mon-Fri", "time": "4:30pm"}, {"days": "Sat", "time": "11:45am"}, {"days": "Sun", "time": "Closed"}], "id": "8463700000", "name": "USPS COLLECTION BOX - BLUE BOX", "address": {"city": "KANOSH", "state": "UT", "street": "50 S MAIN ST", "postcode": "84637"}}},
{"geometry": {"type": "Point", "coordinates": [-112.4377860458, 38.8003002025]}, "type": "Feature", "properties": {"collection_times": [{"days": "Mon-Sat", "time": "11:45am"}, {"days": "Sun", "time": "Closed"}], "id": "8463700001", "name": "USPS COLLECTION BOX - PO LOBBY", "address": {"city": "KANOSH", "state": "UT", "street": "50 S MAIN ST", "postcode": "84637"}}},
{"geometry": {"type": "Point", "coordinates": [-112.2828798639, 39.5346365555]}, "type": "Feature", "properties": {"collection_times": [{"days": "Mon-Sat", "time": "9:00am"}, {"days": "Sun", "time": "Closed"}], "id": "8463800000", "name": "USPS COLLECTION BOX - BLUE BOX", "address": {"city": "LEAMINGTON", "state": "UT", "street": "291 W MAIN ST", "postcode": "84638"}}},
{"geometry": {"type": "Point", "coordinates": [-112.2828798639, 39.5346365555]}, "type": "Feature", "properties": {"collection_times": [{"days": "Mon-Sat", "time": "9:00am"}, {"days": "Sun", "time": "Closed"}], "id": "8463800001", "name": "USPS COLLECTION BOX - PO LOBBY", "address": {"city": "LEAMINGTON", "state": "UT", "street": "291 W MAIN ST", "postcode": "84638"}}},
{"geometry": {"type": "Point", "coordinates": [-111.8638890292, 39.5584769359]}, "type": "Feature", "properties": {"collection_times": [{"days": "Mon-Fri", "time": "3:15pm"}, {"days": "Sat", "time": "10:45am"}, {"days": "Sun", "time": "Closed"}], "id": "8463900000", "name": "USPS COLLECTION BOX - BLUE BOX", "address": {"city": "LEVAN", "state": "UT", "street": "75 N MAIN ST", "postcode": "84639"}}},
{"geometry": {"type": "Point", "coordinates": [-111.8638890292, 39.5584769359]}, "type": "Feature", "properties": {"collection_times": [{"days": "Mon-Fri", "time": "11:45am"}, {"days": "Sat", "time": "10:45am"}, {"days": "Sun", "time": "Closed"}], "id": "8463900001", "name": "USPS COLLECTION BOX - PO LOBBY", "address": {"city": "LEVAN", "state": "UT", "street": "75 N MAIN ST", "postcode": "84639"}}},
{"geometry": {"type": "Point", "coordinates": [-112.3721256338, 39.5191963474]}, "type": "Feature", "properties": {"collection_times": [{"days": "Mon-Sat", "time": "11:00am"}, {"days": "Sun", "time": "Closed"}], "id": "8464000000", "name": "USPS COLLECTION BOX - BLUE BOX", "address": {"city": "LYNNDYL", "state": "UT", "street": "106 E CENTER ST", "postcode": "84640"}}},
{"geometry": {"type": "Point", "coordinates": [-111.6369463113, 39.2675029197]}, "type": "Feature", "properties": {"collection_times": [{"days": "Mon-Fri", "time": "4:30pm"}, {"days": "Sat", "time": "11:30am"}, {"days": "Sun", "time": "Closed"}], "id": "8464200001", "name": "USPS COLLECTION BOX - BLUE BOX", "address": {"city": "MANTI", "state": "UT", "street": "140 N MAIN ST", "postcode": "84642"}}},
{"geometry": {"type": "Point", "coordinates": [-111.637108125, 39.2647303889]}, "type": "Feature", "properties": {"collection_times": [{"days": "Mon-Fri", "time": "2:45pm"}, {"days": "Sat", "time": "12:00pm"}, {"days": "Sun", "time": "Closed"}], "id": "8464200002", "name": "USPS COLLECTION BOX - BLUE BOX", "address": {"city": "MANTI", "state": "UT", "street": "50 S MAIN ST", "postcode": "84642"}}},
{"geometry": {"type": "Point", "coordinates": [-111.6369463113, 39.2675029197]}, "type": "Feature", "properties": {"collection_times": [{"days": "Mon-Fri", "time": "5:00pm"}, {"days": "Sat", "time": "12:00pm"}, {"days": "Sun", "time": "Closed"}], "id": "8464200003", "name": "USPS COLLECTION BOX - PO LOBBY", "address": {"city": "MANTI", "state": "UT", "street": "140 N MAIN ST", "postcode": "84642"}}},
{"geometry": {"type": "Point", "coordinates": [-111.7087927811, 39.1149364183]}, "type": "Feature", "properties": {"collection_times": [{"days": "Mon-Fri", "time": "4:15pm"}, {"days": "Sat", "time": "10:00am"}, {"days": "Sun", "time": "Closed"}], "id": "8464300000", "name": "USPS COLLECTION BOX - BLUE BOX", "address": {"city": "MAYFIELD", "state": "UT", "street": "48 N MAIN ST", "postcode": "84643"}}},
{"geometry": {"type": "Point", "coordinates": [-112.4105227557, 38.8881468101]}, "type": "Feature", "properties": {"collection_times": [{"days": "Mon-Fri", "time": "4:00pm"}, {"days": "Sat", "time": "11:30am"}, {"days": "Sun", "time": "Closed"}], "id": "8464400000", "name": "USPS COLLECTION BOX - BLUE BOX", "address": {"city": "MEADOW", "state": "UT", "street": "120 N MAIN ST", "postcode": "84644"}}},
{"geometry": {"type": "Point", "coordinates": [-112.4105227557, 38.8881468101]}, "type": "Feature", "properties": {"collection_times": [{"days": "Mon-Fri", "time": "11:45am"}, {"days": "Sat", "time": "11:30am"}, {"days": "Sun", "time": "Closed"}], "id": "8464400001", "name": "USPS COLLECTION BOX - PO LOBBY", "address": {"city": "MEADOW", "state": "UT", "street": "120 N MAIN ST", "postcode": "84644"}}},
{"geometry": {"type": "Point", "coordinates": [-111.8561771233, 39.8176672232]}, "type": "Feature", "properties": {"collection_times": [{"days": "Mon-Fri", "time": "4:15pm"}, {"days": "Sat", "time": "11:45am"}, {"days": "Sun", "time": "Closed"}], "id": "8464500000", "name": "USPS COLLECTION BOX - PO LOBBY", "address": {"city": "MONA", "state": "UT", "street": "44 W 100 N", "postcode": "84645"}}},
{"geometry": {"type": "Point", "coordinates": [-111.5838479546, 39.5248842872]}, "type": "Feature", "properties": {"collection_times": [{"days": "Mon-Fri", "time": "4:15pm"}, {"days": "Sat", "time": "10:45am"}, {"days": "Sun", "time": "Closed"}], "id": "8464600002", "name": "USPS COLLECTION BOX - PO LOBBY", "address": {"city": "MORONI", "state": "UT", "street": "46 N 400 E", "postcode": "84646"}}},
{"geometry": {"type": "Point", "coordinates": [-111.5838479546, 39.5248842872]}, "type": "Feature", "properties": {"collection_times": [{"days": "Mon-Fri", "time": "4:15pm"}, {"days": "Sat", "time": "10:45am"}, {"days": "Sun", "time": "Closed"}], "id": "8464600003", "name": "USPS COLLECTION BOX - PO LOBBY", "address": {"city": "MORONI", "state": "UT", "street": "46 N 400 E", "postcode": "84646"}}},
{"geometry": {"type": "Point", "coordinates": [-111.4573955201, 39.5475996498]}, "type": "Feature", "properties": {"collection_times": [{"days": "Mon-Fri", "time": "4:30pm"}, {"days": "Sat", "time": "11:30am"}, {"days": "Sun", "time": "Closed"}], "id": "8464700001", "name": "USPS COLLECTION BOX - BLUE BOX", "address": {"city": "MOUNT PLEASANT", "state": "UT", "street": "55 N 100 W", "postcode": "84647"}}},
{"geometry": {"type": "Point", "coordinates": [-111.4573955201, 39.5475996498]}, "type": "Feature", "properties": {"collection_times": [{"days": "Mon-Fri", "time": "4:30pm"}, {"days": "Sat", "time": "11:30am"}, {"days": "Sun", "time": "Closed"}], "id": "8464700002", "name": "USPS COLLECTION BOX - PO LOBBY", "address": {"city": "MOUNT PLEASANT", "state": "UT", "street": "55 N 100 W", "postcode": "84647"}}},
{"geometry": {"type": "Point", "coordinates": [-111.8360515639, 39.7087408481]}, "type": "Feature", "properties": {"collection_times": [{"days": "Mon-Fri", "time": "5:00pm"}, {"days": "Sat", "time": "12:00pm"}, {"days": "Sun", "time": "Closed"}], "id": "8464800001", "name": "USPS COLLECTION BOX - BLUE BOX", "address": {"city": "NEPHI", "state": "UT", "street": "10 N MAIN ST", "postcode": "84648"}}},
{"geometry": {"type": "Point", "coordinates": [-111.8360515639, 39.7087408481]}, "type": "Feature", "properties": {"collection_times": [{"days": "Mon-Fri", "time": "5:00pm"}, {"days": "Sat", "time": "12:00pm"}, {"days": "Sun", "time": "Closed"}], "id": "8464800002", "name": "USPS COLLECTION BOX - BLUE BOX", "address": {"city": "NEPHI", "state": "UT", "street": "10 N MAIN ST", "postcode": "84648"}}},
{"geometry": {"type": "Point", "coordinates": [-111.8360303274, 39.7087375563]}, "type": "Feature", "properties": {"collection_times": [{"days": "Mon-Fri", "time": "5:00pm"}, {"days": "Sat", "time": "12:00pm"}, {"days": "Sun", "time": "Closed"}], "id": "8464800003", "name": "USPS COLLECTION BOX - PO LOBBY", "address": {"city": "NEPHI", "state": "UT", "street": "10 N MAIN ST", "postcode": "84648"}}},
{"geometry": {"type": "Point", "coordinates": [-112.3360315512, 39.3765266006]}, "type": "Feature", "properties": {"collection_times": [{"days": "Mon-Fri", "time": "4:15pm"}, {"days": "Sat", "time": "11:45am"}, {"days": "Sun", "time": "Closed"}], "id": "8464900000", "name": "USPS COLLECTION BOX - BLUE BOX", "address": {"city": "OAK CITY", "state": "UT", "street": "70 N MAIN ST", "postcode": "84649"}}},
{"geometry": {"type": "Point", "coordinates": [-112.3360315512, 39.3765266006]}, "type": "Feature", "properties": {"collection_times": [{"days": "Mon-Sat", "time": "11:45am"}, {"days": "Sun", "time": "Closed"}], "id": "8464900001", "name": "USPS COLLECTION BOX - PO LOBBY", "address": {"city": "OAK CITY", "state": "UT", "street": "70 N MAIN ST", "postcode": "84649"}}},
{"geometry": {"type": "Point", "coordinates": [-112.3360315512, 39.3765266006]}, "type": "Feature", "properties": {"collection_times": [{"days": "Mon-Sat", "time": "11:45am"}, {"days": "Sun", "time": "Closed"}], "id": "8464900002", "name": "USPS COLLECTION BOX - PO LOBBY", "address": {"city": "OAK CITY", "state": "UT", "street": "70 N MAIN ST", "postcode": "84649"}}},
{"geometry": {"type": "Point", "coordinates": [-111.7166724396, 40.0445840721]}, "type": "Feature", "properties": {"collection_times": [{"days": "Mon-Fri", "time": "5:00pm"}, {"days": "Sat", "time": "2:00pm"}, {"days": "Sun", "time": "Closed"}], "id": "8465100001", "name": "USPS COLLECTION BOX - BLUE BOX", "address": {"city": "PAYSON", "state": "UT", "street": "955 E 100 N", "postcode": "84651"}}},
{"geometry": {"type": "Point", "coordinates": [-111.7166724396, 40.0445840721]}, "type": "Feature", "properties": {"collection_times": [{"days": "Mon-Fri", "time": "5:00pm"}, {"days": "Sat", "time": "2:00pm"}, {"days": "Sun", "time": "Closed"}], "id": "8465100002", "name": "USPS COLLECTION BOX - BLUE BOX", "address": {"city": "PAYSON", "state": "UT", "street": "955 E 100 N", "postcode": "84651"}}},
{"geometry": {"type": "Point", "coordinates": [-111.7296060322, 40.034853986]}, "type": "Feature", "properties": {"collection_times": [{"days": "Mon-Fri", "time": "10:00am"}, {"days": "Sat", "time": "11:00am"}, {"days": "Sun", "time": "Closed"}], "id": "8465100003", "name": "USPS COLLECTION BOX - BLUE BOX", "address": {"city": "PAYSON", "state": "UT", "street": "80 E PARK DR", "postcode": "84651"}}},
{"geometry": {"type": "Point", "coordinates": [-111.7166724396, 40.0445840721]}, "type": "Feature", "properties": {"collection_times": [{"days": "Mon-Fri", "time": "5:00pm"}, {"days": "Sat", "time": "2:00pm"}, {"days": "Sun", "time": "Closed"}], "id": "8465100009", "name": "USPS COLLECTION BOX - PO LOBBY", "address": {"city": "PAYSON", "state": "UT", "street": "955 E 100 N", "postcode": "84651"}}},
{"geometry": {"type": "Point", "coordinates": [-111.7166724396, 40.0445840721]}, "type": "Feature", "properties": {"collection_times": [{"days": "Mon-Fri", "time": "5:00pm"}, {"days": "Sat", "time": "2:00pm"}, {"days": "Sun", "time": "Closed"}], "id": "8465100010", "name": "USPS COLLECTION BOX - PO LOBBY", "address": {"city": "PAYSON", "state": "UT", "street": "955 E 100 N", "postcode": "84651"}}},
{"geometry": {"type": "Point", "coordinates": [-111.7322118891, 40.0435166026]}, "type": "Feature", "properties": {"collection_times": [{"days": "Mon-Sat", "time": "11:00am"}, {"days": "Sun", "time": "Closed"}], "id": "8465100012", "name": "USPS COLLECTION BOX - BLUE BOX", "address": {"city": "PAYSON", "state": "UT", "street": "5 S MAIN ST", "postcode": "84651"}}},
{"geometry": {"type": "Point", "coordinates": [-111.7166724396, 40.0445840721]}, "type": "Feature", "properties": {"collection_times": [{"days": "Mon-Fri", "time": "5:00pm"}, {"days": "Sat", "time": "2:00pm"}, {"days": "Sun", "time": "Closed"}], "id": "8465100013", "name": "USPS COLLECTION BOX - PO LOBBY", "address": {"city": "PAYSON", "state": "UT", "street": "955 E 100 N", "postcode": "84651"}}},
{"geometry": {"type": "Point", "coordinates": [-111.7166724396, 40.0445840721]}, "type": "Feature", "properties": {"collection_times": [{"days": "Mon-Fri", "time": "5:00pm"}, {"days": "Sat", "time": "2:00pm"}, {"days": "Sun", "time": "Closed"}], "id": "8465100014", "name": "USPS COLLECTION BOX - PO LOBBY", "address": {"city": "PAYSON", "state": "UT", "street": "955 E 100 N", "postcode": "84651"}}},
{"geometry": {"type": "Point", "coordinates": [-111.8661280098, 39.0056900862]}, "type": "Feature", "properties": {"collection_times": [{"days": "Mon-Fri", "time": "3:30pm"}, {"days": "Sat", "time": "10:00am"}, {"days": "Sun", "time": "Closed"}], "id": "8465200000", "name": "USPS COLLECTION BOX - BLUE BOX", "address": {"city": "REDMOND", "state": "UT", "street": "19 S 100 W", "postcode": "84652"}}},
{"geometry": {"type": "Point", "coordinates": [-111.8661280098, 39.0056900862]}, "type": "Feature", "properties": {"collection_times": [{"days": "Mon-Fri", "time": "11:45am"}, {"days": "Sat", "time": "9:30am"}, {"days": "Sun", "time": "Closed"}], "id": "8465200001", "name": "USPS COLLECTION BOX - PO LOBBY", "address": {"city": "REDMOND", "state": "UT", "street": "19 S 100 W", "postcode": "84652"}}},
{"geometry": {"type": "Point", "coordinates": [-111.6706249119, 40.0575602312]}, "type": "Feature", "properties": {"collection_times": [{"days": "Mon-Fri", "time": "4:00pm"}, {"days": "Sat", "time": "11:30am"}, {"days": "Sun", "time": "Closed"}], "id": "8465300001", "name": "USPS COLLECTION BOX - BLUE BOX", "address": {"city": "SALEM", "state": "UT", "street": "134 E 200 N", "postcode": "84653"}}},
{"geometry": {"type": "Point", "coordinates": [-111.6706249119, 40.0575602312]}, "type": "Feature", "properties": {"collection_times": [{"days": "Mon-Fri", "time": "4:30pm"}, {"days": "Sat", "time": "11:30am"}, {"days": "Sun", "time": "Closed"}], "id": "8465300002", "name": "USPS COLLECTION BOX - PO LOBBY", "address": {"city": "SALEM", "state": "UT", "street": "134 E 200 N", "postcode": "84653"}}},
{"geometry": {"type": "Point", "coordinates": [-111.6706249119, 40.0575602312]}, "type": "Feature", "properties": {"collection_times": [{"days": "Mon-Fri", "time": "4:00pm"}, {"days": "Sat", "time": "11:30am"}, {"days": "Sun", "time": "Closed"}], "id": "8465300003", "name": "USPS COLLECTION BOX - BLUE BOX", "address": {"city": "SALEM", "state": "UT", "street": "134 E 200 N", "postcode": "84653"}}},
{"geometry": {"type": "Point", "coordinates": [-111.6706249119, 40.0575602312]}, "type": "Feature", "properties": {"collection_times": [{"days": "Mon-Fri", "time": "4:30pm"}, {"days": "Sat", "time": "11:30am"}, {"days": "Sun", "time": "Closed"}], "id": "8465300004", "name": "USPS COLLECTION BOX - PO LOBBY", "address": {"city": "SALEM", "state": "UT", "street": "134 E 200 N", "postcode": "84653"}}},
{"geometry": {"type": "Point", "coordinates": [-111.6536703252, 40.0237460285]}, "type": "Feature", "properties": {"collection_times": [{"days": "Mon-Sat", "time": "10:30am"}, {"days": "Sun", "time": "Closed"}], "id": "8465300005", "name": "USPS COLLECTION BOX - BLUE BOX", "address": {"city": "SALEM", "state": "UT", "street": "11200 S WOODLAND HILLS DR", "postcode": "84653"}}},
{"geometry": {"type": "Point", "coordinates": [-111.9322565195, 38.922989621]}, "type": "Feature", "properties": {"collection_times": [{"days": "Mon-Fri", "time": "4:00pm"}, {"days": "Sat", "time": "12:00pm"}, {"days": "Sun", "time": "Closed"}], "id": "8465400001", "name": "USPS COLLECTION BOX - BLUE BOX", "address": {"city": "SALINA", "state": "UT", "street": "35 N 100 E", "postcode": "84654"}}},
{"geometry": {"type": "Point", "coordinates": [-111.9322565195, 38.922989621]}, "type": "Feature", "properties": {"collection_times": [{"days": "Mon-Fri", "time": "4:30pm"}, {"days": "Sat", "time": "12:00pm"}, {"days": "Sun", "time": "Closed"}], "id": "8465400004", "name": "USPS COLLECTION BOX - PO LOBBY", "address": {"city": "SALINA", "state": "UT", "street": "35 N 100 E", "postcode": "84654"}}},
{"geometry": {"type": "Point", "coordinates": [-111.7856911665, 39.9756411243]}, "type": "Feature", "properties": {"collection_times": [{"days": "Mon-Fri", "time": "4:45pm"}, {"days": "Sat", "time": "12:00pm"}, {"days": "Sun", "time": "Closed"}], "id": "8465500002", "name": "USPS COLLECTION BOX - BLUE BOX", "address": {"city": "SANTAQUIN", "state": "UT", "street": "20 W MAIN ST", "postcode": "84655"}}},
{"geometry": {"type": "Point", "coordinates": [-111.7856911665, 39.9756411243]}, "type": "Feature", "properties": {"collection_times": [{"days": "Mon-Fri", "time": "5:00pm"}, {"days": "Sat", "time": "12:00pm"}, {"days": "Sun", "time": "Closed"}], "id": "8465500003", "name": "USPS COLLECTION BOX - PO LOBBY", "address": {"city": "SANTAQUIN", "state": "UT", "street": "20 W MAIN ST", "postcode": "84655"}}},
{"geometry": {"type": "Point", "coordinates": [-111.7856911665, 39.9756411243]}, "type": "Feature", "properties": {"collection_times": [{"days": "Mon-Fri", "time": "5:00pm"}, {"days": "Sat", "time": "12:00pm"}, {"days": "Sun", "time": "Closed"}], "id": "8465500004", "name": "USPS COLLECTION BOX - PO LOBBY", "address": {"city": "SANTAQUIN", "state": "UT", "street": "20 W MAIN ST", "postcode": "84655"}}},
{"geometry": {"type": "Point", "coordinates": [-112.0847712849, 38.7693079759]}, "type": "Feature", "properties": {"collection_times": [{"days": "Mon-Fri", "time": "12:00pm"}, {"days": "Sat", "time": "10:00am"}, {"days": "Sun", "time": "Closed"}], "id": "8465700001", "name": "USPS COLLECTION BOX - BLUE BOX", "address": {"city": "SIGURD", "state": "UT", "street": "20 S MAIN ST", "postcode": "84657"}}},
{"geometry": {"type": "Point", "coordinates": [-112.0847712849, 38.7693079759]}, "type": "Feature", "properties": {"collection_times": [{"days": "Mon-Fri", "time": "12:00pm"}, {"days": "Sat", "time": "10:00am"}, {"days": "Sun", "time": "Closed"}], "id": "8465700002", "name": "USPS COLLECTION BOX - PO LOBBY", "address": {"city": "SIGURD", "state": "UT", "street": "20 S MAIN ST", "postcode": "84657"}}},
{"geometry": {"type": "Point", "coordinates": [-111.651790828, 40.1214717284]}, "type": "Feature", "properties": {"collection_times": [{"days": "Mon-Fri", "time": "5:00pm"}, {"days": "Sat", "time": "1:00pm"}, {"days": "Sun", "time": "Closed"}], "id": "8466000004", "name": "USPS COLLECTION BOX - BLUE BOX", "address": {"city": "SPANISH FORK", "state": "UT", "street": "165 E 900 N", "postcode": "84660"}}},
{"geometry": {"type": "Point", "coordinates": [-111.6548267359, 40.1094211242]}, "type": "Feature", "properties": {"collection_times": [{"days": "Mon-Sat", "time": "1:00pm"}, {"days": "Sun", "time": "Closed"}], "id": "8466000006", "name": "USPS COLLECTION BOX - BLUE BOX", "address": {"city": "SPANISH FORK", "state": "UT", "street": "40 S MAIN ST", "postcode": "84660"}}},
{"geometry": {"type": "Point", "coordinates": [-111.651790828, 40.1214717284]}, "type": "Feature", "properties": {"collection_times": [{"days": "Mon-Fri", "time": "5:00pm"}, {"days": "Sat", "time": "2:00pm"}, {"days": "Sun", "time": "Closed"}], "id": "8466000018", "name": "USPS COLLECTION BOX - PO LOBBY", "address": {"city": "SPANISH FORK", "state": "UT", "street": "165 E 900 N", "postcode": "84660"}}},
{"geometry": {"type": "Point", "coordinates": [-111.651790828, 40.1214717284]}, "type": "Feature", "properties": {"collection_times": [{"days": "Mon-Fri", "time": "5:00pm"}, {"days": "Sat", "time": "1:00pm"}, {"days": "Sun", "time": "Closed"}], "id": "8466000019", "name": "USPS COLLECTION BOX - BLUE BOX", "address": {"city": "SPANISH FORK", "state": "UT", "street": "165 E 900 N", "postcode": "84660"}}},
{"geometry": {"type": "Point", "coordinates": [-111.651790828, 40.1214717284]}, "type": "Feature", "properties": {"collection_times": [{"days": "Mon-Fri", "time": "5:00pm"}, {"days": "Sat", "time": "2:00pm"}, {"days": "Sun", "time": "Closed"}], "id": "8466000021", "name": "USPS COLLECTION BOX - PO LOBBY", "address": {"city": "SPANISH FORK", "state": "UT", "street": "165 E 900 N", "postcode": "84660"}}},
{"geometry": {"type": "Point", "coordinates": [-111.495994379, 39.4784815904]}, "type": "Feature", "properties": {"collection_times": [{"days": "Mon-Fri", "time": "4:15pm"}, {"days": "Sat", "time": "11:30am"}, {"days": "Sun", "time": "Closed"}], "id": "8466200000", "name": "USPS COLLECTION BOX - BLUE BOX", "address": {"city": "SPRING CITY", "state": "UT", "street": "24 N MAIN ST", "postcode": "84662"}}},
{"geometry": {"type": "Point", "coordinates": [-111.495994379, 39.4784815904]}, "type": "Feature", "properties": {"collection_times": [{"days": "Mon-Fri", "time": "4:00pm"}, {"days": "Sat", "time": "11:30am"}, {"days": "Sun", "time": "Closed"}], "id": "8466200001", "name": "USPS COLLECTION BOX - PO LOBBY", "address": {"city": "SPRING CITY", "state": "UT", "street": "24 N MAIN ST", "postcode": "84662"}}},
{"geometry": {"type": "Point", "coordinates": [-111.4760615205, 40.2186280346]}, "type": "Feature", "properties": {"collection_times": [{"days": "Mon-Fri", "time": "2:15pm"}, {"days": "Sat", "time": "1:45pm"}, {"days": "Sun", "time": "Closed"}], "id": "8466300002", "name": "USPS COLLECTION BOX - BLUE BOX", "address": {"city": "SPRINGVILLE", "state": "UT", "street": "35 E MAPLE ST", "postcode": "84663"}}},
{"geometry": {"type": "Point", "coordinates": [-111.6254934578, 40.1839387121]}, "type": "Feature", "properties": {"collection_times": [{"days": "Mon-Fri", "time": "2:15pm"}, {"days": "Sat", "time": "1:45pm"}, {"days": "Sun", "time": "Closed"}], "id": "8466300003", "name": "USPS COLLECTION BOX - BLUE BOX", "address": {"city": "SPRINGVILLE", "state": "UT", "street": "775 W 1200 N", "postcode": "84663"}}},
{"geometry": {"type": "Point", "coordinates": [-111.6106868817, 40.1613810108]}, "type": "Feature", "properties": {"collection_times": [{"days": "Mon-Fri", "time": "2:15pm"}, {"days": "Sat", "time": "1:45pm"}, {"days": "Sun", "time": "Closed"}], "id": "8466300005", "name": "USPS COLLECTION BOX - BLUE BOX", "address": {"city": "SPRINGVILLE", "state": "UT", "street": "380 S MAIN ST", "postcode": "84663"}}},
{"geometry": {"type": "Point", "coordinates": [-111.6092329029, 40.1680014378]}, "type": "Feature", "properties": {"collection_times": [{"days": "Mon-Fri", "time": "5:00pm"}, {"days": "Sat", "time": "2:30pm"}, {"days": "Sun", "time": "Closed"}], "id": "8466300007", "name": "USPS COLLECTION BOX - BLUE BOX", "address": {"city": "SPRINGVILLE", "state": "UT", "street": "76 E 100 N", "postcode": "84663"}}},
{"geometry": {"type": "Point", "coordinates": [-111.6092915699, 40.1666526841]}, "type": "Feature", "properties": {"collection_times": [{"days": "Mon-Fri", "time": "5:00pm"}, {"days": "Sat", "time": "2:30pm"}, {"days": "Sun", "time": "Closed"}], "id": "8466300010", "name": "USPS COLLECTION BOX - PO LOBBY", "address": {"city": "SPRINGVILLE", "state": "UT", "street": "75 E CENTER ST", "postcode": "84663"}}},
{"geometry": {"type": "Point", "coordinates": [-111.6092915699, 40.1666526841]}, "type": "Feature", "properties": {"collection_times": [{"days": "Mon-Fri", "time": "5:00pm"}, {"days": "Sat", "time": "2:30pm"}, {"days": "Sun", "time": "Closed"}], "id": "8466300011", "name": "USPS COLLECTION BOX - PO LOBBY", "address": {"city": "SPRINGVILLE", "state": "UT", "street": "75 E CENTER ST", "postcode": "84663"}}}
]}
