{"type": "FeatureCollection", "features": [
{"geometry": {"type": "Point", "coordinates": [-112.0848198422, 38.7693499249]}, "type": "Feature", "properties": {"collection_times": [{"days": "Mon-Fri", "time": "5:00pm"}, {"days": "Sat", "time": "2:30pm"}, {"days": "Sun", "time": "Closed"}], "id": "8470100001", "name": "USPS COLLECTION BOX - BLUE BOX", "address": {"city": "RICHFIELD", "state": "UT", "street": "93 N MAIN ST", "postcode": "84701"}}},
{"geometry": {"type": "Point", "coordinates": [-112.0848198422, 38.7693499249]}, "type": "Feature", "properties": {"collection_times": [{"days": "Mon-Fri", "time": "5:00pm"}, {"days": "Sat", "time": "2:30pm"}, {"days": "Sun", "time": "Closed"}], "id": "8470100002", "name": "USPS COLLECTION BOX - BLUE BOX", "address": {"city": "RICHFIELD", "state": "UT", "street": "93 N MAIN ST", "postcode": "84701"}}},
{"geometry": {"type": "Point", "coordinates": [-111.7279595992, 38.7083179377]}, "type": "Feature", "properties": {"collection_times": [{"days": "Mon-Fri", "time": "11:00am"}, {"days": "Sat", "time": "10:00am"}, {"days": "Sun", "time": "Closed"}], "id": "8470100003", "name": "USPS COLLECTION BOX - BLUE BOX", "address": {"city": "RICHFIELD", "state": "UT", "street": "185 E FLYING J DR", "postcode": "84701"}}},
{"geometry": {"type": "Point", "coordinates": [-112.0867488703, 38.7522594963]}, "type": "Feature", "properties": {"collection_times": [{"days": "Mon-Fri", "time": "1:30pm"}, {"days": "Sat", "time": "12:30pm"}, {"days": "Sun", "time": "Closed"}], "id": "8470100004", "name": "USPS COLLECTION BOX - BLUE BOX", "address": {"city": "RICHFIELD", "state": "UT", "street": "1080 S HIGHWAY 118", "postcode": "84701"}}},
{"geometry": {"type": "Point", "coordinates": [-112.0847037178, 38.7715918261]}, "type": "Feature", "properties": {"collection_times": [{"days": "Mon-Fri", "time": "2:15pm"}, {"days": "Sat", "time": "12:00pm"}, {"days": "Sun", "time": "Closed"}], "id": "8470100006", "name": "USPS COLLECTION BOX - BLUE BOX", "address": {"city": "RICHFIELD", "state": "UT", "street": "250 N MAIN ST", "postcode": "84701"}}},
{"geometry": {"type": "Point", "coordinates": [-112.0848198422, 38.7693499249]}, "type": "Feature", "properties": {"collection_times": [{"days": "Mon-Fri", "time": "5:00pm"}, {"days": "Sat", "time": "2:30pm"}, {"days": "Sun", "time": "Closed"}], "id": "8470100012", "name": "USPS COLLECTION BOX - PO LOBBY", "address": {"city": "RICHFIELD", "state": "UT", "street": "93 N MAIN ST", "postcode": "84701"}}},
{"geometry": {"type": "Point", "coordinates": [-112.0848198422, 38.7693499249]}, "type": "Feature", "properties": {"collection_times": [{"days": "Mon-Fri", "time": "5:00pm"}, {"days": "Sat", "time": "2:30pm"}, {"days": "Sun", "time": "Closed"}], "id": "8470100016", "name": "USPS COLLECTION BOX - BLUE BOX", "address": {"city": "RICHFIELD", "state": "UT", "street": "93 N MAIN ST", "postcode": "84701"}}},
{"geometry": {"type": "Point", "coordinates": [-112.0602366069, 38.7084102503]}, "type": "Feature", "properties": {"collection_times": [{"days": "Mon-Fri", "time": "3:00pm"}, {"days": "Sat", "time": "11:30am"}, {"days": "Sun", "time": "Closed"}], "id": "8471100000", "name": "USPS COLLECTION BOX - BLUE BOX", "address": {"city": "ANNABELLA", "state": "UT", "street": "35 E 100 N", "postcode": "84711"}}},
{"geometry": {"type": "Point", "coordinates": [-112.0602366069, 38.7084102503]}, "type": "Feature", "properties": {"collection_times": [{"days": "Mon-Sat", "time": "11:45am"}, {"days": "Sun", "time": "Closed"}], "id": "8471100001", "name": "USPS COLLECTION BOX - PO LOBBY", "address": {"city": "ANNABELLA", "state": "UT", "street": "35 E 100 N", "postcode": "84711"}}},
{"geometry": {"type": "Point", "coordinates": [-112.6412624825, 38.2738682702]}, "type": "Feature", "properties": {"collection_times": [{"days": "Mon-Fri", "time": "4:30pm"}, {"days": "Sat", "time": "12:00pm"}, {"days": "Sun", "time": "Closed"}], "id": "8471300001", "name": "USPS COLLECTION BOX - BLUE BOX", "address": {"city": "BEAVER", "state": "UT", "street": "20 S MAIN ST", "postcode": "84713"}}},
{"geometry": {"type": "Point", "coordinates": [-112.6412624825, 38.2738682702]}, "type": "Feature", "properties": {"collection_times": [{"days": "Mon-Fri", "time": "4:30pm"}, {"days": "Sat", "time": "12:00pm"}, {"days": "Sun", "time": "Closed"}], "id": "8471300002", "name": "USPS COLLECTION BOX - PO LOBBY", "address": {"city": "BEAVER", "state": "UT", "street": "20 S MAIN ST", "postcode": "84713"}}},
{"geometry": {"type": "Point", "coordinates": [-113.6542071612, 37.7088141093]}, "type": "Feature", "properties": {"collection_times": [{"days": "Mon-Fri", "time": "2:00pm"}, {"days": "Sat", "time": "12:00pm"}, {"days": "Sun", "time": "Closed"}], "id": "8471400001", "name": "USPS COLLECTION BOX - BLUE BOX", "address": {"city": "BERYL", "state": "UT", "street": "71 E HIGHWAY 56", "postcode": "84714"}}},
{"geometry": {"type": "Point", "coordinates": [-111.4195820421, 38.2989682966]}, "type": "Feature", "properties": {"collection_times": [{"days": "Mon-Fri", "time": "2:30pm"}, {"days": "Sat", "time": "11:30am"}, {"days": "Sun", "time": "Closed"}], "id": "8471500000", "name": "USPS COLLECTION BOX - BLUE BOX", "address": {"city": "BICKNELL", "state": "UT", "street": "70 E MAIN ST", "postcode": "84715"}}},
{"geometry": {"type": "Point", "coordinates": [-111.4195820421, 38.2989682966]}, "type": "Feature", "properties": {"collection_times": [{"days": "Mon-Fri", "time": "2:30pm"}, {"days": "Sat", "time": "11:30am"}, {"days": "Sun", "time": "Closed"}], "id": "8471500001", "name": "USPS COLLECTION BOX - PO LOBBY", "address": {"city": "BICKNELL", "state": "UT", "street": "70 E MAIN ST", "postcode": "84715"}}},
{"geometry": {"type": "Point", "coordinates": [-111.2708262838, 37.8755219611]}, "type": "Feature", "properties": {"collection_times": [{"days": "Mon-Fri", "time": "12:30pm"}, {"days": "Sat", "time": "11:30am"}, {"days": "Sun", "time": "Closed"}], "id": "8471600001", "name": "USPS COLLECTION BOX - PO LOBBY", "address": {"city": "BOULDER", "state": "UT", "street": "325 N 100 E", "postcode": "84716"}}},
{"geometry": {"type": "Point", "coordinates": [-111.2708262838, 37.8755219611]}, "type": "Feature", "properties": {"collection_times": [{"days": "Mon-Fri", "time": "12:30pm"}, {"days": "Sat", "time": "11:30am"}, {"days": "Sun", "time": "Closed"}], "id": "8471600002", "name": "USPS COLLECTION BOX - BLUE BOX", "address": {"city": "BOULDER", "state": "UT", "street": "325 N 100 E", "postcode": "84716"}}},
{"geometry": {"type": "Point", "coordinates": [-112.0539601412, 37.5668748873]}, "type": "Feature", "properties": {"collection_times": [{"days": "Mon-Sat", "time": "11:45am"}, {"days": "Sun", "time": "Closed"}], "id": "8471800001", "name": "USPS COLLECTION BOX - BLUE BOX", "address": {"city": "CANNONVILLE", "state": "UT", "street": "25 S REDROCK DR", "postcode": "84718"}}},
{"geometry": {"type": "Point", "coordinates": [-113.0615666799, 37.6715919612]}, "type": "Feature", "properties": {"collection_times": [{"days": "Mon-Sat", "time": "3:30pm"}, {"days": "Sun", "time": "Closed"}], "id": "8472000004", "name": "USPS COLLECTION BOX - BLUE BOX", "address": {"city": "CEDAR CITY", "state": "UT", "street": "333 N MAIN ST", "postcode": "84720"}}},
{"geometry": {"type": "Point", "coordinates": [-113.0606610385, 37.6704076892]}, "type": "Feature", "properties": {"collection_times": [{"days": "Mon-Sat", "time": "2:00pm"}, {"days": "Sun", "time": "Closed"}], "id": "8472000013", "name": "USPS COLLECTION BOX - BLUE BOX", "address": {"city": "CEDAR CITY", "state": "UT", "street": "55 E 400 S", "postcode": "84720"}}},
{"geometry": {"type": "Point", "coordinates": [-113.0647334092, 37.7011492805]}, "type": "Feature", "properties": {"collection_times": [{"days": "Mon-Sat", "time": "2:00pm"}, {"days": "Sun", "time": "Closed"}], "id": "8472000015", "name": "USPS COLLECTION BOX - BLUE BOX", "address": {"city": "CEDAR CITY", "state": "UT", "street": "150 W 1325 N", "postcode": "84720"}}},
{"geometry": {"type": "Point", "coordinates": [-113.0616268161, 37.7099405546]}, "type": "Feature", "properties": {"collection_times": [{"days": "Mon-Sat", "time": "2:00pm"}, {"days": "Sun", "time": "Closed"}], "id": "8472000019", "name": "USPS COLLECTION BOX - BLUE BOX", "address": {"city": "CEDAR CITY", "state": "UT", "street": "1870 N MAIN ST", "postcode": "84720"}}},
{"geometry": {"type": "Point", "coordinates": [-113.0624248103, 37.6774020836]}, "type": "Feature", "properties": {"collection_times": [{"days": "Mon-Sat", "time": "2:15pm"}, {"days": "Sun", "time": "Closed"}], "id": "8472000020", "name": "USPS COLLECTION BOX - BLUE BOX", "address": {"city": "CEDAR CITY", "state": "UT", "street": "40 W CENTER ST", "postcode": "84720"}}},
{"geometry": {"type": "Point", "coordinates": [-113.0616832774, 37.6799685694]}, "type": "Feature", "properties": {"collection_times": [{"days": "Mon-Sat", "time": "2:00pm"}, {"days": "Sun", "time": "Closed"}], "id": "8472000024", "name": "USPS COLLECTION BOX - BLUE BOX", "address": {"city": "CEDAR CITY", "state": "UT", "street": "150 N MAIN ST", "postcode": "84720"}}},
{"geometry": {"type": "Point", "coordinates": [-113.0615666799, 37.6715919612]}, "type": "Feature", "properties": {"collection_times": [{"days": "Mon-Sat", "time": "3:30pm"}, {"days": "Sun", "time": "Closed"}], "id": "8472000029", "name": "USPS COLLECTION BOX - PO LOBBY", "address": {"city": "CEDAR CITY", "state": "UT", "street": "333 N MAIN ST", "postcode": "84720"}}},
{"geometry": {"type": "Point", "coordinates": [-113.0852505592, 37.6543319042]}, "type": "Feature", "properties": {"collection_times": [{"days": "Mon-Sat", "time": "2:00pm"}, {"days": "Sun", "time": "Closed"}], "id": "8472000034", "name": "USPS COLLECTION BOX - BLUE BOX", "address": {"city": "CEDAR CITY", "state": "UT", "street": "1330 S PROVIDENCE CENTER DR", "postcode": "84720"}}},
{"geometry": {"type": "Point", "coordinates": [-113.0615666799, 37.6715919612]}, "type": "Feature", "properties": {"collection_times": [{"days": "Mon-Sat", "time": "3:30pm"}, {"days": "Sun", "time": "Closed"}], "id": "8472000035", "name": "USPS COLLECTION BOX - PO LOBBY", "address": {"city": "CEDAR CITY", "state": "UT", "street": "333 N MAIN ST", "postcode": "84720"}}},
{"geometry": {"type": "Point", "coordinates": [-113.0615666799, 37.6715919612]}, "type": "Feature", "properties": {"collection_times": [{"days": "Mon-Sat", "time": "3:30pm"}, {"days": "Sun", "time": "Closed"}], "id": "8472000036", "name": "USPS COLLECTION BOX - PO LOBBY", "address": {"city": "CEDAR CITY", "state": "UT", "street": "333 N MAIN ST", "postcode": "84720"}}},
{"geometry": {"type": "Point", "coordinates": [-113.040058536, 37.7646599409]}, "type": "Feature", "properties": {"collection_times": [{"days": "Mon-Sat", "time": "9:00am"}, {"days": "Sun", "time": "Closed"}], "id": "8472000037", "name": "USPS COLLECTION BOX - BLUE BOX", "address": {"city": "CEDAR CITY", "state": "UT", "street": "900 E MIDVALLEY RD", "postcode": "84720"}}},
{"geometry": {"type": "Point", "coordinates": [-113.0606350594, 37.6774031618]}, "type": "Feature", "properties": {"collection_times": [{"days": "Mon-Sat", "time": "11:30am"}, {"days": "Sun", "time": "Closed"}], "id": "8472000039", "name": "USPS COLLECTION BOX - PO LOBBY", "address": {"city": "CEDAR CITY", "state": "UT", "street": "65 E CENTER ST", "postcode": "84720"}}},
{"geometry": {"type": "Point", "coordinates": [-113.0606350594, 37.6774031618]}, "type": "Feature", "properties": {"collection_times": [{"days": "Mon-Sat", "time": "11:00am"}, {"days": "Sun", "time": "Closed"}], "id": "8472000040", "name": "USPS COLLECTION BOX - BLUE BOX", "address": {"city": "CEDAR CITY", "state": "UT", "street": "65 E CENTER ST", "postcode": "84720"}}},
{"geometry": {"type": "Point", "coordinates": [-113.628620069, 37.4170346711]}, "type": "Feature", "properties": {"collection_times": [{"days": "Mon-Sat", "time": "11:30am"}, {"days": "Sun", "time": "Closed"}], "id": "8472200002", "name": "USPS COLLECTION BOX - BLUE BOX", "address": {"city": "CENTRAL", "state": "UT", "street": "101 E CENTER ST", "postcode": "84722"}}},
{"geometry": {"type": "Point", "coordinates": [-112.2726772068, 38.1717357452]}, "type": "Feature", "properties": {"collection_times": [{"days": "Mon-Fri", "time": "4:15pm"}, {"days": "Sat", "time": "11:15am"}, {"days": "Sun", "time": "Closed"}], "id": "8472300000", "name": "USPS COLLECTION BOX - BLUE BOX", "address": {"city": "CIRCLEVILLE", "state": "UT", "street": "143 W MAIN ST", "postcode": "84723"}}},
{"geometry": {"type": "Point", "coordinates": [-112.2726772068, 38.1717357452]}, "type": "Feature", "properties": {"collection_times": [{"days": "Mon-Fri", "time": "4:15pm"}, {"days": "Sat", "time": "11:15am"}, {"days": "Sun", "time": "Closed"}], "id": "8472300001", "name": "USPS COLLECTION BOX - PO LOBBY", "address": {"city": "CIRCLEVILLE", "state": "UT", "street": "143 W MAIN ST", "postcode": "84723"}}},
{"geometry": {"type": "Point", "coordinates": [-112.1487281567, 38.6834854209]}, "type": "Feature", "properties": {"collection_times": [{"days": "Mon-Fri", "time": "2:30pm"}, {"days": "Sat", "time": "10:45am"}, {"days": "Sun", "time": "Closed"}], "id": "8472400000", "name": "USPS COLLECTION BOX - PO LOBBY", "address": {"city": "ELSINORE", "state": "UT", "street": "27 N CENTER ST", "postcode": "84724"}}},
{"geometry": {"type": "Point", "coordinates": [-112.1487281567, 38.6834854209]}, "type": "Feature", "properties": {"collection_times": [{"days": "Mon-Fri", "time": "4:00pm"}, {"days": "Sat", "time": "11:15am"}, {"days": "Sun", "time": "Closed"}], "id": "8472400001", "name": "USPS COLLECTION BOX - BLUE BOX", "address": {"city": "ELSINORE", "state": "UT", "street": "27 N CENTER ST", "postcode": "84724"}}},
{"geometry": {"type": "Point", "coordinates": [-112.1487281567, 38.6834854209]}, "type": "Feature", "properties": {"collection_times": [{"days": "Mon-Fri", "time": "2:30pm"}, {"days": "Sat", "time": "10:45am"}, {"days": "Sun", "time": "Closed"}], "id": "8472400002", "name": "USPS COLLECTION BOX - PO LOBBY", "address": {"city": "ELSINORE", "state": "UT", "street": "27 N CENTER ST", "postcode": "84724"}}},
{"geometry": {"type": "Point", "coordinates": [-113.7216883499, 37.573555186]}, "type": "Feature", "properties": {"collection_times": [{"days": "Mon-Fri", "time": "1:45pm"}, {"days": "Sat", "time": "12:00pm"}, {"days": "Sun", "time": "Closed"}], "id": "8472500001", "name": "USPS COLLECTION BOX - PO LOBBY", "address": {"city": "ENTERPRISE", "state": "UT", "street": "14 W MAIN ST", "postcode": "84725"}}},
{"geometry": {"type": "Point", "coordinates": [-111.6047916292, 37.7704337243]}, "type": "Feature", "properties": {"collection_times": [{"days": "Mon-Fri", "time": "2:20pm"}, {"days": "Sat", "time": "12:00pm"}, {"days": "Sun", "time": "Closed"}], "id": "8472600001", "name": "USPS COLLECTION BOX - BLUE BOX", "address": {"city": "ESCALANTE", "state": "UT", "street": "230 W MAIN ST", "postcode": "84726"}}},
{"geometry": {"type": "Point", "coordinates": [-111.6047916292, 37.7704337243]}, "type": "Feature", "properties": {"collection_times": [{"days": "Mon-Fri", "time": "2:20pm"}, {"days": "Sat", "time": "12:00pm"}, {"days": "Sun", "time": "Closed"}], "id": "8472600002", "name": "USPS COLLECTION BOX - PO LOBBY", "address": {"city": "ESCALANTE", "state": "UT", "street": "230 W MAIN ST", "postcode": "84726"}}},
{"geometry": {"type": "Point", "coordinates": [-112.5974457417, 37.3173857575]}, "type": "Feature", "properties": {"collection_times": [{"days": "Mon-Fri", "time": "3:40pm"}, {"days": "Sat", "time": "11:30am"}, {"days": "Sun", "time": "Closed"}], "id": "8472900000", "name": "USPS COLLECTION BOX - BLUE BOX", "address": {"city": "GLENDALE", "state": "UT", "street": "35 S MAIN ST", "postcode": "84729"}}},
{"geometry": {"type": "Point", "coordinates": [-112.5974457417, 37.3173857575]}, "type": "Feature", "properties": {"collection_times": [{"days": "Mon-Fri", "time": "11:45am"}, {"days": "Sat", "time": "11:30am"}, {"days": "Sun", "time": "Closed"}], "id": "8472900001", "name": "USPS COLLECTION BOX - PO LOBBY", "address": {"city": "GLENDALE", "state": "UT", "street": "35 S MAIN ST", "postcode": "84729"}}},
{"geometry": {"type": "Point", "coordinates": [-112.5974457417, 37.3173857575]}, "type": "Feature", "properties": {"collection_times": [{"days": "Mon-Fri", "time": "11:45am"}, {"days": "Sat", "time": "11:30am"}, {"days": "Sun", "time": "Closed"}], "id": "8472900002", "name": "USPS COLLECTION BOX - PO LOBBY", "address": {"city": "GLENDALE", "state": "UT", "street": "35 S MAIN ST", "postcode": "84729"}}},
{"geometry": {"type": "Point", "coordinates": [-112.0847712849, 38.7693079759]}, "type": "Feature", "properties": {"collection_times": [{"days": "Mon-Fri", "time": "12:00pm"}, {"days": "Sat", "time": "11:00am"}, {"days": "Sun", "time": "Closed"}], "id": "8473000001", "name": "USPS COLLECTION BOX - BLUE BOX", "address": {"city": "GLENWOOD", "state": "UT", "street": "130 E CENTER ST", "postcode": "84730"}}},
{"geometry": {"type": "Point", "coordinates": [-112.0847712849, 38.7693079759]}, "type": "Feature", "properties": {"collection_times": [{"days": "Mon-Fri", "time": "12:00pm"}, {"days": "Sat", "time": "11:00am"}, {"days": "Sun", "time": "Closed"}], "id": "8473000002", "name": "USPS COLLECTION BOX - PO LOBBY", "address": {"city": "GLENWOOD", "state": "UT", "street": "130 E CENTER ST", "postcode": "84730"}}},
{"geometry": {"type": "Point", "coordinates": [-110.7121154044, 38.3733581397]}, "type": "Feature", "properties": {"collection_times": [{"days": "Mon-Fri", "time": "1:00pm"}, {"days": "Sat", "time": "11:15am"}, {"days": "Sun", "time": "Closed"}], "id": "8473400000", "name": "USPS COLLECTION BOX - BLUE BOX", "address": {"city": "HANKSVILLE", "state": "UT", "street": "130 E 100 N", "postcode": "84734"}}},
{"geometry": {"type": "Point", "coordinates": [-110.7121154044, 38.3733581397]}, "type": "Feature", "properties": {"collection_times": [{"days": "Mon-Fri", "time": "1:00pm"}, {"days": "Sat", "time": "11:15am"}, {"days": "Sun", "time": "Closed"}], "id": "8473400001", "name": "USPS COLLECTION BOX - PO LOBBY", "address": {"city": "HANKSVILLE", "state": "UT", "street": "130 E 100 N", "postcode": "84734"}}},
{"geometry": {"type": "Point", "coordinates": [-112.4344662585, 37.6514840556]}, "type": "Feature", "properties": {"collection_times": [{"days": "Mon-Fri", "time": "4:20pm"}, {"days": "Sat", "time": "9:45am"}, {"days": "Sun", "time": "Closed"}], "id": "8473500000", "name": "USPS COLLECTION BOX - BLUE BOX", "address": {"city": "HATCH", "state": "UT", "street": "190 N MAIN ST", "postcode": "84735"}}},
{"geometry": {"type": "Point", "coordinates": [-112.4344662585, 37.6514840556]}, "type": "Feature", "properties": {"collection_times": [{"days": "Mon-Fri", "time": "12:45pm"}, {"days": "Sat", "time": "9:45am"}, {"days": "Sun", "time": "Closed"}], "id": "8473500001", "name": "USPS COLLECTION BOX - PO LOBBY", "address": {"city": "HATCH", "state": "UT", "street": "190 N MAIN ST", "postcode": "84735"}}},
{"geometry": {"type": "Point", "coordinates": [-111.9945315456, 37.5628739567]}, "type": "Feature", "properties": {"collection_times": [{"days": "Mon-Fri", "time": "3:00pm"}, {"days": "Sat", "time": "11:45am"}, {"days": "Sun", "time": "Closed"}], "id": "8473600000", "name": "USPS COLLECTION BOX - BLUE BOX", "address": {"city": "HENRIEVILLE", "state": "UT", "street": "25 HWY 12", "postcode": "84736"}}},
{"geometry": {"type": "Point", "coordinates": [-111.9947990976, 37.5641621527]}, "type": "Feature", "properties": {"collection_times": [{"days": "Mon-Fri", "time": "3:00pm"}, {"days": "Sat", "time": "11:45am"}, {"days": "Sun", "time": "Closed"}], "id": "8473600001", "name": "USPS COLLECTION BOX - PO LOBBY", "address": {"city": "HENRIEVILLE", "state": "UT", "street": "UTAH HIGHWAY 12", "postcode": "84736"}}},
{"geometry": {"type": "Point", "coordinates": [-113.3082347671, 37.1779495145]}, "type": "Feature", "properties": {"collection_times": [{"days": "Mon-Fri", "time": "2:50pm"}, {"days": "Sat", "time": "1:00pm"}, {"days": "Sun", "time": "Closed"}], "id": "8473700001", "name": "USPS COLLECTION BOX - BLUE BOX", "address": {"city": "HURRICANE", "state": "UT", "street": "1075 W 100 N", "postcode": "84737"}}},
{"geometry": {"type": "Point", "coordinates": [-113.3082347671, 37.1779495145]}, "type": "Feature", "properties": {"collection_times": [{"days": "Mon-Fri", "time": "2:50pm"}, {"days": "Sat", "time": "1:00pm"}, {"days": "Sun", "time": "Closed"}], "id": "8473700008", "name": "USPS COLLECTION BOX - PO LOBBY", "address": {"city": "HURRICANE", "state": "UT", "street": "1075 W 100 N", "postcode": "84737"}}},
{"geometry": {"type": "Point", "coordinates": [-113.3082347671, 37.1779495145]}, "type": "Feature", "properties": {"collection_times": [{"days": "Mon-Fri", "time": "2:50pm"}, {"days": "Sat", "time": "1:00pm"}, {"days": "Sun", "time": "Closed"}], "id": "8473700010", "name": "USPS COLLECTION BOX - BLUE BOX", "address": {"city": "HURRICANE", "state": "UT", "street": "1075 W 100 N", "postcode": "84737"}}},
{"geometry": {"type": "Point", "coordinates": [-113.3082347671, 37.1779495145]}, "type": "Feature", "properties": {"collection_times": [{"days": "Mon-Fri", "time": "2:50pm"}, {"days": "Sat", "time": "1:00pm"}, {"days": "Sun", "time": "Closed"}], "id": "8473700011", "name": "USPS COLLECTION BOX - BLUE BOX", "address": {"city": "HURRICANE", "state": "UT", "street": "1075 W 100 N", "postcode": "84737"}}},
{"geometry": {"type": "Point", "coordinates": [-113.3054395917, 37.1601027113]}, "type": "Feature", "properties": {"collection_times": [{"days": "Mon-Sat", "time": "9:00am"}, {"days": "Sun", "time": "Closed"}], "id": "8473700012", "name": "USPS COLLECTION BOX - BLUE BOX", "address": {"city": "HURRICANE", "state": "UT", "street": "1394 N ROME WAY", "postcode": "84737"}}},
{"geometry": {"type": "Point", "coordinates": [-113.678536524, 37.1699615288]}, "type": "Feature", "properties": {"collection_times": [{"days": "Mon-Fri", "time": "2:50pm"}, {"days": "Sat", "time": "11:45am"}, {"days": "Sun", "time": "Closed"}], "id": "8473800002", "name": "USPS COLLECTION BOX - BLUE BOX", "address": {"city": "IVINS", "state": "UT", "street": "555 S 200 E", "postcode": "84738"}}},
{"geometry": {"type": "Point", "coordinates": [-112.2199903772, 38.2451101916]}, "type": "Feature", "properties": {"collection_times": [{"days": "Mon-Fri", "time": "11:45am"}, {"days": "Sat", "time": "10:45am"}, {"days": "Sun", "time": "Closed"}], "id": "8474000001", "name": "USPS COLLECTION BOX - PO LOBBY", "address": {"city": "JUNCTION", "state": "UT", "street": "550 N MAIN ST", "postcode": "84740"}}},
{"geometry": {"type": "Point", "coordinates": [-112.2199903772, 38.2451101916]}, "type": "Feature", "properties": {"collection_times": [{"days": "Mon-Fri", "time": "4:30pm"}, {"days": "Sat", "time": "10:30am"}, {"days": "Sun", "time": "Closed"}], "id": "8474000002", "name": "USPS COLLECTION BOX - BLUE BOX", "address": {"city": "JUNCTION", "state": "UT", "street": "550 N MAIN ST", "postcode": "84740"}}},
{"geometry": {"type": "Point", "coordinates": [-112.5285157717, 37.0474470628]}, "type": "Feature", "properties": {"collection_times": [{"days": "Mon-Fri", "time": "1:20pm"}, {"days": "Sat", "time": "12:30pm"}, {"days": "Sun", "time": "Closed"}], "id": "8474100002", "name": "USPS COLLECTION BOX - BLUE BOX", "address": {"city": "KANAB", "state": "UT", "street": "39 S MAIN ST", "postcode": "84741"}}},
{"geometry": {"type": "Point", "coordinates": [-112.5285157717, 37.0474470628]}, "type": "Feature", "properties": {"collection_times": [{"days": "Mon-Fri", "time": "2:50pm"}, {"days": "Sat", "time": "12:30pm"}, {"days": "Sun", "time": "Closed"}], "id": "8474100003", "name": "USPS COLLECTION BOX - BLUE BOX", "address": {"city": "KANAB", "state": "UT", "street": "39 S MAIN ST", "postcode": "84741"}}},
{"geometry": {"type": "Point", "coordinates": [-112.5371541862, 37.0399618553]}, "type": "Feature", "properties": {"collection_times": [{"days": "Mon-Fri", "time": "2:30pm"}, {"days": "Sat", "time": "12:30pm"}, {"days": "Sun", "time": "Closed"}], "id": "8474100007", "name": "USPS COLLECTION BOX - BLUE BOX", "address": {"city": "KANAB", "state": "UT", "street": "300 W POWELL DR", "postcode": "84741"}}},
{"geometry": {"type": "Point", "coordinates": [-112.5285157717, 37.0474470628]}, "type": "Feature", "properties": {"collection_times": [{"days": "Mon-Fri", "time": "1:20pm"}, {"days": "Sat", "time": "12:30pm"}, {"days": "Sun", "time": "Closed"}], "id": "8474100011", "name": "USPS COLLECTION BOX - PO LOBBY", "address": {"city": "KANAB", "state": "UT", "street": "39 S MAIN ST", "postcode": "84741"}}},
{"geometry": {"type": "Point", "coordinates": [-112.5285157717, 37.0474470628]}, "type": "Feature", "properties": {"collection_times": [{"days": "Mon-Fri", "time": "2:50pm"}, {"days": "Sat", "time": "12:30pm"}, {"days": "Sun", "time": "Closed"}], "id": "8474100012", "name": "USPS COLLECTION BOX - PO LOBBY", "address": {"city": "KANAB", "state": "UT", "street": "39 S MAIN ST", "postcode": "84741"}}},
{"geometry": {"type": "Point", "coordinates": [-112.5285157717, 37.0474470628]}, "type": "Feature", "properties": {"collection_times": [{"days": "Mon-Fri", "time": "2:50pm"}, {"days": "Sat", "time": "12:30pm"}, {"days": "Sun", "time": "Closed"}], "id": "8474100015", "name": "USPS COLLECTION BOX - PO LOBBY", "address": {"city": "KANAB", "state": "UT", "street": "39 S MAIN ST", "postcode": "84741"}}},
{"geometry": {"type": "Point", "coordinates": [-111.6644560324, 37.0804702403]}, "type": "Feature", "properties": {"collection_times": [{"days": "Mon-Sat", "time": "9:30am"}, {"days": "Sun", "time": "Closed"}], "id": "8474100018", "name": "USPS COLLECTION BOX - BLUE BOX", "address": {"city": "KANAB", "state": "UT", "street": "175 AARON BURR", "postcode": "84741"}}},
{"geometry": {"type": "Point", "coordinates": [-111.8814035113, 38.5102086447]}, "type": "Feature", "properties": {"collection_times": [{"days": "Mon-Fri", "time": "2:30pm"}, {"days": "Sat", "time": "11:00am"}, {"days": "Sun", "time": "Closed"}], "id": "8474400001", "name": "USPS COLLECTION BOX - BLUE BOX", "address": {"city": "KOOSHAREM", "state": "UT", "street": "5 N MAIN ST", "postcode": "84744"}}},
{"geometry": {"type": "Point", "coordinates": [-111.8814035113, 38.5102086447]}, "type": "Feature", "properties": {"collection_times": [{"days": "Mon-Fri", "time": "2:30pm"}, {"days": "Sat", "time": "11:00am"}, {"days": "Sun", "time": "Closed"}], "id": "8474400002", "name": "USPS COLLECTION BOX - PO LOBBY", "address": {"city": "KOOSHAREM", "state": "UT", "street": "5 N MAIN ST", "postcode": "84744"}}},
{"geometry": {"type": "Point", "coordinates": [-113.2722012163, 37.2027876478]}, "type": "Feature", "properties": {"collection_times": [{"days": "Mon-Fri", "time": "2:25pm"}, {"days": "Sat", "time": "12:00pm"}, {"days": "Sun", "time": "Closed"}], "id": "8474500001", "name": "USPS COLLECTION BOX - BLUE BOX", "address": {"city": "LA VERKIN", "state": "UT", "street": "55 N STATE ST", "postcode": "84745"}}},
{"geometry": {"type": "Point", "coordinates": [-113.2722012163, 37.2027876478]}, "type": "Feature", "properties": {"collection_times": [{"days": "Mon-Fri", "time": "2:25pm"}, {"days": "Sat", "time": "12:00pm"}, {"days": "Sun", "time": "Closed"}], "id": "8474500002", "name": "USPS COLLECTION BOX - PO LOBBY", "address": {"city": "LA VERKIN", "state": "UT", "street": "55 N STATE ST", "postcode": "84745"}}},
{"geometry": {"type": "Point", "coordinates": [-113.3518667723, 37.2438698665]}, "type": "Feature", "properties": {"collection_times": [{"days": "Mon-Fri", "time": "1:00pm"}, {"days": "Sat", "time": "12:00pm"}, {"days": "Sun", "time": "Closed"}], "id": "8474600001", "name": "USPS COLLECTION BOX - BLUE BOX", "address": {"city": "HURRICANE", "state": "UT", "street": "545 N MAIN ST STE 5", "postcode": "84746"}}},
{"geometry": {"type": "Point", "coordinates": [-113.3518667723, 37.2438698665]}, "type": "Feature", "properties": {"collection_times": [{"days": "Mon-Fri", "time": "1:00pm"}, {"days": "Sat", "time": "12:00pm"}, {"days": "Sun", "time": "Closed"}], "id": "8474600002", "name": "USPS COLLECTION BOX - PO LOBBY", "address": {"city": "HURRICANE", "state": "UT", "street": "545 N MAIN ST", "postcode": "84746"}}},
{"geometry": {"type": "Point", "coordinates": [-111.6427825785, 38.4022123877]}, "type": "Feature", "properties": {"collection_times": [{"days": "Mon-Fri", "time": "3:00pm"}, {"days": "Sat", "time": "10:30am"}, {"days": "Sun", "time": "Closed"}], "id": "8474700001", "name": "USPS COLLECTION BOX - BLUE BOX", "address": {"city": "LOA", "state": "UT", "street": "12 N MAIN ST", "postcode": "84747"}}},
{"geometry": {"type": "Point", "coordinates": [-111.6427825785, 38.4022123877]}, "type": "Feature", "properties": {"collection_times": [{"days": "Mon-Fri", "time": "3:00pm"}, {"days": "Sat", "time": "10:30am"}, {"days": "Sun", "time": "Closed"}], "id": "8474700002", "name": "USPS COLLECTION BOX - PO LOBBY", "address": {"city": "LOA", "state": "UT", "street": "12 N MAIN ST", "postcode": "84747"}}},
{"geometry": {"type": "Point", "coordinates": [-111.5905114364, 38.3969401152]}, "type": "Feature", "properties": {"collection_times": [{"days": "Mon-Fri", "time": "2:30pm"}, {"days": "Sat", "time": "10:45am"}, {"days": "Sun", "time": "Closed"}], "id": "8474900000", "name": "USPS COLLECTION BOX - BLUE BOX", "address": {"city": "LYMAN", "state": "UT", "street": "115 S MAIN ST", "postcode": "84749"}}},
{"geometry": {"type": "Point", "coordinates": [-111.5905114364, 38.3969401152]}, "type": "Feature", "properties": {"collection_times": [{"days": "Mon-Fri", "time": "2:30pm"}, {"days": "Sat", "time": "10:30am"}, {"days": "Sun", "time": "Closed"}], "id": "8474900001", "name": "USPS COLLECTION BOX - PO LOBBY", "address": {"city": "LYMAN", "state": "UT", "street": "115 S MAIN ST", "postcode": "84749"}}},
{"geometry": {"type": "Point", "coordinates": [-112.2472181601, 38.4350526731]}, "type": "Feature", "properties": {"collection_times": [{"days": "Mon-Fri", "time": "4:00pm"}, {"days": "Sat", "time": "11:15am"}, {"days": "Sun", "time": "Closed"}], "id": "8475000001", "name": "USPS COLLECTION BOX - BLUE BOX", "address": {"city": "MARYSVALE", "state": "UT", "street": "100 W 200 N", "postcode": "84750"}}},
{"geometry": {"type": "Point", "coordinates": [-112.2472181601, 38.4350526731]}, "type": "Feature", "properties": {"collection_times": [{"days": "Mon-Fri", "time": "11:45am"}, {"days": "Sat", "time": "11:00am"}, {"days": "Sun", "time": "Closed"}], "id": "8475000002", "name": "USPS COLLECTION BOX - PO LOBBY", "address": {"city": "MARYSVALE", "state": "UT", "street": "100 W 200 N", "postcode": "84750"}}},
{"geometry": {"type": "Point", "coordinates": [-113.0116690712, 38.3933536449]}, "type": "Feature", "properties": {"collection_times": [{"days": "Mon-Fri", "time": "4:20pm"}, {"days": "Sat", "time": "10:45am"}, {"days": "Sun", "time": "Closed"}], "id": "8475100002", "name": "USPS COLLECTION BOX - PO LOBBY", "address": {"city": "MILFORD", "state": "UT", "street": "458 S MAIN ST", "postcode": "84751"}}},
{"geometry": {"type": "Point", "coordinates": [-112.9240499079, 38.2162687726]}, "type": "Feature", "properties": {"collection_times": [{"days": "Mon-Fri", "time": "4:30pm"}, {"days": "Sat", "time": "12:00pm"}, {"days": "Sun", "time": "Closed"}], "id": "8475200000", "name": "USPS COLLECTION BOX - BLUE BOX", "address": {"city": "MINERSVILLE", "state": "UT", "street": "51 N CENTER ST", "postcode": "84752"}}},
{"geometry": {"type": "Point", "coordinates": [-112.9240499079, 38.2162687726]}, "type": "Feature", "properties": {"collection_times": [{"days": "Mon-Fri", "time": "2:15pm"}, {"days": "Sat", "time": "11:45am"}, {"days": "Sun", "time": "Closed"}], "id": "8475200001", "name": "USPS COLLECTION BOX - PO LOBBY", "address": {"city": "MINERSVILLE", "state": "UT", "street": "51 N CENTER ST", "postcode": "84752"}}},
{"geometry": {"type": "Point", "coordinates": [-112.1213842683, 38.640619874]}, "type": "Feature", "properties": {"collection_times": [{"days": "Mon-Fri", "time": "4:00pm"}, {"days": "Sat", "time": "11:00am"}, {"days": "Sun", "time": "Closed"}], "id": "8475400001", "name": "USPS COLLECTION BOX - BLUE BOX", "address": {"city": "MONROE", "state": "UT", "street": "485 N MAIN ST", "postcode": "84754"}}},
{"geometry": {"type": "Point", "coordinates": [-112.1213842683, 38.640619874]}, "type": "Feature", "properties": {"collection_times": [{"days": "Mon-Fri", "time": "4:00pm"}, {"days": "Sat", "time": "11:00am"}, {"days": "Sun", "time": "Closed"}], "id": "8475400003", "name": "USPS COLLECTION BOX - PO LOBBY", "address": {"city": "MONROE", "state": "UT", "street": "485 N MAIN ST", "postcode": "84754"}}},
{"geometry": {"type": "Point", "coordinates": [-112.7994318294, 37.2107622278]}, "type": "Feature", "properties": {"collection_times": [{"days": "Mon-Fri", "time": "11:45am"}, {"days": "Sat", "time": "11:30am"}, {"days": "Sun", "time": "Closed"}], "id": "8475500000", "name": "USPS COLLECTION BOX - BLUE BOX", "address": {"city": "MOUNT CARMEL", "state": "UT", "street": "3010 S STATE ST", "postcode": "84755"}}},
{"geometry": {"type": "Point", "coordinates": [-112.7994318294, 37.2107622278]}, "type": "Feature", "properties": {"collection_times": [{"days": "Mon-Fri", "time": "11:45am"}, {"days": "Sat", "time": "11:30am"}, {"days": "Sun", "time": "Closed"}], "id": "8475500001", "name": "USPS COLLECTION BOX - PO LOBBY", "address": {"city": "MOUNT CARMEL", "state": "UT", "street": "3010 S STATE ST", "postcode": "84755"}}},
{"geometry": {"type": "Point", "coordinates": [-113.5491638356, 37.6706962557]}, "type": "Feature", "properties": {"collection_times": [{"days": "Mon-Fri", "time": "11:45am"}, {"days": "Sat", "time": "11:30am"}, {"days": "Sun", "time": "Closed"}], "id": "8475600000", "name": "USPS COLLECTION BOX - PO LOBBY", "address": {"city": "NEW CASTLE", "state": "UT", "street": "205 N MAIN ST", "postcode": "84756"}}},
{"geometry": {"type": "Point", "coordinates": [-113.3106746634, 37.4793897912]}, "type": "Feature", "properties": {"collection_times": [{"days": "Mon-Fri", "time": "12:45pm"}, {"days": "Sat", "time": "12:00pm"}, {"days": "Sun", "time": "Closed"}], "id": "8475700000", "name": "USPS COLLECTION BOX - BLUE BOX", "address": {"city": "NEW HARMONY", "state": "UT", "street": "3 E 100 N", "postcode": "84757"}}},
{"geometry": {"type": "Point", "coordinates": [-111.6782460145, 39.3237236756]}, "type": "Feature", "properties": {"collection_times": [{"days": "Mon-Sat", "time": "9:00am"}, {"days": "Sun", "time": "Closed"}], "id": "8475700004", "name": "USPS COLLECTION BOX - BLUE BOX", "address": {"city": "NEW HARMONY", "state": "UT", "street": "3750 E KOLOB CANYON RD", "postcode": "84757"}}},
{"geometry": {"type": "Point", "coordinates": [-112.6267396734, 37.2334663723]}, "type": "Feature", "properties": {"collection_times": [{"days": "Mon-Fri", "time": "3:30pm"}, {"days": "Sat", "time": "11:30am"}, {"days": "Sun", "time": "Closed"}], "id": "8475800000", "name": "USPS COLLECTION BOX - BLUE BOX", "address": {"city": "ORDERVILLE", "state": "UT", "street": "14 W STATE ST", "postcode": "84758"}}},
{"geometry": {"type": "Point", "coordinates": [-112.6267396734, 37.2334663723]}, "type": "Feature", "properties": {"collection_times": [{"days": "Mon-Fri", "time": "11:45am"}, {"days": "Sat", "time": "11:30am"}, {"days": "Sun", "time": "Closed"}], "id": "8475800001", "name": "USPS COLLECTION BOX - PO LOBBY", "address": {"city": "ORDERVILLE", "state": "UT", "street": "14 W STATE ST", "postcode": "84758"}}},
{"geometry": {"type": "Point", "coordinates": [-112.4376583498, 37.8237148424]}, "type": "Feature", "properties": {"collection_times": [{"days": "Mon-Fri", "time": "4:00pm"}, {"days": "Sat", "time": "12:00pm"}, {"days": "Sun", "time": "Closed"}], "id": "8475900001", "name": "USPS COLLECTION BOX - BLUE BOX", "address": {"city": "PANGUITCH", "state": "UT", "street": "65 N 100 W", "postcode": "84759"}}},
{"geometry": {"type": "Point", "coordinates": [-112.4376583498, 37.8237148424]}, "type": "Feature", "properties": {"collection_times": [{"days": "Mon-Fri", "time": "4:45pm"}, {"days": "Sat", "time": "12:00pm"}, {"days": "Sun", "time": "Closed"}], "id": "8475900003", "name": "USPS COLLECTION BOX - PO LOBBY", "address": {"city": "PANGUITCH", "state": "UT", "street": "65 N 100 W", "postcode": "84759"}}},
{"geometry": {"type": "Point", "coordinates": [-112.4376681282, 37.824301977]}, "type": "Feature", "properties": {"collection_times": [{"days": "Mon-Fri", "time": "3:30pm"}, {"days": "Sat", "time": "12:00pm"}, {"days": "Sun", "time": "Closed"}], "id": "8475900004", "name": "USPS COLLECTION BOX - BLUE BOX", "address": {"city": "PANGUITCH", "state": "UT", "street": "26 S MAIN ST", "postcode": "84759"}}},
{"geometry": {"type": "Point", "coordinates": [-112.8276379123, 37.8434939365]}, "type": "Feature", "properties": {"collection_times": [{"days": "Mon-Fri", "time": "2:50pm"}, {"days": "Sat", "time": "1:00pm"}, {"days": "Sun", "time": "Closed"}], "id": "8476000001", "name": "USPS COLLECTION BOX - BLUE BOX", "address": {"city": "PAROWAN", "state": "UT", "street": "50 N 100 W", "postcode": "84760"}}},
{"geometry": {"type": "Point", "coordinates": [-112.8300604058, 37.8410559195]}, "type": "Feature", "properties": {"collection_times": [{"days": "Mon-Fri", "time": "3:00pm"}, {"days": "Sat", "time": "12:00pm"}, {"days": "Sun", "time": "Closed"}], "id": "8476100001", "name": "USPS COLLECTION BOX - BLUE BOX", "address": {"city": "PAROWAN", "state": "UT", "street": "58 S 100 W", "postcode": "84761"}}},
{"geometry": {"type": "Point", "coordinates": [-112.8300604058, 37.8410559195]}, "type": "Feature", "properties": {"collection_times": [{"days": "Mon-Fri", "time": "3:00pm"}, {"days": "Sat", "time": "12:00pm"}, {"days": "Sun", "time": "Closed"}], "id": "8476100002", "name": "USPS COLLECTION BOX - PO LOBBY", "address": {"city": "PAROWAN", "state": "UT", "street": "58 S 100 W", "postcode": "84761"}}},
{"geometry": {"type": "Point", "coordinates": [-112.8350797114, 37.8442090315]}, "type": "Feature", "properties": {"collection_times": [{"days": "Mon-Sat", "time": "10:00am"}, {"days": "Sun", "time": "Closed"}], "id": "8476100003", "name": "USPS COLLECTION BOX - BLUE BOX", "address": {"city": "PAROWAN", "state": "UT", "street": "90 CIRCLE DR", "postcode": "84761"}}},
{"geometry": {"type": "Point", "coordinates": [-112.6561784545, 37.5200064466]}, "type": "Feature", "properties": {"collection_times": [{"days": "Mon-Fri", "time": "11:45am"}, {"days": "Sat-Sun", "time": "Closed"}], "id": "8476200000", "name": "USPS COLLECTION BOX - BLUE BOX", "address": {"city": "DUCK CRK VLG", "state": "UT", "street": "76 MOVIE RANCH RD", "postcode": "84762"}}},
{"geometry": {"type": "Point", "coordinates": [-113.654475856, 37.132153066]}, "type": "Feature", "properties": {"collection_times": [{"days": "Mon-Fri", "time": "3:10pm"}, {"days": "Sat", "time": "12:00pm"}, {"days": "Sun", "time": "Closed"}], "id": "8476500001", "name": "USPS COLLECTION BOX - BLUE BOX", "address": {"city": "SANTA CLARA", "state": "UT", "street": "1400 CHAPEL ST", "postcode": "84765"}}},
{"geometry": {"type": "Point", "coordinates": [-113.654475856, 37.132153066]}, "type": "Feature", "properties": {"collection_times": [{"days": "Mon-Fri", "time": "3:10pm"}, {"days": "Sat", "time": "12:00pm"}, {"days": "Sun", "time": "Closed"}], "id": "8476500003", "name": "USPS COLLECTION BOX - PO LOBBY", "address": {"city": "SANTA CLARA", "state": "UT", "street": "1400 CHAPEL ST", "postcode": "84765"}}},
{"geometry": {"type": "Point", "coordinates": [-113.6499463881, 37.1342394779]}, "type": "Feature", "properties": {"collection_times": [{"days": "Mon-Fri", "time": "12:30pm"}, {"days": "Sat", "time": "12:00pm"}, {"days": "Sun", "time": "Closed"}], "id": "8476500004", "name": "USPS COLLECTION BOX - PO LOBBY", "address": {"city": "SANTA CLARA", "state": "UT", "street": "21 S MAIN ST", "postcode": "84765"}}},
{"geometry": {"type": "Point", "coordinates": [-113.654475856, 37.132153066]}, "type": "Feature", "properties": {"collection_times": [{"days": "Mon-Fri", "time": "3:10pm"}, {"days": "Sat", "time": "12:00pm"}, {"days": "Sun", "time": "Closed"}], "id": "8476500005", "name": "USPS COLLECTION BOX - PO LOBBY", "address": {"city": "SANTA CLARA", "state": "UT", "street": "1400 CHAPEL ST", "postcode": "84765"}}},
{"geometry": {"type": "Point", "coordinates": [-113.654475856, 37.132153066]}, "type": "Feature", "properties": {"collection_times": [{"days": "Mon-Fri", "time": "3:10pm"}, {"days": "Sat", "time": "12:00pm"}, {"days": "Sun", "time": "Closed"}], "id": "8476500006", "name": "USPS COLLECTION BOX - PO LOBBY", "address": {"city": "SANTA CLARA", "state": "UT", "street": "1400 CHAPEL ST", "postcode": "84765"}}},
{"geometry": {"type": "Point", "coordinates": [-112.9947055647, 37.1906946832]}, "type": "Feature", "properties": {"collection_times": [{"days": "Mon-Sat", "time": "1:00pm"}, {"days": "Sun", "time": "Closed"}], "id": "8476700001", "name": "USPS COLLECTION BOX - BLUE BOX", "address": {"city": "SPRINGDALE", "state": "UT", "street": "625 ZION PARK BLVD", "postcode": "84767"}}},
{"geometry": {"type": "Point", "coordinates": [-112.9947055647, 37.1906946832]}, "type": "Feature", "properties": {"collection_times": [{"days": "Mon-Sat", "time": "1:00pm"}, {"days": "Sun", "time": "Closed"}], "id": "8476700002", "name": "USPS COLLECTION BOX - PO LOBBY", "address": {"city": "SPRINGDALE", "state": "UT", "street": "625 ZION PARK BLVD", "postcode": "84767"}}},
{"geometry": {"type": "Point", "coordinates": [-112.9947055647, 37.1906946832]}, "type": "Feature", "properties": {"collection_times": [{"days": "Mon-Sat", "time": "1:00pm"}, {"days": "Sun", "time": "Closed"}], "id": "8476700003", "name": "USPS COLLECTION BOX - PO LOBBY", "address": {"city": "SPRINGDALE", "state": "UT", "street": "625 ZION PARK BLVD", "postcode": "84767"}}},
{"geometry": {"type": "Point", "coordinates": [-113.7663618642, 37.2835335468]}, "type": "Feature", "properties": {"collection_times": [{"days": "Mon-Sat", "time": "3:15pm"}, {"days": "Sun", "time": "Closed"}], "id": "8477000000", "name": "USPS COLLECTION BOX - BLUE BOX", "address": {"city": "ST GEORGE", "state": "UT", "street": "180 N MAIN ST", "postcode": "84770"}}},
{"geometry": {"type": "Point", "coordinates": [-113.7663618642, 37.2835335468]}, "type": "Feature", "properties": {"collection_times": [{"days": "Mon-Sat", "time": "3:15pm"}, {"days": "Sun", "time": "Closed"}], "id": "8477000001", "name": "USPS COLLECTION BOX - BLUE BOX", "address": {"city": "ST GEORGE", "state": "UT", "street": "180 N MAIN ST", "postcode": "84770"}}},
{"geometry": {"type": "Point", "coordinates": [-113.7663618642, 37.2835335468]}, "type": "Feature", "properties": {"collection_times": [{"days": "Mon-Sat", "time": "3:00pm"}, {"days": "Sun", "time": "Closed"}], "id": "8477000005", "name": "USPS COLLECTION BOX - PO LOBBY", "address": {"city": "ST GEORGE", "state": "UT", "street": "180 N MAIN ST", "postcode": "84770"}}},
{"geometry": {"type": "Point", "coordinates": [-113.5748610971, 37.0979660839]}, "type": "Feature", "properties": {"collection_times": [{"days": "Mon-Fri", "time": "2:30pm"}, {"days": "Sat", "time": "2:15pm"}, {"days": "Sun", "time": "Closed"}], "id": "8477000008", "name": "USPS COLLECTION BOX - BLUE BOX", "address": {"city": "ST GEORGE", "state": "UT", "street": "600 S 400 E", "postcode": "84770"}}},
{"geometry": {"type": "Point", "coordinates": [-113.5824392424, 37.1098442961]}, "type": "Feature", "properties": {"collection_times": [{"days": "Mon-Fri", "time": "2:30pm"}, {"days": "Sat", "time": "2:15pm"}, {"days": "Sun", "time": "Closed"}], "id": "8477000016", "name": "USPS COLLECTION BOX - BLUE BOX", "address": {"city": "ST GEORGE", "state": "UT", "street": "40 E SAINT GEORGE BLVD", "postcode": "84770"}}},
{"geometry": {"type": "Point", "coordinates": [-113.6262433811, 37.1233702137]}, "type": "Feature", "properties": {"collection_times": [{"days": "Mon-Fri", "time": "2:30pm"}, {"days": "Sat", "time": "2:15pm"}, {"days": "Sun", "time": "Closed"}], "id": "8477000020", "name": "USPS COLLECTION BOX - BLUE BOX", "address": {"city": "ST GEORGE", "state": "UT", "street": "1930 W SUNSET BLVD", "postcode": "84770"}}},
{"geometry": {"type": "Point", "coordinates": [-113.6029128985, 37.124640454]}, "type": "Feature", "properties": {"collection_times": [{"days": "Mon-Sat", "time": "2:30pm"}, {"days": "Sun", "time": "Closed"}], "id": "8477000022", "name": "USPS COLLECTION BOX - BLUE BOX", "address": {"city": "ST GEORGE", "state": "UT", "street": "929 W SUNSET BLVD", "postcode": "84770"}}},
{"geometry": {"type": "Point", "coordinates": [-113.7663618642, 37.2835335468]}, "type": "Feature", "properties": {"collection_times": [{"days": "Mon-Sat", "time": "3:00pm"}, {"days": "Sun", "time": "Closed"}], "id": "8477000024", "name": "USPS COLLECTION BOX - APC", "address": {"city": "ST GEORGE", "state": "UT", "street": "180 N MAIN ST", "postcode": "84770"}}},
{"geometry": {"type": "Point", "coordinates": [-113.7663618642, 37.2835335468]}, "type": "Feature", "properties": {"collection_times": [{"days": "Mon-Sat", "time": "3:00pm"}, {"days": "Sun", "time": "Closed"}], "id": "8477000025", "name": "USPS COLLECTION BOX - PO LOBBY", "address": {"city": "ST GEORGE", "state": "UT", "street": "180 N MAIN ST", "postcode": "84770"}}},
{"geometry": {"type": "Point", "coordinates": [-113.5697903492, 37.0962166374]}, "type": "Feature", "properties": {"collection_times": [{"days": "Mon-Sat", "time": "11:45am"}, {"days": "Sun", "time": "Closed"}], "id": "8477000026", "name": "USPS COLLECTION BOX - BLUE BOX", "address": {"city": "ST GEORGE", "state": "UT", "street": "640 E 700 S", "postcode": "84770"}}},
{"geometry": {"type": "Point", "coordinates": [-112.8276379123, 37.8434939365]}, "type": "Feature", "properties": {"collection_times": [{"days": "Mon-Fri", "time": "3:15pm"}, {"days": "Sat", "time": "1:00pm"}, {"days": "Sun", "time": "Closed"}], "id": "8477200001", "name": "USPS COLLECTION BOX - BLUE BOX", "address": {"city": "PAROWAN", "state": "UT", "street": "127 E MAIN ST", "postcode": "84772"}}},
{"geometry": {"type": "Point", "coordinates": [-111.4063109218, 38.2179822973]}, "type": "Feature", "properties": {"collection_times": [{"days": "Mon-Fri", "time": "2:00pm"}, {"days": "Sat", "time": "10:30am"}, {"days": "Sun", "time": "Closed"}], "id": "8477300000", "name": "USPS COLLECTION BOX - PO LOBBY", "address": {"city": "TEASDALE", "state": "UT", "street": "17 E RUSTLER ST", "postcode": "84773"}}},
{"geometry": {"type": "Point", "coordinates": [-111.4063109218, 38.2179822973]}, "type": "Feature", "properties": {"collection_times": [{"days": "Mon-Fri", "time": "2:00pm"}, {"days": "Sat", "time": "10:30am"}, {"days": "Sun", "time": "Closed"}], "id": "8477300001", "name": "USPS COLLECTION BOX - BLUE BOX", "address": {"city": "TEASDALE", "state": "UT", "street": "17 E RUSTLER ST", "postcode": "84773"}}},
{"geometry": {"type": "Point", "coordinates": [-113.2847520986, 37.2529765921]}, "type": "Feature", "properties": {"collection_times": [{"days": "Mon-Fri", "time": "2:15pm"}, {"days": "Sat", "time": "11:45am"}, {"days": "Sun", "time": "Closed"}], "id": "8477400000", "name": "USPS COLLECTION BOX - BLUE BOX", "address": {"city": "TOQUERVILLE", "state": "UT", "street": "39 S TOQUER BLVD", "postcode": "84774"}}},
{"geometry": {"type": "Point", "coordinates": [-113.2847520986, 37.2529765921]}, "type": "Feature", "properties": {"collection_times": [{"days": "Mon-Fri", "time": "2:15pm"}, {"days": "Sat", "time": "11:45am"}, {"days": "Sun", "time": "Closed"}], "id": "8477400001", "name": "USPS COLLECTION BOX - PO LOBBY", "address": {"city": "TOQUERVILLE", "state": "UT", "street": "39 S TOQUER BLVD", "postcode": "84774"}}},
{"geometry": {"type": "Point", "coordinates": [-111.4153882693, 38.3024611881]}, "type": "Feature", "properties": {"collection_times": [{"days": "Mon-Fri", "time": "1:30pm"}, {"days": "Sat", "time": "11:00am"}, {"days": "Sun", "time": "Closed"}], "id": "8477500000", "name": "USPS COLLECTION BOX - PO LOBBY", "address": {"city": "TORREY", "state": "UT", "street": "43 W MAIN ST", "postcode": "84775"}}},
{"geometry": {"type": "Point", "coordinates": [-112.0855356673, 37.6239179848]}, "type": "Feature", "properties": {"collection_times": [{"days": "Mon-Fri", "time": "2:45pm"}, {"days": "Sat", "time": "11:30am"}, {"days": "Sun", "time": "Closed"}], "id": "8477600002", "name": "USPS COLLECTION BOX - PO LOBBY", "address": {"city": "TROPIC", "state": "UT", "street": "31 N STATE HIGHWAY 12", "postcode": "84776"}}},
{"geometry": {"type": "Point", "coordinates": [-112.0855356673, 37.6239179848]}, "type": "Feature", "properties": {"collection_times": [{"days": "Mon-Fri", "time": "3:25pm"}, {"days": "Sat", "time": "11:30am"}, {"days": "Sun", "time": "Closed"}], "id": "8477600003", "name": "USPS COLLECTION BOX - BLUE BOX", "address": {"city": "TROPIC", "state": "UT", "street": "31 N STATE HIGHWAY 12", "postcode": "84776"}}},
{"geometry": {"type": "Point", "coordinates": [-113.5103340711, 37.1301909919]}, "type": "Feature", "properties": {"collection_times": [{"days": "Mon-Fri", "time": "3:00pm"}, {"days": "Sat", "time": "12:00pm"}, {"days": "Sun", "time": "Closed"}], "id": "8478000003", "name": "USPS COLLECTION BOX - BLUE BOX", "address": {"city": "WASHINGTON", "state": "UT", "street": "25 W TELEGRAPH ST", "postcode": "84780"}}},
{"geometry": {"type": "Point", "coordinates": [-113.5103340711, 37.1301909919]}, "type": "Feature", "properties": {"collection_times": [{"days": "Mon-Fri", "time": "3:00pm"}, {"days": "Sat", "time": "12:00pm"}, {"days": "Sun", "time": "Closed"}], "id": "8478000004", "name": "USPS COLLECTION BOX - BLUE BOX", "address": {"city": "WASHINGTON", "state": "UT", "street": "25 W TELEGRAPH ST", "postcode": "84780"}}},
{"geometry": {"type": "Point", "coordinates": [-113.5103340711, 37.1301909919]}, "type": "Feature", "properties": {"collection_times": [{"days": "Mon-Fri", "time": "3:00pm"}, {"days": "Sat", "time": "12:00pm"}, {"days": "Sun", "time": "Closed"}], "id": "8478000006", "name": "USPS COLLECTION BOX - PO LOBBY", "address": {"city": "WASHINGTON", "state": "UT", "street": "25 W TELEGRAPH ST", "postcode": "84780"}}},
{"geometry": {"type": "Point", "coordinates": [-113.5103340711, 37.1301909919]}, "type": "Feature", "properties": {"collection_times": [{"days": "Mon-Fri", "time": "3:00pm"}, {"days": "Sat", "time": "12:00pm"}, {"days": "Sun", "time": "Closed"}], "id": "8478000009", "name": "USPS COLLECTION BOX - PO LOBBY", "address": {"city": "WASHINGTON", "state": "UT", "street": "25 W TELEGRAPH ST", "postcode": "84780"}}},
{"geometry": {"type": "Point", "coordinates": [-113.5589448657, 37.0886992036]}, "type": "Feature", "properties": {"collection_times": [{"days": "Mon-Sat", "time": "3:40pm"}, {"days": "Sun", "time": "Closed"}], "id": "8479000001", "name": "USPS COLLECTION BOX - BLUE BOX", "address": {"city": "ST GEORGE", "state": "UT", "street": "1150 E RIVERSIDE DR", "postcode": "84790"}}},
{"geometry": {"type": "Point", "coordinates": [-113.5589448657, 37.0886992036]}, "type": "Feature", "properties": {"collection_times": [{"days": "Mon-Sat", "time": "3:40pm"}, {"days": "Sun", "time": "Closed"}], "id": "8479000002", "name": "USPS COLLECTION BOX - BLUE BOX", "address": {"city": "ST GEORGE", "state": "UT", "street": "1150 E RIVERSIDE DR", "postcode": "84790"}}},
{"geometry": {"type": "Point", "coordinates": [-113.5589448657, 37.0886992036]}, "type": "Feature", "properties": {"collection_times": [{"days": "Mon-Sat", "time": "3:40pm"}, {"days": "Sun", "time": "Closed"}], "id": "8479000004", "name": "USPS COLLECTION BOX - PO LOBBY", "address": {"city": "ST GEORGE", "state": "UT", "street": "1150 E RIVERSIDE DR", "postcode": "84790"}}},
{"geometry": {"type": "Point", "coordinates": [-113.5459145655, 37.1178782619]}, "type": "Feature", "properties": {"collection_times": [{"days": "Mon-Fri", "time": "3:15pm"}, {"days": "Sat", "time": "3:00pm"}, {"days": "Sun", "time": "Closed"}], "id": "8479000005", "name": "USPS COLLECTION BOX - BLUE BOX", "address": {"city": "ST GEORGE", "state": "UT", "street": "1750 RED CLIFFS DR", "postcode": "84790"}}},
{"geometry": {"type": "Point", "coordinates": [-113.5430468729, 37.113881547]}, "type": "Feature", "properties": {"collection_times": [{"days": "Mon-Fri", "time": "3:15pm"}, {"days": "Sat", "time": "3:00pm"}, {"days": "Sun", "time": "Closed"}], "id": "8479000006", "name": "USPS COLLECTION BOX - BLUE BOX", "address": {"city": "ST GEORGE", "state": "UT", "street": "321 N MALL DR", "postcode": "84790"}}},
{"geometry": {"type": "Point", "coordinates": [-113.5569303815, 37.1063544513]}, "type": "Feature", "properties": {"collection_times": [{"days": "Mon-Fri", "time": "2:30pm"}, {"days": "Sat", "time": "3:00pm"}, {"days": "Sun", "time": "Closed"}], "id": "8479000008", "name": "USPS COLLECTION BOX - BLUE BOX", "address": {"city": "ST GEORGE", "state": "UT", "street": "1240 E 100 S", "postcode": "84790"}}},
{"geometry": {"type": "Point", "coordinates": [-113.5860432368, 37.0604190559]}, "type": "Feature", "properties": {"collection_times": [{"days": "Mon-Sat", "time": "3:00pm"}, {"days": "Sun", "time": "Closed"}], "id": "8479000015", "name": "USPS COLLECTION BOX - BLUE BOX", "address": {"city": "ST GEORGE", "state": "UT", "street": "144 W BRIGHAM RD", "postcode": "84790"}}},
{"geometry": {"type": "Point", "coordinates": [-113.5750118255, 37.0833052229]}, "type": "Feature", "properties": {"collection_times": [{"days": "Mon-Sat", "time": "2:45pm"}, {"days": "Sun", "time": "Closed"}], "id": "8479000016", "name": "USPS COLLECTION BOX - BLUE BOX", "address": {"city": "ST GEORGE", "state": "UT", "street": "368 E RIVERSIDE DR", "postcode": "84790"}}},
{"geometry": {"type": "Point", "coordinates": [-113.5571476031, 37.0958175892]}, "type": "Feature", "properties": {"collection_times": [{"days": "Mon-Sat", "time": "3:15pm"}, {"days": "Sun", "time": "Closed"}], "id": "8479000017", "name": "USPS COLLECTION BOX - BLUE BOX", "address": {"city": "ST GEORGE", "state": "UT", "street": "720 S RIVER RD", "postcode": "84790"}}},
{"geometry": {"type": "Point", "coordinates": [-113.5643257038, 37.095607604]}, "type": "Feature", "properties": {"collection_times": [{"days": "Mon-Sat", "time": "2:45pm"}, {"days": "Sun", "time": "Closed"}], "id": "8479000020", "name": "USPS COLLECTION BOX - BLUE BOX", "address": {"city": "ST GEORGE", "state": "UT", "street": "736 S 900 E", "postcode": "84790"}}},
{"geometry": {"type": "Point", "coordinates": [-113.5589448657, 37.0886992036]}, "type": "Feature", "properties": {"collection_times": [{"days": "Mon-Sat", "time": "3:40pm"}, {"days": "Sun", "time": "Closed"}], "id": "8479000022", "name": "USPS COLLECTION BOX - APC", "address": {"city": "ST GEORGE", "state": "UT", "street": "1150 E RIVERSIDE DR", "postcode": "84790"}}},
{"geometry": {"type": "Point", "coordinates": [-113.5521283644, 37.0412694888]}, "type": "Feature", "properties": {"collection_times": [{"days": "Mon-Sat", "time": "11:00am"}, {"days": "Sun", "time": "Closed"}], "id": "8479000023", "name": "USPS COLLECTION BOX - BLUE BOX", "address": {"city": "ST GEORGE", "state": "UT", "street": "1540 E 3950 S", "postcode": "84790"}}},
{"geometry": {"type": "Point", "coordinates": [-113.5860432368, 37.0604190559]}, "type": "Feature", "properties": {"collection_times": [{"days": "Mon-Sat", "time": "3:00pm"}, {"days": "Sun", "time": "Closed"}], "id": "8479000024", "name": "USPS COLLECTION BOX - BLUE BOX", "address": {"city": "ST GEORGE", "state": "UT", "street": "144 W BRIGHAM RD", "postcode": "84790"}}},
{"geometry": {"type": "Point", "coordinates": [-113.5589448657, 37.0886992036]}, "type": "Feature", "properties": {"collection_times": [{"days": "Mon-Sat", "time": "3:40pm"}, {"days": "Sun", "time": "Closed"}], "id": "8479000025", "name": "USPS COLLECTION BOX - PO LOBBY", "address": {"city": "ST GEORGE", "state": "UT", "street": "1150 E RIVERSIDE DR", "postcode": "84790"}}},
{"geometry": {"type": "Point", "coordinates": [-113.5589448657, 37.0886992036]}, "type": "Feature", "properties": {"collection_times": [{"days": "Mon-Sat", "time": "3:40pm"}, {"days": "Sun", "time": "Closed"}], "id": "8479000026", "name": "USPS COLLECTION BOX - PO LOBBY", "address": {"city": "ST GEORGE", "state": "UT", "street": "1150 E RIVERSIDE DR", "postcode": "84790"}}}
]}
