{"type": "FeatureCollection", "features": [
{"geometry": {"type": "Point", "coordinates": [-94.6414591982, 41.5007148711]}, "type": "Feature", "properties": {"collection_times": [{"days": "Mon-Fri", "time": "4:00pm"}, {"days": "Sat-Sun", "time": "Closed"}], "id": "5000200002", "name": "USPS COLLECTION BOX - PO LOBBY", "address": {"city": "ADAIR", "state": "IA", "street": "317 AUDUBON ST", "postcode": "50002"}}},
{"geometry": {"type": "Point", "coordinates": [-94.6414591982, 41.5007148711]}, "type": "Feature", "properties": {"collection_times": [{"days": "Mon-Fri", "time": "4:00pm"}, {"days": "Sat", "time": "4:30pm"}, {"days": "Sun", "time": "Closed"}], "id": "5000200003", "name": "USPS COLLECTION BOX - BLUE BOX", "address": {"city": "ADAIR", "state": "IA", "street": "317 AUDUBON ST", "postcode": "50002"}}},
{"geometry": {"type": "Point", "coordinates": [-94.015219664, 41.6078541567]}, "type": "Feature", "properties": {"collection_times": [{"days": "Mon-Fri", "time": "5:00pm"}, {"days": "Sat", "time": "11:00am"}, {"days": "Sun", "time": "Closed"}], "id": "5000300002", "name": "USPS COLLECTION BOX - BLUE BOX", "address": {"city": "ADEL", "state": "IA", "street": "904 NILE KINNICK DR S", "postcode": "50003"}}},
{"geometry": {"type": "Point", "coordinates": [-94.015219664, 41.6078541567]}, "type": "Feature", "properties": {"collection_times": [{"days": "Mon-Fri", "time": "5:00pm"}, {"days": "Sat", "time": "11:00am"}, {"days": "Sun", "time": "Closed"}], "id": "5000300004", "name": "USPS COLLECTION BOX - BLUE BOX", "address": {"city": "ADEL", "state": "IA", "street": "904 NILE KINNICK DR S", "postcode": "50003"}}},
{"geometry": {"type": "Point", "coordinates": [-94.015219664, 41.6078541567]}, "type": "Feature", "properties": {"collection_times": [{"days": "Mon-Fri", "time": "4:30pm"}, {"days": "Sat", "time": "11:00am"}, {"days": "Sun", "time": "Closed"}], "id": "5000300006", "name": "USPS COLLECTION BOX - PO LOBBY", "address": {"city": "ADEL", "state": "IA", "street": "904 NILE KINNICK DR S", "postcode": "50003"}}},
{"geometry": {"type": "Point", "coordinates": [-94.0200332852, 41.6174050228]}, "type": "Feature", "properties": {"collection_times": [{"days": "Mon-Fri", "time": "12:00pm"}, {"days": "Sat-Sun", "time": "Closed"}], "id": "5000300008", "name": "USPS COLLECTION BOX - BLUE BOX", "address": {"city": "ADEL", "state": "IA", "street": "108 N 10TH ST", "postcode": "50003"}}},
{"geometry": {"type": "Point", "coordinates": [-92.9900966753, 42.1113086595]}, "type": "Feature", "properties": {"collection_times": [{"days": "Mon-Sat", "time": "4:00pm"}, {"days": "Sun", "time": "Closed"}], "id": "5000500001", "name": "USPS COLLECTION BOX - BLUE BOX", "address": {"city": "ALBION", "state": "IA", "street": "103 W BROWN ST", "postcode": "50005"}}},
{"geometry": {"type": "Point", "coordinates": [-92.9900966753, 42.1113086595]}, "type": "Feature", "properties": {"collection_times": [{"days": "Mon-Fri", "time": "10:45am"}, {"days": "Sat-Sun", "time": "Closed"}], "id": "5000500002", "name": "USPS COLLECTION BOX - PO LOBBY", "address": {"city": "ALBION", "state": "IA", "street": "103 W BROWN ST", "postcode": "50005"}}},
{"geometry": {"type": "Point", "coordinates": [-93.3764938891, 42.5204836702]}, "type": "Feature", "properties": {"collection_times": [{"days": "Mon-Sat", "time": "4:15pm"}, {"days": "Sun", "time": "Closed"}], "id": "5000600001", "name": "USPS COLLECTION BOX - BLUE BOX", "address": {"city": "ALDEN", "state": "IA", "street": "1223 WATER ST", "postcode": "50006"}}},
{"geometry": {"type": "Point", "coordinates": [-93.3764938891, 42.5204836702]}, "type": "Feature", "properties": {"collection_times": [{"days": "Mon-Fri", "time": "4:00pm"}, {"days": "Sat", "time": "10:15am"}, {"days": "Sun", "time": "Closed"}], "id": "5000600002", "name": "USPS COLLECTION BOX - PO LOBBY", "address": {"city": "ALDEN", "state": "IA", "street": "1223 WATER ST", "postcode": "50006"}}},
{"geometry": {"type": "Point", "coordinates": [-93.6105736491, 41.8200510764]}, "type": "Feature", "properties": {"collection_times": [{"days": "Mon-Sat", "time": "3:45pm"}, {"days": "Sun", "time": "Closed"}], "id": "5000700001", "name": "USPS COLLECTION BOX - BLUE BOX", "address": {"city": "ALLEMAN", "state": "IA", "street": "14172 NE 6TH ST", "postcode": "50007"}}},
{"geometry": {"type": "Point", "coordinates": [-93.6105736491, 41.8200510764]}, "type": "Feature", "properties": {"collection_times": [{"days": "Mon-Fri", "time": "3:30pm"}, {"days": "Sat", "time": "1:15pm"}, {"days": "Sun", "time": "Closed"}], "id": "5000700002", "name": "USPS COLLECTION BOX - PO LOBBY", "address": {"city": "ALLEMAN", "state": "IA", "street": "14172 NE 6TH ST", "postcode": "50007"}}},
{"geometry": {"type": "Point", "coordinates": [-93.3650854632, 40.7066912659]}, "type": "Feature", "properties": {"collection_times": [{"days": "Mon-Sat", "time": "4:00pm"}, {"days": "Sun", "time": "Closed"}], "id": "5000800001", "name": "USPS COLLECTION BOX - BLUE BOX", "address": {"city": "ALLERTON", "state": "IA", "street": "108 N CENTRAL AVE", "postcode": "50008"}}},
{"geometry": {"type": "Point", "coordinates": [-93.3650854632, 40.7066912659]}, "type": "Feature", "properties": {"collection_times": [{"days": "Mon-Fri", "time": "11:45am"}, {"days": "Sat-Sun", "time": "Closed"}], "id": "5000800002", "name": "USPS COLLECTION BOX - PO LOBBY", "address": {"city": "ALLERTON", "state": "IA", "street": "108 N CENTRAL AVE", "postcode": "50008"}}},
{"geometry": {"type": "Point", "coordinates": [-93.4647363009, 41.6439863698]}, "type": "Feature", "properties": {"collection_times": [{"days": "Mon-Sat", "time": "2:30pm"}, {"days": "Sun", "time": "Closed"}], "id": "5000900007", "name": "USPS COLLECTION BOX - BLUE BOX", "address": {"city": "ALTOONA", "state": "IA", "street": "108 8TH ST SW", "postcode": "50009"}}},
{"geometry": {"type": "Point", "coordinates": [-93.4617582286, 41.6440501353]}, "type": "Feature", "properties": {"collection_times": [{"days": "Mon-Fri", "time": "5:00pm"}, {"days": "Sat", "time": "4:00pm"}, {"days": "Sun", "time": "Closed"}], "id": "5000900014", "name": "USPS COLLECTION BOX - BLUE BOX", "address": {"city": "ALTOONA", "state": "IA", "street": "300 8TH ST SE", "postcode": "50009"}}},
{"geometry": {"type": "Point", "coordinates": [-93.4617706446, 41.6440231314]}, "type": "Feature", "properties": {"collection_times": [{"days": "Mon-Fri", "time": "5:00pm"}, {"days": "Sat", "time": "4:00pm"}, {"days": "Sun", "time": "Closed"}], "id": "5000900021", "name": "USPS COLLECTION BOX - BLUE BOX", "address": {"city": "ALTOONA", "state": "IA", "street": "300 8TH ST SE", "postcode": "50009"}}},
{"geometry": {"type": "Point", "coordinates": [-93.4978201201, 41.6585930795]}, "type": "Feature", "properties": {"collection_times": [{"days": "Mon-Fri", "time": "3:45pm"}, {"days": "Sat", "time": "3:15pm"}, {"days": "Sun", "time": "Closed"}], "id": "5000900023", "name": "USPS COLLECTION BOX - BLUE BOX", "address": {"city": "ALTOONA", "state": "IA", "street": "3231 ADVENTURELAND DR", "postcode": "50009"}}},
{"geometry": {"type": "Point", "coordinates": [-93.4835168499, 41.6580989731]}, "type": "Feature", "properties": {"collection_times": [{"days": "Mon-Fri", "time": "3:45pm"}, {"days": "Sat", "time": "3:15pm"}, {"days": "Sun", "time": "Closed"}], "id": "5000900024", "name": "USPS COLLECTION BOX - BLUE BOX", "address": {"city": "ALTOONA", "state": "IA", "street": "617 17TH AVE NW", "postcode": "50009"}}},
{"geometry": {"type": "Point", "coordinates": [-93.4617582285, 41.6440501355]}, "type": "Feature", "properties": {"collection_times": [{"days": "Mon-Fri", "time": "5:00pm"}, {"days": "Sat", "time": "12:00pm"}, {"days": "Sun", "time": "Closed"}], "id": "5000900027", "name": "USPS COLLECTION BOX - PO LOBBY", "address": {"city": "ALTOONA", "state": "IA", "street": "300 8TH ST SE", "postcode": "50009"}}},
{"geometry": {"type": "Point", "coordinates": [-93.4768141639, 41.6593984136]}, "type": "Feature", "properties": {"collection_times": [{"days": "Mon-Fri", "time": "3:45pm"}, {"days": "Sat", "time": "3:15pm"}, {"days": "Sun", "time": "Closed"}], "id": "5000900028", "name": "USPS COLLECTION BOX - BLUE BOX", "address": {"city": "ALTOONA", "state": "IA", "street": "955 10TH AVE NW", "postcode": "50009"}}},
{"geometry": {"type": "Point", "coordinates": [-93.4647363009, 41.6439863698]}, "type": "Feature", "properties": {"collection_times": [{"days": "Mon-Fri", "time": "4:00pm"}, {"days": "Sat", "time": "3:30pm"}, {"days": "Sun", "time": "Closed"}], "id": "5000900031", "name": "USPS COLLECTION BOX - BLUE BOX", "address": {"city": "ALTOONA", "state": "IA", "street": "108 8TH ST SW", "postcode": "50009"}}},
{"geometry": {"type": "Point", "coordinates": [-93.5048025563, 41.6441932736]}, "type": "Feature", "properties": {"collection_times": [{"days": "Mon-Fri", "time": "3:30pm"}, {"days": "Sat", "time": "3:00pm"}, {"days": "Sun", "time": "Closed"}], "id": "5000900032", "name": "USPS COLLECTION BOX - BLUE BOX", "address": {"city": "ALTOONA", "state": "IA", "street": "3501 8TH ST SW", "postcode": "50009"}}},
{"geometry": {"type": "Point", "coordinates": [-93.6444229565, 41.9984174062]}, "type": "Feature", "properties": {"collection_times": [{"days": "Mon-Sat", "time": "10:00am"}, {"days": "Sun", "time": "Closed"}], "id": "5001000004", "name": "USPS COLLECTION BOX - BLUE BOX", "address": {"city": "AMES", "state": "IA", "street": "2701 GREEN HILLS DR", "postcode": "50010"}}},
{"geometry": {"type": "Point", "coordinates": [-93.6434513931, 42.0156098684]}, "type": "Feature", "properties": {"collection_times": [{"days": "Mon-Sat", "time": "1:00pm"}, {"days": "Sun", "time": "Closed"}], "id": "5001000007", "name": "USPS COLLECTION BOX - BLUE BOX", "address": {"city": "AMES", "state": "IA", "street": "2160 COUNTRY CLUB BLVD", "postcode": "50010"}}},
{"geometry": {"type": "Point", "coordinates": [-93.6161471036, 42.0321226184]}, "type": "Feature", "properties": {"collection_times": [{"days": "Mon-Fri", "time": "5:30pm"}, {"days": "Sat", "time": "4:45pm"}, {"days": "Sun", "time": "Closed"}], "id": "5001000010", "name": "USPS COLLECTION BOX - BLUE BOX", "address": {"city": "AMES", "state": "IA", "street": "619 BURNETT AVE", "postcode": "50010"}}},
{"geometry": {"type": "Point", "coordinates": [-93.6463848133, 42.0223483775]}, "type": "Feature", "properties": {"collection_times": [{"days": "Mon-Fri", "time": "1:00pm"}, {"days": "Sat-Sun", "time": "Closed"}], "id": "5001000020", "name": "USPS COLLECTION BOX - BLUE BOX", "address": {"city": "AMES", "state": "IA", "street": "110 LYNN AVE", "postcode": "50010"}}},
{"geometry": {"type": "Point", "coordinates": [-93.5895389944, 42.0316008589]}, "type": "Feature", "properties": {"collection_times": [{"days": "Mon-Fri", "time": "3:00pm"}, {"days": "Sat", "time": "2:00pm"}, {"days": "Sun", "time": "Closed"}], "id": "5001000022", "name": "USPS COLLECTION BOX - BLUE BOX", "address": {"city": "AMES", "state": "IA", "street": "2255 KILDEE HALL", "postcode": "50010"}}},
{"geometry": {"type": "Point", "coordinates": [-93.6163993207, 42.0072202748]}, "type": "Feature", "properties": {"collection_times": [{"days": "Mon-Fri", "time": "3:30pm"}, {"days": "Sat", "time": "1:00pm"}, {"days": "Sun", "time": "Closed"}], "id": "5001000031", "name": "USPS COLLECTION BOX - BLUE BOX", "address": {"city": "AMES", "state": "IA", "street": "1615 GOLDEN ASPEN DR", "postcode": "50010"}}},
{"geometry": {"type": "Point", "coordinates": [-93.6700977498, 42.0227820032]}, "type": "Feature", "properties": {"collection_times": [{"days": "Mon-Sat", "time": "4:00pm"}, {"days": "Sun", "time": "Closed"}], "id": "5001000033", "name": "USPS COLLECTION BOX - BLUE BOX", "address": {"city": "AMES", "state": "IA", "street": "3800 LINCOLN WAY", "postcode": "50010"}}},
{"geometry": {"type": "Point", "coordinates": [-93.6106569778, 42.0330392338]}, "type": "Feature", "properties": {"collection_times": [{"days": "Mon-Fri", "time": "4:00pm"}, {"days": "Sat-Sun", "time": "Closed"}], "id": "5001000034", "name": "USPS COLLECTION BOX - BLUE BOX", "address": {"city": "AMES", "state": "IA", "street": "1111 DUFF AVE", "postcode": "50010"}}},
{"geometry": {"type": "Point", "coordinates": [-93.6207211637, 42.0494208982]}, "type": "Feature", "properties": {"collection_times": [{"days": "Mon-Fri", "time": "2:00pm"}, {"days": "Sat-Sun", "time": "Closed"}], "id": "5001000036", "name": "USPS COLLECTION BOX - BLUE BOX", "address": {"city": "AMES", "state": "IA", "street": "2801 GRAND AVE", "postcode": "50010"}}},
{"geometry": {"type": "Point", "coordinates": [-93.6189893652, 42.0457916224]}, "type": "Feature", "properties": {"collection_times": [{"days": "Mon-Sat", "time": "4:00pm"}, {"days": "Sun", "time": "Closed"}], "id": "5001000038", "name": "USPS COLLECTION BOX - BLUE BOX", "address": {"city": "AMES", "state": "IA", "street": "615 24TH ST", "postcode": "50010"}}},
{"geometry": {"type": "Point", "coordinates": [-93.6206576323, 42.05207032]}, "type": "Feature", "properties": {"collection_times": [{"days": "Mon-Sat", "time": "3:00pm"}, {"days": "Sun", "time": "Closed"}], "id": "5001000039", "name": "USPS COLLECTION BOX - BLUE BOX", "address": {"city": "AMES", "state": "IA", "street": "3015 GRAND AVE", "postcode": "50010"}}},
{"geometry": {"type": "Point", "coordinates": [-93.6396233981, 42.0015519145]}, "type": "Feature", "properties": {"collection_times": [{"days": "Mon-Fri", "time": "3:30pm"}, {"days": "Sat-Sun", "time": "Closed"}], "id": "5001000042", "name": "USPS COLLECTION BOX - BLUE BOX", "address": {"city": "AMES", "state": "IA", "street": "2521 UNIVERSITY BLVD", "postcode": "50010"}}},
{"geometry": {"type": "Point", "coordinates": [-93.6161471036, 42.0321226184]}, "type": "Feature", "properties": {"collection_times": [{"days": "Mon-Fri", "time": "5:30pm"}, {"days": "Sat", "time": "4:45pm"}, {"days": "Sun", "time": "Closed"}], "id": "5001000046", "name": "USPS COLLECTION BOX - BLUE BOX", "address": {"city": "AMES", "state": "IA", "street": "619 BURNETT AVE", "postcode": "50010"}}},
{"geometry": {"type": "Point", "coordinates": [-93.6254080902, 42.0082395963]}, "type": "Feature", "properties": {"collection_times": [{"days": "Mon-Sat", "time": "1:00pm"}, {"days": "Sun", "time": "Closed"}], "id": "5001000050", "name": "USPS COLLECTION BOX - BLUE BOX", "address": {"city": "AMES", "state": "IA", "street": "111 MULBERRY BLVD", "postcode": "50010"}}},
{"geometry": {"type": "Point", "coordinates": [-93.6487240638, 42.0214022452]}, "type": "Feature", "properties": {"collection_times": [{"days": "Mon-Fri", "time": "1:30pm"}, {"days": "Sat-Sun", "time": "Closed"}], "id": "5001000055", "name": "USPS COLLECTION BOX - BLUE BOX", "address": {"city": "AMES", "state": "IA", "street": "2410 CHAMBERLAIN ST", "postcode": "50010"}}},
{"geometry": {"type": "Point", "coordinates": [-93.6485968909, 42.0477993388]}, "type": "Feature", "properties": {"collection_times": [{"days": "Mon-Sat", "time": "11:00am"}, {"days": "Sun", "time": "Closed"}], "id": "5001000057", "name": "USPS COLLECTION BOX - BLUE BOX", "address": {"city": "AMES", "state": "IA", "street": "2900 NORTHRIDGE PKWY", "postcode": "50010"}}},
{"geometry": {"type": "Point", "coordinates": [-93.6700977498, 42.0227820032]}, "type": "Feature", "properties": {"collection_times": [{"days": "Mon-Sat", "time": "4:00pm"}, {"days": "Sun", "time": "Closed"}], "id": "5001000060", "name": "USPS COLLECTION BOX - BLUE BOX", "address": {"city": "AMES", "state": "IA", "street": "3800 LINCOLN WAY", "postcode": "50010"}}},
{"geometry": {"type": "Point", "coordinates": [-93.6189893652, 42.0457916224]}, "type": "Feature", "properties": {"collection_times": [{"days": "Mon-Sat", "time": "4:00pm"}, {"days": "Sun", "time": "Closed"}], "id": "5001000062", "name": "USPS COLLECTION BOX - BLUE BOX", "address": {"city": "AMES", "state": "IA", "street": "615 24TH ST", "postcode": "50010"}}},
{"geometry": {"type": "Point", "coordinates": [-93.5895389944, 42.0316008589]}, "type": "Feature", "properties": {"collection_times": [{"days": "Mon-Fri", "time": "3:30pm"}, {"days": "Sat", "time": "1:00pm"}, {"days": "Sun", "time": "Closed"}], "id": "5001000063", "name": "USPS COLLECTION BOX - BLUE BOX", "address": {"city": "AMES", "state": "IA", "street": "1407 BUCKEYE AVE", "postcode": "50010"}}},
{"geometry": {"type": "Point", "coordinates": [-93.6161471036, 42.0321226184]}, "type": "Feature", "properties": {"collection_times": [{"days": "Mon-Fri", "time": "5:30pm"}, {"days": "Sat", "time": "4:45pm"}, {"days": "Sun", "time": "Closed"}], "id": "5001000065", "name": "USPS COLLECTION BOX - BLUE BOX", "address": {"city": "AMES", "state": "IA", "street": "619 BURNETT AVE", "postcode": "50010"}}},
{"geometry": {"type": "Point", "coordinates": [-93.6161471036, 42.0321226184]}, "type": "Feature", "properties": {"collection_times": [{"days": "Mon-Fri", "time": "5:30pm"}, {"days": "Sat", "time": "4:45pm"}, {"days": "Sun", "time": "Closed"}], "id": "5001000070", "name": "USPS COLLECTION BOX - BLUE BOX", "address": {"city": "AMES", "state": "IA", "street": "619 BURNETT AVE", "postcode": "50010"}}},
{"geometry": {"type": "Point", "coordinates": [-93.6500481728, 42.0213206753]}, "type": "Feature", "properties": {"collection_times": [{"days": "Mon-Fri", "time": "5:00pm"}, {"days": "Sat", "time": "3:00pm"}, {"days": "Sun", "time": "Closed"}], "id": "5001000073", "name": "USPS COLLECTION BOX - BLUE BOX", "address": {"city": "AMES", "state": "IA", "street": "210 WELCH AVE", "postcode": "50010"}}},
{"geometry": {"type": "Point", "coordinates": [-93.5895389944, 42.0316008589]}, "type": "Feature", "properties": {"collection_times": [{"days": "Mon-Fri", "time": "4:30pm"}, {"days": "Sat", "time": "2:00pm"}, {"days": "Sun", "time": "Closed"}], "id": "5001000076", "name": "USPS COLLECTION BOX - BLUE BOX", "address": {"city": "AMES", "state": "IA", "street": "1920 E LINCOLN WAY", "postcode": "50010"}}},
{"geometry": {"type": "Point", "coordinates": [-93.6131275005, 42.0011786142]}, "type": "Feature", "properties": {"collection_times": [{"days": "Mon-Fri", "time": "3:30pm"}, {"days": "Sat", "time": "1:00pm"}, {"days": "Sun", "time": "Closed"}], "id": "5001000083", "name": "USPS COLLECTION BOX - BLUE BOX", "address": {"city": "AMES", "state": "IA", "street": "305 AIRPORT RD", "postcode": "50010"}}},
{"geometry": {"type": "Point", "coordinates": [-93.6373500579, 41.9997112021]}, "type": "Feature", "properties": {"collection_times": [{"days": "Mon-Fri", "time": "3:30pm"}, {"days": "Sat-Sun", "time": "Closed"}], "id": "5001000085", "name": "USPS COLLECTION BOX - BLUE BOX", "address": {"city": "AMES", "state": "IA", "street": "2501 N LOOP DR", "postcode": "50010"}}},
{"geometry": {"type": "Point", "coordinates": [-93.6137968593, 42.0261618762]}, "type": "Feature", "properties": {"collection_times": [{"days": "Mon-Sat", "time": "5:30pm"}, {"days": "Sun", "time": "Closed"}], "id": "5001000088", "name": "USPS COLLECTION BOX - PO LOBBY", "address": {"city": "AMES", "state": "IA", "street": "525 KELLOGG AVE", "postcode": "50010"}}},
{"geometry": {"type": "Point", "coordinates": [-93.6161471036, 42.0321226184]}, "type": "Feature", "properties": {"collection_times": [{"days": "Mon-Fri", "time": "3:45pm"}, {"days": "Sat-Sun", "time": "Closed"}], "id": "5001000091", "name": "USPS COLLECTION BOX - BLUE BOX", "address": {"city": "AMES", "state": "IA", "street": "202 S OAK AVE", "postcode": "50010"}}},
{"geometry": {"type": "Point", "coordinates": [-93.6500481728, 42.0213206753]}, "type": "Feature", "properties": {"collection_times": [{"days": "Mon-Fri", "time": "5:00pm"}, {"days": "Sat", "time": "3:00pm"}, {"days": "Sun", "time": "Closed"}], "id": "5001000092", "name": "USPS COLLECTION BOX - BLUE BOX", "address": {"city": "AMES", "state": "IA", "street": "210 WELCH AVE", "postcode": "50010"}}},
{"geometry": {"type": "Point", "coordinates": [-93.6102852365, 42.0198891595]}, "type": "Feature", "properties": {"collection_times": [{"days": "Mon-Fri", "time": "3:30pm"}, {"days": "Sat-Sun", "time": "Closed"}], "id": "5001000097", "name": "USPS COLLECTION BOX - BLUE BOX", "address": {"city": "AMES", "state": "IA", "street": "320 S DUFF AVE", "postcode": "50010"}}},
{"geometry": {"type": "Point", "coordinates": [-93.6161471036, 42.0321226184]}, "type": "Feature", "properties": {"collection_times": [{"days": "Mon-Fri", "time": "4:00pm"}, {"days": "Sat", "time": "10:30am"}, {"days": "Sun", "time": "Closed"}], "id": "5001000099", "name": "USPS COLLECTION BOX - BLUE BOX", "address": {"city": "AMES", "state": "IA", "street": "236 S BELL AVE", "postcode": "50010"}}},
{"geometry": {"type": "Point", "coordinates": [-93.613605943, 42.0225872914]}, "type": "Feature", "properties": {"collection_times": [{"days": "Mon-Fri", "time": "4:00pm"}, {"days": "Sat-Sun", "time": "Closed"}], "id": "5001000100", "name": "USPS COLLECTION BOX - BLUE BOX", "address": {"city": "AMES", "state": "IA", "street": "120 S KELLOGG AVE", "postcode": "50010"}}},
{"geometry": {"type": "Point", "coordinates": [-93.6137968593, 42.0261618762]}, "type": "Feature", "properties": {"collection_times": [{"days": "Mon-Sat", "time": "5:30pm"}, {"days": "Sun", "time": "Closed"}], "id": "5001000101", "name": "USPS COLLECTION BOX - BLUE BOX", "address": {"city": "AMES", "state": "IA", "street": "525 KELLOGG AVE", "postcode": "50010"}}},
{"geometry": {"type": "Point", "coordinates": [-93.6163993207, 42.0072202748]}, "type": "Feature", "properties": {"collection_times": [{"days": "Mon-Fri", "time": "3:30pm"}, {"days": "Sat", "time": "1:00pm"}, {"days": "Sun", "time": "Closed"}], "id": "5001000102", "name": "USPS COLLECTION BOX - BLUE BOX", "address": {"city": "AMES", "state": "IA", "street": "1615 GOLDEN ASPEN DR", "postcode": "50010"}}},
{"geometry": {"type": "Point", "coordinates": [-93.6137968593, 42.0261618762]}, "type": "Feature", "properties": {"collection_times": [{"days": "Mon-Sat", "time": "5:30pm"}, {"days": "Sun", "time": "Closed"}], "id": "5001000103", "name": "USPS COLLECTION BOX - APC", "address": {"city": "AMES", "state": "IA", "street": "525 KELLOGG AVE", "postcode": "50010"}}},
{"geometry": {"type": "Point", "coordinates": [-93.6450046718, 42.0565403161]}, "type": "Feature", "properties": {"collection_times": [{"days": "Mon-Sat", "time": "2:00pm"}, {"days": "Sun", "time": "Closed"}], "id": "5001000105", "name": "USPS COLLECTION BOX - BLUE BOX", "address": {"city": "AMES", "state": "IA", "street": "3619 STANGE RD", "postcode": "50010"}}},
{"geometry": {"type": "Point", "coordinates": [-93.5895389944, 42.0316008589]}, "type": "Feature", "properties": {"collection_times": [{"days": "Mon-Fri", "time": "3:30pm"}, {"days": "Sat", "time": "1:00pm"}, {"days": "Sun", "time": "Closed"}], "id": "5001000106", "name": "USPS COLLECTION BOX - BLUE BOX", "address": {"city": "AMES", "state": "IA", "street": "1407 BUCKEYE AVE", "postcode": "50010"}}},
{"geometry": {"type": "Point", "coordinates": [-93.6161471036, 42.0321226184]}, "type": "Feature", "properties": {"collection_times": [{"days": "Mon-Fri", "time": "4:00pm"}, {"days": "Sat", "time": "10:30am"}, {"days": "Sun", "time": "Closed"}], "id": "5001000107", "name": "USPS COLLECTION BOX - BLUE BOX", "address": {"city": "AMES", "state": "IA", "street": "236 S BELL AVE", "postcode": "50010"}}},
{"geometry": {"type": "Point", "coordinates": [-93.6161471036, 42.0321226184]}, "type": "Feature", "properties": {"collection_times": [{"days": "Mon-Fri", "time": "5:30pm"}, {"days": "Sat", "time": "4:45pm"}, {"days": "Sun", "time": "Closed"}], "id": "5001000108", "name": "USPS COLLECTION BOX - BLUE BOX", "address": {"city": "AMES", "state": "IA", "street": "619 BURNETT AVE", "postcode": "50010"}}},
{"geometry": {"type": "Point", "coordinates": [-94.7650058794, 41.4451417322]}, "type": "Feature", "properties": {"collection_times": [{"days": "Mon-Fri", "time": "4:30pm"}, {"days": "Sat", "time": "4:45pm"}, {"days": "Sun", "time": "Closed"}], "id": "5002000001", "name": "USPS COLLECTION BOX - BLUE BOX", "address": {"city": "ANITA", "state": "IA", "street": "906 MAIN ST", "postcode": "50020"}}},
{"geometry": {"type": "Point", "coordinates": [-94.7650058794, 41.4451417322]}, "type": "Feature", "properties": {"collection_times": [{"days": "Mon-Fri", "time": "4:30pm"}, {"days": "Sat-Sun", "time": "Closed"}], "id": "5002000002", "name": "USPS COLLECTION BOX - PO LOBBY", "address": {"city": "ANITA", "state": "IA", "street": "906 MAIN ST", "postcode": "50020"}}},
{"geometry": {"type": "Point", "coordinates": [-93.5656271826, 41.7216097225]}, "type": "Feature", "properties": {"collection_times": [{"days": "Mon-Fri", "time": "3:00pm"}, {"days": "Sat", "time": "2:30pm"}, {"days": "Sun", "time": "Closed"}], "id": "5002100001", "name": "USPS COLLECTION BOX - BLUE BOX", "address": {"city": "ANKENY", "state": "IA", "street": "1800 FOUR SEASONS DR", "postcode": "50021"}}},
{"geometry": {"type": "Point", "coordinates": [-93.5811093244, 41.7293331962]}, "type": "Feature", "properties": {"collection_times": [{"days": "Mon-Fri", "time": "3:45pm"}, {"days": "Sat", "time": "3:15pm"}, {"days": "Sun", "time": "Closed"}], "id": "5002100002", "name": "USPS COLLECTION BOX - BLUE BOX", "address": {"city": "ANKENY", "state": "IA", "street": "400 SE DELAWARE AVE", "postcode": "50021"}}},
{"geometry": {"type": "Point", "coordinates": [-93.6006518065, 41.6856323261]}, "type": "Feature", "properties": {"collection_times": [{"days": "Mon-Fri", "time": "3:15pm"}, {"days": "Sat-Sun", "time": "Closed"}], "id": "5002100012", "name": "USPS COLLECTION BOX - BLUE BOX", "address": {"city": "ANKENY", "state": "IA", "street": "6864 NE 14TH ST", "postcode": "50021"}}},
{"geometry": {"type": "Point", "coordinates": [-93.5859275903, 41.7286630893]}, "type": "Feature", "properties": {"collection_times": [{"days": "Mon-Fri", "time": "2:45pm"}, {"days": "Sat", "time": "2:30pm"}, {"days": "Sun", "time": "Closed"}], "id": "5002100018", "name": "USPS COLLECTION BOX - BLUE BOX", "address": {"city": "ANKENY", "state": "IA", "street": "214 SW WALNUT ST", "postcode": "50021"}}},
{"geometry": {"type": "Point", "coordinates": [-93.5990696324, 41.702792961]}, "type": "Feature", "properties": {"collection_times": [{"days": "Mon-Fri", "time": "3:00pm"}, {"days": "Sat", "time": "2:30pm"}, {"days": "Sun", "time": "Closed"}], "id": "5002100022", "name": "USPS COLLECTION BOX - BLUE BOX", "address": {"city": "ANKENY", "state": "IA", "street": "109 SE ORALABOR RD", "postcode": "50021"}}},
{"geometry": {"type": "Point", "coordinates": [-93.5826660984, 41.7048660559]}, "type": "Feature", "properties": {"collection_times": [{"days": "Mon-Fri", "time": "3:30pm"}, {"days": "Sat", "time": "3:15pm"}, {"days": "Sun", "time": "Closed"}], "id": "5002100023", "name": "USPS COLLECTION BOX - BLUE BOX", "address": {"city": "ANKENY", "state": "IA", "street": "1002 SE NATIONAL DR", "postcode": "50021"}}},
{"geometry": {"type": "Point", "coordinates": [-93.5745275322, 41.7319167418]}, "type": "Feature", "properties": {"collection_times": [{"days": "Mon-Sat", "time": "2:30pm"}, {"days": "Sun", "time": "Closed"}], "id": "5002100024", "name": "USPS COLLECTION BOX - BLUE BOX", "address": {"city": "ANKENY", "state": "IA", "street": "1702 W 1ST ST", "postcode": "50021"}}},
{"geometry": {"type": "Point", "coordinates": [-93.6001880769, 41.7398049391]}, "type": "Feature", "properties": {"collection_times": [{"days": "Mon-Sat", "time": "5:15pm"}, {"days": "Sun", "time": "Closed"}], "id": "5002100027", "name": "USPS COLLECTION BOX - BLUE BOX", "address": {"city": "ANKENY", "state": "IA", "street": "1011 N ANKENY BLVD", "postcode": "50021"}}},
{"geometry": {"type": "Point", "coordinates": [-93.5859275903, 41.7286630893]}, "type": "Feature", "properties": {"collection_times": [{"days": "Mon-Sat", "time": "2:30pm"}, {"days": "Sun", "time": "Closed"}], "id": "5002100029", "name": "USPS COLLECTION BOX - BLUE BOX", "address": {"city": "ANKENY", "state": "IA", "street": "2905 W 1ST ST", "postcode": "50021"}}},
{"geometry": {"type": "Point", "coordinates": [-93.600406934, 41.7346352183]}, "type": "Feature", "properties": {"collection_times": [{"days": "Mon-Fri", "time": "2:45pm"}, {"days": "Sat", "time": "2:30pm"}, {"days": "Sun", "time": "Closed"}], "id": "5002100031", "name": "USPS COLLECTION BOX - BLUE BOX", "address": {"city": "ANKENY", "state": "IA", "street": "410 N ANKENY BLVD", "postcode": "50021"}}},
{"geometry": {"type": "Point", "coordinates": [-93.5860963145, 41.7100800541]}, "type": "Feature", "properties": {"collection_times": [{"days": "Mon-Fri", "time": "3:45pm"}, {"days": "Sat", "time": "3:15pm"}, {"days": "Sun", "time": "Closed"}], "id": "5002100032", "name": "USPS COLLECTION BOX - BLUE BOX", "address": {"city": "ANKENY", "state": "IA", "street": "1918 SE HULSIZER RD", "postcode": "50021"}}},
{"geometry": {"type": "Point", "coordinates": [-93.6001880769, 41.7398049391]}, "type": "Feature", "properties": {"collection_times": [{"days": "Mon-Sat", "time": "5:15pm"}, {"days": "Sun", "time": "Closed"}], "id": "5002100033", "name": "USPS COLLECTION BOX - BLUE BOX", "address": {"city": "ANKENY", "state": "IA", "street": "1011 N ANKENY BLVD", "postcode": "50021"}}},
{"geometry": {"type": "Point", "coordinates": [-93.6001880769, 41.7398049391]}, "type": "Feature", "properties": {"collection_times": [{"days": "Mon-Sat", "time": "5:15pm"}, {"days": "Sun", "time": "Closed"}], "id": "5002100039", "name": "USPS COLLECTION BOX - PO LOBBY", "address": {"city": "ANKENY", "state": "IA", "street": "1011 N ANKENY BLVD", "postcode": "50021"}}},
{"geometry": {"type": "Point", "coordinates": [-93.5736929178, 41.7069955499]}, "type": "Feature", "properties": {"collection_times": [{"days": "Mon-Fri", "time": "3:30pm"}, {"days": "Sat-Sun", "time": "Closed"}], "id": "5002100040", "name": "USPS COLLECTION BOX - BLUE BOX", "address": {"city": "ANKENY", "state": "IA", "street": "2401 SE TONES DR", "postcode": "50021"}}},
{"geometry": {"type": "Point", "coordinates": [-93.5826660984, 41.7048660559]}, "type": "Feature", "properties": {"collection_times": [{"days": "Mon-Fri", "time": "3:30pm"}, {"days": "Sat", "time": "3:15pm"}, {"days": "Sun", "time": "Closed"}], "id": "5002100042", "name": "USPS COLLECTION BOX - BLUE BOX", "address": {"city": "ANKENY", "state": "IA", "street": "1002 SE NATIONAL DR", "postcode": "50021"}}},
{"geometry": {"type": "Point", "coordinates": [-93.6001880769, 41.7398049391]}, "type": "Feature", "properties": {"collection_times": [{"days": "Mon-Sat", "time": "5:15pm"}, {"days": "Sun", "time": "Closed"}], "id": "5002100043", "name": "USPS COLLECTION BOX - APC", "address": {"city": "ANKENY", "state": "IA", "street": "1011 N ANKENY BLVD", "postcode": "50021"}}},
{"geometry": {"type": "Point", "coordinates": [-93.6004559024, 41.7464076023]}, "type": "Feature", "properties": {"collection_times": [{"days": "Mon-Fri", "time": "4:00pm"}, {"days": "Sat", "time": "3:30pm"}, {"days": "Sun", "time": "Closed"}], "id": "5002100044", "name": "USPS COLLECTION BOX - BLUE BOX", "address": {"city": "ANKENY", "state": "IA", "street": "1825 N ANKENY BLVD", "postcode": "50021"}}},
{"geometry": {"type": "Point", "coordinates": [-93.6258743555, 41.7019615159]}, "type": "Feature", "properties": {"collection_times": [{"days": "Mon-Sat", "time": "2:30pm"}, {"days": "Sun", "time": "Closed"}], "id": "5002100045", "name": "USPS COLLECTION BOX - BLUE BOX", "address": {"city": "ANKENY", "state": "IA", "street": "1910 SW WHITE BIRCH CIR", "postcode": "50021"}}},
{"geometry": {"type": "Point", "coordinates": [-94.9893666667, 41.4038953365]}, "type": "Feature", "properties": {"collection_times": [{"days": "Mon-Sat", "time": "3:30pm"}, {"days": "Sun", "time": "Closed"}], "id": "5002200002", "name": "USPS COLLECTION BOX - BLUE BOX", "address": {"city": "ATLANTIC", "state": "IA", "street": "1630 E 7TH ST", "postcode": "50022"}}},
{"geometry": {"type": "Point", "coordinates": [-95.013121843, 41.4039615466]}, "type": "Feature", "properties": {"collection_times": [{"days": "Mon-Fri", "time": "3:30pm"}, {"days": "Sat-Sun", "time": "Closed"}], "id": "5002200005", "name": "USPS COLLECTION BOX - BLUE BOX", "address": {"city": "ATLANTIC", "state": "IA", "street": "5 W 7TH ST", "postcode": "50022"}}},
{"geometry": {"type": "Point", "coordinates": [-95.0126788287, 41.4060460998]}, "type": "Feature", "properties": {"collection_times": [{"days": "Mon-Fri", "time": "4:30pm"}, {"days": "Sat", "time": "4:00pm"}, {"days": "Sun", "time": "Closed"}], "id": "5002200013", "name": "USPS COLLECTION BOX - BLUE BOX", "address": {"city": "ATLANTIC", "state": "IA", "street": "20 E 5TH ST", "postcode": "50022"}}},
{"geometry": {"type": "Point", "coordinates": [-95.0126788287, 41.4060460998]}, "type": "Feature", "properties": {"collection_times": [{"days": "Mon-Fri", "time": "4:30pm"}, {"days": "Sat", "time": "4:00pm"}, {"days": "Sun", "time": "Closed"}], "id": "5002200015", "name": "USPS COLLECTION BOX - BLUE BOX", "address": {"city": "ATLANTIC", "state": "IA", "street": "20 E 5TH ST", "postcode": "50022"}}},
{"geometry": {"type": "Point", "coordinates": [-95.0126788287, 41.4060460998]}, "type": "Feature", "properties": {"collection_times": [{"days": "Mon-Fri", "time": "4:30pm"}, {"days": "Sat", "time": "4:00pm"}, {"days": "Sun", "time": "Closed"}], "id": "5002200016", "name": "USPS COLLECTION BOX - BLUE BOX", "address": {"city": "ATLANTIC", "state": "IA", "street": "20 E 5TH ST", "postcode": "50022"}}},
{"geometry": {"type": "Point", "coordinates": [-95.0126788287, 41.4060460998]}, "type": "Feature", "properties": {"collection_times": [{"days": "Mon-Fri", "time": "4:30pm"}, {"days": "Sat", "time": "4:00pm"}, {"days": "Sun", "time": "Closed"}], "id": "5002200017", "name": "USPS COLLECTION BOX - BLUE BOX", "address": {"city": "ATLANTIC", "state": "IA", "street": "20 E 5TH ST", "postcode": "50022"}}},
{"geometry": {"type": "Point", "coordinates": [-94.9923701941, 41.4018198329]}, "type": "Feature", "properties": {"collection_times": [{"days": "Mon-Fri", "time": "3:30pm"}, {"days": "Sat-Sun", "time": "Closed"}], "id": "5002200019", "name": "USPS COLLECTION BOX - BLUE BOX", "address": {"city": "ATLANTIC", "state": "IA", "street": "1501 E 10TH ST", "postcode": "50022"}}},
{"geometry": {"type": "Point", "coordinates": [-95.0126788287, 41.4060460998]}, "type": "Feature", "properties": {"collection_times": [{"days": "Mon-Fri", "time": "4:30pm"}, {"days": "Sat", "time": "4:00pm"}, {"days": "Sun", "time": "Closed"}], "id": "5002200020", "name": "USPS COLLECTION BOX - PO LOBBY", "address": {"city": "ATLANTIC", "state": "IA", "street": "20 E 5TH ST", "postcode": "50022"}}},
{"geometry": {"type": "Point", "coordinates": [-94.9276201609, 41.70965281]}, "type": "Feature", "properties": {"collection_times": [{"days": "Mon-Sat", "time": "10:00am"}, {"days": "Sun", "time": "Closed"}], "id": "5002500001", "name": "USPS COLLECTION BOX - BLUE BOX", "address": {"city": "AUDUBON", "state": "IA", "street": "104 MARKET ST", "postcode": "50025"}}},
{"geometry": {"type": "Point", "coordinates": [-94.9307597838, 41.7223206122]}, "type": "Feature", "properties": {"collection_times": [{"days": "Mon-Sat", "time": "3:00pm"}, {"days": "Sun", "time": "Closed"}], "id": "5002500003", "name": "USPS COLLECTION BOX - BLUE BOX", "address": {"city": "AUDUBON", "state": "IA", "street": "318 LEROY ST", "postcode": "50025"}}},
{"geometry": {"type": "Point", "coordinates": [-94.9303740308, 41.7196281007]}, "type": "Feature", "properties": {"collection_times": [{"days": "Mon-Fri", "time": "4:45pm"}, {"days": "Sat", "time": "3:00pm"}, {"days": "Sun", "time": "Closed"}], "id": "5002500005", "name": "USPS COLLECTION BOX - BLUE BOX", "address": {"city": "AUDUBON", "state": "IA", "street": "428 TRACY ST", "postcode": "50025"}}},
{"geometry": {"type": "Point", "coordinates": [-94.9303740308, 41.7196281007]}, "type": "Feature", "properties": {"collection_times": [{"days": "Mon-Fri", "time": "4:45pm"}, {"days": "Sat", "time": "3:00pm"}, {"days": "Sun", "time": "Closed"}], "id": "5002500007", "name": "USPS COLLECTION BOX - PO LOBBY", "address": {"city": "AUDUBON", "state": "IA", "street": "428 TRACY ST", "postcode": "50025"}}},
{"geometry": {"type": "Point", "coordinates": [-94.9303740308, 41.7196281007]}, "type": "Feature", "properties": {"collection_times": [{"days": "Mon-Fri", "time": "4:45pm"}, {"days": "Sat", "time": "3:00pm"}, {"days": "Sun", "time": "Closed"}], "id": "5002500008", "name": "USPS COLLECTION BOX - PO LOBBY", "address": {"city": "AUDUBON", "state": "IA", "street": "428 TRACY ST", "postcode": "50025"}}},
{"geometry": {"type": "Point", "coordinates": [-94.9303740308, 41.7196281007]}, "type": "Feature", "properties": {"collection_times": [{"days": "Mon-Fri", "time": "4:45pm"}, {"days": "Sat", "time": "3:00pm"}, {"days": "Sun", "time": "Closed"}], "id": "5002500009", "name": "USPS COLLECTION BOX - BLUE BOX", "address": {"city": "AUDUBON", "state": "IA", "street": "428 TRACY ST", "postcode": "50025"}}},
{"geometry": {"type": "Point", "coordinates": [-94.4294511356, 41.8487947482]}, "type": "Feature", "properties": {"collection_times": [{"days": "Mon-Sat", "time": "4:15pm"}, {"days": "Sun", "time": "Closed"}], "id": "5002600001", "name": "USPS COLLECTION BOX - BLUE BOX", "address": {"city": "BAGLEY", "state": "IA", "street": "213 MAIN ST", "postcode": "50026"}}},
{"geometry": {"type": "Point", "coordinates": [-94.4294511356, 41.8487947482]}, "type": "Feature", "properties": {"collection_times": [{"days": "Mon-Fri", "time": "11:45am"}, {"days": "Sat-Sun", "time": "Closed"}], "id": "5002600002", "name": "USPS COLLECTION BOX - PO LOBBY", "address": {"city": "BAGLEY", "state": "IA", "street": "213 MAIN ST", "postcode": "50026"}}},
{"geometry": {"type": "Point", "coordinates": [-92.470367972, 41.5080938073]}, "type": "Feature", "properties": {"collection_times": [{"days": "Mon-Fri", "time": "4:00pm"}, {"days": "Sat", "time": "4:15pm"}, {"days": "Sun", "time": "Closed"}], "id": "5002700001", "name": "USPS COLLECTION BOX - BLUE BOX", "address": {"city": "BARNES CITY", "state": "IA", "street": "610 SPRUCE ST", "postcode": "50027"}}},
{"geometry": {"type": "Point", "coordinates": [-92.4721469927, 41.4746204559]}, "type": "Feature", "properties": {"collection_times": [{"days": "Mon-Fri", "time": "4:15pm"}, {"days": "Sat", "time": "1:30pm"}, {"days": "Sun", "time": "Closed"}], "id": "5002700002", "name": "USPS COLLECTION BOX - PO LOBBY", "address": {"city": "BARNES CITY", "state": "IA", "street": "610 SPRUCE ST", "postcode": "50027"}}},
{"geometry": {"type": "Point", "coordinates": [-93.1513702343, 41.8262037297]}, "type": "Feature", "properties": {"collection_times": [{"days": "Mon-Sat", "time": "4:00pm"}, {"days": "Sun", "time": "Closed"}], "id": "5002800001", "name": "USPS COLLECTION BOX - BLUE BOX", "address": {"city": "BAXTER", "state": "IA", "street": "105 E STATE ST", "postcode": "50028"}}},
{"geometry": {"type": "Point", "coordinates": [-93.1513702343, 41.8262037297]}, "type": "Feature", "properties": {"collection_times": [{"days": "Mon-Fri", "time": "2:45pm"}, {"days": "Sat-Sun", "time": "Closed"}], "id": "5002800002", "name": "USPS COLLECTION BOX - PO LOBBY", "address": {"city": "BAXTER", "state": "IA", "street": "105 E STATE ST", "postcode": "50028"}}},
{"geometry": {"type": "Point", "coordinates": [-94.5579451799, 41.850810973]}, "type": "Feature", "properties": {"collection_times": [{"days": "Mon-Sat", "time": "4:00pm"}, {"days": "Sun", "time": "Closed"}], "id": "5002900001", "name": "USPS COLLECTION BOX - BLUE BOX", "address": {"city": "BAYARD", "state": "IA", "street": "300 MAIN ST", "postcode": "50029"}}},
{"geometry": {"type": "Point", "coordinates": [-94.5579451799, 41.850810973]}, "type": "Feature", "properties": {"collection_times": [{"days": "Mon-Fri", "time": "2:45pm"}, {"days": "Sat-Sun", "time": "Closed"}], "id": "5002900002", "name": "USPS COLLECTION BOX - PO LOBBY", "address": {"city": "BAYARD", "state": "IA", "street": "300 MAIN ST", "postcode": "50029"}}},
{"geometry": {"type": "Point", "coordinates": [-94.1435101747, 42.0363889043]}, "type": "Feature", "properties": {"collection_times": [{"days": "Mon-Sat", "time": "4:45pm"}, {"days": "Sun", "time": "Closed"}], "id": "5003100001", "name": "USPS COLLECTION BOX - BLUE BOX", "address": {"city": "BEAVER", "state": "IA", "street": "117 3RD ST", "postcode": "50031"}}},
{"geometry": {"type": "Point", "coordinates": [-94.1435101747, 42.0363889043]}, "type": "Feature", "properties": {"collection_times": [{"days": "Mon-Fri", "time": "8:15am"}, {"days": "Sat", "time": "10:15am"}, {"days": "Sun", "time": "Closed"}], "id": "5003100002", "name": "USPS COLLECTION BOX - PO LOBBY", "address": {"city": "BEAVER", "state": "IA", "street": "117 3RD ST", "postcode": "50031"}}},
{"geometry": {"type": "Point", "coordinates": [-93.5460203495, 41.665214503]}, "type": "Feature", "properties": {"collection_times": [{"days": "Mon-Sat", "time": "4:45pm"}, {"days": "Sun", "time": "Closed"}], "id": "5003200001", "name": "USPS COLLECTION BOX - BLUE BOX", "address": {"city": "BERWICK", "state": "IA", "street": "5760 NE BERWICK DR", "postcode": "50032"}}},
{"geometry": {"type": "Point", "coordinates": [-93.5460203495, 41.665214503]}, "type": "Feature", "properties": {"collection_times": [{"days": "Mon-Fri", "time": "4:30pm"}, {"days": "Sat", "time": "1:45pm"}, {"days": "Sun", "time": "Closed"}], "id": "5003200002", "name": "USPS COLLECTION BOX - PO LOBBY", "address": {"city": "BERWICK", "state": "IA", "street": "5760 NE BERWICK DR", "postcode": "50032"}}},
{"geometry": {"type": "Point", "coordinates": [-93.6432891874, 42.4807870452]}, "type": "Feature", "properties": {"collection_times": [{"days": "Mon-Sat", "time": "4:00pm"}, {"days": "Sun", "time": "Closed"}], "id": "5003400001", "name": "USPS COLLECTION BOX - BLUE BOX", "address": {"city": "BLAIRSBURG", "state": "IA", "street": "512 LAKE ST", "postcode": "50034"}}},
{"geometry": {"type": "Point", "coordinates": [-93.6432891874, 42.4807870452]}, "type": "Feature", "properties": {"collection_times": [{"days": "Mon-Fri", "time": "11:45am"}, {"days": "Sat", "time": "9:15am"}, {"days": "Sun", "time": "Closed"}], "id": "5003400002", "name": "USPS COLLECTION BOX - PO LOBBY", "address": {"city": "BLAIRSBURG", "state": "IA", "street": "512 LAKE ST", "postcode": "50034"}}},
{"geometry": {"type": "Point", "coordinates": [-93.4622834622, 41.7029532113]}, "type": "Feature", "properties": {"collection_times": [{"days": "Mon-Fri", "time": "4:45pm"}, {"days": "Sat", "time": "5:00pm"}, {"days": "Sun", "time": "Closed"}], "id": "5003500001", "name": "USPS COLLECTION BOX - BLUE BOX", "address": {"city": "BONDURANT", "state": "IA", "street": "106 2ND ST NE", "postcode": "50035"}}},
{"geometry": {"type": "Point", "coordinates": [-93.4622834622, 41.7029532113]}, "type": "Feature", "properties": {"collection_times": [{"days": "Mon-Fri", "time": "4:45pm"}, {"days": "Sat-Sun", "time": "Closed"}], "id": "5003500004", "name": "USPS COLLECTION BOX - PO LOBBY", "address": {"city": "BONDURANT", "state": "IA", "street": "106 2ND ST NE", "postcode": "50035"}}},
{"geometry": {"type": "Point", "coordinates": [-93.8962531792, 42.0592831424]}, "type": "Feature", "properties": {"collection_times": [{"days": "Mon-Fri", "time": "4:30pm"}, {"days": "Sat", "time": "3:00pm"}, {"days": "Sun", "time": "Closed"}], "id": "5003600001", "name": "USPS COLLECTION BOX - BLUE BOX", "address": {"city": "BOONE", "state": "IA", "street": "320 W MAMIE EISENHOWER AVE", "postcode": "50036"}}},
{"geometry": {"type": "Point", "coordinates": [-93.8765079052, 42.0457859721]}, "type": "Feature", "properties": {"collection_times": [{"days": "Mon-Fri", "time": "4:00pm"}, {"days": "Sat-Sun", "time": "Closed"}], "id": "5003600002", "name": "USPS COLLECTION BOX - BLUE BOX", "address": {"city": "BOONE", "state": "IA", "street": "1125 HANCOCK DR", "postcode": "50036"}}},
{"geometry": {"type": "Point", "coordinates": [-93.8798483931, 42.0401979306]}, "type": "Feature", "properties": {"collection_times": [{"days": "Mon-Fri", "time": "4:00pm"}, {"days": "Sat", "time": "3:15pm"}, {"days": "Sun", "time": "Closed"}], "id": "5003600004", "name": "USPS COLLECTION BOX - BLUE BOX", "address": {"city": "BOONE", "state": "IA", "street": "1414 S STORY ST", "postcode": "50036"}}},
{"geometry": {"type": "Point", "coordinates": [-93.8764585842, 42.0556365124]}, "type": "Feature", "properties": {"collection_times": [{"days": "Mon-Fri", "time": "4:00pm"}, {"days": "Sat", "time": "3:15pm"}, {"days": "Sun", "time": "Closed"}], "id": "5003600005", "name": "USPS COLLECTION BOX - BLUE BOX", "address": {"city": "BOONE", "state": "IA", "street": "1015 UNION ST", "postcode": "50036"}}},
{"geometry": {"type": "Point", "coordinates": [-93.8801176368, 42.0660806819]}, "type": "Feature", "properties": {"collection_times": [{"days": "Mon-Fri", "time": "4:45pm"}, {"days": "Sat", "time": "3:00pm"}, {"days": "Sun", "time": "Closed"}], "id": "5003600007", "name": "USPS COLLECTION BOX - BLUE BOX", "address": {"city": "BOONE", "state": "IA", "street": "1017 STORY ST", "postcode": "50036"}}},
{"geometry": {"type": "Point", "coordinates": [-93.9056498457, 42.0584285433]}, "type": "Feature", "properties": {"collection_times": [{"days": "Mon-Fri", "time": "4:30pm"}, {"days": "Sat-Sun", "time": "Closed"}], "id": "5003600008", "name": "USPS COLLECTION BOX - BLUE BOX", "address": {"city": "BOONE", "state": "IA", "street": "201 STATE ST", "postcode": "50036"}}},
{"geometry": {"type": "Point", "coordinates": [-93.881071806, 42.0637635562]}, "type": "Feature", "properties": {"collection_times": [{"days": "Mon-Fri", "time": "4:45pm"}, {"days": "Sat", "time": "3:00pm"}, {"days": "Sun", "time": "Closed"}], "id": "5003600009", "name": "USPS COLLECTION BOX - BLUE BOX", "address": {"city": "BOONE", "state": "IA", "street": "814 8TH ST", "postcode": "50036"}}},
{"geometry": {"type": "Point", "coordinates": [-93.88008575, 42.0619429324]}, "type": "Feature", "properties": {"collection_times": [{"days": "Mon-Fri", "time": "5:00pm"}, {"days": "Sat", "time": "3:15pm"}, {"days": "Sun", "time": "Closed"}], "id": "5003600011", "name": "USPS COLLECTION BOX - BLUE BOX", "address": {"city": "BOONE", "state": "IA", "street": "621 STORY ST", "postcode": "50036"}}},
{"geometry": {"type": "Point", "coordinates": [-93.8797894633, 42.0637617674]}, "type": "Feature", "properties": {"collection_times": [{"days": "Mon-Fri", "time": "5:00pm"}, {"days": "Sat", "time": "3:00pm"}, {"days": "Sun", "time": "Closed"}], "id": "5003600013", "name": "USPS COLLECTION BOX - BLUE BOX", "address": {"city": "BOONE", "state": "IA", "street": "908 8TH ST", "postcode": "50036"}}},
{"geometry": {"type": "Point", "coordinates": [-93.8823634471, 42.0639920036]}, "type": "Feature", "properties": {"collection_times": [{"days": "Mon-Sat", "time": "5:30pm"}, {"days": "Sun", "time": "Closed"}], "id": "5003600015", "name": "USPS COLLECTION BOX - BLUE BOX", "address": {"city": "BOONE", "state": "IA", "street": "815 ARDEN ST", "postcode": "50036"}}},
{"geometry": {"type": "Point", "coordinates": [-93.8823634471, 42.0639920036]}, "type": "Feature", "properties": {"collection_times": [{"days": "Mon-Sat", "time": "5:30pm"}, {"days": "Sun", "time": "Closed"}], "id": "5003600017", "name": "USPS COLLECTION BOX - BLUE BOX", "address": {"city": "BOONE", "state": "IA", "street": "815 ARDEN ST", "postcode": "50036"}}},
{"geometry": {"type": "Point", "coordinates": [-93.8797894633, 42.0637617674]}, "type": "Feature", "properties": {"collection_times": [{"days": "Mon-Fri", "time": "5:00pm"}, {"days": "Sat", "time": "3:00pm"}, {"days": "Sun", "time": "Closed"}], "id": "5003600019", "name": "USPS COLLECTION BOX - BLUE BOX", "address": {"city": "BOONE", "state": "IA", "street": "908 8TH ST", "postcode": "50036"}}},
{"geometry": {"type": "Point", "coordinates": [-93.9056498457, 42.0584285433]}, "type": "Feature", "properties": {"collection_times": [{"days": "Mon-Fri", "time": "4:30pm"}, {"days": "Sat-Sun", "time": "Closed"}], "id": "5003600022", "name": "USPS COLLECTION BOX - BLUE BOX", "address": {"city": "BOONE", "state": "IA", "street": "201 STATE ST", "postcode": "50036"}}},
{"geometry": {"type": "Point", "coordinates": [-93.8798483931, 42.0401979306]}, "type": "Feature", "properties": {"collection_times": [{"days": "Mon-Fri", "time": "4:00pm"}, {"days": "Sat", "time": "3:15pm"}, {"days": "Sun", "time": "Closed"}], "id": "5003600026", "name": "USPS COLLECTION BOX - BLUE BOX", "address": {"city": "BOONE", "state": "IA", "street": "1414 S STORY ST", "postcode": "50036"}}},
{"geometry": {"type": "Point", "coordinates": [-93.8823634471, 42.0639920036]}, "type": "Feature", "properties": {"collection_times": [{"days": "Mon-Sat", "time": "5:30pm"}, {"days": "Sun", "time": "Closed"}], "id": "5003600028", "name": "USPS COLLECTION BOX - PO LOBBY", "address": {"city": "BOONE", "state": "IA", "street": "815 ARDEN ST", "postcode": "50036"}}},
{"geometry": {"type": "Point", "coordinates": [-93.8823634471, 42.0639920036]}, "type": "Feature", "properties": {"collection_times": [{"days": "Mon-Sat", "time": "5:30pm"}, {"days": "Sun", "time": "Closed"}], "id": "5003600029", "name": "USPS COLLECTION BOX - BLUE BOX", "address": {"city": "BOONE", "state": "IA", "street": "815 ARDEN ST", "postcode": "50036"}}},
{"geometry": {"type": "Point", "coordinates": [-93.8764759922, 42.0638899145]}, "type": "Feature", "properties": {"collection_times": [{"days": "Mon-Fri", "time": "4:15pm"}, {"days": "Sat", "time": "3:00pm"}, {"days": "Sun", "time": "Closed"}], "id": "5003600031", "name": "USPS COLLECTION BOX - BLUE BOX", "address": {"city": "BOONE", "state": "IA", "street": "1111 8TH ST", "postcode": "50036"}}},
{"geometry": {"type": "Point", "coordinates": [-93.920253701, 41.5226273607]}, "type": "Feature", "properties": {"collection_times": [{"days": "Mon-Sat", "time": "4:00pm"}, {"days": "Sun", "time": "Closed"}], "id": "5003800001", "name": "USPS COLLECTION BOX - BLUE BOX", "address": {"city": "BOONEVILLE", "state": "IA", "street": "31080 MAIN ST", "postcode": "50038"}}},
{"geometry": {"type": "Point", "coordinates": [-93.920253701, 41.5226273607]}, "type": "Feature", "properties": {"collection_times": [{"days": "Mon-Fri", "time": "2:45pm"}, {"days": "Sat-Sun", "time": "Closed"}], "id": "5003800002", "name": "USPS COLLECTION BOX - PO LOBBY", "address": {"city": "BOONEVILLE", "state": "IA", "street": "31080 MAIN ST", "postcode": "50038"}}},
{"geometry": {"type": "Point", "coordinates": [-94.0086483607, 41.8523720336]}, "type": "Feature", "properties": {"collection_times": [{"days": "Mon-Sat", "time": "4:45pm"}, {"days": "Sun", "time": "Closed"}], "id": "5003900001", "name": "USPS COLLECTION BOX - BLUE BOX", "address": {"city": "BOUTON", "state": "IA", "street": "108 E 1ST ST", "postcode": "50039"}}},
{"geometry": {"type": "Point", "coordinates": [-94.0086483607, 41.8523720336]}, "type": "Feature", "properties": {"collection_times": [{"days": "Mon-Fri", "time": "4:45pm"}, {"days": "Sat-Sun", "time": "Closed"}], "id": "5003900002", "name": "USPS COLLECTION BOX - PO LOBBY", "address": {"city": "BOUTON", "state": "IA", "street": "108 E 1ST ST", "postcode": "50039"}}},
{"geometry": {"type": "Point", "coordinates": [-94.1048107025, 42.1756923452]}, "type": "Feature", "properties": {"collection_times": [{"days": "Mon-Sat", "time": "4:15pm"}, {"days": "Sun", "time": "Closed"}], "id": "5004000001", "name": "USPS COLLECTION BOX - BLUE BOX", "address": {"city": "BOXHOLM", "state": "IA", "street": "402 2ND ST", "postcode": "50040"}}},
{"geometry": {"type": "Point", "coordinates": [-94.1048107025, 42.1756923452]}, "type": "Feature", "properties": {"collection_times": [{"days": "Mon-Sat", "time": "12:45pm"}, {"days": "Sun", "time": "Closed"}], "id": "5004000002", "name": "USPS COLLECTION BOX - PO LOBBY", "address": {"city": "BOXHOLM", "state": "IA", "street": "402 2ND ST", "postcode": "50040"}}},
{"geometry": {"type": "Point", "coordinates": [-93.2436424937, 42.6295603185]}, "type": "Feature", "properties": {"collection_times": [{"days": "Mon-Sat", "time": "3:45pm"}, {"days": "Sun", "time": "Closed"}], "id": "5004100001", "name": "USPS COLLECTION BOX - BLUE BOX", "address": {"city": "BRADFORD", "state": "IA", "street": "301 MAIN ST", "postcode": "50041"}}},
{"geometry": {"type": "Point", "coordinates": [-93.2436424937, 42.6295603185]}, "type": "Feature", "properties": {"collection_times": [{"days": "Mon-Fri", "time": "9:45am"}, {"days": "Sat-Sun", "time": "Closed"}], "id": "5004100002", "name": "USPS COLLECTION BOX - PO LOBBY", "address": {"city": "BRADFORD", "state": "IA", "street": "301 MAIN ST", "postcode": "50041"}}},
{"geometry": {"type": "Point", "coordinates": [-94.9281427351, 41.5442779506]}, "type": "Feature", "properties": {"collection_times": [{"days": "Mon-Fri", "time": "4:15pm"}, {"days": "Sat", "time": "1:30pm"}, {"days": "Sun", "time": "Closed"}], "id": "5004200001", "name": "USPS COLLECTION BOX - BLUE BOX", "address": {"city": "BRAYTON", "state": "IA", "street": "200 COUNTY TRUNK RD", "postcode": "50042"}}},
{"geometry": {"type": "Point", "coordinates": [-94.9281427351, 41.5442779506]}, "type": "Feature", "properties": {"collection_times": [{"days": "Mon-Fri", "time": "1:45pm"}, {"days": "Sat", "time": "1:30pm"}, {"days": "Sun", "time": "Closed"}], "id": "5004200002", "name": "USPS COLLECTION BOX - PO LOBBY", "address": {"city": "BRAYTON", "state": "IA", "street": "200 COUNTY TRUNK RD", "postcode": "50042"}}},
{"geometry": {"type": "Point", "coordinates": [-92.8865778109, 41.2054061116]}, "type": "Feature", "properties": {"collection_times": [{"days": "Mon-Sat", "time": "4:00pm"}, {"days": "Sun", "time": "Closed"}], "id": "5004400001", "name": "USPS COLLECTION BOX - BLUE BOX", "address": {"city": "BUSSEY", "state": "IA", "street": "408 MERRILL ST", "postcode": "50044"}}},
{"geometry": {"type": "Point", "coordinates": [-92.8865778109, 41.2054061116]}, "type": "Feature", "properties": {"collection_times": [{"days": "Mon-Fri", "time": "11:15am"}, {"days": "Sat-Sun", "time": "Closed"}], "id": "5004400002", "name": "USPS COLLECTION BOX - PO LOBBY", "address": {"city": "BUSSEY", "state": "IA", "street": "408 MERRILL ST", "postcode": "50044"}}},
{"geometry": {"type": "Point", "coordinates": [-93.5291136949, 41.8993584249]}, "type": "Feature", "properties": {"collection_times": [{"days": "Mon-Sat", "time": "4:00pm"}, {"days": "Sun", "time": "Closed"}], "id": "5004600001", "name": "USPS COLLECTION BOX - BLUE BOX", "address": {"city": "CAMBRIDGE", "state": "IA", "street": "304 WATER ST", "postcode": "50046"}}},
{"geometry": {"type": "Point", "coordinates": [-93.5291136949, 41.8993584249]}, "type": "Feature", "properties": {"collection_times": [{"days": "Mon-Fri", "time": "3:45pm"}, {"days": "Sat-Sun", "time": "Closed"}], "id": "5004600002", "name": "USPS COLLECTION BOX - PO LOBBY", "address": {"city": "CAMBRIDGE", "state": "IA", "street": "304 WATER ST", "postcode": "50046"}}},
{"geometry": {"type": "Point", "coordinates": [-93.4867103819, 41.4974886175]}, "type": "Feature", "properties": {"collection_times": [{"days": "Mon-Sat", "time": "4:45pm"}, {"days": "Sun", "time": "Closed"}], "id": "5004700001", "name": "USPS COLLECTION BOX - BLUE BOX", "address": {"city": "CARLISLE", "state": "IA", "street": "200 S 1ST ST", "postcode": "50047"}}},
{"geometry": {"type": "Point", "coordinates": [-93.4867103819, 41.4974886175]}, "type": "Feature", "properties": {"collection_times": [{"days": "Mon-Fri", "time": "4:45pm"}, {"days": "Sat", "time": "10:45am"}, {"days": "Sun", "time": "Closed"}], "id": "5004700002", "name": "USPS COLLECTION BOX - PO LOBBY", "address": {"city": "CARLISLE", "state": "IA", "street": "200 S 1ST ST", "postcode": "50047"}}},
{"geometry": {"type": "Point", "coordinates": [-94.5191782709, 41.5069284059]}, "type": "Feature", "properties": {"collection_times": [{"days": "Mon-Sat", "time": "4:30pm"}, {"days": "Sun", "time": "Closed"}], "id": "5004800001", "name": "USPS COLLECTION BOX - BLUE BOX", "address": {"city": "CASEY", "state": "IA", "street": "101 E GRANT ST", "postcode": "50048"}}},
{"geometry": {"type": "Point", "coordinates": [-94.5191782709, 41.5069284059]}, "type": "Feature", "properties": {"collection_times": [{"days": "Mon-Fri", "time": "11:15am"}, {"days": "Sat", "time": "8:30am"}, {"days": "Sun", "time": "Closed"}], "id": "5004800002", "name": "USPS COLLECTION BOX - PO LOBBY", "address": {"city": "CASEY", "state": "IA", "street": "101 E GRANT ST", "postcode": "50048"}}},
{"geometry": {"type": "Point", "coordinates": [-93.3259145099, 41.0145226548]}, "type": "Feature", "properties": {"collection_times": [{"days": "Mon-Sat", "time": "12:00pm"}, {"days": "Sun", "time": "Closed"}], "id": "5004900004", "name": "USPS COLLECTION BOX - BLUE BOX", "address": {"city": "CHARITON", "state": "IA", "street": "2001 COURT AVE", "postcode": "50049"}}},
{"geometry": {"type": "Point", "coordinates": [-93.3084364075, 41.0157708972]}, "type": "Feature", "properties": {"collection_times": [{"days": "Mon-Fri", "time": "4:30pm"}, {"days": "Sat", "time": "1:45pm"}, {"days": "Sun", "time": "Closed"}], "id": "5004900008", "name": "USPS COLLECTION BOX - BLUE BOX", "address": {"city": "CHARITON", "state": "IA", "street": "201 N MAIN ST", "postcode": "50049"}}},
{"geometry": {"type": "Point", "coordinates": [-93.3068596827, 41.015651532]}, "type": "Feature", "properties": {"collection_times": [{"days": "Mon-Fri", "time": "4:30pm"}, {"days": "Sat-Sun", "time": "Closed"}], "id": "5004900009", "name": "USPS COLLECTION BOX - BLUE BOX", "address": {"city": "CHARITON", "state": "IA", "street": "916 BRADEN AVE", "postcode": "50049"}}},
{"geometry": {"type": "Point", "coordinates": [-93.3068317208, 41.0141312883]}, "type": "Feature", "properties": {"collection_times": [{"days": "Mon-Fri", "time": "5:15pm"}, {"days": "Sat", "time": "3:15pm"}, {"days": "Sun", "time": "Closed"}], "id": "5004900010", "name": "USPS COLLECTION BOX - BLUE BOX", "address": {"city": "CHARITON", "state": "IA", "street": "126 S GRAND ST", "postcode": "50049"}}},
{"geometry": {"type": "Point", "coordinates": [-93.3068317208, 41.0141312883]}, "type": "Feature", "properties": {"collection_times": [{"days": "Mon-Fri", "time": "5:15pm"}, {"days": "Sat", "time": "3:15pm"}, {"days": "Sun", "time": "Closed"}], "id": "5004900012", "name": "USPS COLLECTION BOX - PO LOBBY", "address": {"city": "CHARITON", "state": "IA", "street": "126 S GRAND ST", "postcode": "50049"}}},
{"geometry": {"type": "Point", "coordinates": [-93.3068317208, 41.0141312883]}, "type": "Feature", "properties": {"collection_times": [{"days": "Mon-Fri", "time": "5:15pm"}, {"days": "Sat", "time": "3:15pm"}, {"days": "Sun", "time": "Closed"}], "id": "5004900013", "name": "USPS COLLECTION BOX - BLUE BOX", "address": {"city": "CHARITON", "state": "IA", "street": "126 S GRAND ST", "postcode": "50049"}}},
{"geometry": {"type": "Point", "coordinates": [-94.4782564477, 42.1552165831]}, "type": "Feature", "properties": {"collection_times": [{"days": "Mon-Sat", "time": "4:00pm"}, {"days": "Sun", "time": "Closed"}], "id": "5005000001", "name": "USPS COLLECTION BOX - BLUE BOX", "address": {"city": "CHURDAN", "state": "IA", "street": "517 SAND ST", "postcode": "50050"}}},
{"geometry": {"type": "Point", "coordinates": [-94.4782564477, 42.1552165831]}, "type": "Feature", "properties": {"collection_times": [{"days": "Mon-Fri", "time": "11:30am"}, {"days": "Sat", "time": "9:15am"}, {"days": "Sun", "time": "Closed"}], "id": "5005000002", "name": "USPS COLLECTION BOX - PO LOBBY", "address": {"city": "CHURDAN", "state": "IA", "street": "517 SAND ST", "postcode": "50050"}}},
{"geometry": {"type": "Point", "coordinates": [-93.159067702, 42.1158356914]}, "type": "Feature", "properties": {"collection_times": [{"days": "Mon-Fri", "time": "2:45pm"}, {"days": "Sat", "time": "3:15pm"}, {"days": "Sun", "time": "Closed"}], "id": "5005100001", "name": "USPS COLLECTION BOX - BLUE BOX", "address": {"city": "CLEMONS", "state": "IA", "street": "110 MAIN ST", "postcode": "50051"}}},
{"geometry": {"type": "Point", "coordinates": [-93.159067702, 42.1158356914]}, "type": "Feature", "properties": {"collection_times": [{"days": "Mon-Fri", "time": "2:45pm"}, {"days": "Sat-Sun", "time": "Closed"}], "id": "5005100002", "name": "USPS COLLECTION BOX - PO LOBBY", "address": {"city": "CLEMONS", "state": "IA", "street": "110 MAIN ST", "postcode": "50051"}}},
{"geometry": {"type": "Point", "coordinates": [-93.2454882328, 41.6777321338]}, "type": "Feature", "properties": {"collection_times": [{"days": "Mon-Sat", "time": "2:15pm"}, {"days": "Sun", "time": "Closed"}], "id": "5005400002", "name": "USPS COLLECTION BOX - BLUE BOX", "address": {"city": "COLFAX", "state": "IA", "street": "101 N WALNUT ST", "postcode": "50054"}}},
{"geometry": {"type": "Point", "coordinates": [-93.2437779961, 41.6781325641]}, "type": "Feature", "properties": {"collection_times": [{"days": "Mon-Sat", "time": "5:00pm"}, {"days": "Sun", "time": "Closed"}], "id": "5005400004", "name": "USPS COLLECTION BOX - BLUE BOX", "address": {"city": "COLFAX", "state": "IA", "street": "110 E HOWARD ST", "postcode": "50054"}}},
{"geometry": {"type": "Point", "coordinates": [-93.2437779961, 41.6781325641]}, "type": "Feature", "properties": {"collection_times": [{"days": "Mon-Fri", "time": "5:00pm"}, {"days": "Sat", "time": "11:00am"}, {"days": "Sun", "time": "Closed"}], "id": "5005400005", "name": "USPS COLLECTION BOX - PO LOBBY", "address": {"city": "COLFAX", "state": "IA", "street": "110 E HOWARD ST", "postcode": "50054"}}},
{"geometry": {"type": "Point", "coordinates": [-93.3071170747, 41.900898249]}, "type": "Feature", "properties": {"collection_times": [{"days": "Mon-Fri", "time": "4:45pm"}, {"days": "Sat", "time": "4:00pm"}, {"days": "Sun", "time": "Closed"}], "id": "5005500001", "name": "USPS COLLECTION BOX - BLUE BOX", "address": {"city": "COLLINS", "state": "IA", "street": "205 1ST ST", "postcode": "50055"}}},
{"geometry": {"type": "Point", "coordinates": [-93.3071170747, 41.900898249]}, "type": "Feature", "properties": {"collection_times": [{"days": "Mon-Fri", "time": "11:45am"}, {"days": "Sat-Sun", "time": "Closed"}], "id": "5005500002", "name": "USPS COLLECTION BOX - PO LOBBY", "address": {"city": "COLLINS", "state": "IA", "street": "205 1ST ST", "postcode": "50055"}}},
{"geometry": {"type": "Point", "coordinates": [-93.3143655576, 42.0183548806]}, "type": "Feature", "properties": {"collection_times": [{"days": "Mon-Sat", "time": "4:00pm"}, {"days": "Sun", "time": "Closed"}], "id": "5005600001", "name": "USPS COLLECTION BOX - BLUE BOX", "address": {"city": "COLO", "state": "IA", "street": "401 MAIN ST", "postcode": "50056"}}},
{"geometry": {"type": "Point", "coordinates": [-93.3143655576, 42.0183548806]}, "type": "Feature", "properties": {"collection_times": [{"days": "Mon-Fri", "time": "11:45am"}, {"days": "Sat-Sun", "time": "Closed"}], "id": "5005600002", "name": "USPS COLLECTION BOX - PO LOBBY", "address": {"city": "COLO", "state": "IA", "street": "401 MAIN ST", "postcode": "50056"}}},
{"geometry": {"type": "Point", "coordinates": [-94.6775517512, 41.8708597903]}, "type": "Feature", "properties": {"collection_times": [{"days": "Mon-Sat", "time": "4:00pm"}, {"days": "Sun", "time": "Closed"}], "id": "5005800004", "name": "USPS COLLECTION BOX - BLUE BOX", "address": {"city": "COON RAPIDS", "state": "IA", "street": "507 MAIN ST", "postcode": "50058"}}},
{"geometry": {"type": "Point", "coordinates": [-94.6775517512, 41.8708597903]}, "type": "Feature", "properties": {"collection_times": [{"days": "Mon-Fri", "time": "4:00pm"}, {"days": "Sat-Sun", "time": "Closed"}], "id": "5005800006", "name": "USPS COLLECTION BOX - PO LOBBY", "address": {"city": "COON RAPIDS", "state": "IA", "street": "507 MAIN ST", "postcode": "50058"}}},
{"geometry": {"type": "Point", "coordinates": [-93.3191226445, 40.7577725336]}, "type": "Feature", "properties": {"collection_times": [{"days": "Mon-Sat", "time": "4:30pm"}, {"days": "Sun", "time": "Closed"}], "id": "5006000010", "name": "USPS COLLECTION BOX - BLUE BOX", "address": {"city": "CORYDON", "state": "IA", "street": "215 W STATE ST", "postcode": "50060"}}},
{"geometry": {"type": "Point", "coordinates": [-93.3191226445, 40.7577725336]}, "type": "Feature", "properties": {"collection_times": [{"days": "Mon-Fri", "time": "4:30pm"}, {"days": "Sat-Sun", "time": "Closed"}], "id": "5006000012", "name": "USPS COLLECTION BOX - PO LOBBY", "address": {"city": "CORYDON", "state": "IA", "street": "215 W STATE ST", "postcode": "50060"}}},
{"geometry": {"type": "Point", "coordinates": [-93.7625864271, 41.4832022325]}, "type": "Feature", "properties": {"collection_times": [{"days": "Mon-Sat", "time": "4:15pm"}, {"days": "Sun", "time": "Closed"}], "id": "5006100001", "name": "USPS COLLECTION BOX - BLUE BOX", "address": {"city": "CUMMING", "state": "IA", "street": "121 N 44TH ST", "postcode": "50061"}}},
{"geometry": {"type": "Point", "coordinates": [-93.7627243972, 41.4834397688]}, "type": "Feature", "properties": {"collection_times": [{"days": "Mon-Fri", "time": "11:45am"}, {"days": "Sat", "time": "9:15am"}, {"days": "Sun", "time": "Closed"}], "id": "5006100002", "name": "USPS COLLECTION BOX - PO LOBBY", "address": {"city": "CUMMING", "state": "IA", "street": "121 N 44TH ST", "postcode": "50061"}}},
{"geometry": {"type": "Point", "coordinates": [-93.9611178631, 41.6854292698]}, "type": "Feature", "properties": {"collection_times": [{"days": "Mon-Fri", "time": "4:30pm"}, {"days": "Sat", "time": "5:00pm"}, {"days": "Sun", "time": "Closed"}], "id": "5006300003", "name": "USPS COLLECTION BOX - BLUE BOX", "address": {"city": "DALLAS CENTER", "state": "IA", "street": "506 14TH ST", "postcode": "50063"}}},
{"geometry": {"type": "Point", "coordinates": [-93.9611178631, 41.6854292698]}, "type": "Feature", "properties": {"collection_times": [{"days": "Mon-Fri", "time": "4:30pm"}, {"days": "Sat", "time": "11:00am"}, {"days": "Sun", "time": "Closed"}], "id": "5006300004", "name": "USPS COLLECTION BOX - PO LOBBY", "address": {"city": "DALLAS CENTER", "state": "IA", "street": "506 14TH ST", "postcode": "50063"}}},
{"geometry": {"type": "Point", "coordinates": [-94.239618667, 42.1055429368]}, "type": "Feature", "properties": {"collection_times": [{"days": "Mon-Sat", "time": "3:45pm"}, {"days": "Sun", "time": "Closed"}], "id": "5006400001", "name": "USPS COLLECTION BOX - BLUE BOX", "address": {"city": "DANA", "state": "IA", "street": "104 GILMORE ST", "postcode": "50064"}}},
{"geometry": {"type": "Point", "coordinates": [-94.239618667, 42.1055429368]}, "type": "Feature", "properties": {"collection_times": [{"days": "Mon-Fri", "time": "2:15pm"}, {"days": "Sat-Sun", "time": "Closed"}], "id": "5006400002", "name": "USPS COLLECTION BOX - PO LOBBY", "address": {"city": "DANA", "state": "IA", "street": "104 GILMORE ST", "postcode": "50064"}}},
{"geometry": {"type": "Point", "coordinates": [-93.8436549186, 40.6508677758]}, "type": "Feature", "properties": {"collection_times": [{"days": "Mon-Sat", "time": "4:15pm"}, {"days": "Sun", "time": "Closed"}], "id": "5006500001", "name": "USPS COLLECTION BOX - BLUE BOX", "address": {"city": "DAVIS CITY", "state": "IA", "street": "613 S MUIR ST", "postcode": "50065"}}},
{"geometry": {"type": "Point", "coordinates": [-93.8436549186, 40.6508677758]}, "type": "Feature", "properties": {"collection_times": [{"days": "Mon-Fri", "time": "4:15pm"}, {"days": "Sat-Sun", "time": "Closed"}], "id": "5006500002", "name": "USPS COLLECTION BOX - PO LOBBY", "address": {"city": "DAVIS CITY", "state": "IA", "street": "613 S MUIR ST", "postcode": "50065"}}},
{"geometry": {"type": "Point", "coordinates": [-94.2209061933, 41.8439111333]}, "type": "Feature", "properties": {"collection_times": [{"days": "Mon-Sat", "time": "4:15pm"}, {"days": "Sun", "time": "Closed"}], "id": "5006600001", "name": "USPS COLLECTION BOX - BLUE BOX", "address": {"city": "DAWSON", "state": "IA", "street": "302 E WALNUT AVE", "postcode": "50066"}}},
{"geometry": {"type": "Point", "coordinates": [-94.2219944149, 41.8438890447]}, "type": "Feature", "properties": {"collection_times": [{"days": "Mon-Fri", "time": "10:45am"}, {"days": "Sat-Sun", "time": "Closed"}], "id": "5006600002", "name": "USPS COLLECTION BOX - PO LOBBY", "address": {"city": "DAWSON", "state": "IA", "street": "302 E WALNUT AVE", "postcode": "50066"}}},
{"geometry": {"type": "Point", "coordinates": [-93.8432045297, 40.7682047269]}, "type": "Feature", "properties": {"collection_times": [{"days": "Mon-Sat", "time": "3:45pm"}, {"days": "Sun", "time": "Closed"}], "id": "5006700001", "name": "USPS COLLECTION BOX - BLUE BOX", "address": {"city": "DECATUR", "state": "IA", "street": "408 W NATIONAL ST", "postcode": "50067"}}},
{"geometry": {"type": "Point", "coordinates": [-93.8432045297, 40.7682047269]}, "type": "Feature", "properties": {"collection_times": [{"days": "Mon-Fri", "time": "11:45am"}, {"days": "Sat-Sun", "time": "Closed"}], "id": "5006700002", "name": "USPS COLLECTION BOX - PO LOBBY", "address": {"city": "DECATUR", "state": "IA", "street": "408 W NATIONAL ST", "postcode": "50067"}}},
{"geometry": {"type": "Point", "coordinates": [-93.45768, 40.93153]}, "type": "Feature", "properties": {"collection_times": [{"days": "Mon-Sat", "time": "4:15pm"}, {"days": "Sun", "time": "Closed"}], "id": "5006800001", "name": "USPS COLLECTION BOX - BLUE BOX", "address": {"city": "DERBY", "state": "IA", "street": "481 FRONT ST", "postcode": "50068"}}},
{"geometry": {"type": "Point", "coordinates": [-93.45768, 40.93153]}, "type": "Feature", "properties": {"collection_times": [{"days": "Mon-Fri", "time": "11:45am"}, {"days": "Sat-Sun", "time": "Closed"}], "id": "5006800002", "name": "USPS COLLECTION BOX - PO LOBBY", "address": {"city": "DERBY", "state": "IA", "street": "481 FRONT ST", "postcode": "50068"}}},
{"geometry": {"type": "Point", "coordinates": [-94.0125448545, 41.534170008]}, "type": "Feature", "properties": {"collection_times": [{"days": "Mon-Sat", "time": "4:00pm"}, {"days": "Sun", "time": "Closed"}], "id": "5006900001", "name": "USPS COLLECTION BOX - BLUE BOX", "address": {"city": "DE SOTO", "state": "IA", "street": "859 GUTHRIE ST", "postcode": "50069"}}},
{"geometry": {"type": "Point", "coordinates": [-94.0125448545, 41.534170008]}, "type": "Feature", "properties": {"collection_times": [{"days": "Mon-Fri", "time": "3:45pm"}, {"days": "Sat", "time": "11:45am"}, {"days": "Sun", "time": "Closed"}], "id": "5006900002", "name": "USPS COLLECTION BOX - PO LOBBY", "address": {"city": "DE SOTO", "state": "IA", "street": "859 GUTHRIE ST", "postcode": "50069"}}},
{"geometry": {"type": "Point", "coordinates": [-94.2282261682, 41.5159950642]}, "type": "Feature", "properties": {"collection_times": [{"days": "Mon-Sat", "time": "4:30pm"}, {"days": "Sun", "time": "Closed"}], "id": "5007000001", "name": "USPS COLLECTION BOX - BLUE BOX", "address": {"city": "DEXTER", "state": "IA", "street": "702 MARSHALL ST", "postcode": "50070"}}},
{"geometry": {"type": "Point", "coordinates": [-94.2282261682, 41.5159950642]}, "type": "Feature", "properties": {"collection_times": [{"days": "Mon-Fri", "time": "11:45am"}, {"days": "Sat", "time": "9:45am"}, {"days": "Sun", "time": "Closed"}], "id": "5007000002", "name": "USPS COLLECTION BOX - PO LOBBY", "address": {"city": "DEXTER", "state": "IA", "street": "702 MARSHALL ST", "postcode": "50070"}}},
{"geometry": {"type": "Point", "coordinates": [-93.5011734092, 42.6565198822]}, "type": "Feature", "properties": {"collection_times": [{"days": "Mon-Sat", "time": "3:45pm"}, {"days": "Sun", "time": "Closed"}], "id": "5007100002", "name": "USPS COLLECTION BOX - BLUE BOX", "address": {"city": "DOWS", "state": "IA", "street": "101 W ELLSWORTH ST", "postcode": "50071"}}},
{"geometry": {"type": "Point", "coordinates": [-93.5012343666, 42.6565197401]}, "type": "Feature", "properties": {"collection_times": [{"days": "Mon-Fri", "time": "3:30pm"}, {"days": "Sat-Sun", "time": "Closed"}], "id": "5007100003", "name": "USPS COLLECTION BOX - PO LOBBY", "address": {"city": "DOWS", "state": "IA", "street": "105 W ELLSWORTH ST", "postcode": "50071"}}},
{"geometry": {"type": "Point", "coordinates": [-94.1225563274, 41.4916415694]}, "type": "Feature", "properties": {"collection_times": [{"days": "Mon-Sat", "time": "4:30pm"}, {"days": "Sun", "time": "Closed"}], "id": "5007200001", "name": "USPS COLLECTION BOX - BLUE BOX", "address": {"city": "EARLHAM", "state": "IA", "street": "125 E 1ST ST", "postcode": "50072"}}},
{"geometry": {"type": "Point", "coordinates": [-94.1225563274, 41.4916415694]}, "type": "Feature", "properties": {"collection_times": [{"days": "Mon-Fri", "time": "4:30pm"}, {"days": "Sat", "time": "10:45am"}, {"days": "Sun", "time": "Closed"}], "id": "5007200002", "name": "USPS COLLECTION BOX - PO LOBBY", "address": {"city": "EARLHAM", "state": "IA", "street": "125 E 1ST ST", "postcode": "50072"}}},
{"geometry": {"type": "Point", "coordinates": [-93.5277700442, 41.7934668356]}, "type": "Feature", "properties": {"collection_times": [{"days": "Mon-Sat", "time": "3:45pm"}, {"days": "Sun", "time": "Closed"}], "id": "5007300001", "name": "USPS COLLECTION BOX - BLUE BOX", "address": {"city": "ELKHART", "state": "IA", "street": "263 NW MAIN ST", "postcode": "50073"}}},
{"geometry": {"type": "Point", "coordinates": [-93.5277700442, 41.7934668356]}, "type": "Feature", "properties": {"collection_times": [{"days": "Mon-Fri", "time": "1:00pm"}, {"days": "Sat-Sun", "time": "Closed"}], "id": "5007300002", "name": "USPS COLLECTION BOX - PO LOBBY", "address": {"city": "ELKHART", "state": "IA", "street": "263 NW MAIN ST", "postcode": "50073"}}},
{"geometry": {"type": "Point", "coordinates": [-94.0813877708, 40.7828203423]}, "type": "Feature", "properties": {"collection_times": [{"days": "Mon-Sat", "time": "4:00pm"}, {"days": "Sun", "time": "Closed"}], "id": "5007400001", "name": "USPS COLLECTION BOX - BLUE BOX", "address": {"city": "ELLSTON", "state": "IA", "street": "105 E MAIN ST", "postcode": "50074"}}},
{"geometry": {"type": "Point", "coordinates": [-94.0813877708, 40.7828203423]}, "type": "Feature", "properties": {"collection_times": [{"days": "Mon-Fri", "time": "12:15pm"}, {"days": "Sat-Sun", "time": "Closed"}], "id": "5007400002", "name": "USPS COLLECTION BOX - PO LOBBY", "address": {"city": "ELLSTON", "state": "IA", "street": "105 E MAIN ST", "postcode": "50074"}}},
{"geometry": {"type": "Point", "coordinates": [-93.5788127823, 42.3121146602]}, "type": "Feature", "properties": {"collection_times": [{"days": "Mon-Sat", "time": "3:45pm"}, {"days": "Sun", "time": "Closed"}], "id": "5007500001", "name": "USPS COLLECTION BOX - BLUE BOX", "address": {"city": "ELLSWORTH", "state": "IA", "street": "1545 DEWITT ST", "postcode": "50075"}}},
{"geometry": {"type": "Point", "coordinates": [-93.5788127823, 42.3121146602]}, "type": "Feature", "properties": {"collection_times": [{"days": "Mon-Fri", "time": "11:45am"}, {"days": "Sat-Sun", "time": "Closed"}], "id": "5007500002", "name": "USPS COLLECTION BOX - PO LOBBY", "address": {"city": "ELLSWORTH", "state": "IA", "street": "1545 DEWITT ST", "postcode": "50075"}}},
{"geometry": {"type": "Point", "coordinates": [-94.8776035278, 41.5920321387]}, "type": "Feature", "properties": {"collection_times": [{"days": "Mon-Sat", "time": "4:00pm"}, {"days": "Sun", "time": "Closed"}], "id": "5007600001", "name": "USPS COLLECTION BOX - BLUE BOX", "address": {"city": "EXIRA", "state": "IA", "street": "101 N CARTHAGE ST", "postcode": "50076"}}},
{"geometry": {"type": "Point", "coordinates": [-94.8776035278, 41.5920321387]}, "type": "Feature", "properties": {"collection_times": [{"days": "Mon-Fri", "time": "2:15pm"}, {"days": "Sat", "time": "10:45am"}, {"days": "Sun", "time": "Closed"}], "id": "5007600003", "name": "USPS COLLECTION BOX - PO LOBBY", "address": {"city": "EXIRA", "state": "IA", "street": "101 N CARTHAGE ST", "postcode": "50076"}}},
{"geometry": {"type": "Point", "coordinates": [-92.8646470711, 41.9379308434]}, "type": "Feature", "properties": {"collection_times": [{"days": "Mon-Sat", "time": "4:00pm"}, {"days": "Sun", "time": "Closed"}], "id": "5007800001", "name": "USPS COLLECTION BOX - BLUE BOX", "address": {"city": "FERGUSON", "state": "IA", "street": "275 1ST ST", "postcode": "50078"}}},
{"geometry": {"type": "Point", "coordinates": [-92.8646470711, 41.9379308434]}, "type": "Feature", "properties": {"collection_times": [{"days": "Mon-Fri", "time": "2:45pm"}, {"days": "Sat-Sun", "time": "Closed"}], "id": "5007800002", "name": "USPS COLLECTION BOX - PO LOBBY", "address": {"city": "FERGUSON", "state": "IA", "street": "275 1ST ST", "postcode": "50078"}}}
]}
