{"type": "FeatureCollection", "features": [
{"geometry": {"type": "Point", "coordinates": [-93.3956401925, 42.245488575]}, "type": "Feature", "properties": {"collection_times": [{"days": "Mon-Sat", "time": "4:45pm"}, {"days": "Sun", "time": "Closed"}], "id": "5010200001", "name": "USPS COLLECTION BOX - BLUE BOX", "address": {"city": "GARDEN CITY", "state": "IA", "street": "31550 COUNTY HWY S-27", "postcode": "50102"}}},
{"geometry": {"type": "Point", "coordinates": [-93.3956401925, 42.245488575]}, "type": "Feature", "properties": {"collection_times": [{"days": "Mon-Fri", "time": "9:45am"}, {"days": "Sat-Sun", "time": "Closed"}], "id": "5010200002", "name": "USPS COLLECTION BOX - PO LOBBY", "address": {"city": "GARDEN CITY", "state": "IA", "street": "31550 COUNTY HWY S-27", "postcode": "50102"}}},
{"geometry": {"type": "Point", "coordinates": [-93.6113197616, 40.8270742986]}, "type": "Feature", "properties": {"collection_times": [{"days": "Mon-Sat", "time": "3:45pm"}, {"days": "Sun", "time": "Closed"}], "id": "5010300001", "name": "USPS COLLECTION BOX - BLUE BOX", "address": {"city": "GARDEN GROVE", "state": "IA", "street": "100 E MAIN ST", "postcode": "50103"}}},
{"geometry": {"type": "Point", "coordinates": [-93.6113197616, 40.8270742986]}, "type": "Feature", "properties": {"collection_times": [{"days": "Mon-Fri", "time": "11:45am"}, {"days": "Sat-Sun", "time": "Closed"}], "id": "5010300002", "name": "USPS COLLECTION BOX - PO LOBBY", "address": {"city": "GARDEN GROVE", "state": "IA", "street": "100 E MAIN ST", "postcode": "50103"}}},
{"geometry": {"type": "Point", "coordinates": [-92.3937120268, 41.4810169823]}, "type": "Feature", "properties": {"collection_times": [{"days": "Mon-Sat", "time": "4:00pm"}, {"days": "Sun", "time": "Closed"}], "id": "5010400001", "name": "USPS COLLECTION BOX - BLUE BOX", "address": {"city": "GIBSON", "state": "IA", "street": "105 S MARSHALL ST", "postcode": "50104"}}},
{"geometry": {"type": "Point", "coordinates": [-92.3937120268, 41.4810169823]}, "type": "Feature", "properties": {"collection_times": [{"days": "Mon-Fri", "time": "11:45am"}, {"days": "Sat-Sun", "time": "Closed"}], "id": "5010400002", "name": "USPS COLLECTION BOX - PO LOBBY", "address": {"city": "GIBSON", "state": "IA", "street": "105 S MARSHALL ST", "postcode": "50104"}}},
{"geometry": {"type": "Point", "coordinates": [-93.6495480574, 42.1080708022]}, "type": "Feature", "properties": {"collection_times": [{"days": "Mon-Sat", "time": "4:45pm"}, {"days": "Sun", "time": "Closed"}], "id": "5010500001", "name": "USPS COLLECTION BOX - BLUE BOX", "address": {"city": "GILBERT", "state": "IA", "street": "117 MAIN ST", "postcode": "50105"}}},
{"geometry": {"type": "Point", "coordinates": [-93.6495480574, 42.1080708022]}, "type": "Feature", "properties": {"collection_times": [{"days": "Mon-Fri", "time": "2:15pm"}, {"days": "Sat-Sun", "time": "Closed"}], "id": "5010500002", "name": "USPS COLLECTION BOX - PO LOBBY", "address": {"city": "GILBERT", "state": "IA", "street": "117 MAIN ST", "postcode": "50105"}}},
{"geometry": {"type": "Point", "coordinates": [-92.7870988781, 41.8795833854]}, "type": "Feature", "properties": {"collection_times": [{"days": "Mon-Sat", "time": "3:30pm"}, {"days": "Sun", "time": "Closed"}], "id": "5010600001", "name": "USPS COLLECTION BOX - BLUE BOX", "address": {"city": "GILMAN", "state": "IA", "street": "108 N MAIN ST", "postcode": "50106"}}},
{"geometry": {"type": "Point", "coordinates": [-92.7870988781, 41.8795833854]}, "type": "Feature", "properties": {"collection_times": [{"days": "Mon-Fri", "time": "11:45am"}, {"days": "Sat-Sun", "time": "Closed"}], "id": "5010600002", "name": "USPS COLLECTION BOX - PO LOBBY", "address": {"city": "GILMAN", "state": "IA", "street": "108 N MAIN ST", "postcode": "50106"}}},
{"geometry": {"type": "Point", "coordinates": [-94.2396946203, 42.0317932634]}, "type": "Feature", "properties": {"collection_times": [{"days": "Mon-Sat", "time": "3:45pm"}, {"days": "Sun", "time": "Closed"}], "id": "5010700001", "name": "USPS COLLECTION BOX - BLUE BOX", "address": {"city": "GRAND JUNCTION", "state": "IA", "street": "405 MAIN ST E", "postcode": "50107"}}},
{"geometry": {"type": "Point", "coordinates": [-94.2396946203, 42.0317932634]}, "type": "Feature", "properties": {"collection_times": [{"days": "Mon-Fri", "time": "3:15pm"}, {"days": "Sat", "time": "9:30am"}, {"days": "Sun", "time": "Closed"}], "id": "5010700002", "name": "USPS COLLECTION BOX - PO LOBBY", "address": {"city": "GRAND JUNCTION", "state": "IA", "street": "405 MAIN ST E", "postcode": "50107"}}},
{"geometry": {"type": "Point", "coordinates": [-93.9682272444, 40.8203527708]}, "type": "Feature", "properties": {"collection_times": [{"days": "Mon-Sat", "time": "4:00pm"}, {"days": "Sun", "time": "Closed"}], "id": "5010800001", "name": "USPS COLLECTION BOX - BLUE BOX", "address": {"city": "GRAND RIVER", "state": "IA", "street": "246 BROADWAY ST", "postcode": "50108"}}},
{"geometry": {"type": "Point", "coordinates": [-93.9624515282, 40.8189081977]}, "type": "Feature", "properties": {"collection_times": [{"days": "Mon-Fri", "time": "11:45am"}, {"days": "Sat", "time": "10:00am"}, {"days": "Sun", "time": "Closed"}], "id": "5010800002", "name": "USPS COLLECTION BOX - PO LOBBY", "address": {"city": "GRAND RIVER", "state": "IA", "street": "246 BROADWAY ST", "postcode": "50108"}}},
{"geometry": {"type": "Point", "coordinates": [-93.8269152296, 41.7710942437]}, "type": "Feature", "properties": {"collection_times": [{"days": "Mon-Sat", "time": "4:30pm"}, {"days": "Sun", "time": "Closed"}], "id": "5010900001", "name": "USPS COLLECTION BOX - BLUE BOX", "address": {"city": "GRANGER", "state": "IA", "street": "1902 OAK ST", "postcode": "50109"}}},
{"geometry": {"type": "Point", "coordinates": [-93.8269152296, 41.7710942437]}, "type": "Feature", "properties": {"collection_times": [{"days": "Mon-Fri", "time": "4:30pm"}, {"days": "Sat", "time": "8:30am"}, {"days": "Sun", "time": "Closed"}], "id": "5010900002", "name": "USPS COLLECTION BOX - PO LOBBY", "address": {"city": "GRANGER", "state": "IA", "street": "1902 OAK ST", "postcode": "50109"}}},
{"geometry": {"type": "Point", "coordinates": [-94.983038936, 41.839463299]}, "type": "Feature", "properties": {"collection_times": [{"days": "Mon-Sat", "time": "3:30pm"}, {"days": "Sun", "time": "Closed"}], "id": "5011000001", "name": "USPS COLLECTION BOX - BLUE BOX", "address": {"city": "GRAY", "state": "IA", "street": "204 MAIN ST", "postcode": "50110"}}},
{"geometry": {"type": "Point", "coordinates": [-94.9829856783, 41.8389222249]}, "type": "Feature", "properties": {"collection_times": [{"days": "Mon-Sat", "time": "12:45pm"}, {"days": "Sun", "time": "Closed"}], "id": "5011000002", "name": "USPS COLLECTION BOX - PO LOBBY", "address": {"city": "GRAY", "state": "IA", "street": "204 MAIN ST", "postcode": "50110"}}},
{"geometry": {"type": "Point", "coordinates": [-93.779005937, 41.6854357838]}, "type": "Feature", "properties": {"collection_times": [{"days": "Mon-Fri", "time": "5:00pm"}, {"days": "Sat", "time": "11:00am"}, {"days": "Sun", "time": "Closed"}], "id": "5011100001", "name": "USPS COLLECTION BOX - BLUE BOX", "address": {"city": "GRIMES", "state": "IA", "street": "400 SE GATEWAY DR", "postcode": "50111"}}},
{"geometry": {"type": "Point", "coordinates": [-93.779533157, 41.6857636144]}, "type": "Feature", "properties": {"collection_times": [{"days": "Mon-Fri", "time": "5:00pm"}, {"days": "Sat", "time": "11:00am"}, {"days": "Sun", "time": "Closed"}], "id": "5011100003", "name": "USPS COLLECTION BOX - PO LOBBY", "address": {"city": "GRIMES", "state": "IA", "street": "400 SE GATEWAY DR", "postcode": "50111"}}},
{"geometry": {"type": "Point", "coordinates": [-92.7240282229, 41.7437017986]}, "type": "Feature", "properties": {"collection_times": [{"days": "Mon-Fri", "time": "5:00pm"}, {"days": "Sat", "time": "4:00pm"}, {"days": "Sun", "time": "Closed"}], "id": "5011200010", "name": "USPS COLLECTION BOX - BLUE BOX", "address": {"city": "GRINNELL", "state": "IA", "street": "932 BROAD ST", "postcode": "50112"}}},
{"geometry": {"type": "Point", "coordinates": [-92.727413944, 41.7407461642]}, "type": "Feature", "properties": {"collection_times": [{"days": "Mon-Sat", "time": "10:00am"}, {"days": "Sun", "time": "Closed"}], "id": "5011200011", "name": "USPS COLLECTION BOX - BLUE BOX", "address": {"city": "GRINNELL", "state": "IA", "street": "727 WEST ST", "postcode": "50112"}}},
{"geometry": {"type": "Point", "coordinates": [-92.7154976288, 41.7385397967]}, "type": "Feature", "properties": {"collection_times": [{"days": "Mon-Sat", "time": "9:00am"}, {"days": "Sun", "time": "Closed"}], "id": "5011200012", "name": "USPS COLLECTION BOX - BLUE BOX", "address": {"city": "GRINNELL", "state": "IA", "street": "415 INDUSTRIAL AVE", "postcode": "50112"}}},
{"geometry": {"type": "Point", "coordinates": [-92.7256676846, 41.7447561739]}, "type": "Feature", "properties": {"collection_times": [{"days": "Mon-Fri", "time": "5:00pm"}, {"days": "Sat", "time": "4:00pm"}, {"days": "Sun", "time": "Closed"}], "id": "5011200016", "name": "USPS COLLECTION BOX - BLUE BOX", "address": {"city": "GRINNELL", "state": "IA", "street": "805 5TH AVE", "postcode": "50112"}}},
{"geometry": {"type": "Point", "coordinates": [-92.7241686244, 41.7420382477]}, "type": "Feature", "properties": {"collection_times": [{"days": "Mon-Fri", "time": "5:00pm"}, {"days": "Sat", "time": "4:00pm"}, {"days": "Sun", "time": "Closed"}], "id": "5011200017", "name": "USPS COLLECTION BOX - BLUE BOX", "address": {"city": "GRINNELL", "state": "IA", "street": "837 BROAD ST", "postcode": "50112"}}},
{"geometry": {"type": "Point", "coordinates": [-92.7256560266, 41.7432992944]}, "type": "Feature", "properties": {"collection_times": [{"days": "Mon-Fri", "time": "5:00pm"}, {"days": "Sat", "time": "4:00pm"}, {"days": "Sun", "time": "Closed"}], "id": "5011200018", "name": "USPS COLLECTION BOX - BLUE BOX", "address": {"city": "GRINNELL", "state": "IA", "street": "801 4TH AVE", "postcode": "50112"}}},
{"geometry": {"type": "Point", "coordinates": [-92.7240282229, 41.7437017986]}, "type": "Feature", "properties": {"collection_times": [{"days": "Mon-Fri", "time": "5:00pm"}, {"days": "Sat", "time": "4:00pm"}, {"days": "Sun", "time": "Closed"}], "id": "5011200023", "name": "USPS COLLECTION BOX - BLUE BOX", "address": {"city": "GRINNELL", "state": "IA", "street": "932 BROAD ST", "postcode": "50112"}}},
{"geometry": {"type": "Point", "coordinates": [-92.7240282229, 41.7437017986]}, "type": "Feature", "properties": {"collection_times": [{"days": "Mon-Fri", "time": "5:00pm"}, {"days": "Sat", "time": "4:00pm"}, {"days": "Sun", "time": "Closed"}], "id": "5011200024", "name": "USPS COLLECTION BOX - PO LOBBY", "address": {"city": "GRINNELL", "state": "IA", "street": "932 BROAD ST", "postcode": "50112"}}},
{"geometry": {"type": "Point", "coordinates": [-92.7272681585, 41.7283127967]}, "type": "Feature", "properties": {"collection_times": [{"days": "Mon-Sat", "time": "9:00am"}, {"days": "Sun", "time": "Closed"}], "id": "5011200025", "name": "USPS COLLECTION BOX - BLUE BOX", "address": {"city": "GRINNELL", "state": "IA", "street": "320 WEST ST S", "postcode": "50112"}}},
{"geometry": {"type": "Point", "coordinates": [-94.5003689267, 41.6783028768]}, "type": "Feature", "properties": {"collection_times": [{"days": "Mon-Sat", "time": "4:45pm"}, {"days": "Sun", "time": "Closed"}], "id": "5011500002", "name": "USPS COLLECTION BOX - BLUE BOX", "address": {"city": "GUTHRIE CENTER", "state": "IA", "street": "500 MAIN ST", "postcode": "50115"}}},
{"geometry": {"type": "Point", "coordinates": [-94.5003689267, 41.6783028768]}, "type": "Feature", "properties": {"collection_times": [{"days": "Mon-Fri", "time": "4:45pm"}, {"days": "Sat", "time": "10:30am"}, {"days": "Sun", "time": "Closed"}], "id": "5011500003", "name": "USPS COLLECTION BOX - PO LOBBY", "address": {"city": "GUTHRIE CENTER", "state": "IA", "street": "500 MAIN ST", "postcode": "50115"}}},
{"geometry": {"type": "Point", "coordinates": [-92.9048848953, 41.1680683959]}, "type": "Feature", "properties": {"collection_times": [{"days": "Mon-Sat", "time": "3:45pm"}, {"days": "Sun", "time": "Closed"}], "id": "5011600001", "name": "USPS COLLECTION BOX - BLUE BOX", "address": {"city": "HAMILTON", "state": "IA", "street": "514 EAST ST", "postcode": "50116"}}},
{"geometry": {"type": "Point", "coordinates": [-92.9048848953, 41.1680683959]}, "type": "Feature", "properties": {"collection_times": [{"days": "Mon-Fri", "time": "2:45pm"}, {"days": "Sat", "time": "2:00pm"}, {"days": "Sun", "time": "Closed"}], "id": "5011600002", "name": "USPS COLLECTION BOX - PO LOBBY", "address": {"city": "HAMILTON", "state": "IA", "street": "514 EAST ST", "postcode": "50116"}}},
{"geometry": {"type": "Point", "coordinates": [-93.4028655244, 41.4591321482]}, "type": "Feature", "properties": {"collection_times": [{"days": "Mon-Fri", "time": "4:30pm"}, {"days": "Sat", "time": "4:45pm"}, {"days": "Sun", "time": "Closed"}], "id": "5011800001", "name": "USPS COLLECTION BOX - BLUE BOX", "address": {"city": "HARTFORD", "state": "IA", "street": "120 S VINE ST", "postcode": "50118"}}},
{"geometry": {"type": "Point", "coordinates": [-93.4028655244, 41.4591321482]}, "type": "Feature", "properties": {"collection_times": [{"days": "Mon-Fri", "time": "4:30pm"}, {"days": "Sat", "time": "11:00am"}, {"days": "Sun", "time": "Closed"}], "id": "5011800002", "name": "USPS COLLECTION BOX - PO LOBBY", "address": {"city": "HARTFORD", "state": "IA", "street": "120 S VINE ST", "postcode": "50118"}}},
{"geometry": {"type": "Point", "coordinates": [-92.9228736733, 41.315501659]}, "type": "Feature", "properties": {"collection_times": [{"days": "Mon-Sat", "time": "4:30pm"}, {"days": "Sun", "time": "Closed"}], "id": "5011900001", "name": "USPS COLLECTION BOX - BLUE BOX", "address": {"city": "HARVEY", "state": "IA", "street": "603 CENTRAL ST", "postcode": "50119"}}},
{"geometry": {"type": "Point", "coordinates": [-92.9228736733, 41.315501659]}, "type": "Feature", "properties": {"collection_times": [{"days": "Mon-Fri", "time": "2:45pm"}, {"days": "Sat", "time": "2:00pm"}, {"days": "Sun", "time": "Closed"}], "id": "5011900002", "name": "USPS COLLECTION BOX - PO LOBBY", "address": {"city": "HARVEY", "state": "IA", "street": "603 CENTRAL ST", "postcode": "50119"}}},
{"geometry": {"type": "Point", "coordinates": [-92.9608318234, 41.9422113564]}, "type": "Feature", "properties": {"collection_times": [{"days": "Mon-Sat", "time": "4:00pm"}, {"days": "Sun", "time": "Closed"}], "id": "5012000001", "name": "USPS COLLECTION BOX - BLUE BOX", "address": {"city": "HAVERHILL", "state": "IA", "street": "5 MAIN ST", "postcode": "50120"}}},
{"geometry": {"type": "Point", "coordinates": [-92.9608318234, 41.9422113564]}, "type": "Feature", "properties": {"collection_times": [{"days": "Mon-Fri", "time": "3:45pm"}, {"days": "Sat", "time": "1:45pm"}, {"days": "Sun", "time": "Closed"}], "id": "5012000002", "name": "USPS COLLECTION BOX - PO LOBBY", "address": {"city": "HAVERHILL", "state": "IA", "street": "5 MAIN ST", "postcode": "50120"}}},
{"geometry": {"type": "Point", "coordinates": [-93.3102936457, 42.2976812136]}, "type": "Feature", "properties": {"collection_times": [{"days": "Mon-Sat", "time": "3:30pm"}, {"days": "Sun", "time": "Closed"}], "id": "5012200001", "name": "USPS COLLECTION BOX - BLUE BOX", "address": {"city": "HUBBARD", "state": "IA", "street": "219 E MAIN ST", "postcode": "50122"}}},
{"geometry": {"type": "Point", "coordinates": [-93.3102936457, 42.2976812136]}, "type": "Feature", "properties": {"collection_times": [{"days": "Mon-Fri", "time": "2:30pm"}, {"days": "Sat", "time": "10:45am"}, {"days": "Sun", "time": "Closed"}], "id": "5012200002", "name": "USPS COLLECTION BOX - PO LOBBY", "address": {"city": "HUBBARD", "state": "IA", "street": "219 E MAIN ST", "postcode": "50122"}}},
{"geometry": {"type": "Point", "coordinates": [-93.4992036248, 40.8588419239]}, "type": "Feature", "properties": {"collection_times": [{"days": "Mon-Sat", "time": "4:30pm"}, {"days": "Sun", "time": "Closed"}], "id": "5012300001", "name": "USPS COLLECTION BOX - BLUE BOX", "address": {"city": "HUMESTON", "state": "IA", "street": "117 BROAD ST", "postcode": "50123"}}},
{"geometry": {"type": "Point", "coordinates": [-93.4992036248, 40.8588419239]}, "type": "Feature", "properties": {"collection_times": [{"days": "Mon-Fri", "time": "11:45am"}, {"days": "Sat-Sun", "time": "Closed"}], "id": "5012300002", "name": "USPS COLLECTION BOX - PO LOBBY", "address": {"city": "HUMESTON", "state": "IA", "street": "117 BROAD ST", "postcode": "50123"}}},
{"geometry": {"type": "Point", "coordinates": [-93.6028148249, 41.8980208405]}, "type": "Feature", "properties": {"collection_times": [{"days": "Mon-Fri", "time": "3:30pm"}, {"days": "Sat", "time": "4:00pm"}, {"days": "Sun", "time": "Closed"}], "id": "5012400002", "name": "USPS COLLECTION BOX - BLUE BOX", "address": {"city": "HUXLEY", "state": "IA", "street": "624 N HIGHWAY 69", "postcode": "50124"}}},
{"geometry": {"type": "Point", "coordinates": [-93.6028148249, 41.8980208405]}, "type": "Feature", "properties": {"collection_times": [{"days": "Mon-Fri", "time": "4:00pm"}, {"days": "Sat-Sun", "time": "Closed"}], "id": "5012400007", "name": "USPS COLLECTION BOX - PO LOBBY", "address": {"city": "HUXLEY", "state": "IA", "street": "624 N HIGHWAY 69", "postcode": "50124"}}},
{"geometry": {"type": "Point", "coordinates": [-93.5584284521, 41.3683698294]}, "type": "Feature", "properties": {"collection_times": [{"days": "Mon-Fri", "time": "10:30am"}, {"days": "Sat-Sun", "time": "Closed"}], "id": "5012500017", "name": "USPS COLLECTION BOX - BLUE BOX", "address": {"city": "INDIANOLA", "state": "IA", "street": "910 N JEFFERSON WAY", "postcode": "50125"}}},
{"geometry": {"type": "Point", "coordinates": [-93.5595256535, 41.3655986471]}, "type": "Feature", "properties": {"collection_times": [{"days": "Mon-Fri", "time": "10:30am"}, {"days": "Sat-Sun", "time": "Closed"}], "id": "5012500018", "name": "USPS COLLECTION BOX - BLUE BOX", "address": {"city": "INDIANOLA", "state": "IA", "street": "207 E EUCLID AVE", "postcode": "50125"}}},
{"geometry": {"type": "Point", "coordinates": [-93.5626007484, 41.3593036319]}, "type": "Feature", "properties": {"collection_times": [{"days": "Mon-Fri", "time": "4:30pm"}, {"days": "Sat", "time": "2:30pm"}, {"days": "Sun", "time": "Closed"}], "id": "5012500019", "name": "USPS COLLECTION BOX - BLUE BOX", "address": {"city": "INDIANOLA", "state": "IA", "street": "201 W 1ST AVE", "postcode": "50125"}}},
{"geometry": {"type": "Point", "coordinates": [-93.5626007484, 41.3593036319]}, "type": "Feature", "properties": {"collection_times": [{"days": "Mon-Fri", "time": "4:30pm"}, {"days": "Sat", "time": "2:30pm"}, {"days": "Sun", "time": "Closed"}], "id": "5012500028", "name": "USPS COLLECTION BOX - BLUE BOX", "address": {"city": "INDIANOLA", "state": "IA", "street": "201 W 1ST AVE", "postcode": "50125"}}},
{"geometry": {"type": "Point", "coordinates": [-93.5626007484, 41.3593036319]}, "type": "Feature", "properties": {"collection_times": [{"days": "Mon-Fri", "time": "4:30pm"}, {"days": "Sat", "time": "2:30pm"}, {"days": "Sun", "time": "Closed"}], "id": "5012500030", "name": "USPS COLLECTION BOX - PO LOBBY", "address": {"city": "INDIANOLA", "state": "IA", "street": "201 W 1ST AVE", "postcode": "50125"}}},
{"geometry": {"type": "Point", "coordinates": [-93.2644403445, 42.5195917269]}, "type": "Feature", "properties": {"collection_times": [{"days": "Mon-Sat", "time": "3:30pm"}, {"days": "Sun", "time": "Closed"}], "id": "5012600007", "name": "USPS COLLECTION BOX - BLUE BOX", "address": {"city": "IOWA FALLS", "state": "IA", "street": "601 WASHINGTON AVE", "postcode": "50126"}}},
{"geometry": {"type": "Point", "coordinates": [-93.2631501169, 42.5195940157]}, "type": "Feature", "properties": {"collection_times": [{"days": "Mon-Sat", "time": "3:30pm"}, {"days": "Sun", "time": "Closed"}], "id": "5012600008", "name": "USPS COLLECTION BOX - BLUE BOX", "address": {"city": "IOWA FALLS", "state": "IA", "street": "505 WASHINGTON AVE", "postcode": "50126"}}},
{"geometry": {"type": "Point", "coordinates": [-93.2653561759, 42.5205890719]}, "type": "Feature", "properties": {"collection_times": [{"days": "Mon-Sat", "time": "4:30pm"}, {"days": "Sun", "time": "Closed"}], "id": "5012600010", "name": "USPS COLLECTION BOX - BLUE BOX", "address": {"city": "IOWA FALLS", "state": "IA", "street": "401 MAIN ST", "postcode": "50126"}}},
{"geometry": {"type": "Point", "coordinates": [-93.2653561759, 42.5205890719]}, "type": "Feature", "properties": {"collection_times": [{"days": "Mon-Sat", "time": "4:30pm"}, {"days": "Sun", "time": "Closed"}], "id": "5012600013", "name": "USPS COLLECTION BOX - BLUE BOX", "address": {"city": "IOWA FALLS", "state": "IA", "street": "401 MAIN ST", "postcode": "50126"}}},
{"geometry": {"type": "Point", "coordinates": [-93.2653561759, 42.5205890719]}, "type": "Feature", "properties": {"collection_times": [{"days": "Mon-Sat", "time": "4:30pm"}, {"days": "Sun", "time": "Closed"}], "id": "5012600014", "name": "USPS COLLECTION BOX - BLUE BOX", "address": {"city": "IOWA FALLS", "state": "IA", "street": "401 MAIN ST", "postcode": "50126"}}},
{"geometry": {"type": "Point", "coordinates": [-93.2653561759, 42.5205890719]}, "type": "Feature", "properties": {"collection_times": [{"days": "Mon-Fri", "time": "5:00pm"}, {"days": "Sat", "time": "4:45pm"}, {"days": "Sun", "time": "Closed"}], "id": "5012600015", "name": "USPS COLLECTION BOX - PO LOBBY", "address": {"city": "IOWA FALLS", "state": "IA", "street": "401 MAIN ST", "postcode": "50126"}}},
{"geometry": {"type": "Point", "coordinates": [-94.3080647635, 41.8472923878]}, "type": "Feature", "properties": {"collection_times": [{"days": "Mon-Sat", "time": "4:15pm"}, {"days": "Sun", "time": "Closed"}], "id": "5012800001", "name": "USPS COLLECTION BOX - BLUE BOX", "address": {"city": "JAMAICA", "state": "IA", "street": "405 MAIN ST", "postcode": "50128"}}},
{"geometry": {"type": "Point", "coordinates": [-94.3080647635, 41.8472923878]}, "type": "Feature", "properties": {"collection_times": [{"days": "Mon-Fri", "time": "3:45pm"}, {"days": "Sat-Sun", "time": "Closed"}], "id": "5012800002", "name": "USPS COLLECTION BOX - PO LOBBY", "address": {"city": "JAMAICA", "state": "IA", "street": "405 MAIN ST", "postcode": "50128"}}},
{"geometry": {"type": "Point", "coordinates": [-94.3748508908, 42.0143620042]}, "type": "Feature", "properties": {"collection_times": [{"days": "Mon-Sat", "time": "5:15pm"}, {"days": "Sun", "time": "Closed"}], "id": "5012900005", "name": "USPS COLLECTION BOX - BLUE BOX", "address": {"city": "JEFFERSON", "state": "IA", "street": "106 W HARRISON ST", "postcode": "50129"}}},
{"geometry": {"type": "Point", "coordinates": [-94.3748508908, 42.0143620042]}, "type": "Feature", "properties": {"collection_times": [{"days": "Mon-Fri", "time": "5:15pm"}, {"days": "Sat-Sun", "time": "Closed"}], "id": "5012900007", "name": "USPS COLLECTION BOX - PO LOBBY", "address": {"city": "JEFFERSON", "state": "IA", "street": "106 W HARRISON ST", "postcode": "50129"}}},
{"geometry": {"type": "Point", "coordinates": [-94.3748508908, 42.0143620042]}, "type": "Feature", "properties": {"collection_times": [{"days": "Mon-Sat", "time": "5:15pm"}, {"days": "Sun", "time": "Closed"}], "id": "5012900008", "name": "USPS COLLECTION BOX - BLUE BOX", "address": {"city": "JEFFERSON", "state": "IA", "street": "106 W HARRISON ST", "postcode": "50129"}}},
{"geometry": {"type": "Point", "coordinates": [-93.6401099024, 42.3022613568]}, "type": "Feature", "properties": {"collection_times": [{"days": "Mon-Sat", "time": "4:30pm"}, {"days": "Sun", "time": "Closed"}], "id": "5013000002", "name": "USPS COLLECTION BOX - BLUE BOX", "address": {"city": "JEWELL", "state": "IA", "street": "549 MAIN ST", "postcode": "50130"}}},
{"geometry": {"type": "Point", "coordinates": [-93.6401099024, 42.3022613568]}, "type": "Feature", "properties": {"collection_times": [{"days": "Mon-Fri", "time": "1:45pm"}, {"days": "Sat", "time": "8:45am"}, {"days": "Sun", "time": "Closed"}], "id": "5013000003", "name": "USPS COLLECTION BOX - PO LOBBY", "address": {"city": "JEWELL", "state": "IA", "street": "549 MAIN ST", "postcode": "50130"}}},
{"geometry": {"type": "Point", "coordinates": [-93.6977961579, 41.6660219482]}, "type": "Feature", "properties": {"collection_times": [{"days": "Mon-Fri", "time": "5:00pm"}, {"days": "Sat", "time": "11:00am"}, {"days": "Sun", "time": "Closed"}], "id": "5013100002", "name": "USPS COLLECTION BOX - BLUE BOX", "address": {"city": "JOHNSTON", "state": "IA", "street": "5874 MERLE HAY RD", "postcode": "50131"}}},
{"geometry": {"type": "Point", "coordinates": [-93.6977961579, 41.6660219482]}, "type": "Feature", "properties": {"collection_times": [{"days": "Mon-Fri", "time": "5:00pm"}, {"days": "Sat", "time": "11:00am"}, {"days": "Sun", "time": "Closed"}], "id": "5013100004", "name": "USPS COLLECTION BOX - PO LOBBY", "address": {"city": "JOHNSTON", "state": "IA", "street": "5874 MERLE HAY RD", "postcode": "50131"}}},
{"geometry": {"type": "Point", "coordinates": [-93.7190368335, 41.6727211894]}, "type": "Feature", "properties": {"collection_times": [{"days": "Mon-Fri", "time": "3:00pm"}, {"days": "Sat", "time": "10:00am"}, {"days": "Sun", "time": "Closed"}], "id": "5013100006", "name": "USPS COLLECTION BOX - BLUE BOX", "address": {"city": "JOHNSTON", "state": "IA", "street": "5440 NW 86TH ST", "postcode": "50131"}}},
{"geometry": {"type": "Point", "coordinates": [-93.7190368335, 41.6727211894]}, "type": "Feature", "properties": {"collection_times": [{"days": "Mon-Fri", "time": "3:00pm"}, {"days": "Sat", "time": "10:00am"}, {"days": "Sun", "time": "Closed"}], "id": "5013100007", "name": "USPS COLLECTION BOX - BLUE BOX", "address": {"city": "JOHNSTON", "state": "IA", "street": "5440 NW 86TH ST", "postcode": "50131"}}},
{"geometry": {"type": "Point", "coordinates": [-93.7280611944, 42.394389735]}, "type": "Feature", "properties": {"collection_times": [{"days": "Mon-Sat", "time": "4:00pm"}, {"days": "Sun", "time": "Closed"}], "id": "5013200001", "name": "USPS COLLECTION BOX - BLUE BOX", "address": {"city": "KAMRAR", "state": "IA", "street": "610 MAPLE ST", "postcode": "50132"}}},
{"geometry": {"type": "Point", "coordinates": [-93.7280611944, 42.394389735]}, "type": "Feature", "properties": {"collection_times": [{"days": "Mon-Fri", "time": "3:45pm"}, {"days": "Sat", "time": "12:45pm"}, {"days": "Sun", "time": "Closed"}], "id": "5013200002", "name": "USPS COLLECTION BOX - PO LOBBY", "address": {"city": "KAMRAR", "state": "IA", "street": "610 MAPLE ST", "postcode": "50132"}}},
{"geometry": {"type": "Point", "coordinates": [-94.0496182786, 40.7131619899]}, "type": "Feature", "properties": {"collection_times": [{"days": "Mon-Sat", "time": "4:30pm"}, {"days": "Sun", "time": "Closed"}], "id": "5013300001", "name": "USPS COLLECTION BOX - BLUE BOX", "address": {"city": "KELLERTON", "state": "IA", "street": "101 S DECATUR ST", "postcode": "50133"}}},
{"geometry": {"type": "Point", "coordinates": [-94.0496182786, 40.7131619899]}, "type": "Feature", "properties": {"collection_times": [{"days": "Mon-Fri", "time": "3:45pm"}, {"days": "Sat-Sun", "time": "Closed"}], "id": "5013300003", "name": "USPS COLLECTION BOX - PO LOBBY", "address": {"city": "KELLERTON", "state": "IA", "street": "101 S DECATUR ST", "postcode": "50133"}}},
{"geometry": {"type": "Point", "coordinates": [-92.9029649376, 41.7143457554]}, "type": "Feature", "properties": {"collection_times": [{"days": "Mon-Sat", "time": "12:30pm"}, {"days": "Sun", "time": "Closed"}], "id": "5013500001", "name": "USPS COLLECTION BOX - BLUE BOX", "address": {"city": "KELLOGG", "state": "IA", "street": "103 BLAIR ST", "postcode": "50135"}}},
{"geometry": {"type": "Point", "coordinates": [-92.9073659516, 41.7171361208]}, "type": "Feature", "properties": {"collection_times": [{"days": "Mon-Sat", "time": "4:30pm"}, {"days": "Sun", "time": "Closed"}], "id": "5013500002", "name": "USPS COLLECTION BOX - BLUE BOX", "address": {"city": "KELLOGG", "state": "IA", "street": "411 MAIN ST", "postcode": "50135"}}},
{"geometry": {"type": "Point", "coordinates": [-92.9073659516, 41.7171361208]}, "type": "Feature", "properties": {"collection_times": [{"days": "Mon-Fri", "time": "1:45pm"}, {"days": "Sat-Sun", "time": "Closed"}], "id": "5013500003", "name": "USPS COLLECTION BOX - PO LOBBY", "address": {"city": "KELLOGG", "state": "IA", "street": "411 MAIN ST", "postcode": "50135"}}},
{"geometry": {"type": "Point", "coordinates": [-92.2394476366, 41.452529055]}, "type": "Feature", "properties": {"collection_times": [{"days": "Mon-Sat", "time": "3:30pm"}, {"days": "Sun", "time": "Closed"}], "id": "5013600001", "name": "USPS COLLECTION BOX - BLUE BOX", "address": {"city": "KESWICK", "state": "IA", "street": "114 S IRONS ST", "postcode": "50136"}}},
{"geometry": {"type": "Point", "coordinates": [-92.2394476366, 41.452529055]}, "type": "Feature", "properties": {"collection_times": [{"days": "Mon-Fri", "time": "11:45am"}, {"days": "Sat-Sun", "time": "Closed"}], "id": "5013600002", "name": "USPS COLLECTION BOX - PO LOBBY", "address": {"city": "KESWICK", "state": "IA", "street": "114 S IRONS ST", "postcode": "50136"}}},
{"geometry": {"type": "Point", "coordinates": [-92.905907593, 41.6082228879]}, "type": "Feature", "properties": {"collection_times": [{"days": "Mon-Sat", "time": "5:30pm"}, {"days": "Sun", "time": "Closed"}], "id": "5013700001", "name": "USPS COLLECTION BOX - BLUE BOX", "address": {"city": "KILLDUFF", "state": "IA", "street": "7229 MAIN ST", "postcode": "50137"}}},
{"geometry": {"type": "Point", "coordinates": [-92.9027130491, 41.6073132514]}, "type": "Feature", "properties": {"collection_times": [{"days": "Mon-Fri", "time": "2:45pm"}, {"days": "Sat-Sun", "time": "Closed"}], "id": "5013700002", "name": "USPS COLLECTION BOX - PO LOBBY", "address": {"city": "KILLDUFF", "state": "IA", "street": "7229 MAIN ST", "postcode": "50137"}}},
{"geometry": {"type": "Point", "coordinates": [-93.0974550141, 41.318087479]}, "type": "Feature", "properties": {"collection_times": [{"days": "Mon-Fri", "time": "12:00pm"}, {"days": "Sat-Sun", "time": "Closed"}], "id": "5013800010", "name": "USPS COLLECTION BOX - BLUE BOX", "address": {"city": "KNOXVILLE", "state": "IA", "street": "215 E ROBINSON ST", "postcode": "50138"}}},
{"geometry": {"type": "Point", "coordinates": [-93.1066574043, 41.3253924852]}, "type": "Feature", "properties": {"collection_times": [{"days": "Mon-Fri", "time": "12:00pm"}, {"days": "Sat-Sun", "time": "Closed"}], "id": "5013800014", "name": "USPS COLLECTION BOX - BLUE BOX", "address": {"city": "KNOXVILLE", "state": "IA", "street": "809 W ROCK ISLAND ST", "postcode": "50138"}}},
{"geometry": {"type": "Point", "coordinates": [-93.0974550141, 41.318087479]}, "type": "Feature", "properties": {"collection_times": [{"days": "Mon-Fri", "time": "12:00pm"}, {"days": "Sat-Sun", "time": "Closed"}], "id": "5013800016", "name": "USPS COLLECTION BOX - BLUE BOX", "address": {"city": "KNOXVILLE", "state": "IA", "street": "215 E ROBINSON ST", "postcode": "50138"}}},
{"geometry": {"type": "Point", "coordinates": [-93.0976179048, 41.3199304114]}, "type": "Feature", "properties": {"collection_times": [{"days": "Mon-Sat", "time": "5:00pm"}, {"days": "Sun", "time": "Closed"}], "id": "5013800017", "name": "USPS COLLECTION BOX - BLUE BOX", "address": {"city": "KNOXVILLE", "state": "IA", "street": "201 E MARION ST", "postcode": "50138"}}},
{"geometry": {"type": "Point", "coordinates": [-93.0976179048, 41.3199304114]}, "type": "Feature", "properties": {"collection_times": [{"days": "Mon-Sat", "time": "5:00pm"}, {"days": "Sun", "time": "Closed"}], "id": "5013800018", "name": "USPS COLLECTION BOX - BLUE BOX", "address": {"city": "KNOXVILLE", "state": "IA", "street": "201 E MARION ST", "postcode": "50138"}}},
{"geometry": {"type": "Point", "coordinates": [-93.0976179048, 41.3199304114]}, "type": "Feature", "properties": {"collection_times": [{"days": "Mon-Sat", "time": "5:00pm"}, {"days": "Sun", "time": "Closed"}], "id": "5013800019", "name": "USPS COLLECTION BOX - BLUE BOX", "address": {"city": "KNOXVILLE", "state": "IA", "street": "201 E MARION ST", "postcode": "50138"}}},
{"geometry": {"type": "Point", "coordinates": [-93.0976179048, 41.3199304114]}, "type": "Feature", "properties": {"collection_times": [{"days": "Mon-Sat", "time": "5:00pm"}, {"days": "Sun", "time": "Closed"}], "id": "5013800022", "name": "USPS COLLECTION BOX - PO LOBBY", "address": {"city": "KNOXVILLE", "state": "IA", "street": "201 E MARION ST", "postcode": "50138"}}},
{"geometry": {"type": "Point", "coordinates": [-93.110242739, 41.306186643]}, "type": "Feature", "properties": {"collection_times": [{"days": "Mon-Fri", "time": "12:00pm"}, {"days": "Sat-Sun", "time": "Closed"}], "id": "5013800023", "name": "USPS COLLECTION BOX - BLUE BOX", "address": {"city": "KNOXVILLE", "state": "IA", "street": "814 W BELL AVE", "postcode": "50138"}}},
{"geometry": {"type": "Point", "coordinates": [-93.3840082505, 41.1893443686]}, "type": "Feature", "properties": {"collection_times": [{"days": "Mon-Sat", "time": "3:45pm"}, {"days": "Sun", "time": "Closed"}], "id": "5013900001", "name": "USPS COLLECTION BOX - BLUE BOX", "address": {"city": "LACONA", "state": "IA", "street": "104 S WASHINGTON AVE", "postcode": "50139"}}},
{"geometry": {"type": "Point", "coordinates": [-93.3840082505, 41.1893443686]}, "type": "Feature", "properties": {"collection_times": [{"days": "Mon-Fri", "time": "11:45am"}, {"days": "Sat-Sun", "time": "Closed"}], "id": "5013900002", "name": "USPS COLLECTION BOX - PO LOBBY", "address": {"city": "LACONA", "state": "IA", "street": "104 S WASHINGTON AVE", "postcode": "50139"}}},
{"geometry": {"type": "Point", "coordinates": [-93.9320827278, 40.6238097563]}, "type": "Feature", "properties": {"collection_times": [{"days": "Mon-Fri", "time": "4:45pm"}, {"days": "Sat", "time": "4:30pm"}, {"days": "Sun", "time": "Closed"}], "id": "5014000003", "name": "USPS COLLECTION BOX - BLUE BOX", "address": {"city": "LAMONI", "state": "IA", "street": "112 N MAPLE ST", "postcode": "50140"}}},
{"geometry": {"type": "Point", "coordinates": [-93.9320827278, 40.6238097563]}, "type": "Feature", "properties": {"collection_times": [{"days": "Mon-Fri", "time": "4:15pm"}, {"days": "Sat", "time": "11:45am"}, {"days": "Sun", "time": "Closed"}], "id": "5014000004", "name": "USPS COLLECTION BOX - PO LOBBY", "address": {"city": "LAMONI", "state": "IA", "street": "112 N MAPLE ST", "postcode": "50140"}}},
{"geometry": {"type": "Point", "coordinates": [-92.9418258398, 41.8683569233]}, "type": "Feature", "properties": {"collection_times": [{"days": "Mon-Sat", "time": "3:30pm"}, {"days": "Sun", "time": "Closed"}], "id": "5014100001", "name": "USPS COLLECTION BOX - BLUE BOX", "address": {"city": "LAUREL", "state": "IA", "street": "104 W MARKET ST", "postcode": "50141"}}},
{"geometry": {"type": "Point", "coordinates": [-92.9418258398, 41.8683569233]}, "type": "Feature", "properties": {"collection_times": [{"days": "Mon-Fri", "time": "11:45am"}, {"days": "Sat-Sun", "time": "Closed"}], "id": "5014100002", "name": "USPS COLLECTION BOX - PO LOBBY", "address": {"city": "LAUREL", "state": "IA", "street": "104 W MARKET ST", "postcode": "50141"}}},
{"geometry": {"type": "Point", "coordinates": [-92.7756169107, 42.0066546621]}, "type": "Feature", "properties": {"collection_times": [{"days": "Mon-Sat", "time": "3:15pm"}, {"days": "Sun", "time": "Closed"}], "id": "5014200001", "name": "USPS COLLECTION BOX - BLUE BOX", "address": {"city": "LE GRAND", "state": "IA", "street": "102 E MAIN ST", "postcode": "50142"}}},
{"geometry": {"type": "Point", "coordinates": [-92.7756169107, 42.0066546621]}, "type": "Feature", "properties": {"collection_times": [{"days": "Mon-Fri", "time": "3:15pm"}, {"days": "Sat-Sun", "time": "Closed"}], "id": "5014200002", "name": "USPS COLLECTION BOX - PO LOBBY", "address": {"city": "LE GRAND", "state": "IA", "street": "102 E MAIN ST", "postcode": "50142"}}},
{"geometry": {"type": "Point", "coordinates": [-92.7875885886, 41.3371954623]}, "type": "Feature", "properties": {"collection_times": [{"days": "Mon-Sat", "time": "4:15pm"}, {"days": "Sun", "time": "Closed"}], "id": "5014300001", "name": "USPS COLLECTION BOX - BLUE BOX", "address": {"city": "LEIGHTON", "state": "IA", "street": "219 OTLEY ST", "postcode": "50143"}}},
{"geometry": {"type": "Point", "coordinates": [-92.7875885886, 41.3371954623]}, "type": "Feature", "properties": {"collection_times": [{"days": "Mon-Fri", "time": "4:15pm"}, {"days": "Sat", "time": "2:15pm"}, {"days": "Sun", "time": "Closed"}], "id": "5014300002", "name": "USPS COLLECTION BOX - PO LOBBY", "address": {"city": "LEIGHTON", "state": "IA", "street": "219 OTLEY ST", "postcode": "50143"}}},
{"geometry": {"type": "Point", "coordinates": [-93.7481334417, 40.7384852531]}, "type": "Feature", "properties": {"collection_times": [{"days": "Mon-Sat", "time": "5:00pm"}, {"days": "Sun", "time": "Closed"}], "id": "5014400002", "name": "USPS COLLECTION BOX - BLUE BOX", "address": {"city": "LEON", "state": "IA", "street": "109 NE 2ND ST", "postcode": "50144"}}},
{"geometry": {"type": "Point", "coordinates": [-93.7481334417, 40.7384852531]}, "type": "Feature", "properties": {"collection_times": [{"days": "Mon-Fri", "time": "5:00pm"}, {"days": "Sat", "time": "9:00am"}, {"days": "Sun", "time": "Closed"}], "id": "5014400003", "name": "USPS COLLECTION BOX - PO LOBBY", "address": {"city": "LEON", "state": "IA", "street": "109 NE 2ND ST", "postcode": "50144"}}},
{"geometry": {"type": "Point", "coordinates": [-93.5002668097, 41.2071093706]}, "type": "Feature", "properties": {"collection_times": [{"days": "Mon-Sat", "time": "3:45pm"}, {"days": "Sun", "time": "Closed"}], "id": "5014500001", "name": "USPS COLLECTION BOX - BLUE BOX", "address": {"city": "LIBERTY CENTER", "state": "IA", "street": "21987 160TH AVE", "postcode": "50145"}}},
{"geometry": {"type": "Point", "coordinates": [-93.5002668097, 41.2071093706]}, "type": "Feature", "properties": {"collection_times": [{"days": "Mon-Fri", "time": "8:45am"}, {"days": "Sat-Sun", "time": "Closed"}], "id": "5014500002", "name": "USPS COLLECTION BOX - PO LOBBY", "address": {"city": "LIBERTY CENTER", "state": "IA", "street": "21987 160TH AVE", "postcode": "50145"}}},
{"geometry": {"type": "Point", "coordinates": [-94.269736215, 41.6441872221]}, "type": "Feature", "properties": {"collection_times": [{"days": "Mon-Sat", "time": "4:15pm"}, {"days": "Sun", "time": "Closed"}], "id": "5014600001", "name": "USPS COLLECTION BOX - BLUE BOX", "address": {"city": "LINDEN", "state": "IA", "street": "133 S MAIN ST", "postcode": "50146"}}},
{"geometry": {"type": "Point", "coordinates": [-94.269736215, 41.6441872221]}, "type": "Feature", "properties": {"collection_times": [{"days": "Mon-Fri", "time": "4:00pm"}, {"days": "Sat-Sun", "time": "Closed"}], "id": "5014600002", "name": "USPS COLLECTION BOX - PO LOBBY", "address": {"city": "LINDEN", "state": "IA", "street": "133 S MAIN ST", "postcode": "50146"}}},
{"geometry": {"type": "Point", "coordinates": [-93.523831426, 40.581034145]}, "type": "Feature", "properties": {"collection_times": [{"days": "Mon-Sat", "time": "3:45pm"}, {"days": "Sun", "time": "Closed"}], "id": "5014700002", "name": "USPS COLLECTION BOX - BLUE BOX", "address": {"city": "LINEVILLE", "state": "IA", "street": "220 BROWN ST", "postcode": "50147"}}},
{"geometry": {"type": "Point", "coordinates": [-93.523831426, 40.581034145]}, "type": "Feature", "properties": {"collection_times": [{"days": "Mon-Fri", "time": "11:45am"}, {"days": "Sat-Sun", "time": "Closed"}], "id": "5014700003", "name": "USPS COLLECTION BOX - PO LOBBY", "address": {"city": "LINEVILLE", "state": "IA", "street": "220 BROWN ST", "postcode": "50147"}}},
{"geometry": {"type": "Point", "coordinates": [-93.0039916944, 42.1898194011]}, "type": "Feature", "properties": {"collection_times": [{"days": "Mon-Fri", "time": "4:45pm"}, {"days": "Sat", "time": "2:30pm"}, {"days": "Sun", "time": "Closed"}], "id": "5014800001", "name": "USPS COLLECTION BOX - BLUE BOX", "address": {"city": "LISCOMB", "state": "IA", "street": "109 MAIN ST", "postcode": "50148"}}},
{"geometry": {"type": "Point", "coordinates": [-93.0039916944, 42.1898194011]}, "type": "Feature", "properties": {"collection_times": [{"days": "Mon-Fri", "time": "4:45pm"}, {"days": "Sat", "time": "2:30pm"}, {"days": "Sun", "time": "Closed"}], "id": "5014800002", "name": "USPS COLLECTION BOX - PO LOBBY", "address": {"city": "LISCOMB", "state": "IA", "street": "109 MAIN ST", "postcode": "50148"}}},
{"geometry": {"type": "Point", "coordinates": [-94.0554621729, 41.1269787652]}, "type": "Feature", "properties": {"collection_times": [{"days": "Mon-Sat", "time": "3:30pm"}, {"days": "Sun", "time": "Closed"}], "id": "5014900001", "name": "USPS COLLECTION BOX - BLUE BOX", "address": {"city": "LORIMOR", "state": "IA", "street": "512 MAIN ST", "postcode": "50149"}}},
{"geometry": {"type": "Point", "coordinates": [-94.0554621729, 41.1269787652]}, "type": "Feature", "properties": {"collection_times": [{"days": "Mon-Fri", "time": "11:45am"}, {"days": "Sat-Sun", "time": "Closed"}], "id": "5014900002", "name": "USPS COLLECTION BOX - PO LOBBY", "address": {"city": "LORIMOR", "state": "IA", "street": "512 MAIN ST", "postcode": "50149"}}},
{"geometry": {"type": "Point", "coordinates": [-92.9075755297, 41.1344735299]}, "type": "Feature", "properties": {"collection_times": [{"days": "Mon-Sat", "time": "3:45pm"}, {"days": "Sun", "time": "Closed"}], "id": "5015000001", "name": "USPS COLLECTION BOX - BLUE BOX", "address": {"city": "LOVILIA", "state": "IA", "street": "1712 S E AVE", "postcode": "50150"}}},
{"geometry": {"type": "Point", "coordinates": [-92.9075755297, 41.1344735299]}, "type": "Feature", "properties": {"collection_times": [{"days": "Mon-Fri", "time": "11:45am"}, {"days": "Sat-Sun", "time": "Closed"}], "id": "5015000002", "name": "USPS COLLECTION BOX - PO LOBBY", "address": {"city": "LOVILIA", "state": "IA", "street": "1712 S E AVE", "postcode": "50150"}}},
{"geometry": {"type": "Point", "coordinates": [-93.4608547072, 41.0285288253]}, "type": "Feature", "properties": {"collection_times": [{"days": "Mon-Sat", "time": "4:00pm"}, {"days": "Sun", "time": "Closed"}], "id": "5015100001", "name": "USPS COLLECTION BOX - BLUE BOX", "address": {"city": "LUCAS", "state": "IA", "street": "106 E FRONT ST", "postcode": "50151"}}},
{"geometry": {"type": "Point", "coordinates": [-93.4608547072, 41.0285288253]}, "type": "Feature", "properties": {"collection_times": [{"days": "Mon-Fri", "time": "11:15am"}, {"days": "Sat-Sun", "time": "Closed"}], "id": "5015100002", "name": "USPS COLLECTION BOX - PO LOBBY", "address": {"city": "LUCAS", "state": "IA", "street": "106 E FRONT ST", "postcode": "50151"}}},
{"geometry": {"type": "Point", "coordinates": [-92.7826893025, 41.5785330877]}, "type": "Feature", "properties": {"collection_times": [{"days": "Mon-Sat", "time": "4:00pm"}, {"days": "Sun", "time": "Closed"}], "id": "5015300001", "name": "USPS COLLECTION BOX - BLUE BOX", "address": {"city": "LYNNVILLE", "state": "IA", "street": "409 EAST ST", "postcode": "50153"}}},
{"geometry": {"type": "Point", "coordinates": [-92.7826893025, 41.5785330877]}, "type": "Feature", "properties": {"collection_times": [{"days": "Mon-Fri", "time": "11:15am"}, {"days": "Sat-Sun", "time": "Closed"}], "id": "5015300002", "name": "USPS COLLECTION BOX - PO LOBBY", "address": {"city": "LYNNVILLE", "state": "IA", "street": "409 EAST ST", "postcode": "50153"}}},
{"geometry": {"type": "Point", "coordinates": [-93.3902682728, 42.1651823355]}, "type": "Feature", "properties": {"collection_times": [{"days": "Mon-Sat", "time": "4:00pm"}, {"days": "Sun", "time": "Closed"}], "id": "5015400001", "name": "USPS COLLECTION BOX - BLUE BOX", "address": {"city": "MC CALLSBURG", "state": "IA", "street": "460 MAIN ST", "postcode": "50154"}}},
{"geometry": {"type": "Point", "coordinates": [-93.3902682728, 42.1651823355]}, "type": "Feature", "properties": {"collection_times": [{"days": "Mon-Fri", "time": "3:45pm"}, {"days": "Sat-Sun", "time": "Closed"}], "id": "5015400002", "name": "USPS COLLECTION BOX - PO LOBBY", "address": {"city": "MC CALLSBURG", "state": "IA", "street": "460 MAIN ST", "postcode": "50154"}}},
{"geometry": {"type": "Point", "coordinates": [-94.1849384692, 41.2147549123]}, "type": "Feature", "properties": {"collection_times": [{"days": "Mon-Fri", "time": "1:45pm"}, {"days": "Sat", "time": "3:30pm"}, {"days": "Sun", "time": "Closed"}], "id": "5015500001", "name": "USPS COLLECTION BOX - BLUE BOX", "address": {"city": "MACKSBURG", "state": "IA", "street": "104 E NORTH ST", "postcode": "50155"}}},
{"geometry": {"type": "Point", "coordinates": [-94.1849384692, 41.2147549123]}, "type": "Feature", "properties": {"collection_times": [{"days": "Mon-Fri", "time": "1:45pm"}, {"days": "Sat", "time": "3:30pm"}, {"days": "Sun", "time": "Closed"}], "id": "5015500002", "name": "USPS COLLECTION BOX - PO LOBBY", "address": {"city": "MACKSBURG", "state": "IA", "street": "104 E NORTH ST", "postcode": "50155"}}},
{"geometry": {"type": "Point", "coordinates": [-93.8230357367, 41.8755600803]}, "type": "Feature", "properties": {"collection_times": [{"days": "Mon-Sat", "time": "5:00pm"}, {"days": "Sun", "time": "Closed"}], "id": "5015600004", "name": "USPS COLLECTION BOX - BLUE BOX", "address": {"city": "MADRID", "state": "IA", "street": "232 S MAIN ST", "postcode": "50156"}}},
{"geometry": {"type": "Point", "coordinates": [-93.8230357367, 41.8755600803]}, "type": "Feature", "properties": {"collection_times": [{"days": "Mon-Fri", "time": "5:00pm"}, {"days": "Sat-Sun", "time": "Closed"}], "id": "5015600005", "name": "USPS COLLECTION BOX - PO LOBBY", "address": {"city": "MADRID", "state": "IA", "street": "232 S MAIN ST", "postcode": "50156"}}},
{"geometry": {"type": "Point", "coordinates": [-92.5560766574, 41.7066128355]}, "type": "Feature", "properties": {"collection_times": [{"days": "Mon-Sat", "time": "4:00pm"}, {"days": "Sun", "time": "Closed"}], "id": "5015700001", "name": "USPS COLLECTION BOX - BLUE BOX", "address": {"city": "MALCOM", "state": "IA", "street": "209 MAIN ST", "postcode": "50157"}}},
{"geometry": {"type": "Point", "coordinates": [-92.5560766574, 41.7066128355]}, "type": "Feature", "properties": {"collection_times": [{"days": "Mon-Fri", "time": "11:45am"}, {"days": "Sat-Sun", "time": "Closed"}], "id": "5015700003", "name": "USPS COLLECTION BOX - PO LOBBY", "address": {"city": "MALCOM", "state": "IA", "street": "209 MAIN ST", "postcode": "50157"}}},
{"geometry": {"type": "Point", "coordinates": [-92.9079969197, 42.0552892896]}, "type": "Feature", "properties": {"collection_times": [{"days": "Mon-Sat", "time": "11:30am"}, {"days": "Sun", "time": "Closed"}], "id": "5015800002", "name": "USPS COLLECTION BOX - BLUE BOX", "address": {"city": "MARSHALLTOWN", "state": "IA", "street": "501 N 3RD AVE", "postcode": "50158"}}},
{"geometry": {"type": "Point", "coordinates": [-92.9274375684, 42.0418191709]}, "type": "Feature", "properties": {"collection_times": [{"days": "Mon-Sat", "time": "11:00am"}, {"days": "Sun", "time": "Closed"}], "id": "5015800006", "name": "USPS COLLECTION BOX - BLUE BOX", "address": {"city": "MARSHALLTOWN", "state": "IA", "street": "902 W LINCOLN WAY", "postcode": "50158"}}},
{"geometry": {"type": "Point", "coordinates": [-92.9128728608, 42.0545647044]}, "type": "Feature", "properties": {"collection_times": [{"days": "Mon-Sat", "time": "12:00pm"}, {"days": "Sun", "time": "Closed"}], "id": "5015800013", "name": "USPS COLLECTION BOX - BLUE BOX", "address": {"city": "MARSHALLTOWN", "state": "IA", "street": "411 N CENTER ST", "postcode": "50158"}}},
{"geometry": {"type": "Point", "coordinates": [-92.9094859371, 42.0479744979]}, "type": "Feature", "properties": {"collection_times": [{"days": "Mon-Fri", "time": "4:30pm"}, {"days": "Sat", "time": "4:00pm"}, {"days": "Sun", "time": "Closed"}], "id": "5015800015", "name": "USPS COLLECTION BOX - BLUE BOX", "address": {"city": "MARSHALLTOWN", "state": "IA", "street": "208 E CHURCH ST", "postcode": "50158"}}},
{"geometry": {"type": "Point", "coordinates": [-92.9130437163, 42.0496176535]}, "type": "Feature", "properties": {"collection_times": [{"days": "Mon-Fri", "time": "4:30pm"}, {"days": "Sat", "time": "4:00pm"}, {"days": "Sun", "time": "Closed"}], "id": "5015800017", "name": "USPS COLLECTION BOX - BLUE BOX", "address": {"city": "MARSHALLTOWN", "state": "IA", "street": "36 N CENTER ST", "postcode": "50158"}}},
{"geometry": {"type": "Point", "coordinates": [-92.91287901, 42.0478741702]}, "type": "Feature", "properties": {"collection_times": [{"days": "Mon-Fri", "time": "4:30pm"}, {"days": "Sat", "time": "4:00pm"}, {"days": "Sun", "time": "Closed"}], "id": "5015800018", "name": "USPS COLLECTION BOX - BLUE BOX", "address": {"city": "MARSHALLTOWN", "state": "IA", "street": "102 S CENTER ST", "postcode": "50158"}}},
{"geometry": {"type": "Point", "coordinates": [-92.9164537418, 42.0503456337]}, "type": "Feature", "properties": {"collection_times": [{"days": "Mon-Fri", "time": "4:30pm"}, {"days": "Sat", "time": "4:00pm"}, {"days": "Sun", "time": "Closed"}], "id": "5015800019", "name": "USPS COLLECTION BOX - BLUE BOX", "address": {"city": "MARSHALLTOWN", "state": "IA", "street": "210 W STATE ST", "postcode": "50158"}}},
{"geometry": {"type": "Point", "coordinates": [-92.9121455035, 42.0167944968]}, "type": "Feature", "properties": {"collection_times": [{"days": "Mon-Fri", "time": "4:45pm"}, {"days": "Sat", "time": "4:15pm"}, {"days": "Sun", "time": "Closed"}], "id": "5015800021", "name": "USPS COLLECTION BOX - BLUE BOX", "address": {"city": "MARSHALLTOWN", "state": "IA", "street": "2500 S CENTER ST", "postcode": "50158"}}},
{"geometry": {"type": "Point", "coordinates": [-92.9347826997, 42.0518361772]}, "type": "Feature", "properties": {"collection_times": [{"days": "Mon-Fri", "time": "4:45pm"}, {"days": "Sat", "time": "4:15pm"}, {"days": "Sun", "time": "Closed"}], "id": "5015800022", "name": "USPS COLLECTION BOX - BLUE BOX", "address": {"city": "MARSHALLTOWN", "state": "IA", "street": "232 N 13TH ST", "postcode": "50158"}}},
{"geometry": {"type": "Point", "coordinates": [-92.9127061509, 42.0389228481]}, "type": "Feature", "properties": {"collection_times": [{"days": "Mon-Fri", "time": "5:00pm"}, {"days": "Sat", "time": "4:30pm"}, {"days": "Sun", "time": "Closed"}], "id": "5015800023", "name": "USPS COLLECTION BOX - BLUE BOX", "address": {"city": "MARSHALLTOWN", "state": "IA", "street": "802 S CENTER ST", "postcode": "50158"}}},
{"geometry": {"type": "Point", "coordinates": [-92.9148630684, 42.0492321456]}, "type": "Feature", "properties": {"collection_times": [{"days": "Mon-Fri", "time": "5:00pm"}, {"days": "Sat", "time": "4:15pm"}, {"days": "Sun", "time": "Closed"}], "id": "5015800030", "name": "USPS COLLECTION BOX - BLUE BOX", "address": {"city": "MARSHALLTOWN", "state": "IA", "street": "113 W MAIN ST", "postcode": "50158"}}},
{"geometry": {"type": "Point", "coordinates": [-92.9063692238, 42.0491295505]}, "type": "Feature", "properties": {"collection_times": [{"days": "Mon-Fri", "time": "5:00pm"}, {"days": "Sat", "time": "4:30pm"}, {"days": "Sun", "time": "Closed"}], "id": "5015800031", "name": "USPS COLLECTION BOX - BLUE BOX", "address": {"city": "MARSHALLTOWN", "state": "IA", "street": "3 S 4TH AVE", "postcode": "50158"}}},
{"geometry": {"type": "Point", "coordinates": [-92.9124581339, 42.0168180995]}, "type": "Feature", "properties": {"collection_times": [{"days": "Mon-Fri", "time": "4:45pm"}, {"days": "Sat", "time": "4:15pm"}, {"days": "Sun", "time": "Closed"}], "id": "5015800032", "name": "USPS COLLECTION BOX - BLUE BOX", "address": {"city": "MARSHALLTOWN", "state": "IA", "street": "2501 S CENTER ST", "postcode": "50158"}}},
{"geometry": {"type": "Point", "coordinates": [-92.913270027, 42.0492261575]}, "type": "Feature", "properties": {"collection_times": [{"days": "Mon-Fri", "time": "5:00pm"}, {"days": "Sat", "time": "4:15pm"}, {"days": "Sun", "time": "Closed"}], "id": "5015800033", "name": "USPS COLLECTION BOX - BLUE BOX", "address": {"city": "MARSHALLTOWN", "state": "IA", "street": "17 W MAIN ST", "postcode": "50158"}}},
{"geometry": {"type": "Point", "coordinates": [-92.906362104, 42.0493187242]}, "type": "Feature", "properties": {"collection_times": [{"days": "Mon-Fri", "time": "5:00pm"}, {"days": "Sat", "time": "4:30pm"}, {"days": "Sun", "time": "Closed"}], "id": "5015800034", "name": "USPS COLLECTION BOX - BLUE BOX", "address": {"city": "MARSHALLTOWN", "state": "IA", "street": "10 N 4TH AVE", "postcode": "50158"}}},
{"geometry": {"type": "Point", "coordinates": [-92.9122087782, 42.0131745087]}, "type": "Feature", "properties": {"collection_times": [{"days": "Mon-Fri", "time": "4:45pm"}, {"days": "Sat", "time": "4:15pm"}, {"days": "Sun", "time": "Closed"}], "id": "5015800035", "name": "USPS COLLECTION BOX - BLUE BOX", "address": {"city": "MARSHALLTOWN", "state": "IA", "street": "2802 S CENTER ST", "postcode": "50158"}}},
{"geometry": {"type": "Point", "coordinates": [-92.9123749749, 42.0492212845]}, "type": "Feature", "properties": {"collection_times": [{"days": "Mon-Fri", "time": "5:00pm"}, {"days": "Sat", "time": "4:30pm"}, {"days": "Sun", "time": "Closed"}], "id": "5015800038", "name": "USPS COLLECTION BOX - BLUE BOX", "address": {"city": "MARSHALLTOWN", "state": "IA", "street": "36 E MAIN ST", "postcode": "50158"}}},
{"geometry": {"type": "Point", "coordinates": [-92.912307019, 42.0068764209]}, "type": "Feature", "properties": {"collection_times": [{"days": "Mon-Fri", "time": "4:45pm"}, {"days": "Sat", "time": "4:15pm"}, {"days": "Sun", "time": "Closed"}], "id": "5015800039", "name": "USPS COLLECTION BOX - BLUE BOX", "address": {"city": "MARSHALLTOWN", "state": "IA", "street": "3302 S CENTER ST", "postcode": "50158"}}},
{"geometry": {"type": "Point", "coordinates": [-92.9078686399, 42.0466586875]}, "type": "Feature", "properties": {"collection_times": [{"days": "Mon-Fri", "time": "5:30pm"}, {"days": "Sat", "time": "4:45pm"}, {"days": "Sun", "time": "Closed"}], "id": "5015800040", "name": "USPS COLLECTION BOX - BLUE BOX", "address": {"city": "MARSHALLTOWN", "state": "IA", "street": "309 E LINN ST", "postcode": "50158"}}},
{"geometry": {"type": "Point", "coordinates": [-92.9078686399, 42.0466586875]}, "type": "Feature", "properties": {"collection_times": [{"days": "Mon-Fri", "time": "5:30pm"}, {"days": "Sat", "time": "4:45pm"}, {"days": "Sun", "time": "Closed"}], "id": "5015800041", "name": "USPS COLLECTION BOX - BLUE BOX", "address": {"city": "MARSHALLTOWN", "state": "IA", "street": "309 E LINN ST", "postcode": "50158"}}},
{"geometry": {"type": "Point", "coordinates": [-92.9179505053, 42.0492066856]}, "type": "Feature", "properties": {"collection_times": [{"days": "Mon-Fri", "time": "5:00pm"}, {"days": "Sat", "time": "4:15pm"}, {"days": "Sun", "time": "Closed"}], "id": "5015800042", "name": "USPS COLLECTION BOX - BLUE BOX", "address": {"city": "MARSHALLTOWN", "state": "IA", "street": "303 W MAIN ST", "postcode": "50158"}}},
{"geometry": {"type": "Point", "coordinates": [-92.9078686399, 42.0466586875]}, "type": "Feature", "properties": {"collection_times": [{"days": "Mon-Fri", "time": "5:30pm"}, {"days": "Sat", "time": "4:45pm"}, {"days": "Sun", "time": "Closed"}], "id": "5015800044", "name": "USPS COLLECTION BOX - BLUE BOX", "address": {"city": "MARSHALLTOWN", "state": "IA", "street": "309 E LINN ST", "postcode": "50158"}}},
{"geometry": {"type": "Point", "coordinates": [-92.9078686399, 42.0466586875]}, "type": "Feature", "properties": {"collection_times": [{"days": "Mon-Fri", "time": "5:30pm"}, {"days": "Sat", "time": "4:45pm"}, {"days": "Sun", "time": "Closed"}], "id": "5015800046", "name": "USPS COLLECTION BOX - BLUE BOX", "address": {"city": "MARSHALLTOWN", "state": "IA", "street": "309 E LINN ST", "postcode": "50158"}}},
{"geometry": {"type": "Point", "coordinates": [-92.9112588538, 42.0488412904]}, "type": "Feature", "properties": {"collection_times": [{"days": "Mon-Fri", "time": "4:30pm"}, {"days": "Sat", "time": "4:00pm"}, {"days": "Sun", "time": "Closed"}], "id": "5015800049", "name": "USPS COLLECTION BOX - BLUE BOX", "address": {"city": "MARSHALLTOWN", "state": "IA", "street": "26 S 1ST AVE", "postcode": "50158"}}},
{"geometry": {"type": "Point", "coordinates": [-92.9145629714, 42.0381043095]}, "type": "Feature", "properties": {"collection_times": [{"days": "Mon-Sat", "time": "10:00am"}, {"days": "Sun", "time": "Closed"}], "id": "5015800050", "name": "USPS COLLECTION BOX - BLUE BOX", "address": {"city": "MARSHALLTOWN", "state": "IA", "street": "102 W ANSON ST", "postcode": "50158"}}},
{"geometry": {"type": "Point", "coordinates": [-92.9078686399, 42.0466586875]}, "type": "Feature", "properties": {"collection_times": [{"days": "Mon-Fri", "time": "5:30pm"}, {"days": "Sat", "time": "4:45pm"}, {"days": "Sun", "time": "Closed"}], "id": "5015800054", "name": "USPS COLLECTION BOX - PO LOBBY", "address": {"city": "MARSHALLTOWN", "state": "IA", "street": "309 E LINN ST", "postcode": "50158"}}},
{"geometry": {"type": "Point", "coordinates": [-92.9078686399, 42.0466586875]}, "type": "Feature", "properties": {"collection_times": [{"days": "Mon-Fri", "time": "5:30pm"}, {"days": "Sat", "time": "4:45pm"}, {"days": "Sun", "time": "Closed"}], "id": "5015800055", "name": "USPS COLLECTION BOX - BLUE BOX", "address": {"city": "MARSHALLTOWN", "state": "IA", "street": "309 E LINN ST", "postcode": "50158"}}},
{"geometry": {"type": "Point", "coordinates": [-92.9158855355, 42.015660108]}, "type": "Feature", "properties": {"collection_times": [{"days": "Mon-Fri", "time": "4:30pm"}, {"days": "Sat", "time": "4:00pm"}, {"days": "Sun", "time": "Closed"}], "id": "5015800056", "name": "USPS COLLECTION BOX - BLUE BOX", "address": {"city": "MARSHALLTOWN", "state": "IA", "street": "2501 S 2ND ST", "postcode": "50158"}}},
{"geometry": {"type": "Point", "coordinates": [-92.9194895465, 42.026360143]}, "type": "Feature", "properties": {"collection_times": [{"days": "Mon-Sat", "time": "1:00pm"}, {"days": "Sun", "time": "Closed"}], "id": "5015800057", "name": "USPS COLLECTION BOX - BLUE BOX", "address": {"city": "MARSHALLTOWN", "state": "IA", "street": "402 EDGELAND DR", "postcode": "50158"}}},
{"geometry": {"type": "Point", "coordinates": [-93.7392128332, 41.3736613844]}, "type": "Feature", "properties": {"collection_times": [{"days": "Mon-Sat", "time": "4:15pm"}, {"days": "Sun", "time": "Closed"}], "id": "5016000001", "name": "USPS COLLECTION BOX - BLUE BOX", "address": {"city": "MARTENSDALE", "state": "IA", "street": "400 IOWA AVE", "postcode": "50160"}}},
{"geometry": {"type": "Point", "coordinates": [-93.7392128332, 41.3736613844]}, "type": "Feature", "properties": {"collection_times": [{"days": "Mon-Fri", "time": "11:15am"}, {"days": "Sat", "time": "9:30am"}, {"days": "Sun", "time": "Closed"}], "id": "5016000002", "name": "USPS COLLECTION BOX - PO LOBBY", "address": {"city": "MARTENSDALE", "state": "IA", "street": "400 IOWA AVE", "postcode": "50160"}}},
{"geometry": {"type": "Point", "coordinates": [-93.3995996713, 41.8934872942]}, "type": "Feature", "properties": {"collection_times": [{"days": "Mon-Sat", "time": "4:15pm"}, {"days": "Sun", "time": "Closed"}], "id": "5016100001", "name": "USPS COLLECTION BOX - BLUE BOX", "address": {"city": "MAXWELL", "state": "IA", "street": "85 MAIN ST", "postcode": "50161"}}},
{"geometry": {"type": "Point", "coordinates": [-93.3995996713, 41.8934872942]}, "type": "Feature", "properties": {"collection_times": [{"days": "Mon-Fri", "time": "2:15pm"}, {"days": "Sat", "time": "10:15am"}, {"days": "Sun", "time": "Closed"}], "id": "5016100002", "name": "USPS COLLECTION BOX - PO LOBBY", "address": {"city": "MAXWELL", "state": "IA", "street": "85 MAIN ST", "postcode": "50161"}}},
{"geometry": {"type": "Point", "coordinates": [-93.103306838, 41.944071081]}, "type": "Feature", "properties": {"collection_times": [{"days": "Mon-Sat", "time": "4:30pm"}, {"days": "Sun", "time": "Closed"}], "id": "5016200001", "name": "USPS COLLECTION BOX - BLUE BOX", "address": {"city": "MELBOURNE", "state": "IA", "street": "113 MAIN ST", "postcode": "50162"}}},
{"geometry": {"type": "Point", "coordinates": [-93.103306838, 41.944071081]}, "type": "Feature", "properties": {"collection_times": [{"days": "Mon-Fri", "time": "11:45am"}, {"days": "Sat-Sun", "time": "Closed"}], "id": "5016200002", "name": "USPS COLLECTION BOX - PO LOBBY", "address": {"city": "MELBOURNE", "state": "IA", "street": "113 MAIN ST", "postcode": "50162"}}},
{"geometry": {"type": "Point", "coordinates": [-93.2419013398, 41.2233738057]}, "type": "Feature", "properties": {"collection_times": [{"days": "Mon-Sat", "time": "4:30pm"}, {"days": "Sun", "time": "Closed"}], "id": "5016300001", "name": "USPS COLLECTION BOX - BLUE BOX", "address": {"city": "MELCHER", "state": "IA", "street": "125 S MAIN ST", "postcode": "50163"}}},
{"geometry": {"type": "Point", "coordinates": [-93.2419013398, 41.2233738057]}, "type": "Feature", "properties": {"collection_times": [{"days": "Mon-Fri", "time": "4:15pm"}, {"days": "Sat", "time": "11:30am"}, {"days": "Sun", "time": "Closed"}], "id": "5016300002", "name": "USPS COLLECTION BOX - PO LOBBY", "address": {"city": "MELCHER", "state": "IA", "street": "125 S MAIN ST", "postcode": "50163"}}},
{"geometry": {"type": "Point", "coordinates": [-94.4044464625, 41.5203926575]}, "type": "Feature", "properties": {"collection_times": [{"days": "Mon-Sat", "time": "4:15pm"}, {"days": "Sun", "time": "Closed"}], "id": "5016400001", "name": "USPS COLLECTION BOX - BLUE BOX", "address": {"city": "MENLO", "state": "IA", "street": "503 SHERMAN ST", "postcode": "50164"}}},
{"geometry": {"type": "Point", "coordinates": [-94.4044464625, 41.5203926575]}, "type": "Feature", "properties": {"collection_times": [{"days": "Mon-Fri", "time": "11:45am"}, {"days": "Sat", "time": "9:45am"}, {"days": "Sun", "time": "Closed"}], "id": "5016400002", "name": "USPS COLLECTION BOX - PO LOBBY", "address": {"city": "MENLO", "state": "IA", "street": "503 SHERMAN ST", "postcode": "50164"}}},
{"geometry": {"type": "Point", "coordinates": [-93.4383493798, 41.2871567525]}, "type": "Feature", "properties": {"collection_times": [{"days": "Mon-Sat", "time": "3:45pm"}, {"days": "Sun", "time": "Closed"}], "id": "5016600001", "name": "USPS COLLECTION BOX - BLUE BOX", "address": {"city": "MILO", "state": "IA", "street": "105 MAIN ST", "postcode": "50166"}}},
{"geometry": {"type": "Point", "coordinates": [-93.4383493798, 41.2871567525]}, "type": "Feature", "properties": {"collection_times": [{"days": "Mon-Fri", "time": "11:45am"}, {"days": "Sat", "time": "8:45am"}, {"days": "Sun", "time": "Closed"}], "id": "5016600002", "name": "USPS COLLECTION BOX - PO LOBBY", "address": {"city": "MILO", "state": "IA", "street": "105 MAIN ST", "postcode": "50166"}}},
{"geometry": {"type": "Point", "coordinates": [-94.0295075572, 41.7554117822]}, "type": "Feature", "properties": {"collection_times": [{"days": "Mon-Fri", "time": "4:45pm"}, {"days": "Sat", "time": "3:30pm"}, {"days": "Sun", "time": "Closed"}], "id": "5016700001", "name": "USPS COLLECTION BOX - BLUE BOX", "address": {"city": "MINBURN", "state": "IA", "street": "514 CHESTNUT ST", "postcode": "50167"}}},
{"geometry": {"type": "Point", "coordinates": [-94.0295075572, 41.7554117822]}, "type": "Feature", "properties": {"collection_times": [{"days": "Mon-Fri", "time": "4:45pm"}, {"days": "Sat-Sun", "time": "Closed"}], "id": "5016700002", "name": "USPS COLLECTION BOX - PO LOBBY", "address": {"city": "MINBURN", "state": "IA", "street": "514 CHESTNUT ST", "postcode": "50167"}}},
{"geometry": {"type": "Point", "coordinates": [-93.2834090316, 41.7674400564]}, "type": "Feature", "properties": {"collection_times": [{"days": "Mon-Sat", "time": "3:45pm"}, {"days": "Sun", "time": "Closed"}], "id": "5016800001", "name": "USPS COLLECTION BOX - BLUE BOX", "address": {"city": "MINGO", "state": "IA", "street": "100 N STATION ST", "postcode": "50168"}}},
{"geometry": {"type": "Point", "coordinates": [-93.2834837821, 41.7674891215]}, "type": "Feature", "properties": {"collection_times": [{"days": "Mon-Fri", "time": "3:45pm"}, {"days": "Sat", "time": "11:45am"}, {"days": "Sun", "time": "Closed"}], "id": "5016800003", "name": "USPS COLLECTION BOX - PO LOBBY", "address": {"city": "MINGO", "state": "IA", "street": "100 N STATION ST", "postcode": "50168"}}},
{"geometry": {"type": "Point", "coordinates": [-93.3580979003, 41.6653907152]}, "type": "Feature", "properties": {"collection_times": [{"days": "Mon-Sat", "time": "4:15pm"}, {"days": "Sun", "time": "Closed"}], "id": "5016900001", "name": "USPS COLLECTION BOX - BLUE BOX", "address": {"city": "MITCHELLVILLE", "state": "IA", "street": "205 CENTER AVE S", "postcode": "50169"}}},
{"geometry": {"type": "Point", "coordinates": [-93.3580979003, 41.6653907152]}, "type": "Feature", "properties": {"collection_times": [{"days": "Mon-Fri", "time": "3:45pm"}, {"days": "Sat-Sun", "time": "Closed"}], "id": "5016900002", "name": "USPS COLLECTION BOX - PO LOBBY", "address": {"city": "MITCHELLVILLE", "state": "IA", "street": "205 CENTER AVE S", "postcode": "50169"}}},
{"geometry": {"type": "Point", "coordinates": [-93.1040704237, 41.5216220848]}, "type": "Feature", "properties": {"collection_times": [{"days": "Mon-Fri", "time": "4:00pm"}, {"days": "Sat", "time": "5:00pm"}, {"days": "Sun", "time": "Closed"}], "id": "5017000002", "name": "USPS COLLECTION BOX - BLUE BOX", "address": {"city": "MONROE", "state": "IA", "street": "117 W MARION ST", "postcode": "50170"}}},
{"geometry": {"type": "Point", "coordinates": [-93.1040704237, 41.5216220848]}, "type": "Feature", "properties": {"collection_times": [{"days": "Mon-Fri", "time": "4:00pm"}, {"days": "Sat", "time": "10:45am"}, {"days": "Sun", "time": "Closed"}], "id": "5017000003", "name": "USPS COLLECTION BOX - PO LOBBY", "address": {"city": "MONROE", "state": "IA", "street": "117 W MARION ST", "postcode": "50170"}}},
{"geometry": {"type": "Point", "coordinates": [-92.526016916, 41.5844844524]}, "type": "Feature", "properties": {"collection_times": [{"days": "Mon-Sat", "time": "4:45pm"}, {"days": "Sun", "time": "Closed"}], "id": "5017100001", "name": "USPS COLLECTION BOX - BLUE BOX", "address": {"city": "MONTEZUMA", "state": "IA", "street": "201 E LIBERTY ST", "postcode": "50171"}}},
{"geometry": {"type": "Point", "coordinates": [-92.526016916, 41.5844844524]}, "type": "Feature", "properties": {"collection_times": [{"days": "Mon-Fri", "time": "4:45pm"}, {"days": "Sat-Sun", "time": "Closed"}], "id": "5017100002", "name": "USPS COLLECTION BOX - PO LOBBY", "address": {"city": "MONTEZUMA", "state": "IA", "street": "201 E LIBERTY ST", "postcode": "50171"}}},
{"geometry": {"type": "Point", "coordinates": [-92.7148421745, 41.9811807611]}, "type": "Feature", "properties": {"collection_times": [{"days": "Mon-Sat", "time": "3:15pm"}, {"days": "Sun", "time": "Closed"}], "id": "5017300001", "name": "USPS COLLECTION BOX - BLUE BOX", "address": {"city": "MONTOUR", "state": "IA", "street": "101 E ELM ST", "postcode": "50173"}}},
{"geometry": {"type": "Point", "coordinates": [-93.9508937362, 41.0411005492]}, "type": "Feature", "properties": {"collection_times": [{"days": "Mon-Sat", "time": "3:30pm"}, {"days": "Sun", "time": "Closed"}], "id": "5017400001", "name": "USPS COLLECTION BOX - BLUE BOX", "address": {"city": "MURRAY", "state": "IA", "street": "430 MAPLE ST", "postcode": "50174"}}},
{"geometry": {"type": "Point", "coordinates": [-93.9508937362, 41.0411005492]}, "type": "Feature", "properties": {"collection_times": [{"days": "Mon-Fri", "time": "10:45am"}, {"days": "Sat-Sun", "time": "Closed"}], "id": "5017400002", "name": "USPS COLLECTION BOX - PO LOBBY", "address": {"city": "MURRAY", "state": "IA", "street": "430 MAPLE ST", "postcode": "50174"}}}
]}
