{"type": "FeatureCollection", "features": [
{"geometry": {"type": "Point", "coordinates": [-93.4582452197, 42.004626108]}, "type": "Feature", "properties": {"collection_times": [{"days": "Mon-Sat", "time": "12:00pm"}, {"days": "Sun", "time": "Closed"}], "id": "5020100001", "name": "USPS COLLECTION BOX - BLUE BOX", "address": {"city": "NEVADA", "state": "IA", "street": "10 MAPLE AVE", "postcode": "50201"}}},
{"geometry": {"type": "Point", "coordinates": [-93.4544797547, 42.0216368982]}, "type": "Feature", "properties": {"collection_times": [{"days": "Mon-Sat", "time": "5:00pm"}, {"days": "Sun", "time": "Closed"}], "id": "5020100005", "name": "USPS COLLECTION BOX - BLUE BOX", "address": {"city": "NEVADA", "state": "IA", "street": "436 K AVE", "postcode": "50201"}}},
{"geometry": {"type": "Point", "coordinates": [-93.4544797547, 42.0217465438]}, "type": "Feature", "properties": {"collection_times": [{"days": "Mon-Sat", "time": "5:00pm"}, {"days": "Sun", "time": "Closed"}], "id": "5020100009", "name": "USPS COLLECTION BOX - PO LOBBY", "address": {"city": "NEVADA", "state": "IA", "street": "437 K AVE", "postcode": "50201"}}},
{"geometry": {"type": "Point", "coordinates": [-93.1767650508, 42.2813215989]}, "type": "Feature", "properties": {"collection_times": [{"days": "Mon-Sat", "time": "4:00pm"}, {"days": "Sun", "time": "Closed"}], "id": "5020600001", "name": "USPS COLLECTION BOX - BLUE BOX", "address": {"city": "NEW PROVIDENCE", "state": "IA", "street": "409 W MAIN STREET DR", "postcode": "50206"}}},
{"geometry": {"type": "Point", "coordinates": [-93.1767650508, 42.2813215989]}, "type": "Feature", "properties": {"collection_times": [{"days": "Mon-Fri", "time": "11:15am"}, {"days": "Sat-Sun", "time": "Closed"}], "id": "5020600002", "name": "USPS COLLECTION BOX - PO LOBBY", "address": {"city": "NEW PROVIDENCE", "state": "IA", "street": "409 W MAIN STREET DR", "postcode": "50206"}}},
{"geometry": {"type": "Point", "coordinates": [-92.6526364306, 41.4696396464]}, "type": "Feature", "properties": {"collection_times": [{"days": "Mon-Fri", "time": "4:00pm"}, {"days": "Sat", "time": "4:30pm"}, {"days": "Sun", "time": "Closed"}], "id": "5020700004", "name": "USPS COLLECTION BOX - BLUE BOX", "address": {"city": "NEW SHARON", "state": "IA", "street": "106 S PEARL ST", "postcode": "50207"}}},
{"geometry": {"type": "Point", "coordinates": [-92.6526364306, 41.4696396464]}, "type": "Feature", "properties": {"collection_times": [{"days": "Mon-Fri", "time": "4:00pm"}, {"days": "Sat-Sun", "time": "Closed"}], "id": "5020700005", "name": "USPS COLLECTION BOX - PO LOBBY", "address": {"city": "NEW SHARON", "state": "IA", "street": "106 S PEARL ST", "postcode": "50207"}}},
{"geometry": {"type": "Point", "coordinates": [-93.0536399961, 41.7005412326]}, "type": "Feature", "properties": {"collection_times": [{"days": "Mon-Fri", "time": "5:00pm"}, {"days": "Sat", "time": "3:15pm"}, {"days": "Sun", "time": "Closed"}], "id": "5020800011", "name": "USPS COLLECTION BOX - BLUE BOX", "address": {"city": "NEWTON", "state": "IA", "street": "100 N 2ND AVE W", "postcode": "50208"}}},
{"geometry": {"type": "Point", "coordinates": [-93.0510322904, 41.702472493]}, "type": "Feature", "properties": {"collection_times": [{"days": "Mon-Fri", "time": "5:00pm"}, {"days": "Sat-Sun", "time": "Closed"}], "id": "5020800012", "name": "USPS COLLECTION BOX - BLUE BOX", "address": {"city": "NEWTON", "state": "IA", "street": "300 N 4TH AVE E", "postcode": "50208"}}},
{"geometry": {"type": "Point", "coordinates": [-93.05208341, 41.6985469208]}, "type": "Feature", "properties": {"collection_times": [{"days": "Mon-Fri", "time": "5:30pm"}, {"days": "Sat", "time": "3:45pm"}, {"days": "Sun", "time": "Closed"}], "id": "5020800018", "name": "USPS COLLECTION BOX - BLUE BOX", "address": {"city": "NEWTON", "state": "IA", "street": "215 S 2ND AVE E", "postcode": "50208"}}},
{"geometry": {"type": "Point", "coordinates": [-93.0300763842, 41.6991055641]}, "type": "Feature", "properties": {"collection_times": [{"days": "Mon-Fri", "time": "5:00pm"}, {"days": "Sat", "time": "3:15pm"}, {"days": "Sun", "time": "Closed"}], "id": "5020800021", "name": "USPS COLLECTION BOX - BLUE BOX", "address": {"city": "NEWTON", "state": "IA", "street": "1821 1ST AVE E", "postcode": "50208"}}},
{"geometry": {"type": "Point", "coordinates": [-93.0341469436, 41.699105853]}, "type": "Feature", "properties": {"collection_times": [{"days": "Mon-Fri", "time": "5:00pm"}, {"days": "Sat", "time": "3:15pm"}, {"days": "Sun", "time": "Closed"}], "id": "5020800024", "name": "USPS COLLECTION BOX - BLUE BOX", "address": {"city": "NEWTON", "state": "IA", "street": "1501 1ST AVE E", "postcode": "50208"}}},
{"geometry": {"type": "Point", "coordinates": [-93.05208341, 41.6985469208]}, "type": "Feature", "properties": {"collection_times": [{"days": "Mon-Fri", "time": "5:30pm"}, {"days": "Sat", "time": "3:45pm"}, {"days": "Sun", "time": "Closed"}], "id": "5020800028", "name": "USPS COLLECTION BOX - BLUE BOX", "address": {"city": "NEWTON", "state": "IA", "street": "215 S 2ND AVE E", "postcode": "50208"}}},
{"geometry": {"type": "Point", "coordinates": [-93.05208341, 41.6985469208]}, "type": "Feature", "properties": {"collection_times": [{"days": "Mon-Fri", "time": "5:30pm"}, {"days": "Sat", "time": "3:45pm"}, {"days": "Sun", "time": "Closed"}], "id": "5020800029", "name": "USPS COLLECTION BOX - PO LOBBY", "address": {"city": "NEWTON", "state": "IA", "street": "215 S 2ND AVE E", "postcode": "50208"}}},
{"geometry": {"type": "Point", "coordinates": [-93.053657149, 41.7000019942]}, "type": "Feature", "properties": {"collection_times": [{"days": "Mon-Fri", "time": "5:15pm"}, {"days": "Sat-Sun", "time": "Closed"}], "id": "5020800030", "name": "USPS COLLECTION BOX - BLUE BOX", "address": {"city": "NEWTON", "state": "IA", "street": "101 1ST ST N", "postcode": "50208"}}},
{"geometry": {"type": "Point", "coordinates": [-93.7303265036, 41.1788805237]}, "type": "Feature", "properties": {"collection_times": [{"days": "Mon-Sat", "time": "4:15pm"}, {"days": "Sun", "time": "Closed"}], "id": "5021000001", "name": "USPS COLLECTION BOX - BLUE BOX", "address": {"city": "NEW VIRGINIA", "state": "IA", "street": "407 WEST ST", "postcode": "50210"}}},
{"geometry": {"type": "Point", "coordinates": [-93.7303265036, 41.1788805237]}, "type": "Feature", "properties": {"collection_times": [{"days": "Mon-Fri", "time": "11:15am"}, {"days": "Sat-Sun", "time": "Closed"}], "id": "5021000002", "name": "USPS COLLECTION BOX - PO LOBBY", "address": {"city": "NEW VIRGINIA", "state": "IA", "street": "407 WEST ST", "postcode": "50210"}}},
{"geometry": {"type": "Point", "coordinates": [-93.674805, 41.4826]}, "type": "Feature", "properties": {"collection_times": [{"days": "Mon-Fri", "time": "4:30pm"}, {"days": "Sat", "time": "5:00pm"}, {"days": "Sun", "time": "Closed"}], "id": "5021100001", "name": "USPS COLLECTION BOX - BLUE BOX", "address": {"city": "NORWALK", "state": "IA", "street": "1105 HIGH RD", "postcode": "50211"}}},
{"geometry": {"type": "Point", "coordinates": [-93.674927434, 41.4826200063]}, "type": "Feature", "properties": {"collection_times": [{"days": "Mon-Fri", "time": "4:30pm"}, {"days": "Sat-Sun", "time": "Closed"}], "id": "5021100003", "name": "USPS COLLECTION BOX - PO LOBBY", "address": {"city": "NORWALK", "state": "IA", "street": "1105 HIGH RD", "postcode": "50211"}}},
{"geometry": {"type": "Point", "coordinates": [-93.675674, 41.482582]}, "type": "Feature", "properties": {"collection_times": [{"days": "Mon-Fri", "time": "4:30pm"}, {"days": "Sat", "time": "5:00pm"}, {"days": "Sun", "time": "Closed"}], "id": "5021100004", "name": "USPS COLLECTION BOX - BLUE BOX", "address": {"city": "NORWALK", "state": "IA", "street": "1108 HIGH RD", "postcode": "50211"}}},
{"geometry": {"type": "Point", "coordinates": [-94.0320740344, 42.0379818089]}, "type": "Feature", "properties": {"collection_times": [{"days": "Mon-Fri", "time": "4:30pm"}, {"days": "Sat", "time": "5:00pm"}, {"days": "Sun", "time": "Closed"}], "id": "5021200001", "name": "USPS COLLECTION BOX - BLUE BOX", "address": {"city": "OGDEN", "state": "IA", "street": "202 SW 4TH ST", "postcode": "50212"}}},
{"geometry": {"type": "Point", "coordinates": [-94.0320740344, 42.0379818089]}, "type": "Feature", "properties": {"collection_times": [{"days": "Mon-Fri", "time": "4:30pm"}, {"days": "Sat-Sun", "time": "Closed"}], "id": "5021200002", "name": "USPS COLLECTION BOX - PO LOBBY", "address": {"city": "OGDEN", "state": "IA", "street": "202 SW 4TH ST", "postcode": "50212"}}},
{"geometry": {"type": "Point", "coordinates": [-93.7676533548, 41.0348389823]}, "type": "Feature", "properties": {"collection_times": [{"days": "Mon-Fri", "time": "5:15pm"}, {"days": "Sat", "time": "3:00pm"}, {"days": "Sun", "time": "Closed"}], "id": "5021300003", "name": "USPS COLLECTION BOX - BLUE BOX", "address": {"city": "OSCEOLA", "state": "IA", "street": "104 S FILLMORE ST", "postcode": "50213"}}},
{"geometry": {"type": "Point", "coordinates": [-93.7676533548, 41.0348389823]}, "type": "Feature", "properties": {"collection_times": [{"days": "Mon-Fri", "time": "5:15pm"}, {"days": "Sat", "time": "3:00pm"}, {"days": "Sun", "time": "Closed"}], "id": "5021300006", "name": "USPS COLLECTION BOX - PO LOBBY", "address": {"city": "OSCEOLA", "state": "IA", "street": "104 S FILLMORE ST", "postcode": "50213"}}},
{"geometry": {"type": "Point", "coordinates": [-93.7676533548, 41.0348389823]}, "type": "Feature", "properties": {"collection_times": [{"days": "Mon-Fri", "time": "5:15pm"}, {"days": "Sat", "time": "3:00pm"}, {"days": "Sun", "time": "Closed"}], "id": "5021300007", "name": "USPS COLLECTION BOX - BLUE BOX", "address": {"city": "OSCEOLA", "state": "IA", "street": "104 S FILLMORE ST", "postcode": "50213"}}},
{"geometry": {"type": "Point", "coordinates": [-93.7664799489, 41.0334231042]}, "type": "Feature", "properties": {"collection_times": [{"days": "Mon-Sat", "time": "3:00pm"}, {"days": "Sun", "time": "Closed"}], "id": "5021300008", "name": "USPS COLLECTION BOX - BLUE BOX", "address": {"city": "OSCEOLA", "state": "IA", "street": "2010 W CLAY ST", "postcode": "50213"}}},
{"geometry": {"type": "Point", "coordinates": [-93.0596856397, 41.4630240086]}, "type": "Feature", "properties": {"collection_times": [{"days": "Mon-Sat", "time": "4:45pm"}, {"days": "Sun", "time": "Closed"}], "id": "5021400001", "name": "USPS COLLECTION BOX - BLUE BOX", "address": {"city": "OTLEY", "state": "IA", "street": "100 BUSINESS HIGHWAY 163", "postcode": "50214"}}},
{"geometry": {"type": "Point", "coordinates": [-93.0596856397, 41.4630240086]}, "type": "Feature", "properties": {"collection_times": [{"days": "Mon-Sat", "time": "3:45pm"}, {"days": "Sun", "time": "Closed"}], "id": "5021400002", "name": "USPS COLLECTION BOX - PO LOBBY", "address": {"city": "OTLEY", "state": "IA", "street": "100 BUSINESS HIGHWAY 163", "postcode": "50214"}}},
{"geometry": {"type": "Point", "coordinates": [-94.3640291126, 41.6906689928]}, "type": "Feature", "properties": {"collection_times": [{"days": "Mon-Fri", "time": "4:45pm"}, {"days": "Sat", "time": "5:00pm"}, {"days": "Sun", "time": "Closed"}], "id": "5021600003", "name": "USPS COLLECTION BOX - BLUE BOX", "address": {"city": "PANORA", "state": "IA", "street": "117 E CHURCH ST", "postcode": "50216"}}},
{"geometry": {"type": "Point", "coordinates": [-94.3640291126, 41.6906689928]}, "type": "Feature", "properties": {"collection_times": [{"days": "Mon-Fri", "time": "4:45pm"}, {"days": "Sat-Sun", "time": "Closed"}], "id": "5021600004", "name": "USPS COLLECTION BOX - PO LOBBY", "address": {"city": "PANORA", "state": "IA", "street": "117 E CHURCH ST", "postcode": "50216"}}},
{"geometry": {"type": "Point", "coordinates": [-94.2543425185, 42.1654382602]}, "type": "Feature", "properties": {"collection_times": [{"days": "Mon-Sat", "time": "4:00pm"}, {"days": "Sun", "time": "Closed"}], "id": "5021700001", "name": "USPS COLLECTION BOX - BLUE BOX", "address": {"city": "PATON", "state": "IA", "street": "205 S MAIN ST", "postcode": "50217"}}},
{"geometry": {"type": "Point", "coordinates": [-94.2543425185, 42.1654382602]}, "type": "Feature", "properties": {"collection_times": [{"days": "Mon-Fri", "time": "11:15am"}, {"days": "Sat-Sun", "time": "Closed"}], "id": "5021700002", "name": "USPS COLLECTION BOX - PO LOBBY", "address": {"city": "PATON", "state": "IA", "street": "205 S MAIN ST", "postcode": "50217"}}},
{"geometry": {"type": "Point", "coordinates": [-92.9164383518, 41.4173472617]}, "type": "Feature", "properties": {"collection_times": [{"days": "Mon-Sat", "time": "10:00am"}, {"days": "Sun", "time": "Closed"}], "id": "5021900005", "name": "USPS COLLECTION BOX - BLUE BOX", "address": {"city": "PELLA", "state": "IA", "street": "1650 WASHINGTON ST", "postcode": "50219"}}},
{"geometry": {"type": "Point", "coordinates": [-92.9149546109, 41.4080442465]}, "type": "Feature", "properties": {"collection_times": [{"days": "Mon-Sat", "time": "4:00pm"}, {"days": "Sun", "time": "Closed"}], "id": "5021900012", "name": "USPS COLLECTION BOX - BLUE BOX", "address": {"city": "PELLA", "state": "IA", "street": "613 WASHINGTON ST", "postcode": "50219"}}},
{"geometry": {"type": "Point", "coordinates": [-92.9182641812, 41.4066858944]}, "type": "Feature", "properties": {"collection_times": [{"days": "Mon-Sat", "time": "5:00pm"}, {"days": "Sun", "time": "Closed"}], "id": "5021900014", "name": "USPS COLLECTION BOX - BLUE BOX", "address": {"city": "PELLA", "state": "IA", "street": "801 FRANKLIN ST", "postcode": "50219"}}},
{"geometry": {"type": "Point", "coordinates": [-92.9164232807, 41.4067550505]}, "type": "Feature", "properties": {"collection_times": [{"days": "Mon-Sat", "time": "4:00pm"}, {"days": "Sun", "time": "Closed"}], "id": "5021900018", "name": "USPS COLLECTION BOX - BLUE BOX", "address": {"city": "PELLA", "state": "IA", "street": "800 MAIN ST", "postcode": "50219"}}},
{"geometry": {"type": "Point", "coordinates": [-92.9030421903, 41.3975518654]}, "type": "Feature", "properties": {"collection_times": [{"days": "Mon-Sat", "time": "3:45pm"}, {"days": "Sun", "time": "Closed"}], "id": "5021900024", "name": "USPS COLLECTION BOX - BLUE BOX", "address": {"city": "PELLA", "state": "IA", "street": "118 SE 9TH ST", "postcode": "50219"}}},
{"geometry": {"type": "Point", "coordinates": [-92.9182641812, 41.4066858944]}, "type": "Feature", "properties": {"collection_times": [{"days": "Mon-Sat", "time": "5:00pm"}, {"days": "Sun", "time": "Closed"}], "id": "5021900025", "name": "USPS COLLECTION BOX - PO LOBBY", "address": {"city": "PELLA", "state": "IA", "street": "801 FRANKLIN ST", "postcode": "50219"}}},
{"geometry": {"type": "Point", "coordinates": [-94.1052693513, 41.8418383121]}, "type": "Feature", "properties": {"collection_times": [{"days": "Mon-Fri", "time": "5:15pm"}, {"days": "Sat", "time": "3:00pm"}, {"days": "Sun", "time": "Closed"}], "id": "5022000001", "name": "USPS COLLECTION BOX - BLUE BOX", "address": {"city": "PERRY", "state": "IA", "street": "1420 2ND ST", "postcode": "50220"}}},
{"geometry": {"type": "Point", "coordinates": [-94.0919907527, 41.8317997749]}, "type": "Feature", "properties": {"collection_times": [{"days": "Mon-Fri", "time": "9:00am"}, {"days": "Sat-Sun", "time": "Closed"}], "id": "5022000003", "name": "USPS COLLECTION BOX - BLUE BOX", "address": {"city": "PERRY", "state": "IA", "street": "1215 141ST ST", "postcode": "50220"}}},
{"geometry": {"type": "Point", "coordinates": [-94.1052693513, 41.8418383121]}, "type": "Feature", "properties": {"collection_times": [{"days": "Mon-Fri", "time": "5:00pm"}, {"days": "Sat", "time": "3:00pm"}, {"days": "Sun", "time": "Closed"}], "id": "5022000004", "name": "USPS COLLECTION BOX - PO LOBBY", "address": {"city": "PERRY", "state": "IA", "street": "1420 2ND ST", "postcode": "50220"}}},
{"geometry": {"type": "Point", "coordinates": [-94.0177927837, 42.1620927833]}, "type": "Feature", "properties": {"collection_times": [{"days": "Mon-Sat", "time": "4:00pm"}, {"days": "Sun", "time": "Closed"}], "id": "5022300001", "name": "USPS COLLECTION BOX - BLUE BOX", "address": {"city": "PILOT MOUND", "state": "IA", "street": "102 PILOT ST", "postcode": "50223"}}},
{"geometry": {"type": "Point", "coordinates": [-94.0177927837, 42.1620927833]}, "type": "Feature", "properties": {"collection_times": [{"days": "Mon-Fri", "time": "3:45pm"}, {"days": "Sat-Sun", "time": "Closed"}], "id": "5022300002", "name": "USPS COLLECTION BOX - PO LOBBY", "address": {"city": "PILOT MOUND", "state": "IA", "street": "102 PILOT ST", "postcode": "50223"}}},
{"geometry": {"type": "Point", "coordinates": [-93.2692549613, 41.3867802896]}, "type": "Feature", "properties": {"collection_times": [{"days": "Mon-Fri", "time": "4:45pm"}, {"days": "Sat", "time": "5:00pm"}, {"days": "Sun", "time": "Closed"}], "id": "5022500002", "name": "USPS COLLECTION BOX - BLUE BOX", "address": {"city": "PLEASANTVILLE", "state": "IA", "street": "112 E MONROE ST", "postcode": "50225"}}},
{"geometry": {"type": "Point", "coordinates": [-93.2692549613, 41.3867802896]}, "type": "Feature", "properties": {"collection_times": [{"days": "Mon-Fri", "time": "4:45pm"}, {"days": "Sat", "time": "10:15am"}, {"days": "Sun", "time": "Closed"}], "id": "5022500003", "name": "USPS COLLECTION BOX - PO LOBBY", "address": {"city": "PLEASANTVILLE", "state": "IA", "street": "112 E MONROE ST", "postcode": "50225"}}},
{"geometry": {"type": "Point", "coordinates": [-93.7132000995, 41.772482161]}, "type": "Feature", "properties": {"collection_times": [{"days": "Mon-Fri", "time": "4:45pm"}, {"days": "Sat-Sun", "time": "Closed"}], "id": "5022600002", "name": "USPS COLLECTION BOX - PO LOBBY", "address": {"city": "POLK CITY", "state": "IA", "street": "302 N 3RD ST", "postcode": "50226"}}},
{"geometry": {"type": "Point", "coordinates": [-93.7132000995, 41.772482161]}, "type": "Feature", "properties": {"collection_times": [{"days": "Mon-Fri", "time": "4:30pm"}, {"days": "Sat", "time": "5:00pm"}, {"days": "Sun", "time": "Closed"}], "id": "5022600004", "name": "USPS COLLECTION BOX - BLUE BOX", "address": {"city": "POLK CITY", "state": "IA", "street": "302 N 3RD ST", "postcode": "50226"}}},
{"geometry": {"type": "Point", "coordinates": [-93.2363321125, 41.5985513506]}, "type": "Feature", "properties": {"collection_times": [{"days": "Mon-Sat", "time": "4:30pm"}, {"days": "Sun", "time": "Closed"}], "id": "5022800002", "name": "USPS COLLECTION BOX - BLUE BOX", "address": {"city": "PRAIRIE CITY", "state": "IA", "street": "108 N MAIN ST", "postcode": "50228"}}},
{"geometry": {"type": "Point", "coordinates": [-93.2363321125, 41.5985513506]}, "type": "Feature", "properties": {"collection_times": [{"days": "Mon-Fri", "time": "3:15pm"}, {"days": "Sat-Sun", "time": "Closed"}], "id": "5022800003", "name": "USPS COLLECTION BOX - PO LOBBY", "address": {"city": "PRAIRIE CITY", "state": "IA", "street": "108 N MAIN ST", "postcode": "50228"}}},
{"geometry": {"type": "Point", "coordinates": [-93.7157622733, 41.4174047355]}, "type": "Feature", "properties": {"collection_times": [{"days": "Mon-Sat", "time": "5:30pm"}, {"days": "Sun", "time": "Closed"}], "id": "5022900001", "name": "USPS COLLECTION BOX - BLUE BOX", "address": {"city": "PROLE", "state": "IA", "street": "805 HIGHWAY 28", "postcode": "50229"}}},
{"geometry": {"type": "Point", "coordinates": [-93.7157622733, 41.4174047355]}, "type": "Feature", "properties": {"collection_times": [{"days": "Mon-Sat", "time": "11:45am"}, {"days": "Sun", "time": "Closed"}], "id": "5022900002", "name": "USPS COLLECTION BOX - PO LOBBY", "address": {"city": "PROLE", "state": "IA", "street": "805 HIGHWAY 28", "postcode": "50229"}}},
{"geometry": {"type": "Point", "coordinates": [-93.4344201394, 42.322652037]}, "type": "Feature", "properties": {"collection_times": [{"days": "Mon-Sat", "time": "4:00pm"}, {"days": "Sun", "time": "Closed"}], "id": "5023000002", "name": "USPS COLLECTION BOX - BLUE BOX", "address": {"city": "RADCLIFFE", "state": "IA", "street": "215 ISABELLA ST", "postcode": "50230"}}},
{"geometry": {"type": "Point", "coordinates": [-93.4344201394, 42.322652037]}, "type": "Feature", "properties": {"collection_times": [{"days": "Mon-Fri", "time": "1:45pm"}, {"days": "Sat", "time": "9:15am"}, {"days": "Sun", "time": "Closed"}], "id": "5023000003", "name": "USPS COLLECTION BOX - PO LOBBY", "address": {"city": "RADCLIFFE", "state": "IA", "street": "215 ISABELLA ST", "postcode": "50230"}}},
{"geometry": {"type": "Point", "coordinates": [-93.6022215687, 42.2366918373]}, "type": "Feature", "properties": {"collection_times": [{"days": "Mon-Fri", "time": "4:15pm"}, {"days": "Sat", "time": "4:00pm"}, {"days": "Sun", "time": "Closed"}], "id": "5023100001", "name": "USPS COLLECTION BOX - BLUE BOX", "address": {"city": "RANDALL", "state": "IA", "street": "440 MAIN ST", "postcode": "50231"}}},
{"geometry": {"type": "Point", "coordinates": [-93.6022215687, 42.2366918373]}, "type": "Feature", "properties": {"collection_times": [{"days": "Mon-Fri", "time": "3:45pm"}, {"days": "Sat", "time": "12:15pm"}, {"days": "Sun", "time": "Closed"}], "id": "5023100002", "name": "USPS COLLECTION BOX - PO LOBBY", "address": {"city": "RANDALL", "state": "IA", "street": "440 MAIN ST", "postcode": "50231"}}},
{"geometry": {"type": "Point", "coordinates": [-93.0234274308, 41.5794990226]}, "type": "Feature", "properties": {"collection_times": [{"days": "Mon-Sat", "time": "4:45pm"}, {"days": "Sun", "time": "Closed"}], "id": "5023200001", "name": "USPS COLLECTION BOX - BLUE BOX", "address": {"city": "REASNOR", "state": "IA", "street": "124 MAIN ST", "postcode": "50232"}}},
{"geometry": {"type": "Point", "coordinates": [-93.0234274308, 41.5794990226]}, "type": "Feature", "properties": {"collection_times": [{"days": "Mon-Fri", "time": "3:45pm"}, {"days": "Sat", "time": "11:45am"}, {"days": "Sun", "time": "Closed"}], "id": "5023200002", "name": "USPS COLLECTION BOX - PO LOBBY", "address": {"city": "REASNOR", "state": "IA", "street": "124 MAIN ST", "postcode": "50232"}}},
{"geometry": {"type": "Point", "coordinates": [-94.1971961697, 41.5905599392]}, "type": "Feature", "properties": {"collection_times": [{"days": "Mon-Sat", "time": "4:00pm"}, {"days": "Sun", "time": "Closed"}], "id": "5023300001", "name": "USPS COLLECTION BOX - BLUE BOX", "address": {"city": "REDFIELD", "state": "IA", "street": "1106 THOMAS ST", "postcode": "50233"}}},
{"geometry": {"type": "Point", "coordinates": [-94.1971961697, 41.5905599392]}, "type": "Feature", "properties": {"collection_times": [{"days": "Mon-Fri", "time": "2:45pm"}, {"days": "Sat-Sun", "time": "Closed"}], "id": "5023300002", "name": "USPS COLLECTION BOX - PO LOBBY", "address": {"city": "REDFIELD", "state": "IA", "street": "1106 THOMAS ST", "postcode": "50233"}}},
{"geometry": {"type": "Point", "coordinates": [-93.1863853922, 41.9253676856]}, "type": "Feature", "properties": {"collection_times": [{"days": "Mon-Sat", "time": "4:00pm"}, {"days": "Sun", "time": "Closed"}], "id": "5023400001", "name": "USPS COLLECTION BOX - BLUE BOX", "address": {"city": "RHODES", "state": "IA", "street": "108 S MAIN ST", "postcode": "50234"}}},
{"geometry": {"type": "Point", "coordinates": [-93.1863853922, 41.9253676856]}, "type": "Feature", "properties": {"collection_times": [{"days": "Mon-Fri", "time": "11:15am"}, {"days": "Sat-Sun", "time": "Closed"}], "id": "5023400002", "name": "USPS COLLECTION BOX - PO LOBBY", "address": {"city": "RHODES", "state": "IA", "street": "108 S MAIN ST", "postcode": "50234"}}},
{"geometry": {"type": "Point", "coordinates": [-94.2004471475, 41.9345131998]}, "type": "Feature", "properties": {"collection_times": [{"days": "Mon-Sat", "time": "3:00pm"}, {"days": "Sun", "time": "Closed"}], "id": "5023500001", "name": "USPS COLLECTION BOX - BLUE BOX", "address": {"city": "RIPPEY", "state": "IA", "street": "315 MAIN ST", "postcode": "50235"}}},
{"geometry": {"type": "Point", "coordinates": [-94.2004471475, 41.9345131998]}, "type": "Feature", "properties": {"collection_times": [{"days": "Mon-Sat", "time": "3:00pm"}, {"days": "Sun", "time": "Closed"}], "id": "5023500002", "name": "USPS COLLECTION BOX - PO LOBBY", "address": {"city": "RIPPEY", "state": "IA", "street": "315 MAIN ST", "postcode": "50235"}}},
{"geometry": {"type": "Point", "coordinates": [-93.5005593258, 42.1679525655]}, "type": "Feature", "properties": {"collection_times": [{"days": "Mon-Sat", "time": "4:30pm"}, {"days": "Sun", "time": "Closed"}], "id": "5023600002", "name": "USPS COLLECTION BOX - BLUE BOX", "address": {"city": "ROLAND", "state": "IA", "street": "225 N MAIN ST", "postcode": "50236"}}},
{"geometry": {"type": "Point", "coordinates": [-93.5005593258, 42.1679525655]}, "type": "Feature", "properties": {"collection_times": [{"days": "Mon-Fri", "time": "2:15pm"}, {"days": "Sat-Sun", "time": "Closed"}], "id": "5023600003", "name": "USPS COLLECTION BOX - PO LOBBY", "address": {"city": "ROLAND", "state": "IA", "street": "225 N MAIN ST", "postcode": "50236"}}},
{"geometry": {"type": "Point", "coordinates": [-93.3577916476, 41.5103312812]}, "type": "Feature", "properties": {"collection_times": [{"days": "Mon-Fri", "time": "4:30pm"}, {"days": "Sat", "time": "3:45pm"}, {"days": "Sun", "time": "Closed"}], "id": "5023700001", "name": "USPS COLLECTION BOX - BLUE BOX", "address": {"city": "RUNNELLS", "state": "IA", "street": "112 BROWN ST", "postcode": "50237"}}},
{"geometry": {"type": "Point", "coordinates": [-93.3577916476, 41.5103312812]}, "type": "Feature", "properties": {"collection_times": [{"days": "Mon-Fri", "time": "2:15pm"}, {"days": "Sat-Sun", "time": "Closed"}], "id": "5023700002", "name": "USPS COLLECTION BOX - PO LOBBY", "address": {"city": "RUNNELLS", "state": "IA", "street": "112 BROWN ST", "postcode": "50237"}}},
{"geometry": {"type": "Point", "coordinates": [-93.1991723581, 40.9821027262]}, "type": "Feature", "properties": {"collection_times": [{"days": "Mon-Sat", "time": "3:30pm"}, {"days": "Sun", "time": "Closed"}], "id": "5023800001", "name": "USPS COLLECTION BOX - BLUE BOX", "address": {"city": "RUSSELL", "state": "IA", "street": "103 S MAPLE ST", "postcode": "50238"}}},
{"geometry": {"type": "Point", "coordinates": [-93.1991723581, 40.9821027262]}, "type": "Feature", "properties": {"collection_times": [{"days": "Mon-Fri", "time": "11:45am"}, {"days": "Sat", "time": "10:00am"}, {"days": "Sun", "time": "Closed"}], "id": "5023800002", "name": "USPS COLLECTION BOX - PO LOBBY", "address": {"city": "RUSSELL", "state": "IA", "street": "103 S MAPLE ST", "postcode": "50238"}}},
{"geometry": {"type": "Point", "coordinates": [-93.1972150019, 42.125014672]}, "type": "Feature", "properties": {"collection_times": [{"days": "Mon-Fri", "time": "2:45pm"}, {"days": "Sat", "time": "3:00pm"}, {"days": "Sun", "time": "Closed"}], "id": "5023900001", "name": "USPS COLLECTION BOX - BLUE BOX", "address": {"city": "SAINT ANTHONY", "state": "IA", "street": "306 MAIN ST", "postcode": "50239"}}},
{"geometry": {"type": "Point", "coordinates": [-93.1972150019, 42.125014672]}, "type": "Feature", "properties": {"collection_times": [{"days": "Mon-Fri", "time": "2:45pm"}, {"days": "Sat-Sun", "time": "Closed"}], "id": "5023900002", "name": "USPS COLLECTION BOX - PO LOBBY", "address": {"city": "SAINT ANTHONY", "state": "IA", "street": "306 MAIN ST", "postcode": "50239"}}},
{"geometry": {"type": "Point", "coordinates": [-93.8451679985, 41.2893439282]}, "type": "Feature", "properties": {"collection_times": [{"days": "Mon-Sat", "time": "5:00pm"}, {"days": "Sun", "time": "Closed"}], "id": "5024000001", "name": "USPS COLLECTION BOX - BLUE BOX", "address": {"city": "SAINT CHARLES", "state": "IA", "street": "129 W MAIN ST", "postcode": "50240"}}},
{"geometry": {"type": "Point", "coordinates": [-93.8060815638, 41.288536676]}, "type": "Feature", "properties": {"collection_times": [{"days": "Mon-Fri", "time": "1:45pm"}, {"days": "Sat", "time": "8:45am"}, {"days": "Sun", "time": "Closed"}], "id": "5024000002", "name": "USPS COLLECTION BOX - PO LOBBY", "address": {"city": "SAINT CHARLES", "state": "IA", "street": "129 W MAIN ST", "postcode": "50240"}}},
{"geometry": {"type": "Point", "coordinates": [-93.7315677594, 41.3079770692]}, "type": "Feature", "properties": {"collection_times": [{"days": "Mon-Sat", "time": "4:00pm"}, {"days": "Sun", "time": "Closed"}], "id": "5024100001", "name": "USPS COLLECTION BOX - BLUE BOX", "address": {"city": "SAINT MARYS", "state": "IA", "street": "104 IOWA ST", "postcode": "50241"}}},
{"geometry": {"type": "Point", "coordinates": [-93.7315677594, 41.3079770692]}, "type": "Feature", "properties": {"collection_times": [{"days": "Mon-Fri", "time": "2:45pm"}, {"days": "Sat", "time": "3:00pm"}, {"days": "Sun", "time": "Closed"}], "id": "5024100002", "name": "USPS COLLECTION BOX - PO LOBBY", "address": {"city": "SAINT MARYS", "state": "IA", "street": "104 IOWA ST", "postcode": "50241"}}},
{"geometry": {"type": "Point", "coordinates": [-93.6973524235, 41.8623526858]}, "type": "Feature", "properties": {"collection_times": [{"days": "Mon-Fri", "time": "4:00pm"}, {"days": "Sat", "time": "1:45pm"}, {"days": "Sun", "time": "Closed"}], "id": "5024300001", "name": "USPS COLLECTION BOX - BLUE BOX", "address": {"city": "SHELDAHL", "state": "IA", "street": "106 COUNTY AVE", "postcode": "50243"}}},
{"geometry": {"type": "Point", "coordinates": [-93.6973524235, 41.8623526858]}, "type": "Feature", "properties": {"collection_times": [{"days": "Mon-Fri", "time": "4:00pm"}, {"days": "Sat", "time": "1:45pm"}, {"days": "Sun", "time": "Closed"}], "id": "5024300002", "name": "USPS COLLECTION BOX - PO LOBBY", "address": {"city": "SHELDAHL", "state": "IA", "street": "106 COUNTY AVE", "postcode": "50243"}}},
{"geometry": {"type": "Point", "coordinates": [-93.6820050821, 41.8826898182]}, "type": "Feature", "properties": {"collection_times": [{"days": "Mon-Fri", "time": "4:30pm"}, {"days": "Sat-Sun", "time": "Closed"}], "id": "5024400001", "name": "USPS COLLECTION BOX - PO LOBBY", "address": {"city": "SLATER", "state": "IA", "street": "422 MAIN ST", "postcode": "50244"}}},
{"geometry": {"type": "Point", "coordinates": [-93.6820050821, 41.8826898182]}, "type": "Feature", "properties": {"collection_times": [{"days": "Mon-Sat", "time": "4:30pm"}, {"days": "Sun", "time": "Closed"}], "id": "5024400003", "name": "USPS COLLECTION BOX - BLUE BOX", "address": {"city": "SLATER", "state": "IA", "street": "422 MAIN ST", "postcode": "50244"}}},
{"geometry": {"type": "Point", "coordinates": [-93.7960594344, 42.2896915822]}, "type": "Feature", "properties": {"collection_times": [{"days": "Mon-Sat", "time": "4:15pm"}, {"days": "Sun", "time": "Closed"}], "id": "5024600001", "name": "USPS COLLECTION BOX - BLUE BOX", "address": {"city": "STANHOPE", "state": "IA", "street": "605 PARKER ST", "postcode": "50246"}}},
{"geometry": {"type": "Point", "coordinates": [-93.7960594344, 42.2896915822]}, "type": "Feature", "properties": {"collection_times": [{"days": "Mon-Fri", "time": "11:15am"}, {"days": "Sat-Sun", "time": "Closed"}], "id": "5024600002", "name": "USPS COLLECTION BOX - PO LOBBY", "address": {"city": "STANHOPE", "state": "IA", "street": "605 PARKER ST", "postcode": "50246"}}},
{"geometry": {"type": "Point", "coordinates": [-93.1637950476, 42.0165836482]}, "type": "Feature", "properties": {"collection_times": [{"days": "Mon-Sat", "time": "4:30pm"}, {"days": "Sun", "time": "Closed"}], "id": "5024700002", "name": "USPS COLLECTION BOX - BLUE BOX", "address": {"city": "STATE CENTER", "state": "IA", "street": "114 MAIN ST E", "postcode": "50247"}}},
{"geometry": {"type": "Point", "coordinates": [-93.1637950476, 42.0165836482]}, "type": "Feature", "properties": {"collection_times": [{"days": "Mon-Fri", "time": "5:00pm"}, {"days": "Sat", "time": "11:00am"}, {"days": "Sun", "time": "Closed"}], "id": "5024700005", "name": "USPS COLLECTION BOX - PO LOBBY", "address": {"city": "STATE CENTER", "state": "IA", "street": "114 MAIN ST E", "postcode": "50247"}}},
{"geometry": {"type": "Point", "coordinates": [-93.5956946631, 42.1871533406]}, "type": "Feature", "properties": {"collection_times": [{"days": "Mon-Fri", "time": "4:45pm"}, {"days": "Sat", "time": "5:00pm"}, {"days": "Sun", "time": "Closed"}], "id": "5024800004", "name": "USPS COLLECTION BOX - BLUE BOX", "address": {"city": "STORY CITY", "state": "IA", "street": "613 BROAD ST", "postcode": "50248"}}},
{"geometry": {"type": "Point", "coordinates": [-93.5956946631, 42.1871533406]}, "type": "Feature", "properties": {"collection_times": [{"days": "Mon-Fri", "time": "4:45pm"}, {"days": "Sat", "time": "5:00pm"}, {"days": "Sun", "time": "Closed"}], "id": "5024800005", "name": "USPS COLLECTION BOX - BLUE BOX", "address": {"city": "STORY CITY", "state": "IA", "street": "613 BROAD ST", "postcode": "50248"}}},
{"geometry": {"type": "Point", "coordinates": [-93.5956946631, 42.1871533406]}, "type": "Feature", "properties": {"collection_times": [{"days": "Mon-Fri", "time": "5:00pm"}, {"days": "Sat", "time": "12:00pm"}, {"days": "Sun", "time": "Closed"}], "id": "5024800009", "name": "USPS COLLECTION BOX - PO LOBBY", "address": {"city": "STORY CITY", "state": "IA", "street": "613 BROAD ST", "postcode": "50248"}}},
{"geometry": {"type": "Point", "coordinates": [-93.9270444952, 42.2694826569]}, "type": "Feature", "properties": {"collection_times": [{"days": "Mon-Sat", "time": "4:00pm"}, {"days": "Sun", "time": "Closed"}], "id": "5024900001", "name": "USPS COLLECTION BOX - BLUE BOX", "address": {"city": "STRATFORD", "state": "IA", "street": "720 SHAKESPEARE AVE", "postcode": "50249"}}},
{"geometry": {"type": "Point", "coordinates": [-93.9270444952, 42.2694826569]}, "type": "Feature", "properties": {"collection_times": [{"days": "Mon-Fri", "time": "2:15pm"}, {"days": "Sat-Sun", "time": "Closed"}], "id": "5024900002", "name": "USPS COLLECTION BOX - PO LOBBY", "address": {"city": "STRATFORD", "state": "IA", "street": "720 SHAKESPEARE AVE", "postcode": "50249"}}},
{"geometry": {"type": "Point", "coordinates": [-94.3078424842, 41.5049848452]}, "type": "Feature", "properties": {"collection_times": [{"days": "Mon-Fri", "time": "4:30pm"}, {"days": "Sat", "time": "5:00pm"}, {"days": "Sun", "time": "Closed"}], "id": "5025000003", "name": "USPS COLLECTION BOX - BLUE BOX", "address": {"city": "STUART", "state": "IA", "street": "208 NE 2ND ST", "postcode": "50250"}}},
{"geometry": {"type": "Point", "coordinates": [-94.3078424842, 41.5049848452]}, "type": "Feature", "properties": {"collection_times": [{"days": "Mon-Fri", "time": "4:30pm"}, {"days": "Sat", "time": "10:30am"}, {"days": "Sun", "time": "Closed"}], "id": "5025000006", "name": "USPS COLLECTION BOX - PO LOBBY", "address": {"city": "STUART", "state": "IA", "street": "208 NE 2ND ST", "postcode": "50250"}}},
{"geometry": {"type": "Point", "coordinates": [-92.8465380885, 41.5783129668]}, "type": "Feature", "properties": {"collection_times": [{"days": "Mon-Sat", "time": "4:00pm"}, {"days": "Sun", "time": "Closed"}], "id": "5025100001", "name": "USPS COLLECTION BOX - BLUE BOX", "address": {"city": "SULLY", "state": "IA", "street": "624 4TH ST", "postcode": "50251"}}},
{"geometry": {"type": "Point", "coordinates": [-92.8465380885, 41.5783129668]}, "type": "Feature", "properties": {"collection_times": [{"days": "Mon-Fri", "time": "1:45pm"}, {"days": "Sat", "time": "9:45am"}, {"days": "Sun", "time": "Closed"}], "id": "5025100002", "name": "USPS COLLECTION BOX - PO LOBBY", "address": {"city": "SULLY", "state": "IA", "street": "624 4TH ST", "postcode": "50251"}}},
{"geometry": {"type": "Point", "coordinates": [-92.8536290536, 41.5723819779]}, "type": "Feature", "properties": {"collection_times": [{"days": "Mon-Sat", "time": "4:00pm"}, {"days": "Sun", "time": "Closed"}], "id": "5025100003", "name": "USPS COLLECTION BOX - BLUE BOX", "address": {"city": "SULLY", "state": "IA", "street": "624 4TH ST", "postcode": "50251"}}},
{"geometry": {"type": "Point", "coordinates": [-94.050414712, 41.0287960431]}, "type": "Feature", "properties": {"collection_times": [{"days": "Mon-Sat", "time": "3:45pm"}, {"days": "Sun", "time": "Closed"}], "id": "5025400001", "name": "USPS COLLECTION BOX - BLUE BOX", "address": {"city": "THAYER", "state": "IA", "street": "408 3RD ST", "postcode": "50254"}}},
{"geometry": {"type": "Point", "coordinates": [-92.3346016682, 41.4555353913]}, "type": "Feature", "properties": {"collection_times": [{"days": "Mon-Fri", "time": "2:45pm"}, {"days": "Sat", "time": "3:00pm"}, {"days": "Sun", "time": "Closed"}], "id": "5025500001", "name": "USPS COLLECTION BOX - BLUE BOX", "address": {"city": "THORNBURG", "state": "IA", "street": "1009 BROADWAY ST", "postcode": "50255"}}},
{"geometry": {"type": "Point", "coordinates": [-92.3346016682, 41.4555353913]}, "type": "Feature", "properties": {"collection_times": [{"days": "Mon-Fri", "time": "2:45pm"}, {"days": "Sat-Sun", "time": "Closed"}], "id": "5025500002", "name": "USPS COLLECTION BOX - PO LOBBY", "address": {"city": "THORNBURG", "state": "IA", "street": "1009 BROADWAY ST", "postcode": "50255"}}},
{"geometry": {"type": "Point", "coordinates": [-92.8766081609, 41.275158748]}, "type": "Feature", "properties": {"collection_times": [{"days": "Mon-Sat", "time": "4:30pm"}, {"days": "Sun", "time": "Closed"}], "id": "5025600001", "name": "USPS COLLECTION BOX - BLUE BOX", "address": {"city": "TRACY", "state": "IA", "street": "513 BRADLEY ST", "postcode": "50256"}}},
{"geometry": {"type": "Point", "coordinates": [-92.8766081609, 41.275158748]}, "type": "Feature", "properties": {"collection_times": [{"days": "Mon-Fri", "time": "11:15am"}, {"days": "Sat", "time": "8:45am"}, {"days": "Sun", "time": "Closed"}], "id": "5025600002", "name": "USPS COLLECTION BOX - PO LOBBY", "address": {"city": "TRACY", "state": "IA", "street": "513 BRADLEY ST", "postcode": "50256"}}},
{"geometry": {"type": "Point", "coordinates": [-93.847632437, 41.2097720275]}, "type": "Feature", "properties": {"collection_times": [{"days": "Mon-Sat", "time": "4:00pm"}, {"days": "Sun", "time": "Closed"}], "id": "5025700001", "name": "USPS COLLECTION BOX - BLUE BOX", "address": {"city": "TRURO", "state": "IA", "street": "200 E NORTH ST", "postcode": "50257"}}},
{"geometry": {"type": "Point", "coordinates": [-93.847632437, 41.2097720275]}, "type": "Feature", "properties": {"collection_times": [{"days": "Mon-Fri", "time": "11:15am"}, {"days": "Sat-Sun", "time": "Closed"}], "id": "5025700002", "name": "USPS COLLECTION BOX - PO LOBBY", "address": {"city": "TRURO", "state": "IA", "street": "200 E NORTH ST", "postcode": "50257"}}},
{"geometry": {"type": "Point", "coordinates": [-93.0625347781, 42.2452942493]}, "type": "Feature", "properties": {"collection_times": [{"days": "Mon-Sat", "time": "3:45pm"}, {"days": "Sun", "time": "Closed"}], "id": "5025800001", "name": "USPS COLLECTION BOX - BLUE BOX", "address": {"city": "UNION", "state": "IA", "street": "307 CENTER ST", "postcode": "50258"}}},
{"geometry": {"type": "Point", "coordinates": [-93.0625347781, 42.2452942493]}, "type": "Feature", "properties": {"collection_times": [{"days": "Mon-Fri", "time": "2:45pm"}, {"days": "Sat-Sun", "time": "Closed"}], "id": "5025800002", "name": "USPS COLLECTION BOX - PO LOBBY", "address": {"city": "UNION", "state": "IA", "street": "307 CENTER ST", "postcode": "50258"}}},
{"geometry": {"type": "Point", "coordinates": [-93.9557013871, 41.5330319413]}, "type": "Feature", "properties": {"collection_times": [{"days": "Mon-Fri", "time": "3:45pm"}, {"days": "Sat", "time": "4:00pm"}, {"days": "Sun", "time": "Closed"}], "id": "5026100001", "name": "USPS COLLECTION BOX - BLUE BOX", "address": {"city": "VAN METER", "state": "IA", "street": "409 GRANT ST", "postcode": "50261"}}},
{"geometry": {"type": "Point", "coordinates": [-93.9557013871, 41.5330319413]}, "type": "Feature", "properties": {"collection_times": [{"days": "Mon-Fri", "time": "3:45pm"}, {"days": "Sat", "time": "9:45am"}, {"days": "Sun", "time": "Closed"}], "id": "5026100002", "name": "USPS COLLECTION BOX - PO LOBBY", "address": {"city": "VAN METER", "state": "IA", "street": "409 GRANT ST", "postcode": "50261"}}},
{"geometry": {"type": "Point", "coordinates": [-93.8434503256, 40.8547291134]}, "type": "Feature", "properties": {"collection_times": [{"days": "Mon-Fri", "time": "4:15pm"}, {"days": "Sat", "time": "2:30pm"}, {"days": "Sun", "time": "Closed"}], "id": "5026200001", "name": "USPS COLLECTION BOX - BLUE BOX", "address": {"city": "VAN WERT", "state": "IA", "street": "101 S CHAMPA ST", "postcode": "50262"}}},
{"geometry": {"type": "Point", "coordinates": [-93.8434503256, 40.8547291134]}, "type": "Feature", "properties": {"collection_times": [{"days": "Mon-Fri", "time": "3:45pm"}, {"days": "Sat", "time": "2:30pm"}, {"days": "Sun", "time": "Closed"}], "id": "5026200002", "name": "USPS COLLECTION BOX - PO LOBBY", "address": {"city": "VAN WERT", "state": "IA", "street": "101 S CHAMPA ST", "postcode": "50262"}}},
{"geometry": {"type": "Point", "coordinates": [-93.8356850707, 41.614962835]}, "type": "Feature", "properties": {"collection_times": [{"days": "Mon-Fri", "time": "5:00pm"}, {"days": "Sat", "time": "12:00pm"}, {"days": "Sun", "time": "Closed"}], "id": "5026300001", "name": "USPS COLLECTION BOX - BLUE BOX", "address": {"city": "WAUKEE", "state": "IA", "street": "500 W HICKMAN RD", "postcode": "50263"}}},
{"geometry": {"type": "Point", "coordinates": [-93.8667618267, 41.6121585723]}, "type": "Feature", "properties": {"collection_times": [{"days": "Mon-Fri", "time": "8:30am"}, {"days": "Sat", "time": "9:00am"}, {"days": "Sun", "time": "Closed"}], "id": "5026300003", "name": "USPS COLLECTION BOX - BLUE BOX", "address": {"city": "WAUKEE", "state": "IA", "street": "785 COLLINS DR", "postcode": "50263"}}},
{"geometry": {"type": "Point", "coordinates": [-93.8356850707, 41.614962835]}, "type": "Feature", "properties": {"collection_times": [{"days": "Mon-Fri", "time": "5:00pm"}, {"days": "Sat", "time": "12:00pm"}, {"days": "Sun", "time": "Closed"}], "id": "5026300004", "name": "USPS COLLECTION BOX - PO LOBBY", "address": {"city": "WAUKEE", "state": "IA", "street": "500 W HICKMAN RD", "postcode": "50263"}}},
{"geometry": {"type": "Point", "coordinates": [-93.8356850707, 41.614962835]}, "type": "Feature", "properties": {"collection_times": [{"days": "Mon-Fri", "time": "5:00pm"}, {"days": "Sat", "time": "12:00pm"}, {"days": "Sun", "time": "Closed"}], "id": "5026300005", "name": "USPS COLLECTION BOX - BLUE BOX", "address": {"city": "WAUKEE", "state": "IA", "street": "500 W HICKMAN RD", "postcode": "50263"}}},
{"geometry": {"type": "Point", "coordinates": [-93.7170203504, 40.8668342017]}, "type": "Feature", "properties": {"collection_times": [{"days": "Mon-Sat", "time": "4:15pm"}, {"days": "Sun", "time": "Closed"}], "id": "5026400001", "name": "USPS COLLECTION BOX - BLUE BOX", "address": {"city": "WELDON", "state": "IA", "street": "202 HIGHWAY J12", "postcode": "50264"}}},
{"geometry": {"type": "Point", "coordinates": [-93.7170203504, 40.8668342017]}, "type": "Feature", "properties": {"collection_times": [{"days": "Mon-Fri", "time": "11:45am"}, {"days": "Sat", "time": "8:30am"}, {"days": "Sun", "time": "Closed"}], "id": "5026400002", "name": "USPS COLLECTION BOX - PO LOBBY", "address": {"city": "WELDON", "state": "IA", "street": "202 HIGHWAY J12", "postcode": "50264"}}},
{"geometry": {"type": "Point", "coordinates": [-93.7084927116, 41.5865050967]}, "type": "Feature", "properties": {"collection_times": [{"days": "Mon-Fri", "time": "2:15pm"}, {"days": "Sat-Sun", "time": "Closed"}], "id": "5026500005", "name": "USPS COLLECTION BOX - BLUE BOX", "address": {"city": "W DES MOINES", "state": "IA", "street": "1101 5TH ST", "postcode": "50265"}}},
{"geometry": {"type": "Point", "coordinates": [-93.7070353133, 41.5827407848]}, "type": "Feature", "properties": {"collection_times": [{"days": "Mon-Fri", "time": "2:15pm"}, {"days": "Sat-Sun", "time": "Closed"}], "id": "5026500006", "name": "USPS COLLECTION BOX - BLUE BOX", "address": {"city": "W DES MOINES", "state": "IA", "street": "329 GRAND AVE", "postcode": "50265"}}},
{"geometry": {"type": "Point", "coordinates": [-93.7162032382, 41.590359177]}, "type": "Feature", "properties": {"collection_times": [{"days": "Mon-Fri", "time": "3:45pm"}, {"days": "Sat-Sun", "time": "Closed"}], "id": "5026500009", "name": "USPS COLLECTION BOX - BLUE BOX", "address": {"city": "W DES MOINES", "state": "IA", "street": "950 OFFICE PARK RD", "postcode": "50265"}}},
{"geometry": {"type": "Point", "coordinates": [-93.7153467759, 41.5903544451]}, "type": "Feature", "properties": {"collection_times": [{"days": "Mon-Fri", "time": "3:45pm"}, {"days": "Sat-Sun", "time": "Closed"}], "id": "5026500010", "name": "USPS COLLECTION BOX - BLUE BOX", "address": {"city": "W DES MOINES", "state": "IA", "street": "939 OFFICE PARK RD", "postcode": "50265"}}},
{"geometry": {"type": "Point", "coordinates": [-93.717534067, 41.5846147282]}, "type": "Feature", "properties": {"collection_times": [{"days": "Mon-Fri", "time": "4:00pm"}, {"days": "Sat-Sun", "time": "Closed"}], "id": "5026500011", "name": "USPS COLLECTION BOX - BLUE BOX", "address": {"city": "W DES MOINES", "state": "IA", "street": "1025 ASHWORTH RD", "postcode": "50265"}}},
{"geometry": {"type": "Point", "coordinates": [-93.7308244054, 41.5724026307]}, "type": "Feature", "properties": {"collection_times": [{"days": "Mon-Fri", "time": "4:30pm"}, {"days": "Sat", "time": "10:30am"}, {"days": "Sun", "time": "Closed"}], "id": "5026500014", "name": "USPS COLLECTION BOX - BLUE BOX", "address": {"city": "W DES MOINES", "state": "IA", "street": "1940 GRAND AVE", "postcode": "50265"}}},
{"geometry": {"type": "Point", "coordinates": [-93.7327602947, 41.5716611793]}, "type": "Feature", "properties": {"collection_times": [{"days": "Mon-Fri", "time": "4:45pm"}, {"days": "Sat", "time": "1:00pm"}, {"days": "Sun", "time": "Closed"}], "id": "5026500015", "name": "USPS COLLECTION BOX - BLUE BOX", "address": {"city": "W DES MOINES", "state": "IA", "street": "119 19TH ST", "postcode": "50265"}}},
{"geometry": {"type": "Point", "coordinates": [-93.7827633387, 41.5626068302]}, "type": "Feature", "properties": {"collection_times": [{"days": "Mon-Fri", "time": "4:00pm"}, {"days": "Sat-Sun", "time": "Closed"}], "id": "5026500016", "name": "USPS COLLECTION BOX - BLUE BOX", "address": {"city": "W DES MOINES", "state": "IA", "street": "5550 WILD ROSE LN", "postcode": "50265"}}},
{"geometry": {"type": "Point", "coordinates": [-93.741639552, 41.5720586411]}, "type": "Feature", "properties": {"collection_times": [{"days": "Mon-Fri", "time": "4:15pm"}, {"days": "Sat-Sun", "time": "Closed"}], "id": "5026500017", "name": "USPS COLLECTION BOX - BLUE BOX", "address": {"city": "W DES MOINES", "state": "IA", "street": "4900 GEORGE MILLS CIVIC PKWY", "postcode": "50265"}}},
{"geometry": {"type": "Point", "coordinates": [-93.7088878199, 41.5751628861]}, "type": "Feature", "properties": {"collection_times": [{"days": "Mon-Fri", "time": "5:30pm"}, {"days": "Sat", "time": "4:30pm"}, {"days": "Sun", "time": "Closed"}], "id": "5026500018", "name": "USPS COLLECTION BOX - BLUE BOX", "address": {"city": "W DES MOINES", "state": "IA", "street": "430 5TH ST", "postcode": "50265"}}},
{"geometry": {"type": "Point", "coordinates": [-93.7340259031, 41.566640765]}, "type": "Feature", "properties": {"collection_times": [{"days": "Mon-Fri", "time": "1:45pm"}, {"days": "Sat", "time": "11:00am"}, {"days": "Sun", "time": "Closed"}], "id": "5026500019", "name": "USPS COLLECTION BOX - BLUE BOX", "address": {"city": "W DES MOINES", "state": "IA", "street": "2116 GRAND AVE", "postcode": "50265"}}},
{"geometry": {"type": "Point", "coordinates": [-93.7131161576, 41.5893818315]}, "type": "Feature", "properties": {"collection_times": [{"days": "Mon-Fri", "time": "3:45pm"}, {"days": "Sat-Sun", "time": "Closed"}], "id": "5026500024", "name": "USPS COLLECTION BOX - BLUE BOX", "address": {"city": "W DES MOINES", "state": "IA", "street": "1247 8TH ST", "postcode": "50265"}}},
{"geometry": {"type": "Point", "coordinates": [-93.7308244054, 41.5724026307]}, "type": "Feature", "properties": {"collection_times": [{"days": "Mon-Fri", "time": "4:30pm"}, {"days": "Sat", "time": "10:30am"}, {"days": "Sun", "time": "Closed"}], "id": "5026500027", "name": "USPS COLLECTION BOX - BLUE BOX", "address": {"city": "W DES MOINES", "state": "IA", "street": "1940 GRAND AVE", "postcode": "50265"}}},
{"geometry": {"type": "Point", "coordinates": [-93.7191133172, 41.5809794953]}, "type": "Feature", "properties": {"collection_times": [{"days": "Mon-Fri", "time": "4:45pm"}, {"days": "Sat", "time": "12:15pm"}, {"days": "Sun", "time": "Closed"}], "id": "5026500028", "name": "USPS COLLECTION BOX - BLUE BOX", "address": {"city": "W DES MOINES", "state": "IA", "street": "1208 PROSPECT AVE", "postcode": "50265"}}},
{"geometry": {"type": "Point", "coordinates": [-93.7191133172, 41.5809794953]}, "type": "Feature", "properties": {"collection_times": [{"days": "Mon-Fri", "time": "4:45pm"}, {"days": "Sat", "time": "12:15pm"}, {"days": "Sun", "time": "Closed"}], "id": "5026500029", "name": "USPS COLLECTION BOX - BLUE BOX", "address": {"city": "W DES MOINES", "state": "IA", "street": "1208 PROSPECT AVE", "postcode": "50265"}}},
{"geometry": {"type": "Point", "coordinates": [-93.7569347762, 41.5676744866]}, "type": "Feature", "properties": {"collection_times": [{"days": "Mon-Fri", "time": "4:45pm"}, {"days": "Sat-Sun", "time": "Closed"}], "id": "5026500030", "name": "USPS COLLECTION BOX - BLUE BOX", "address": {"city": "W DES MOINES", "state": "IA", "street": "3550 GEORGE MILLS CIVIC PKWY", "postcode": "50265"}}},
{"geometry": {"type": "Point", "coordinates": [-93.7161940691, 41.5904178]}, "type": "Feature", "properties": {"collection_times": [{"days": "Mon-Fri", "time": "3:45pm"}, {"days": "Sat-Sun", "time": "Closed"}], "id": "5026500031", "name": "USPS COLLECTION BOX - BLUE BOX", "address": {"city": "W DES MOINES", "state": "IA", "street": "1011 OFFICE PARK RD", "postcode": "50265"}}},
{"geometry": {"type": "Point", "coordinates": [-93.7602481916, 41.5658708612]}, "type": "Feature", "properties": {"collection_times": [{"days": "Mon-Fri", "time": "4:15pm"}, {"days": "Sat-Sun", "time": "Closed"}], "id": "5026500034", "name": "USPS COLLECTION BOX - BLUE BOX", "address": {"city": "W DES MOINES", "state": "IA", "street": "4200 GEORGE MILLS CIVIC PKWY", "postcode": "50265"}}},
{"geometry": {"type": "Point", "coordinates": [-93.7366655448, 41.5571510157]}, "type": "Feature", "properties": {"collection_times": [{"days": "Mon-Fri", "time": "4:45pm"}, {"days": "Sat-Sun", "time": "Closed"}], "id": "5026500036", "name": "USPS COLLECTION BOX - BLUE BOX", "address": {"city": "W DES MOINES", "state": "IA", "street": "3550 GEORGE MILLS CIVIC PKWY", "postcode": "50265"}}},
{"geometry": {"type": "Point", "coordinates": [-93.7088878199, 41.5751628861]}, "type": "Feature", "properties": {"collection_times": [{"days": "Mon-Fri", "time": "5:00pm"}, {"days": "Sat", "time": "4:00pm"}, {"days": "Sun", "time": "Closed"}], "id": "5026500037", "name": "USPS COLLECTION BOX - PO LOBBY", "address": {"city": "W DES MOINES", "state": "IA", "street": "430 5TH ST", "postcode": "50265"}}},
{"geometry": {"type": "Point", "coordinates": [-93.7366655448, 41.5571510157]}, "type": "Feature", "properties": {"collection_times": [{"days": "Mon-Fri", "time": "4:15pm"}, {"days": "Sat-Sun", "time": "Closed"}], "id": "5026500042", "name": "USPS COLLECTION BOX - BLUE BOX", "address": {"city": "W DES MOINES", "state": "IA", "street": "4200 GEORGE MILLS CIVIC PKWY", "postcode": "50265"}}},
{"geometry": {"type": "Point", "coordinates": [-93.7366655448, 41.5571510157]}, "type": "Feature", "properties": {"collection_times": [{"days": "Mon-Fri", "time": "4:15pm"}, {"days": "Sat-Sun", "time": "Closed"}], "id": "5026500043", "name": "USPS COLLECTION BOX - BLUE BOX", "address": {"city": "W DES MOINES", "state": "IA", "street": "4900 GEORGE MILLS CIVIC PKWY", "postcode": "50265"}}},
{"geometry": {"type": "Point", "coordinates": [-93.7366655448, 41.5571510157]}, "type": "Feature", "properties": {"collection_times": [{"days": "Mon-Fri", "time": "4:15pm"}, {"days": "Sat-Sun", "time": "Closed"}], "id": "5026500044", "name": "USPS COLLECTION BOX - BLUE BOX", "address": {"city": "W DES MOINES", "state": "IA", "street": "4200 GEORGE MILLS CIVIC PKWY", "postcode": "50265"}}},
{"geometry": {"type": "Point", "coordinates": [-93.7366655448, 41.5571510157]}, "type": "Feature", "properties": {"collection_times": [{"days": "Mon-Fri", "time": "1:00pm"}, {"days": "Sat-Sun", "time": "Closed"}], "id": "5026500045", "name": "USPS COLLECTION BOX - BLUE BOX", "address": {"city": "W DES MOINES", "state": "IA", "street": "101 JORDAN CREEK PKWY", "postcode": "50265"}}},
{"geometry": {"type": "Point", "coordinates": [-93.7366655448, 41.5571510157]}, "type": "Feature", "properties": {"collection_times": [{"days": "Mon-Fri", "time": "1:00pm"}, {"days": "Sat-Sun", "time": "Closed"}], "id": "5026500046", "name": "USPS COLLECTION BOX - BLUE BOX", "address": {"city": "W DES MOINES", "state": "IA", "street": "101 JORDAN CREEK PKWY", "postcode": "50265"}}},
{"geometry": {"type": "Point", "coordinates": [-93.7366655448, 41.5571510157]}, "type": "Feature", "properties": {"collection_times": [{"days": "Mon-Fri", "time": "4:15pm"}, {"days": "Sat-Sun", "time": "Closed"}], "id": "5026500047", "name": "USPS COLLECTION BOX - BLUE BOX", "address": {"city": "W DES MOINES", "state": "IA", "street": "5405 MILLS CIVIC PKWY", "postcode": "50265"}}},
{"geometry": {"type": "Point", "coordinates": [-93.7739056106, 41.5615943468]}, "type": "Feature", "properties": {"collection_times": [{"days": "Mon-Fri", "time": "4:15pm"}, {"days": "Sat", "time": "1:00pm"}, {"days": "Sun", "time": "Closed"}], "id": "5026500048", "name": "USPS COLLECTION BOX - BLUE BOX", "address": {"city": "W DES MOINES", "state": "IA", "street": "555 S 51ST ST", "postcode": "50265"}}},
{"geometry": {"type": "Point", "coordinates": [-93.7632648947, 41.6003977668]}, "type": "Feature", "properties": {"collection_times": [{"days": "Mon-Fri", "time": "2:00pm"}, {"days": "Sat-Sun", "time": "Closed"}], "id": "5026600002", "name": "USPS COLLECTION BOX - BLUE BOX", "address": {"city": "WEST DES MOINES", "state": "IA", "street": "4200 UNIVERSITY AVE", "postcode": "50266"}}},
{"geometry": {"type": "Point", "coordinates": [-93.7888855187, 41.5953228565]}, "type": "Feature", "properties": {"collection_times": [{"days": "Mon-Fri", "time": "1:45pm"}, {"days": "Sat-Sun", "time": "Closed"}], "id": "5026600003", "name": "USPS COLLECTION BOX - BLUE BOX", "address": {"city": "WEST DES MOINES", "state": "IA", "street": "6000 WESTOWN PKWY", "postcode": "50266"}}},
{"geometry": {"type": "Point", "coordinates": [-93.7633950201, 41.5981205707]}, "type": "Feature", "properties": {"collection_times": [{"days": "Mon-Fri", "time": "2:00pm"}, {"days": "Sat-Sun", "time": "Closed"}], "id": "5026600004", "name": "USPS COLLECTION BOX - BLUE BOX", "address": {"city": "WEST DES MOINES", "state": "IA", "street": "4445 CORPORATE DR", "postcode": "50266"}}},
{"geometry": {"type": "Point", "coordinates": [-93.7680913672, 41.5954707427]}, "type": "Feature", "properties": {"collection_times": [{"days": "Mon-Fri", "time": "3:00pm"}, {"days": "Sat-Sun", "time": "Closed"}], "id": "5026600005", "name": "USPS COLLECTION BOX - BLUE BOX", "address": {"city": "WEST DES MOINES", "state": "IA", "street": "4800 WESTOWN PKWY", "postcode": "50266"}}},
{"geometry": {"type": "Point", "coordinates": [-93.7686657913, 41.5967926788]}, "type": "Feature", "properties": {"collection_times": [{"days": "Mon-Fri", "time": "3:30pm"}, {"days": "Sat-Sun", "time": "Closed"}], "id": "5026600006", "name": "USPS COLLECTION BOX - BLUE BOX", "address": {"city": "WEST DES MOINES", "state": "IA", "street": "1701 48TH ST", "postcode": "50266"}}},
{"geometry": {"type": "Point", "coordinates": [-93.7642408358, 41.5955003166]}, "type": "Feature", "properties": {"collection_times": [{"days": "Mon-Fri", "time": "3:30pm"}, {"days": "Sat-Sun", "time": "Closed"}], "id": "5026600007", "name": "USPS COLLECTION BOX - BLUE BOX", "address": {"city": "WEST DES MOINES", "state": "IA", "street": "4401 WESTOWN PKWY", "postcode": "50266"}}},
{"geometry": {"type": "Point", "coordinates": [-93.766859907, 41.5954802063]}, "type": "Feature", "properties": {"collection_times": [{"days": "Mon-Fri", "time": "3:30pm"}, {"days": "Sat-Sun", "time": "Closed"}], "id": "5026600008", "name": "USPS COLLECTION BOX - BLUE BOX", "address": {"city": "WEST DES MOINES", "state": "IA", "street": "4601 WESTOWN PKWY", "postcode": "50266"}}},
{"geometry": {"type": "Point", "coordinates": [-93.7628709693, 41.5955085973]}, "type": "Feature", "properties": {"collection_times": [{"days": "Mon-Fri", "time": "3:30pm"}, {"days": "Sat-Sun", "time": "Closed"}], "id": "5026600011", "name": "USPS COLLECTION BOX - BLUE BOX", "address": {"city": "WEST DES MOINES", "state": "IA", "street": "4300 WESTOWN PKWY", "postcode": "50266"}}},
{"geometry": {"type": "Point", "coordinates": [-93.745295748, 41.5961604077]}, "type": "Feature", "properties": {"collection_times": [{"days": "Mon-Fri", "time": "3:45pm"}, {"days": "Sat-Sun", "time": "Closed"}], "id": "5026600013", "name": "USPS COLLECTION BOX - BLUE BOX", "address": {"city": "WEST DES MOINES", "state": "IA", "street": "2910 WESTOWN PKWY", "postcode": "50266"}}},
{"geometry": {"type": "Point", "coordinates": [-93.7517743316, 41.5964994349]}, "type": "Feature", "properties": {"collection_times": [{"days": "Mon-Fri", "time": "2:15pm"}, {"days": "Sat-Sun", "time": "Closed"}], "id": "5026600016", "name": "USPS COLLECTION BOX - BLUE BOX", "address": {"city": "WEST DES MOINES", "state": "IA", "street": "1551 VALLEY WEST DR", "postcode": "50266"}}},
{"geometry": {"type": "Point", "coordinates": [-93.797331644, 41.5690145706]}, "type": "Feature", "properties": {"collection_times": [{"days": "Mon-Fri", "time": "3:45pm"}, {"days": "Sat-Sun", "time": "Closed"}], "id": "5026600018", "name": "USPS COLLECTION BOX - BLUE BOX", "address": {"city": "WEST DES MOINES", "state": "IA", "street": "1454 30TH ST", "postcode": "50266"}}},
{"geometry": {"type": "Point", "coordinates": [-93.7414807053, 41.5962219216]}, "type": "Feature", "properties": {"collection_times": [{"days": "Mon-Fri", "time": "4:00pm"}, {"days": "Sat-Sun", "time": "Closed"}], "id": "5026600019", "name": "USPS COLLECTION BOX - BLUE BOX", "address": {"city": "WEST DES MOINES", "state": "IA", "street": "2700 WESTOWN PKWY", "postcode": "50266"}}},
{"geometry": {"type": "Point", "coordinates": [-93.7361077057, 41.5966229447]}, "type": "Feature", "properties": {"collection_times": [{"days": "Mon-Fri", "time": "2:30pm"}, {"days": "Sat-Sun", "time": "Closed"}], "id": "5026600022", "name": "USPS COLLECTION BOX - BLUE BOX", "address": {"city": "WEST DES MOINES", "state": "IA", "street": "1630 22ND ST", "postcode": "50266"}}},
{"geometry": {"type": "Point", "coordinates": [-93.7511360164, 41.5890401777]}, "type": "Feature", "properties": {"collection_times": [{"days": "Mon-Fri", "time": "4:30pm"}, {"days": "Sat-Sun", "time": "Closed"}], "id": "5026600023", "name": "USPS COLLECTION BOX - BLUE BOX", "address": {"city": "WEST DES MOINES", "state": "IA", "street": "3408 WOODLAND AVE", "postcode": "50266"}}},
{"geometry": {"type": "Point", "coordinates": [-93.7553520821, 41.5890129697]}, "type": "Feature", "properties": {"collection_times": [{"days": "Mon-Fri", "time": "4:30pm"}, {"days": "Sat-Sun", "time": "Closed"}], "id": "5026600025", "name": "USPS COLLECTION BOX - BLUE BOX", "address": {"city": "WEST DES MOINES", "state": "IA", "street": "3737 WOODLAND AVE", "postcode": "50266"}}},
{"geometry": {"type": "Point", "coordinates": [-93.7519108545, 41.589811467]}, "type": "Feature", "properties": {"collection_times": [{"days": "Mon-Fri", "time": "4:30pm"}, {"days": "Sat-Sun", "time": "Closed"}], "id": "5026600026", "name": "USPS COLLECTION BOX - BLUE BOX", "address": {"city": "WEST DES MOINES", "state": "IA", "street": "1200 35TH ST", "postcode": "50266"}}},
{"geometry": {"type": "Point", "coordinates": [-93.8032127437, 41.5902156442]}, "type": "Feature", "properties": {"collection_times": [{"days": "Mon-Fri", "time": "4:30pm"}, {"days": "Sat-Sun", "time": "Closed"}], "id": "5026600029", "name": "USPS COLLECTION BOX - BLUE BOX", "address": {"city": "WEST DES MOINES", "state": "IA", "street": "6935 VISTA DR", "postcode": "50266"}}},
{"geometry": {"type": "Point", "coordinates": [-93.8040271806, 41.5901142476]}, "type": "Feature", "properties": {"collection_times": [{"days": "Mon-Fri", "time": "4:30pm"}, {"days": "Sat-Sun", "time": "Closed"}], "id": "5026600030", "name": "USPS COLLECTION BOX - BLUE BOX", "address": {"city": "WEST DES MOINES", "state": "IA", "street": "7000 VISTA DR", "postcode": "50266"}}},
{"geometry": {"type": "Point", "coordinates": [-93.6645528229, 41.6162019761]}, "type": "Feature", "properties": {"collection_times": [{"days": "Mon-Fri", "time": "4:15pm"}, {"days": "Sat", "time": "1:00pm"}, {"days": "Sun", "time": "Closed"}], "id": "5026600031", "name": "USPS COLLECTION BOX - BLUE BOX", "address": {"city": "WEST DES MOINES", "state": "IA", "street": "1700 35TH ST", "postcode": "50266"}}},
{"geometry": {"type": "Point", "coordinates": [-93.7694044517, 41.6004036815]}, "type": "Feature", "properties": {"collection_times": [{"days": "Mon-Fri", "time": "2:00pm"}, {"days": "Sat-Sun", "time": "Closed"}], "id": "5026600033", "name": "USPS COLLECTION BOX - BLUE BOX", "address": {"city": "WEST DES MOINES", "state": "IA", "street": "4900 UNIVERSITY AVE", "postcode": "50266"}}},
{"geometry": {"type": "Point", "coordinates": [-93.7429854291, 41.5961935306]}, "type": "Feature", "properties": {"collection_times": [{"days": "Mon-Fri", "time": "4:00pm"}, {"days": "Sat-Sun", "time": "Closed"}], "id": "5026600035", "name": "USPS COLLECTION BOX - BLUE BOX", "address": {"city": "WEST DES MOINES", "state": "IA", "street": "2829 WESTOWN PKWY", "postcode": "50266"}}},
{"geometry": {"type": "Point", "coordinates": [-93.7359929587, 41.596266874]}, "type": "Feature", "properties": {"collection_times": [{"days": "Mon-Fri", "time": "3:45pm"}, {"days": "Sat-Sun", "time": "Closed"}], "id": "5026600036", "name": "USPS COLLECTION BOX - BLUE BOX", "address": {"city": "WEST DES MOINES", "state": "IA", "street": "1601 22ND ST", "postcode": "50266"}}},
{"geometry": {"type": "Point", "coordinates": [-93.7561150907, 41.5954683767]}, "type": "Feature", "properties": {"collection_times": [{"days": "Mon-Fri", "time": "3:00pm"}, {"days": "Sat-Sun", "time": "Closed"}], "id": "5026600037", "name": "USPS COLLECTION BOX - BLUE BOX", "address": {"city": "WEST DES MOINES", "state": "IA", "street": "3737 WESTOWN PKWY", "postcode": "50266"}}},
{"geometry": {"type": "Point", "coordinates": [-93.7414807053, 41.5962219216]}, "type": "Feature", "properties": {"collection_times": [{"days": "Mon-Fri", "time": "4:00pm"}, {"days": "Sat-Sun", "time": "Closed"}], "id": "5026600038", "name": "USPS COLLECTION BOX - BLUE BOX", "address": {"city": "WEST DES MOINES", "state": "IA", "street": "2700 WESTOWN PKWY", "postcode": "50266"}}},
{"geometry": {"type": "Point", "coordinates": [-93.7598047397, 41.5495009573]}, "type": "Feature", "properties": {"collection_times": [{"days": "Mon-Fri", "time": "3:45pm"}, {"days": "Sat-Sun", "time": "Closed"}], "id": "5026600039", "name": "USPS COLLECTION BOX - BLUE BOX", "address": {"city": "WEST DES MOINES", "state": "IA", "street": "1501 42ND ST", "postcode": "50266"}}},
{"geometry": {"type": "Point", "coordinates": [-93.7598047397, 41.5495009573]}, "type": "Feature", "properties": {"collection_times": [{"days": "Mon-Fri", "time": "3:45pm"}, {"days": "Sat-Sun", "time": "Closed"}], "id": "5026600040", "name": "USPS COLLECTION BOX - BLUE BOX", "address": {"city": "WEST DES MOINES", "state": "IA", "street": "1501 42ND ST", "postcode": "50266"}}},
{"geometry": {"type": "Point", "coordinates": [-93.6645528229, 41.6162019761]}, "type": "Feature", "properties": {"collection_times": [{"days": "Mon-Fri", "time": "4:15pm"}, {"days": "Sat", "time": "1:00pm"}, {"days": "Sun", "time": "Closed"}], "id": "5026600041", "name": "USPS COLLECTION BOX - BLUE BOX", "address": {"city": "WEST DES MOINES", "state": "IA", "street": "1700 35TH ST", "postcode": "50266"}}},
{"geometry": {"type": "Point", "coordinates": [-93.7680913672, 41.5954707427]}, "type": "Feature", "properties": {"collection_times": [{"days": "Mon-Fri", "time": "3:00pm"}, {"days": "Sat-Sun", "time": "Closed"}], "id": "5026600042", "name": "USPS COLLECTION BOX - BLUE BOX", "address": {"city": "WEST DES MOINES", "state": "IA", "street": "4800 WESTOWN PKWY", "postcode": "50266"}}},
{"geometry": {"type": "Point", "coordinates": [-93.7642408358, 41.5955003166]}, "type": "Feature", "properties": {"collection_times": [{"days": "Mon-Fri", "time": "3:30pm"}, {"days": "Sat-Sun", "time": "Closed"}], "id": "5026600043", "name": "USPS COLLECTION BOX - BLUE BOX", "address": {"city": "WEST DES MOINES", "state": "IA", "street": "4401 WESTOWN PKWY", "postcode": "50266"}}},
{"geometry": {"type": "Point", "coordinates": [-93.7624545678, 41.5955109633]}, "type": "Feature", "properties": {"collection_times": [{"days": "Mon-Fri", "time": "3:30pm"}, {"days": "Sat-Sun", "time": "Closed"}], "id": "5026600045", "name": "USPS COLLECTION BOX - BLUE BOX", "address": {"city": "WEST DES MOINES", "state": "IA", "street": "4201 WESTOWN PKWY", "postcode": "50266"}}},
{"geometry": {"type": "Point", "coordinates": [-93.789718223, 41.5896162787]}, "type": "Feature", "properties": {"collection_times": [{"days": "Mon-Fri", "time": "2:00pm"}, {"days": "Sat", "time": "11:00am"}, {"days": "Sun", "time": "Closed"}], "id": "5026600047", "name": "USPS COLLECTION BOX - BLUE BOX", "address": {"city": "WEST DES MOINES", "state": "IA", "street": "5901 VISTA DR", "postcode": "50266"}}},
{"geometry": {"type": "Point", "coordinates": [-93.7711351207, 41.5946462203]}, "type": "Feature", "properties": {"collection_times": [{"days": "Mon-Fri", "time": "2:00pm"}, {"days": "Sat-Sun", "time": "Closed"}], "id": "5026600048", "name": "USPS COLLECTION BOX - BLUE BOX", "address": {"city": "WEST DES MOINES", "state": "IA", "street": "1501 50TH ST", "postcode": "50266"}}},
{"geometry": {"type": "Point", "coordinates": [-93.8016078406, 41.5899943397]}, "type": "Feature", "properties": {"collection_times": [{"days": "Mon-Fri", "time": "4:30pm"}, {"days": "Sat-Sun", "time": "Closed"}], "id": "5026600049", "name": "USPS COLLECTION BOX - BLUE BOX", "address": {"city": "WEST DES MOINES", "state": "IA", "street": "6801 VISTA DR", "postcode": "50266"}}},
{"geometry": {"type": "Point", "coordinates": [-93.797331644, 41.5690145706]}, "type": "Feature", "properties": {"collection_times": [{"days": "Mon-Fri", "time": "4:30pm"}, {"days": "Sat-Sun", "time": "Closed"}], "id": "5026600050", "name": "USPS COLLECTION BOX - BLUE BOX", "address": {"city": "WEST DES MOINES", "state": "IA", "street": "7310 OFFICE PLAZA DR", "postcode": "50266"}}},
{"geometry": {"type": "Point", "coordinates": [-93.7598047397, 41.5495009573]}, "type": "Feature", "properties": {"collection_times": [{"days": "Mon-Fri", "time": "3:45pm"}, {"days": "Sat-Sun", "time": "Closed"}], "id": "5026600051", "name": "USPS COLLECTION BOX - BLUE BOX", "address": {"city": "WEST DES MOINES", "state": "IA", "street": "1501 42ND ST", "postcode": "50266"}}},
{"geometry": {"type": "Point", "coordinates": [-93.797331644, 41.5690145706]}, "type": "Feature", "properties": {"collection_times": [{"days": "Mon-Fri", "time": "3:45pm"}, {"days": "Sat-Sun", "time": "Closed"}], "id": "5026600052", "name": "USPS COLLECTION BOX - BLUE BOX", "address": {"city": "WEST DES MOINES", "state": "IA", "street": "1454 30TH ST", "postcode": "50266"}}},
{"geometry": {"type": "Point", "coordinates": [-93.7519108545, 41.589811467]}, "type": "Feature", "properties": {"collection_times": [{"days": "Mon-Fri", "time": "4:30pm"}, {"days": "Sat-Sun", "time": "Closed"}], "id": "5026600053", "name": "USPS COLLECTION BOX - BLUE BOX", "address": {"city": "WEST DES MOINES", "state": "IA", "street": "1200 35TH ST", "postcode": "50266"}}},
{"geometry": {"type": "Point", "coordinates": [-93.7661335702, 41.5954873041]}, "type": "Feature", "properties": {"collection_times": [{"days": "Mon-Fri", "time": "3:00pm"}, {"days": "Sat-Sun", "time": "Closed"}], "id": "5026600054", "name": "USPS COLLECTION BOX - BLUE BOX", "address": {"city": "WEST DES MOINES", "state": "IA", "street": "4500 WESTOWN PKWY", "postcode": "50266"}}},
{"geometry": {"type": "Point", "coordinates": [-93.7661335702, 41.5954873041]}, "type": "Feature", "properties": {"collection_times": [{"days": "Mon-Fri", "time": "3:00pm"}, {"days": "Sat-Sun", "time": "Closed"}], "id": "5026600055", "name": "USPS COLLECTION BOX - BLUE BOX", "address": {"city": "WEST DES MOINES", "state": "IA", "street": "4500 WESTOWN PKWY", "postcode": "50266"}}},
{"geometry": {"type": "Point", "coordinates": [-93.7682830066, 41.5954695597]}, "type": "Feature", "properties": {"collection_times": [{"days": "Mon-Fri", "time": "3:00pm"}, {"days": "Sat-Sun", "time": "Closed"}], "id": "5026600056", "name": "USPS COLLECTION BOX - BLUE BOX", "address": {"city": "WEST DES MOINES", "state": "IA", "street": "4700 WESTOWN PKWY", "postcode": "50266"}}},
{"geometry": {"type": "Point", "coordinates": [-93.8136488367, 41.5876463604]}, "type": "Feature", "properties": {"collection_times": [{"days": "Mon-Fri", "time": "4:30pm"}, {"days": "Sat-Sun", "time": "Closed"}], "id": "5026600058", "name": "USPS COLLECTION BOX - BLUE BOX", "address": {"city": "WEST DES MOINES", "state": "IA", "street": "7755 OFFICE PLAZA DR N", "postcode": "50266"}}},
{"geometry": {"type": "Point", "coordinates": [-93.7944907114, 41.6003436961]}, "type": "Feature", "properties": {"collection_times": [{"days": "Mon-Fri", "time": "1:45pm"}, {"days": "Sat-Sun", "time": "Closed"}], "id": "5026600060", "name": "USPS COLLECTION BOX - BLUE BOX", "address": {"city": "WEST DES MOINES", "state": "IA", "street": "6000 UNIVERSITY AVE", "postcode": "50266"}}},
{"geometry": {"type": "Point", "coordinates": [-93.7414807053, 41.5962219216]}, "type": "Feature", "properties": {"collection_times": [{"days": "Mon-Fri", "time": "4:00pm"}, {"days": "Sat-Sun", "time": "Closed"}], "id": "5026600062", "name": "USPS COLLECTION BOX - BLUE BOX", "address": {"city": "WEST DES MOINES", "state": "IA", "street": "2700 WESTOWN PKWY", "postcode": "50266"}}},
{"geometry": {"type": "Point", "coordinates": [-93.797331644, 41.5690145706]}, "type": "Feature", "properties": {"collection_times": [{"days": "Mon-Fri", "time": "4:15pm"}, {"days": "Sat-Sun", "time": "Closed"}], "id": "5026600067", "name": "USPS COLLECTION BOX - BLUE BOX", "address": {"city": "WEST DES MOINES", "state": "IA", "street": "3636 WEST0WN PKWY", "postcode": "50266"}}},
{"geometry": {"type": "Point", "coordinates": [-93.7637985949, 41.5979824338]}, "type": "Feature", "properties": {"collection_times": [{"days": "Mon-Fri", "time": "3:30pm"}, {"days": "Sat-Sun", "time": "Closed"}], "id": "5026600068", "name": "USPS COLLECTION BOX - BLUE BOX", "address": {"city": "WEST DES MOINES", "state": "IA", "street": "4344 CORPORATE DR", "postcode": "50266"}}},
{"geometry": {"type": "Point", "coordinates": [-93.808781759, 41.5981166011]}, "type": "Feature", "properties": {"collection_times": [{"days": "Mon-Fri", "time": "4:30pm"}, {"days": "Sat", "time": "1:30pm"}, {"days": "Sun", "time": "Closed"}], "id": "5026600069", "name": "USPS COLLECTION BOX - BLUE BOX", "address": {"city": "WEST DES MOINES", "state": "IA", "street": "1725 JORDAN CREEK PKWY", "postcode": "50266"}}},
{"geometry": {"type": "Point", "coordinates": [-93.808781759, 41.5981166011]}, "type": "Feature", "properties": {"collection_times": [{"days": "Mon-Fri", "time": "4:30pm"}, {"days": "Sat", "time": "1:30pm"}, {"days": "Sun", "time": "Closed"}], "id": "5026600071", "name": "USPS COLLECTION BOX - BLUE BOX", "address": {"city": "WEST DES MOINES", "state": "IA", "street": "1725 JORDAN CREEK PKWY", "postcode": "50266"}}},
{"geometry": {"type": "Point", "coordinates": [-93.808781759, 41.5981166011]}, "type": "Feature", "properties": {"collection_times": [{"days": "Mon-Fri", "time": "4:30pm"}, {"days": "Sat", "time": "1:30pm"}, {"days": "Sun", "time": "Closed"}], "id": "5026600072", "name": "USPS COLLECTION BOX - BLUE BOX", "address": {"city": "WEST DES MOINES", "state": "IA", "street": "1725 JORDAN CREEK PKWY", "postcode": "50266"}}},
{"geometry": {"type": "Point", "coordinates": [-93.7598733513, 41.5889727491]}, "type": "Feature", "properties": {"collection_times": [{"days": "Mon-Fri", "time": "1:00pm"}, {"days": "Sat", "time": "11:00am"}, {"days": "Sun", "time": "Closed"}], "id": "5026600073", "name": "USPS COLLECTION BOX - BLUE BOX", "address": {"city": "WEST DES MOINES", "state": "IA", "street": "4101 WOODLAND PLZ", "postcode": "50266"}}},
{"geometry": {"type": "Point", "coordinates": [-93.797331644, 41.5690145706]}, "type": "Feature", "properties": {"collection_times": [{"days": "Mon-Fri", "time": "4:30pm"}, {"days": "Sat-Sun", "time": "Closed"}], "id": "5026600074", "name": "USPS COLLECTION BOX - BLUE BOX", "address": {"city": "WEST DES MOINES", "state": "IA", "street": "7310 OFFICE PLAZA DR", "postcode": "50266"}}},
{"geometry": {"type": "Point", "coordinates": [-93.7553520821, 41.5890129697]}, "type": "Feature", "properties": {"collection_times": [{"days": "Mon-Fri", "time": "4:30pm"}, {"days": "Sat-Sun", "time": "Closed"}], "id": "5026600075", "name": "USPS COLLECTION BOX - BLUE BOX", "address": {"city": "WEST DES MOINES", "state": "IA", "street": "3737 WOODLAND AVE", "postcode": "50266"}}},
{"geometry": {"type": "Point", "coordinates": [-93.7429854291, 41.5961935306]}, "type": "Feature", "properties": {"collection_times": [{"days": "Mon-Fri", "time": "4:00pm"}, {"days": "Sat-Sun", "time": "Closed"}], "id": "5026600076", "name": "USPS COLLECTION BOX - BLUE BOX", "address": {"city": "WEST DES MOINES", "state": "IA", "street": "2829 WESTOWN PKWY", "postcode": "50266"}}},
{"geometry": {"type": "Point", "coordinates": [-93.8062727006, 41.5571761617]}, "type": "Feature", "properties": {"collection_times": [{"days": "Mon-Fri", "time": "10:00am"}, {"days": "Sat-Sun", "time": "Closed"}], "id": "5026600077", "name": "USPS COLLECTION BOX - BLUE BOX", "address": {"city": "WEST DES MOINES", "state": "IA", "street": "815 E WELLS FARGO TRL", "postcode": "50266"}}},
{"geometry": {"type": "Point", "coordinates": [-93.7701083123, 41.5954541812]}, "type": "Feature", "properties": {"collection_times": [{"days": "Mon-Fri", "time": "3:00pm"}, {"days": "Sat-Sun", "time": "Closed"}], "id": "5026600078", "name": "USPS COLLECTION BOX - BLUE BOX", "address": {"city": "WEST DES MOINES", "state": "IA", "street": "4949 WESTOWN PKWY", "postcode": "50266"}}},
{"geometry": {"type": "Point", "coordinates": [-93.76338, 41.60044]}, "type": "Feature", "properties": {"collection_times": [{"days": "Mon-Fri", "time": "2:00pm"}, {"days": "Sat-Sun", "time": "Closed"}], "id": "5026600080", "name": "USPS COLLECTION BOX - BLUE BOX", "address": {"city": "WEST DES MOINES", "state": "IA", "street": "4200 UNIVERSITY AVE", "postcode": "50266"}}},
{"geometry": {"type": "Point", "coordinates": [-92.3545641241, 41.4014445322]}, "type": "Feature", "properties": {"collection_times": [{"days": "Mon-Sat", "time": "3:45pm"}, {"days": "Sun", "time": "Closed"}], "id": "5026800001", "name": "USPS COLLECTION BOX - BLUE BOX", "address": {"city": "WHAT CHEER", "state": "IA", "street": "113 S BARNES ST", "postcode": "50268"}}},
{"geometry": {"type": "Point", "coordinates": [-92.3545641241, 41.4014445322]}, "type": "Feature", "properties": {"collection_times": [{"days": "Mon-Fri", "time": "2:15pm"}, {"days": "Sat-Sun", "time": "Closed"}], "id": "5026800002", "name": "USPS COLLECTION BOX - PO LOBBY", "address": {"city": "WHAT CHEER", "state": "IA", "street": "113 S BARNES ST", "postcode": "50268"}}},
{"geometry": {"type": "Point", "coordinates": [-93.0052351631, 42.2617835014]}, "type": "Feature", "properties": {"collection_times": [{"days": "Mon-Sat", "time": "4:15pm"}, {"days": "Sun", "time": "Closed"}], "id": "5026900001", "name": "USPS COLLECTION BOX - BLUE BOX", "address": {"city": "WHITTEN", "state": "IA", "street": "706 IRWIN ST", "postcode": "50269"}}},
{"geometry": {"type": "Point", "coordinates": [-93.0051971427, 42.2609883963]}, "type": "Feature", "properties": {"collection_times": [{"days": "Mon-Fri", "time": "11:45am"}, {"days": "Sat-Sun", "time": "Closed"}], "id": "5026900002", "name": "USPS COLLECTION BOX - PO LOBBY", "address": {"city": "WHITTEN", "state": "IA", "street": "706 IRWIN ST", "postcode": "50269"}}},
{"geometry": {"type": "Point", "coordinates": [-93.5445659351, 42.4880198179]}, "type": "Feature", "properties": {"collection_times": [{"days": "Mon-Sat", "time": "3:30pm"}, {"days": "Sun", "time": "Closed"}], "id": "5027100001", "name": "USPS COLLECTION BOX - BLUE BOX", "address": {"city": "WILLIAMS", "state": "IA", "street": "208 MAIN ST", "postcode": "50271"}}},
{"geometry": {"type": "Point", "coordinates": [-93.5445659351, 42.4880198179]}, "type": "Feature", "properties": {"collection_times": [{"days": "Mon-Fri", "time": "11:45am"}, {"days": "Sat", "time": "9:30am"}, {"days": "Sun", "time": "Closed"}], "id": "5027100002", "name": "USPS COLLECTION BOX - PO LOBBY", "address": {"city": "WILLIAMS", "state": "IA", "street": "208 MAIN ST", "postcode": "50271"}}},
{"geometry": {"type": "Point", "coordinates": [-93.2679187327, 41.1213649951]}, "type": "Feature", "properties": {"collection_times": [{"days": "Mon-Fri", "time": "4:15pm"}, {"days": "Sat", "time": "2:30pm"}, {"days": "Sun", "time": "Closed"}], "id": "5027200001", "name": "USPS COLLECTION BOX - BLUE BOX", "address": {"city": "WILLIAMSON", "state": "IA", "street": "103 W SOUTH AVE", "postcode": "50272"}}},
{"geometry": {"type": "Point", "coordinates": [-93.2679187327, 41.1213649951]}, "type": "Feature", "properties": {"collection_times": [{"days": "Mon-Fri", "time": "2:45pm"}, {"days": "Sat", "time": "2:30pm"}, {"days": "Sun", "time": "Closed"}], "id": "5027200002", "name": "USPS COLLECTION BOX - PO LOBBY", "address": {"city": "WILLIAMSON", "state": "IA", "street": "103 W SOUTH AVE", "postcode": "50272"}}},
{"geometry": {"type": "Point", "coordinates": [-94.0146242982, 41.3355058738]}, "type": "Feature", "properties": {"collection_times": [{"days": "Mon-Fri", "time": "2:00pm"}, {"days": "Sat-Sun", "time": "Closed"}], "id": "5027300004", "name": "USPS COLLECTION BOX - BLUE BOX", "address": {"city": "WINTERSET", "state": "IA", "street": "101 W JEFFERSON ST", "postcode": "50273"}}},
{"geometry": {"type": "Point", "coordinates": [-94.0139975491, 41.3344400243]}, "type": "Feature", "properties": {"collection_times": [{"days": "Mon-Fri", "time": "2:00pm"}, {"days": "Sat-Sun", "time": "Closed"}], "id": "5027300006", "name": "USPS COLLECTION BOX - BLUE BOX", "address": {"city": "WINTERSET", "state": "IA", "street": "52 E COURT AVE", "postcode": "50273"}}},
{"geometry": {"type": "Point", "coordinates": [-94.0158452047, 41.3347009457]}, "type": "Feature", "properties": {"collection_times": [{"days": "Mon-Sat", "time": "4:00pm"}, {"days": "Sun", "time": "Closed"}], "id": "5027300007", "name": "USPS COLLECTION BOX - BLUE BOX", "address": {"city": "WINTERSET", "state": "IA", "street": "120 N 2ND AVE", "postcode": "50273"}}},
{"geometry": {"type": "Point", "coordinates": [-94.0133379325, 41.3355106861]}, "type": "Feature", "properties": {"collection_times": [{"days": "Mon-Fri", "time": "2:00pm"}, {"days": "Sat-Sun", "time": "Closed"}], "id": "5027300008", "name": "USPS COLLECTION BOX - BLUE BOX", "address": {"city": "WINTERSET", "state": "IA", "street": "101 E JEFFERSON ST", "postcode": "50273"}}},
{"geometry": {"type": "Point", "coordinates": [-94.0158452047, 41.3347009457]}, "type": "Feature", "properties": {"collection_times": [{"days": "Mon-Fri", "time": "4:45pm"}, {"days": "Sat", "time": "4:15pm"}, {"days": "Sun", "time": "Closed"}], "id": "5027300011", "name": "USPS COLLECTION BOX - PO LOBBY", "address": {"city": "WINTERSET", "state": "IA", "street": "120 N 2ND AVE", "postcode": "50273"}}},
{"geometry": {"type": "Point", "coordinates": [-94.8892101893, 41.4035311023]}, "type": "Feature", "properties": {"collection_times": [{"days": "Mon-Sat", "time": "4:45pm"}, {"days": "Sun", "time": "Closed"}], "id": "5027400001", "name": "USPS COLLECTION BOX - BLUE BOX", "address": {"city": "WIOTA", "state": "IA", "street": "405 PIONEER AVE", "postcode": "50274"}}},
{"geometry": {"type": "Point", "coordinates": [-94.8892101893, 41.4035311023]}, "type": "Feature", "properties": {"collection_times": [{"days": "Mon-Sat", "time": "11:45am"}, {"days": "Sun", "time": "Closed"}], "id": "5027400002", "name": "USPS COLLECTION BOX - PO LOBBY", "address": {"city": "WIOTA", "state": "IA", "street": "405 PIONEER AVE", "postcode": "50274"}}},
{"geometry": {"type": "Point", "coordinates": [-93.5979029452, 41.0111327847]}, "type": "Feature", "properties": {"collection_times": [{"days": "Mon-Sat", "time": "3:30pm"}, {"days": "Sun", "time": "Closed"}], "id": "5027500001", "name": "USPS COLLECTION BOX - BLUE BOX", "address": {"city": "WOODBURN", "state": "IA", "street": "610 SIGLER ST", "postcode": "50275"}}},
{"geometry": {"type": "Point", "coordinates": [-93.5979029452, 41.0111327847]}, "type": "Feature", "properties": {"collection_times": [{"days": "Mon-Fri", "time": "2:45pm"}, {"days": "Sat", "time": "2:30pm"}, {"days": "Sun", "time": "Closed"}], "id": "5027500002", "name": "USPS COLLECTION BOX - PO LOBBY", "address": {"city": "WOODBURN", "state": "IA", "street": "610 SIGLER ST", "postcode": "50275"}}},
{"geometry": {"type": "Point", "coordinates": [-93.9219627031, 41.8565804404]}, "type": "Feature", "properties": {"collection_times": [{"days": "Mon-Fri", "time": "4:30pm"}, {"days": "Sat", "time": "5:00pm"}, {"days": "Sun", "time": "Closed"}], "id": "5027600001", "name": "USPS COLLECTION BOX - BLUE BOX", "address": {"city": "WOODWARD", "state": "IA", "street": "212 S MAIN ST", "postcode": "50276"}}},
{"geometry": {"type": "Point", "coordinates": [-93.9219627031, 41.8565804404]}, "type": "Feature", "properties": {"collection_times": [{"days": "Mon-Fri", "time": "4:30pm"}, {"days": "Sat", "time": "10:15am"}, {"days": "Sun", "time": "Closed"}], "id": "5027600002", "name": "USPS COLLECTION BOX - PO LOBBY", "address": {"city": "WOODWARD", "state": "IA", "street": "212 S MAIN ST", "postcode": "50276"}}},
{"geometry": {"type": "Point", "coordinates": [-94.3547626595, 41.7757677121]}, "type": "Feature", "properties": {"collection_times": [{"days": "Mon-Sat", "time": "4:15pm"}, {"days": "Sun", "time": "Closed"}], "id": "5027700001", "name": "USPS COLLECTION BOX - BLUE BOX", "address": {"city": "YALE", "state": "IA", "street": "211 MAIN ST", "postcode": "50277"}}},
{"geometry": {"type": "Point", "coordinates": [-94.3547626595, 41.7757677121]}, "type": "Feature", "properties": {"collection_times": [{"days": "Mon-Fri", "time": "3:45pm"}, {"days": "Sat-Sun", "time": "Closed"}], "id": "5027700002", "name": "USPS COLLECTION BOX - PO LOBBY", "address": {"city": "YALE", "state": "IA", "street": "211 MAIN ST", "postcode": "50277"}}},
{"geometry": {"type": "Point", "coordinates": [-93.2974709722, 42.1610827424]}, "type": "Feature", "properties": {"collection_times": [{"days": "Mon-Sat", "time": "3:30pm"}, {"days": "Sun", "time": "Closed"}], "id": "5027800001", "name": "USPS COLLECTION BOX - BLUE BOX", "address": {"city": "ZEARING", "state": "IA", "street": "108 W MAIN ST", "postcode": "50278"}}},
{"geometry": {"type": "Point", "coordinates": [-93.2974709722, 42.1610827424]}, "type": "Feature", "properties": {"collection_times": [{"days": "Mon-Fri", "time": "11:15am"}, {"days": "Sat-Sun", "time": "Closed"}], "id": "5027800002", "name": "USPS COLLECTION BOX - PO LOBBY", "address": {"city": "ZEARING", "state": "IA", "street": "108 W MAIN ST", "postcode": "50278"}}}
]}
