{"type": "FeatureCollection", "features": [
{"geometry": {"type": "Point", "coordinates": [-93.6313508224, 41.5934477902]}, "type": "Feature", "properties": {"collection_times": [{"days": "Mon-Fri", "time": "12:15pm"}, {"days": "Sat", "time": "11:00am"}, {"days": "Sun", "time": "Closed"}], "id": "5030900003", "name": "USPS COLLECTION BOX - BLUE BOX", "address": {"city": "DES MOINES", "state": "IA", "street": "1101 CROCKER ST", "postcode": "50309"}}},
{"geometry": {"type": "Point", "coordinates": [-93.6230646327, 41.5852116293]}, "type": "Feature", "properties": {"collection_times": [{"days": "Mon-Fri", "time": "3:00pm"}, {"days": "Sat-Sun", "time": "Closed"}], "id": "5030900008", "name": "USPS COLLECTION BOX - BLUE BOX", "address": {"city": "DES MOINES", "state": "IA", "street": "500 MULBERRY ST", "postcode": "50309"}}},
{"geometry": {"type": "Point", "coordinates": [-93.6218800051, 41.5896706949]}, "type": "Feature", "properties": {"collection_times": [{"days": "Mon-Fri", "time": "4:00pm"}, {"days": "Sat-Sun", "time": "Closed"}], "id": "5030900014", "name": "USPS COLLECTION BOX - BLUE BOX", "address": {"city": "DES MOINES", "state": "IA", "street": "303 WATSON POWELL JR WAY", "postcode": "50309"}}},
{"geometry": {"type": "Point", "coordinates": [-93.634366137, 41.5838339753]}, "type": "Feature", "properties": {"collection_times": [{"days": "Mon-Fri", "time": "3:45pm"}, {"days": "Sat-Sun", "time": "Closed"}], "id": "5030900025", "name": "USPS COLLECTION BOX - BLUE BOX", "address": {"city": "DES MOINES", "state": "IA", "street": "1321 WALNUT ST", "postcode": "50309"}}},
{"geometry": {"type": "Point", "coordinates": [-93.6166986448, 41.590415959]}, "type": "Feature", "properties": {"collection_times": [{"days": "Mon-Fri", "time": "3:30pm"}, {"days": "Sat-Sun", "time": "Closed"}], "id": "5030900027", "name": "USPS COLLECTION BOX - BLUE BOX", "address": {"city": "DES MOINES", "state": "IA", "street": "602 SE 1ST ST", "postcode": "50309"}}},
{"geometry": {"type": "Point", "coordinates": [-93.6106908714, 41.5885147814]}, "type": "Feature", "properties": {"collection_times": [{"days": "Mon-Fri", "time": "3:15pm"}, {"days": "Sat-Sun", "time": "Closed"}], "id": "5030900035", "name": "USPS COLLECTION BOX - BLUE BOX", "address": {"city": "DES MOINES", "state": "IA", "street": "501 E WALNUT ST", "postcode": "50309"}}},
{"geometry": {"type": "Point", "coordinates": [-93.6100007312, 41.5909577542]}, "type": "Feature", "properties": {"collection_times": [{"days": "Mon-Fri", "time": "3:15pm"}, {"days": "Sat-Sun", "time": "Closed"}], "id": "5030900036", "name": "USPS COLLECTION BOX - BLUE BOX", "address": {"city": "DES MOINES", "state": "IA", "street": "600 E GRAND AVE", "postcode": "50309"}}},
{"geometry": {"type": "Point", "coordinates": [-93.6214262852, 41.5876502808]}, "type": "Feature", "properties": {"collection_times": [{"days": "Mon-Fri", "time": "3:15pm"}, {"days": "Sat-Sun", "time": "Closed"}], "id": "5030900037", "name": "USPS COLLECTION BOX - BLUE BOX", "address": {"city": "DES MOINES", "state": "IA", "street": "400 E LOCUST ST", "postcode": "50309"}}},
{"geometry": {"type": "Point", "coordinates": [-93.6259487312, 41.5859301453]}, "type": "Feature", "properties": {"collection_times": [{"days": "Mon-Fri", "time": "3:15pm"}, {"days": "Sat-Sun", "time": "Closed"}], "id": "5030900038", "name": "USPS COLLECTION BOX - BLUE BOX", "address": {"city": "DES MOINES", "state": "IA", "street": "627 E LOCUST ST", "postcode": "50309"}}},
{"geometry": {"type": "Point", "coordinates": [-93.6205441172, 41.5867639937]}, "type": "Feature", "properties": {"collection_times": [{"days": "Mon-Fri", "time": "5:00pm"}, {"days": "Sat-Sun", "time": "Closed"}], "id": "5030900039", "name": "USPS COLLECTION BOX - EXPRESS", "address": {"city": "DES MOINES", "state": "IA", "street": "210 WALNUT ST", "postcode": "50309"}}},
{"geometry": {"type": "Point", "coordinates": [-93.626183479, 41.5865792232]}, "type": "Feature", "properties": {"collection_times": [{"days": "Mon-Fri", "time": "3:45pm"}, {"days": "Sat-Sun", "time": "Closed"}], "id": "5030900041", "name": "USPS COLLECTION BOX - BLUE BOX", "address": {"city": "DES MOINES", "state": "IA", "street": "715 LOCUST ST", "postcode": "50309"}}},
{"geometry": {"type": "Point", "coordinates": [-93.613197295, 41.5881039735]}, "type": "Feature", "properties": {"collection_times": [{"days": "Mon-Fri", "time": "4:30pm"}, {"days": "Sat", "time": "12:00pm"}, {"days": "Sun", "time": "Closed"}], "id": "5030900046", "name": "USPS COLLECTION BOX - BLUE BOX", "address": {"city": "DES MOINES", "state": "IA", "street": "321 E WALNUT ST", "postcode": "50309"}}},
{"geometry": {"type": "Point", "coordinates": [-93.6230056966, 41.5872674989]}, "type": "Feature", "properties": {"collection_times": [{"days": "Mon-Fri", "time": "11:30am"}, {"days": "Sat-Sun", "time": "Closed"}], "id": "5030900055", "name": "USPS COLLECTION BOX - BLUE BOX", "address": {"city": "DES MOINES", "state": "IA", "street": "401 LOCUST ST", "postcode": "50309"}}},
{"geometry": {"type": "Point", "coordinates": [-93.6229139112, 41.5777547492]}, "type": "Feature", "properties": {"collection_times": [{"days": "Mon-Fri", "time": "4:00pm"}, {"days": "Sat-Sun", "time": "Closed"}], "id": "5030900057", "name": "USPS COLLECTION BOX - BLUE BOX", "address": {"city": "DES MOINES", "state": "IA", "street": "500 SW 7TH ST", "postcode": "50309"}}},
{"geometry": {"type": "Point", "coordinates": [-93.6282798131, 41.5871202353]}, "type": "Feature", "properties": {"collection_times": [{"days": "Mon-Fri", "time": "4:30pm"}, {"days": "Sat-Sun", "time": "Closed"}], "id": "5030900062", "name": "USPS COLLECTION BOX - BLUE BOX", "address": {"city": "DES MOINES", "state": "IA", "street": "801 GRAND AVE", "postcode": "50309"}}},
{"geometry": {"type": "Point", "coordinates": [-93.6356815873, 41.5901486103]}, "type": "Feature", "properties": {"collection_times": [{"days": "Mon-Fri", "time": "4:00pm"}, {"days": "Sat-Sun", "time": "Closed"}], "id": "5030900063", "name": "USPS COLLECTION BOX - BLUE BOX", "address": {"city": "DES MOINES", "state": "IA", "street": "1221 PLEASANT ST", "postcode": "50309"}}},
{"geometry": {"type": "Point", "coordinates": [-93.6357525649, 41.590011387]}, "type": "Feature", "properties": {"collection_times": [{"days": "Mon-Fri", "time": "4:00pm"}, {"days": "Sat-Sun", "time": "Closed"}], "id": "5030900065", "name": "USPS COLLECTION BOX - BLUE BOX", "address": {"city": "DES MOINES", "state": "IA", "street": "1215 PLEASANT ST", "postcode": "50309"}}},
{"geometry": {"type": "Point", "coordinates": [-93.6012515667, 41.5825102442]}, "type": "Feature", "properties": {"collection_times": [{"days": "Mon-Fri", "time": "4:15pm"}, {"days": "Sat-Sun", "time": "Closed"}], "id": "5030900074", "name": "USPS COLLECTION BOX - BLUE BOX", "address": {"city": "DES MOINES", "state": "IA", "street": "925 HIGH ST", "postcode": "50309"}}},
{"geometry": {"type": "Point", "coordinates": [-93.6402726511, 41.5880772491]}, "type": "Feature", "properties": {"collection_times": [{"days": "Mon-Fri", "time": "4:00pm"}, {"days": "Sat-Sun", "time": "Closed"}], "id": "5030900077", "name": "USPS COLLECTION BOX - BLUE BOX", "address": {"city": "DES MOINES", "state": "IA", "street": "1700 WOODLAND AVE", "postcode": "50309"}}},
{"geometry": {"type": "Point", "coordinates": [-93.6309348338, 41.5864931574]}, "type": "Feature", "properties": {"collection_times": [{"days": "Mon-Fri", "time": "3:30pm"}, {"days": "Sat-Sun", "time": "Closed"}], "id": "5030900089", "name": "USPS COLLECTION BOX - BLUE BOX", "address": {"city": "DES MOINES", "state": "IA", "street": "1000 GRAND AVE", "postcode": "50309"}}},
{"geometry": {"type": "Point", "coordinates": [-93.6250657951, 41.5869907397]}, "type": "Feature", "properties": {"collection_times": [{"days": "Mon-Fri", "time": "4:30pm"}, {"days": "Sat-Sun", "time": "Closed"}], "id": "5030900090", "name": "USPS COLLECTION BOX - BLUE BOX", "address": {"city": "DES MOINES", "state": "IA", "street": "418 6TH AVE", "postcode": "50309"}}},
{"geometry": {"type": "Point", "coordinates": [-93.613197295, 41.5881039735]}, "type": "Feature", "properties": {"collection_times": [{"days": "Mon-Fri", "time": "4:30pm"}, {"days": "Sat", "time": "12:00pm"}, {"days": "Sun", "time": "Closed"}], "id": "5030900099", "name": "USPS COLLECTION BOX - BLUE BOX", "address": {"city": "DES MOINES", "state": "IA", "street": "321 E WALNUT ST", "postcode": "50309"}}},
{"geometry": {"type": "Point", "coordinates": [-93.6174074385, 41.5858806605]}, "type": "Feature", "properties": {"collection_times": [{"days": "Mon-Fri", "time": "4:30pm"}, {"days": "Sat-Sun", "time": "Closed"}], "id": "5030900104", "name": "USPS COLLECTION BOX - BLUE BOX", "address": {"city": "DES MOINES", "state": "IA", "street": "100 COURT AVE", "postcode": "50309"}}},
{"geometry": {"type": "Point", "coordinates": [-93.6174074385, 41.5858806605]}, "type": "Feature", "properties": {"collection_times": [{"days": "Mon-Fri", "time": "4:30pm"}, {"days": "Sat-Sun", "time": "Closed"}], "id": "5030900105", "name": "USPS COLLECTION BOX - BLUE BOX", "address": {"city": "DES MOINES", "state": "IA", "street": "100 COURT AVE", "postcode": "50309"}}},
{"geometry": {"type": "Point", "coordinates": [-93.6242601552, 41.5851652591]}, "type": "Feature", "properties": {"collection_times": [{"days": "Mon-Fri", "time": "4:15pm"}, {"days": "Sat-Sun", "time": "Closed"}], "id": "5030900109", "name": "USPS COLLECTION BOX - BLUE BOX", "address": {"city": "DES MOINES", "state": "IA", "street": "520 WALNUT ST", "postcode": "50309"}}},
{"geometry": {"type": "Point", "coordinates": [-93.6261551682, 41.5875532567]}, "type": "Feature", "properties": {"collection_times": [{"days": "Mon-Fri", "time": "4:15pm"}, {"days": "Sat-Sun", "time": "Closed"}], "id": "5030900123", "name": "USPS COLLECTION BOX - BLUE BOX", "address": {"city": "DES MOINES", "state": "IA", "street": "666 GRAND AVE", "postcode": "50309"}}},
{"geometry": {"type": "Point", "coordinates": [-93.6240205293, 41.5881534013]}, "type": "Feature", "properties": {"collection_times": [{"days": "Mon-Fri", "time": "5:00pm"}, {"days": "Sat-Sun", "time": "Closed"}], "id": "5030900126", "name": "USPS COLLECTION BOX - BLUE BOX", "address": {"city": "DES MOINES", "state": "IA", "street": "505 5TH AVE", "postcode": "50309"}}},
{"geometry": {"type": "Point", "coordinates": [-93.6228868134, 41.588278005]}, "type": "Feature", "properties": {"collection_times": [{"days": "Mon-Fri", "time": "3:30pm"}, {"days": "Sat-Sun", "time": "Closed"}], "id": "5030900128", "name": "USPS COLLECTION BOX - BLUE BOX", "address": {"city": "DES MOINES", "state": "IA", "street": "401 GRAND AVE", "postcode": "50309"}}},
{"geometry": {"type": "Point", "coordinates": [-93.6249867546, 41.5859181687]}, "type": "Feature", "properties": {"collection_times": [{"days": "Mon-Fri", "time": "4:45pm"}, {"days": "Sat-Sun", "time": "Closed"}], "id": "5030900129", "name": "USPS COLLECTION BOX - BLUE BOX", "address": {"city": "DES MOINES", "state": "IA", "street": "699 WALNUT ST", "postcode": "50309"}}},
{"geometry": {"type": "Point", "coordinates": [-93.6418377058, 41.5844455651]}, "type": "Feature", "properties": {"collection_times": [{"days": "Mon-Fri", "time": "4:00pm"}, {"days": "Sat-Sun", "time": "Closed"}], "id": "5030900138", "name": "USPS COLLECTION BOX - BLUE BOX", "address": {"city": "DES MOINES", "state": "IA", "street": "1801 GRAND AVE", "postcode": "50309"}}},
{"geometry": {"type": "Point", "coordinates": [-93.6207532796, 41.5792240954]}, "type": "Feature", "properties": {"collection_times": [{"days": "Mon-Fri", "time": "4:00pm"}, {"days": "Sat-Sun", "time": "Closed"}], "id": "5030900146", "name": "USPS COLLECTION BOX - BLUE BOX", "address": {"city": "DES MOINES", "state": "IA", "street": "455 SW 5TH ST", "postcode": "50309"}}},
{"geometry": {"type": "Point", "coordinates": [-93.6174074385, 41.5858806605]}, "type": "Feature", "properties": {"collection_times": [{"days": "Mon-Fri", "time": "4:30pm"}, {"days": "Sat-Sun", "time": "Closed"}], "id": "5030900152", "name": "USPS COLLECTION BOX - BLUE BOX", "address": {"city": "DES MOINES", "state": "IA", "street": "100 COURT AVE", "postcode": "50309"}}},
{"geometry": {"type": "Point", "coordinates": [-93.6249867546, 41.5859181687]}, "type": "Feature", "properties": {"collection_times": [{"days": "Mon-Fri", "time": "4:45pm"}, {"days": "Sat-Sun", "time": "Closed"}], "id": "5030900153", "name": "USPS COLLECTION BOX - BLUE BOX", "address": {"city": "DES MOINES", "state": "IA", "street": "699 WALNUT ST", "postcode": "50309"}}},
{"geometry": {"type": "Point", "coordinates": [-93.6282798131, 41.5871202353]}, "type": "Feature", "properties": {"collection_times": [{"days": "Mon-Fri", "time": "4:30pm"}, {"days": "Sat-Sun", "time": "Closed"}], "id": "5030900154", "name": "USPS COLLECTION BOX - BLUE BOX", "address": {"city": "DES MOINES", "state": "IA", "street": "801 GRAND AVE", "postcode": "50309"}}},
{"geometry": {"type": "Point", "coordinates": [-93.6977124066, 41.6307797018]}, "type": "Feature", "properties": {"collection_times": [{"days": "Mon-Fri", "time": "3:00pm"}, {"days": "Sat-Sun", "time": "Closed"}], "id": "5031000004", "name": "USPS COLLECTION BOX - BLUE BOX", "address": {"city": "DES MOINES", "state": "IA", "street": "3839 MERLE HAY RD", "postcode": "50310"}}},
{"geometry": {"type": "Point", "coordinates": [-93.6976473438, 41.637406638]}, "type": "Feature", "properties": {"collection_times": [{"days": "Mon-Fri", "time": "3:45pm"}, {"days": "Sat", "time": "2:15pm"}, {"days": "Sun", "time": "Closed"}], "id": "5031000006", "name": "USPS COLLECTION BOX - BLUE BOX", "address": {"city": "DES MOINES", "state": "IA", "street": "4343 MERLE HAY RD", "postcode": "50310"}}},
{"geometry": {"type": "Point", "coordinates": [-93.6978874845, 41.6308258372]}, "type": "Feature", "properties": {"collection_times": [{"days": "Mon-Fri", "time": "3:15pm"}, {"days": "Sat-Sun", "time": "Closed"}], "id": "5031000009", "name": "USPS COLLECTION BOX - BLUE BOX", "address": {"city": "DES MOINES", "state": "IA", "street": "3800 MERLE HAY RD", "postcode": "50310"}}},
{"geometry": {"type": "Point", "coordinates": [-93.6977441331, 41.615449999]}, "type": "Feature", "properties": {"collection_times": [{"days": "Mon-Fri", "time": "1:00pm"}, {"days": "Sat-Sun", "time": "Closed"}], "id": "5031000010", "name": "USPS COLLECTION BOX - BLUE BOX", "address": {"city": "DES MOINES", "state": "IA", "street": "2303 MERLE HAY RD", "postcode": "50310"}}},
{"geometry": {"type": "Point", "coordinates": [-93.697932034, 41.6349131215]}, "type": "Feature", "properties": {"collection_times": [{"days": "Mon-Fri", "time": "3:15pm"}, {"days": "Sat-Sun", "time": "Closed"}], "id": "5031000011", "name": "USPS COLLECTION BOX - BLUE BOX", "address": {"city": "DES MOINES", "state": "IA", "street": "4100 MERLE HAY RD", "postcode": "50310"}}},
{"geometry": {"type": "Point", "coordinates": [-93.6726975563, 41.6105250785]}, "type": "Feature", "properties": {"collection_times": [{"days": "Mon-Fri", "time": "3:00pm"}, {"days": "Sat", "time": "2:00pm"}, {"days": "Sun", "time": "Closed"}], "id": "5031000013", "name": "USPS COLLECTION BOX - BLUE BOX", "address": {"city": "DES MOINES", "state": "IA", "street": "1819 BEAVER AVE", "postcode": "50310"}}},
{"geometry": {"type": "Point", "coordinates": [-93.6508400235, 41.6260005476]}, "type": "Feature", "properties": {"collection_times": [{"days": "Mon-Sat", "time": "3:00pm"}, {"days": "Sun", "time": "Closed"}], "id": "5031000014", "name": "USPS COLLECTION BOX - BLUE BOX", "address": {"city": "DES MOINES", "state": "IA", "street": "3330 MARTIN LUTHER KING JR PKWY", "postcode": "50310"}}},
{"geometry": {"type": "Point", "coordinates": [-93.6587975886, 41.6277394811]}, "type": "Feature", "properties": {"collection_times": [{"days": "Mon-Fri", "time": "3:15pm"}, {"days": "Sat-Sun", "time": "Closed"}], "id": "5031000015", "name": "USPS COLLECTION BOX - BLUE BOX", "address": {"city": "DES MOINES", "state": "IA", "street": "3600 30TH ST", "postcode": "50310"}}},
{"geometry": {"type": "Point", "coordinates": [-93.683921471, 41.61125733]}, "type": "Feature", "properties": {"collection_times": [{"days": "Mon-Fri", "time": "2:00pm"}, {"days": "Sat-Sun", "time": "Closed"}], "id": "5031000018", "name": "USPS COLLECTION BOX - BLUE BOX", "address": {"city": "DES MOINES", "state": "IA", "street": "4801 FRANKLIN AVE", "postcode": "50310"}}},
{"geometry": {"type": "Point", "coordinates": [-93.679222758, 41.6294914595]}, "type": "Feature", "properties": {"collection_times": [{"days": "Mon-Fri", "time": "3:30pm"}, {"days": "Sat-Sun", "time": "Closed"}], "id": "5031000019", "name": "USPS COLLECTION BOX - BLUE BOX", "address": {"city": "DES MOINES", "state": "IA", "street": "4505 DOUGLAS AVE", "postcode": "50310"}}},
{"geometry": {"type": "Point", "coordinates": [-93.6714846375, 41.619722042]}, "type": "Feature", "properties": {"collection_times": [{"days": "Mon-Sat", "time": "5:00pm"}, {"days": "Sun", "time": "Closed"}], "id": "5031000020", "name": "USPS COLLECTION BOX - BLUE BOX", "address": {"city": "DES MOINES", "state": "IA", "street": "4023 URBANDALE AVE", "postcode": "50310"}}},
{"geometry": {"type": "Point", "coordinates": [-93.6918366494, 41.6439827069]}, "type": "Feature", "properties": {"collection_times": [{"days": "Mon-Fri", "time": "1:30pm"}, {"days": "Sat", "time": "11:00am"}, {"days": "Sun", "time": "Closed"}], "id": "5031000021", "name": "USPS COLLECTION BOX - BLUE BOX", "address": {"city": "DES MOINES", "state": "IA", "street": "5528 MEREDITH DR", "postcode": "50310"}}},
{"geometry": {"type": "Point", "coordinates": [-93.697932034, 41.6349131215]}, "type": "Feature", "properties": {"collection_times": [{"days": "Mon-Fri", "time": "3:15pm"}, {"days": "Sat-Sun", "time": "Closed"}], "id": "5031000024", "name": "USPS COLLECTION BOX - BLUE BOX", "address": {"city": "DES MOINES", "state": "IA", "street": "4100 MERLE HAY RD", "postcode": "50310"}}},
{"geometry": {"type": "Point", "coordinates": [-93.6976473438, 41.637406638]}, "type": "Feature", "properties": {"collection_times": [{"days": "Mon-Fri", "time": "3:45pm"}, {"days": "Sat", "time": "2:15pm"}, {"days": "Sun", "time": "Closed"}], "id": "5031000025", "name": "USPS COLLECTION BOX - BLUE BOX", "address": {"city": "DES MOINES", "state": "IA", "street": "4343 MERLE HAY RD", "postcode": "50310"}}},
{"geometry": {"type": "Point", "coordinates": [-93.6714846375, 41.619722042]}, "type": "Feature", "properties": {"collection_times": [{"days": "Mon-Sat", "time": "5:00pm"}, {"days": "Sun", "time": "Closed"}], "id": "5031000027", "name": "USPS COLLECTION BOX - BLUE BOX", "address": {"city": "DES MOINES", "state": "IA", "street": "4023 URBANDALE AVE", "postcode": "50310"}}},
{"geometry": {"type": "Point", "coordinates": [-93.6979421957, 41.6342221249]}, "type": "Feature", "properties": {"collection_times": [{"days": "Mon-Fri", "time": "3:00pm"}, {"days": "Sat-Sun", "time": "Closed"}], "id": "5031000028", "name": "USPS COLLECTION BOX - BLUE BOX", "address": {"city": "DES MOINES", "state": "IA", "street": "4060 MERLE HAY RD", "postcode": "50310"}}},
{"geometry": {"type": "Point", "coordinates": [-93.6508400235, 41.6260005476]}, "type": "Feature", "properties": {"collection_times": [{"days": "Mon-Sat", "time": "3:00pm"}, {"days": "Sun", "time": "Closed"}], "id": "5031000029", "name": "USPS COLLECTION BOX - BLUE BOX", "address": {"city": "DES MOINES", "state": "IA", "street": "3330 MARTIN LUTHER KING JR PKWY", "postcode": "50310"}}},
{"geometry": {"type": "Point", "coordinates": [-93.6714846375, 41.619722042]}, "type": "Feature", "properties": {"collection_times": [{"days": "Mon-Fri", "time": "5:00pm"}, {"days": "Sat", "time": "12:00pm"}, {"days": "Sun", "time": "Closed"}], "id": "5031000035", "name": "USPS COLLECTION BOX - PO LOBBY", "address": {"city": "DES MOINES", "state": "IA", "street": "4023 URBANDALE AVE", "postcode": "50310"}}},
{"geometry": {"type": "Point", "coordinates": [-93.6745942892, 41.6017153584]}, "type": "Feature", "properties": {"collection_times": [{"days": "Mon-Fri", "time": "4:15pm"}, {"days": "Sat-Sun", "time": "Closed"}], "id": "5031100000", "name": "USPS COLLECTION BOX - BLUE BOX", "address": {"city": "DES MOINES", "state": "IA", "street": "1000 73RD ST", "postcode": "50311"}}},
{"geometry": {"type": "Point", "coordinates": [-93.6745942892, 41.6017153584]}, "type": "Feature", "properties": {"collection_times": [{"days": "Mon-Fri", "time": "1:15pm"}, {"days": "Sat-Sun", "time": "Closed"}], "id": "5031100003", "name": "USPS COLLECTION BOX - BLUE BOX", "address": {"city": "DES MOINES", "state": "IA", "street": "1001 73RD ST", "postcode": "50311"}}},
{"geometry": {"type": "Point", "coordinates": [-93.6839084584, 41.6003823883]}, "type": "Feature", "properties": {"collection_times": [{"days": "Mon-Fri", "time": "2:00pm"}, {"days": "Sat-Sun", "time": "Closed"}], "id": "5031100004", "name": "USPS COLLECTION BOX - BLUE BOX", "address": {"city": "DES MOINES", "state": "IA", "street": "4900 UNIVERSITY AVE", "postcode": "50311"}}},
{"geometry": {"type": "Point", "coordinates": [-93.673394912, 41.6003078882]}, "type": "Feature", "properties": {"collection_times": [{"days": "Mon-Fri", "time": "3:30pm"}, {"days": "Sat", "time": "2:00pm"}, {"days": "Sun", "time": "Closed"}], "id": "5031100005", "name": "USPS COLLECTION BOX - BLUE BOX", "address": {"city": "DES MOINES", "state": "IA", "street": "4132 UNIVERSITY AVE", "postcode": "50311"}}},
{"geometry": {"type": "Point", "coordinates": [-93.6491578559, 41.6040732203]}, "type": "Feature", "properties": {"collection_times": [{"days": "Mon-Fri", "time": "5:00pm"}, {"days": "Sat", "time": "5:15pm"}, {"days": "Sun", "time": "Closed"}], "id": "5031100006", "name": "USPS COLLECTION BOX - BLUE BOX", "address": {"city": "DES MOINES", "state": "IA", "street": "2323 FOREST AVE", "postcode": "50311"}}},
{"geometry": {"type": "Point", "coordinates": [-93.6603888683, 41.6003599121]}, "type": "Feature", "properties": {"collection_times": [{"days": "Mon-Fri", "time": "2:15pm"}, {"days": "Sat-Sun", "time": "Closed"}], "id": "5031100007", "name": "USPS COLLECTION BOX - BLUE BOX", "address": {"city": "DES MOINES", "state": "IA", "street": "3116 UNIVERSITY AVE", "postcode": "50311"}}},
{"geometry": {"type": "Point", "coordinates": [-93.6745942892, 41.6017153584]}, "type": "Feature", "properties": {"collection_times": [{"days": "Mon-Fri", "time": "4:15pm"}, {"days": "Sat-Sun", "time": "Closed"}], "id": "5031100010", "name": "USPS COLLECTION BOX - BLUE BOX", "address": {"city": "DES MOINES", "state": "IA", "street": "1000 73RD ST", "postcode": "50311"}}},
{"geometry": {"type": "Point", "coordinates": [-93.6491578559, 41.6040732203]}, "type": "Feature", "properties": {"collection_times": [{"days": "Mon-Fri", "time": "5:00pm"}, {"days": "Sat", "time": "5:15pm"}, {"days": "Sun", "time": "Closed"}], "id": "5031100015", "name": "USPS COLLECTION BOX - BLUE BOX", "address": {"city": "DES MOINES", "state": "IA", "street": "2323 FOREST AVE", "postcode": "50311"}}},
{"geometry": {"type": "Point", "coordinates": [-93.4662140657, 41.5996924633]}, "type": "Feature", "properties": {"collection_times": [{"days": "Mon-Fri", "time": "4:00pm"}, {"days": "Sat", "time": "2:30pm"}, {"days": "Sun", "time": "Closed"}], "id": "5031100019", "name": "USPS COLLECTION BOX - BLUE BOX", "address": {"city": "DES MOINES", "state": "IA", "street": "7101 UNIVERSITY AVE", "postcode": "50311"}}},
{"geometry": {"type": "Point", "coordinates": [-93.4662140657, 41.5996924633]}, "type": "Feature", "properties": {"collection_times": [{"days": "Mon-Fri", "time": "4:00pm"}, {"days": "Sat", "time": "2:30pm"}, {"days": "Sun", "time": "Closed"}], "id": "5031100021", "name": "USPS COLLECTION BOX - BLUE BOX", "address": {"city": "DES MOINES", "state": "IA", "street": "7101 UNIVERSITY AVE", "postcode": "50311"}}},
{"geometry": {"type": "Point", "coordinates": [-93.4662140657, 41.5996924633]}, "type": "Feature", "properties": {"collection_times": [{"days": "Mon-Fri", "time": "4:00pm"}, {"days": "Sat", "time": "2:30pm"}, {"days": "Sun", "time": "Closed"}], "id": "5031100022", "name": "USPS COLLECTION BOX - BLUE BOX", "address": {"city": "DES MOINES", "state": "IA", "street": "7101 UNIVERSITY AVE", "postcode": "50311"}}},
{"geometry": {"type": "Point", "coordinates": [-93.6491578559, 41.6040732203]}, "type": "Feature", "properties": {"collection_times": [{"days": "Mon-Fri", "time": "5:00pm"}, {"days": "Sat", "time": "3:00pm"}, {"days": "Sun", "time": "Closed"}], "id": "5031100023", "name": "USPS COLLECTION BOX - PO LOBBY", "address": {"city": "DES MOINES", "state": "IA", "street": "2323 FOREST AVE", "postcode": "50311"}}},
{"geometry": {"type": "Point", "coordinates": [-93.6972130144, 41.5828259452]}, "type": "Feature", "properties": {"collection_times": [{"days": "Mon-Fri", "time": "3:45pm"}, {"days": "Sat-Sun", "time": "Closed"}], "id": "5031200005", "name": "USPS COLLECTION BOX - BLUE BOX", "address": {"city": "DES MOINES", "state": "IA", "street": "5835 GRAND AVE", "postcode": "50312"}}},
{"geometry": {"type": "Point", "coordinates": [-93.6644298776, 41.5844284525]}, "type": "Feature", "properties": {"collection_times": [{"days": "Mon-Fri", "time": "12:45pm"}, {"days": "Sat", "time": "11:00am"}, {"days": "Sun", "time": "Closed"}], "id": "5031200008", "name": "USPS COLLECTION BOX - BLUE BOX", "address": {"city": "DES MOINES", "state": "IA", "street": "3520 GRAND AVE", "postcode": "50312"}}},
{"geometry": {"type": "Point", "coordinates": [-93.674399501, 41.5941893884]}, "type": "Feature", "properties": {"collection_times": [{"days": "Mon-Fri", "time": "2:45pm"}, {"days": "Sat-Sun", "time": "Closed"}], "id": "5031200012", "name": "USPS COLLECTION BOX - BLUE BOX", "address": {"city": "DES MOINES", "state": "IA", "street": "4200 CROCKER ST", "postcode": "50312"}}},
{"geometry": {"type": "Point", "coordinates": [-93.663337985, 41.5863122744]}, "type": "Feature", "properties": {"collection_times": [{"days": "Mon-Fri", "time": "4:30pm"}, {"days": "Sat", "time": "1:45pm"}, {"days": "Sun", "time": "Closed"}], "id": "5031200013", "name": "USPS COLLECTION BOX - BLUE BOX", "address": {"city": "DES MOINES", "state": "IA", "street": "3425 INGERSOLL AVE", "postcode": "50312"}}},
{"geometry": {"type": "Point", "coordinates": [-93.6474780541, 41.5844278207]}, "type": "Feature", "properties": {"collection_times": [{"days": "Mon-Fri", "time": "4:30pm"}, {"days": "Sat-Sun", "time": "Closed"}], "id": "5031200015", "name": "USPS COLLECTION BOX - BLUE BOX", "address": {"city": "DES MOINES", "state": "IA", "street": "2200 GRAND AVE", "postcode": "50312"}}},
{"geometry": {"type": "Point", "coordinates": [-93.6499709107, 41.5857683364]}, "type": "Feature", "properties": {"collection_times": [{"days": "Mon-Fri", "time": "3:45pm"}, {"days": "Sat-Sun", "time": "Closed"}], "id": "5031200016", "name": "USPS COLLECTION BOX - BLUE BOX", "address": {"city": "DES MOINES", "state": "IA", "street": "2415 INGERSOLL AVE", "postcode": "50312"}}},
{"geometry": {"type": "Point", "coordinates": [-93.6697602692, 41.5859680333]}, "type": "Feature", "properties": {"collection_times": [{"days": "Mon-Fri", "time": "4:00pm"}, {"days": "Sat-Sun", "time": "Closed"}], "id": "5031200023", "name": "USPS COLLECTION BOX - BLUE BOX", "address": {"city": "DES MOINES", "state": "IA", "street": "550 39TH ST", "postcode": "50312"}}},
{"geometry": {"type": "Point", "coordinates": [-93.651574641, 41.5844171741]}, "type": "Feature", "properties": {"collection_times": [{"days": "Mon-Fri", "time": "3:45pm"}, {"days": "Sat-Sun", "time": "Closed"}], "id": "5031200025", "name": "USPS COLLECTION BOX - BLUE BOX", "address": {"city": "DES MOINES", "state": "IA", "street": "2600 GRAND AVE", "postcode": "50312"}}},
{"geometry": {"type": "Point", "coordinates": [-93.6738710516, 41.5845366529]}, "type": "Feature", "properties": {"collection_times": [{"days": "Mon-Fri", "time": "4:15pm"}, {"days": "Sat-Sun", "time": "Closed"}], "id": "5031200026", "name": "USPS COLLECTION BOX - BLUE BOX", "address": {"city": "DES MOINES", "state": "IA", "street": "4140 GRAND AVE", "postcode": "50312"}}},
{"geometry": {"type": "Point", "coordinates": [-93.6683332114, 41.5862933087]}, "type": "Feature", "properties": {"collection_times": [{"days": "Mon-Fri", "time": "4:15pm"}, {"days": "Sat-Sun", "time": "Closed"}], "id": "5031200027", "name": "USPS COLLECTION BOX - BLUE BOX", "address": {"city": "DES MOINES", "state": "IA", "street": "3802 INGERSOLL AVE", "postcode": "50312"}}},
{"geometry": {"type": "Point", "coordinates": [-93.6162895634, 41.6368143038]}, "type": "Feature", "properties": {"collection_times": [{"days": "Mon-Fri", "time": "1:15pm"}, {"days": "Sat-Sun", "time": "Closed"}], "id": "5031300000", "name": "USPS COLLECTION BOX - BLUE BOX", "address": {"city": "DES MOINES", "state": "IA", "street": "200 E AURORA AVE", "postcode": "50313"}}},
{"geometry": {"type": "Point", "coordinates": [-93.6183904137, 41.6277394385]}, "type": "Feature", "properties": {"collection_times": [{"days": "Mon-Fri", "time": "4:30pm"}, {"days": "Sat", "time": "2:15pm"}, {"days": "Sun", "time": "Closed"}], "id": "5031300003", "name": "USPS COLLECTION BOX - BLUE BOX", "address": {"city": "DES MOINES", "state": "IA", "street": "100 E EUCLID AVE", "postcode": "50313"}}},
{"geometry": {"type": "Point", "coordinates": [-93.6214825309, 41.6276779834]}, "type": "Feature", "properties": {"collection_times": [{"days": "Mon-Fri", "time": "4:00pm"}, {"days": "Sat-Sun", "time": "Closed"}], "id": "5031300004", "name": "USPS COLLECTION BOX - BLUE BOX", "address": {"city": "DES MOINES", "state": "IA", "street": "303 EUCLID AVE", "postcode": "50313"}}},
{"geometry": {"type": "Point", "coordinates": [-93.624779299, 41.6294794822]}, "type": "Feature", "properties": {"collection_times": [{"days": "Mon-Fri", "time": "4:00pm"}, {"days": "Sat-Sun", "time": "Closed"}], "id": "5031300005", "name": "USPS COLLECTION BOX - BLUE BOX", "address": {"city": "DES MOINES", "state": "IA", "street": "3805 6TH AVE", "postcode": "50313"}}},
{"geometry": {"type": "Point", "coordinates": [-93.6354118727, 41.5406547901]}, "type": "Feature", "properties": {"collection_times": [{"days": "Mon-Fri", "time": "1:15pm"}, {"days": "Sat-Sun", "time": "Closed"}], "id": "5031300009", "name": "USPS COLLECTION BOX - BLUE BOX", "address": {"city": "DES MOINES", "state": "IA", "street": "4801 NE 14TH ST", "postcode": "50313"}}},
{"geometry": {"type": "Point", "coordinates": [-93.596829666, 41.5596259031]}, "type": "Feature", "properties": {"collection_times": [{"days": "Mon-Fri", "time": "2:45pm"}, {"days": "Sat-Sun", "time": "Closed"}], "id": "5031300014", "name": "USPS COLLECTION BOX - BLUE BOX", "address": {"city": "DES MOINES", "state": "IA", "street": "2811 E 14TH ST", "postcode": "50313"}}},
{"geometry": {"type": "Point", "coordinates": [-93.6428254765, 41.615093666]}, "type": "Feature", "properties": {"collection_times": [{"days": "Mon-Fri", "time": "3:15pm"}, {"days": "Sat-Sun", "time": "Closed"}], "id": "5031400001", "name": "USPS COLLECTION BOX - BLUE BOX", "address": {"city": "DES MOINES", "state": "IA", "street": "1801 HICKMAN RD", "postcode": "50314"}}},
{"geometry": {"type": "Point", "coordinates": [-93.6244368889, 41.5986477251]}, "type": "Feature", "properties": {"collection_times": [{"days": "Mon-Fri", "time": "2:45pm"}, {"days": "Sat-Sun", "time": "Closed"}], "id": "5031400006", "name": "USPS COLLECTION BOX - BLUE BOX", "address": {"city": "DES MOINES", "state": "IA", "street": "1157 5TH AVE", "postcode": "50314"}}},
{"geometry": {"type": "Point", "coordinates": [-93.6345364831, 41.5934869205]}, "type": "Feature", "properties": {"collection_times": [{"days": "Mon-Fri", "time": "12:15pm"}, {"days": "Sat", "time": "11:00am"}, {"days": "Sun", "time": "Closed"}], "id": "5031400009", "name": "USPS COLLECTION BOX - BLUE BOX", "address": {"city": "DES MOINES", "state": "IA", "street": "1401 CENTER ST", "postcode": "50314"}}},
{"geometry": {"type": "Point", "coordinates": [-93.6293574887, 41.5983973831]}, "type": "Feature", "properties": {"collection_times": [{"days": "Mon-Fri", "time": "4:30pm"}, {"days": "Sat-Sun", "time": "Closed"}], "id": "5031400011", "name": "USPS COLLECTION BOX - BLUE BOX", "address": {"city": "DES MOINES", "state": "IA", "street": "1111 9TH ST", "postcode": "50314"}}},
{"geometry": {"type": "Point", "coordinates": [-93.6293574887, 41.5983973831]}, "type": "Feature", "properties": {"collection_times": [{"days": "Mon-Fri", "time": "4:30pm"}, {"days": "Sat-Sun", "time": "Closed"}], "id": "5031400012", "name": "USPS COLLECTION BOX - BLUE BOX", "address": {"city": "DES MOINES", "state": "IA", "street": "1111 9TH ST", "postcode": "50314"}}},
{"geometry": {"type": "Point", "coordinates": [-93.6256559802, 41.5301796815]}, "type": "Feature", "properties": {"collection_times": [{"days": "Mon-Fri", "time": "1:45pm"}, {"days": "Sat-Sun", "time": "Closed"}], "id": "5031500000", "name": "USPS COLLECTION BOX - BLUE BOX", "address": {"city": "DES MOINES", "state": "IA", "street": "899 PAYTON AVE", "postcode": "50315"}}},
{"geometry": {"type": "Point", "coordinates": [-93.6023718288, 41.5262830217]}, "type": "Feature", "properties": {"collection_times": [{"days": "Mon-Fri", "time": "3:15pm"}, {"days": "Sat", "time": "1:15pm"}, {"days": "Sun", "time": "Closed"}], "id": "5031500005", "name": "USPS COLLECTION BOX - BLUE BOX", "address": {"city": "DES MOINES", "state": "IA", "street": "1107 E ARMY POST RD", "postcode": "50315"}}},
{"geometry": {"type": "Point", "coordinates": [-93.6086242727, 41.5409771823]}, "type": "Feature", "properties": {"collection_times": [{"days": "Mon-Fri", "time": "5:00pm"}, {"days": "Sat", "time": "4:30pm"}, {"days": "Sun", "time": "Closed"}], "id": "5031500009", "name": "USPS COLLECTION BOX - BLUE BOX", "address": {"city": "DES MOINES", "state": "IA", "street": "430 E MCKINLEY AVE", "postcode": "50315"}}},
{"geometry": {"type": "Point", "coordinates": [-93.6086242727, 41.5409771823]}, "type": "Feature", "properties": {"collection_times": [{"days": "Mon-Fri", "time": "5:00pm"}, {"days": "Sat", "time": "4:30pm"}, {"days": "Sun", "time": "Closed"}], "id": "5031500014", "name": "USPS COLLECTION BOX - BLUE BOX", "address": {"city": "DES MOINES", "state": "IA", "street": "430 E MCKINLEY AVE", "postcode": "50315"}}},
{"geometry": {"type": "Point", "coordinates": [-93.6257423661, 41.5550951702]}, "type": "Feature", "properties": {"collection_times": [{"days": "Mon-Fri", "time": "1:15pm"}, {"days": "Sat-Sun", "time": "Closed"}], "id": "5031500016", "name": "USPS COLLECTION BOX - BLUE BOX", "address": {"city": "DES MOINES", "state": "IA", "street": "3200 SW 9TH ST", "postcode": "50315"}}},
{"geometry": {"type": "Point", "coordinates": [-93.6086242727, 41.5409771823]}, "type": "Feature", "properties": {"collection_times": [{"days": "Mon-Fri", "time": "5:00pm"}, {"days": "Sat", "time": "4:30pm"}, {"days": "Sun", "time": "Closed"}], "id": "5031500020", "name": "USPS COLLECTION BOX - PO LOBBY", "address": {"city": "DES MOINES", "state": "IA", "street": "430 E MCKINLEY AVE", "postcode": "50315"}}},
{"geometry": {"type": "Point", "coordinates": [-93.6086242727, 41.5409771823]}, "type": "Feature", "properties": {"collection_times": [{"days": "Mon-Fri", "time": "5:00pm"}, {"days": "Sat", "time": "4:30pm"}, {"days": "Sun", "time": "Closed"}], "id": "5031500022", "name": "USPS COLLECTION BOX - APC", "address": {"city": "DES MOINES", "state": "IA", "street": "430 E MCKINLEY AVE", "postcode": "50315"}}},
{"geometry": {"type": "Point", "coordinates": [-93.5923876551, 41.5945468517]}, "type": "Feature", "properties": {"collection_times": [{"days": "Mon-Fri", "time": "1:00pm"}, {"days": "Sat-Sun", "time": "Closed"}], "id": "5031600000", "name": "USPS COLLECTION BOX - BLUE BOX", "address": {"city": "DES MOINES", "state": "IA", "street": "1601 E GRAND AVE", "postcode": "50316"}}},
{"geometry": {"type": "Point", "coordinates": [-93.5996360827, 41.6090841929]}, "type": "Feature", "properties": {"collection_times": [{"days": "Mon-Fri", "time": "3:00pm"}, {"days": "Sat-Sun", "time": "Closed"}], "id": "5031600003", "name": "USPS COLLECTION BOX - BLUE BOX", "address": {"city": "DES MOINES", "state": "IA", "street": "700 E UNIVERSITY AVE", "postcode": "50316"}}},
{"geometry": {"type": "Point", "coordinates": [-93.6156465227, 41.5897600842]}, "type": "Feature", "properties": {"collection_times": [{"days": "Mon-Fri", "time": "3:00pm"}, {"days": "Sat-Sun", "time": "Closed"}], "id": "5031600007", "name": "USPS COLLECTION BOX - BLUE BOX", "address": {"city": "DES MOINES", "state": "IA", "street": "1710 GUTHRIE AVE", "postcode": "50316"}}},
{"geometry": {"type": "Point", "coordinates": [-93.6028580249, 41.627777352]}, "type": "Feature", "properties": {"collection_times": [{"days": "Mon-Fri", "time": "4:00pm"}, {"days": "Sat", "time": "2:30pm"}, {"days": "Sun", "time": "Closed"}], "id": "5031600009", "name": "USPS COLLECTION BOX - BLUE BOX", "address": {"city": "DES MOINES", "state": "IA", "street": "1320 E EUCLID AVE", "postcode": "50316"}}},
{"geometry": {"type": "Point", "coordinates": [-93.5979919233, 41.6322242967]}, "type": "Feature", "properties": {"collection_times": [{"days": "Mon-Fri", "time": "5:30pm"}, {"days": "Sat", "time": "6:00pm"}, {"days": "Sun", "time": "Closed"}], "id": "5031600010", "name": "USPS COLLECTION BOX - BLUE BOX", "address": {"city": "DES MOINES", "state": "IA", "street": "1501 E FLEMING AVE", "postcode": "50316"}}},
{"geometry": {"type": "Point", "coordinates": [-93.5979919233, 41.6322242967]}, "type": "Feature", "properties": {"collection_times": [{"days": "Mon-Fri", "time": "4:30pm"}, {"days": "Sat", "time": "12:00pm"}, {"days": "Sun", "time": "Closed"}], "id": "5031600020", "name": "USPS COLLECTION BOX - PO LOBBY", "address": {"city": "DES MOINES", "state": "IA", "street": "1501 E FLEMING AVE", "postcode": "50316"}}},
{"geometry": {"type": "Point", "coordinates": [-93.6014041684, 41.600564564]}, "type": "Feature", "properties": {"collection_times": [{"days": "Mon-Fri", "time": "1:45pm"}, {"days": "Sat-Sun", "time": "Closed"}], "id": "5031600021", "name": "USPS COLLECTION BOX - BLUE BOX", "address": {"city": "DES MOINES", "state": "IA", "street": "1330 E UNIVERSITY AVE", "postcode": "50316"}}},
{"geometry": {"type": "Point", "coordinates": [-93.561169368, 41.6330024817]}, "type": "Feature", "properties": {"collection_times": [{"days": "Mon-Fri", "time": "1:45pm"}, {"days": "Sat-Sun", "time": "Closed"}], "id": "5031700000", "name": "USPS COLLECTION BOX - BLUE BOX", "address": {"city": "DES MOINES", "state": "IA", "street": "3940 E 29TH ST", "postcode": "50317"}}},
{"geometry": {"type": "Point", "coordinates": [-93.573558642, 41.6063994331]}, "type": "Feature", "properties": {"collection_times": [{"days": "Mon-Fri", "time": "2:00pm"}, {"days": "Sat-Sun", "time": "Closed"}], "id": "5031700002", "name": "USPS COLLECTION BOX - BLUE BOX", "address": {"city": "DES MOINES", "state": "IA", "street": "2400 EASTON BLVD", "postcode": "50317"}}},
{"geometry": {"type": "Point", "coordinates": [-93.570192979, 41.5933745394]}, "type": "Feature", "properties": {"collection_times": [{"days": "Mon-Fri", "time": "3:15pm"}, {"days": "Sat", "time": "12:15pm"}, {"days": "Sun", "time": "Closed"}], "id": "5031700003", "name": "USPS COLLECTION BOX - BLUE BOX", "address": {"city": "DES MOINES", "state": "IA", "street": "2501 E WALNUT ST", "postcode": "50317"}}},
{"geometry": {"type": "Point", "coordinates": [-93.5711204189, 41.5868765458]}, "type": "Feature", "properties": {"collection_times": [{"days": "Mon-Fri", "time": "3:15pm"}, {"days": "Sat-Sun", "time": "Closed"}], "id": "5031700005", "name": "USPS COLLECTION BOX - BLUE BOX", "address": {"city": "DES MOINES", "state": "IA", "street": "2345 E MARKET ST", "postcode": "50317"}}},
{"geometry": {"type": "Point", "coordinates": [-93.5515646693, 41.6266275468]}, "type": "Feature", "properties": {"collection_times": [{"days": "Mon-Fri", "time": "3:30pm"}, {"days": "Sat", "time": "12:45pm"}, {"days": "Sun", "time": "Closed"}], "id": "5031700007", "name": "USPS COLLECTION BOX - BLUE BOX", "address": {"city": "DES MOINES", "state": "IA", "street": "3400 E 33RD ST", "postcode": "50317"}}},
{"geometry": {"type": "Point", "coordinates": [-93.5191861544, 41.5981075582]}, "type": "Feature", "properties": {"collection_times": [{"days": "Mon-Fri", "time": "3:30pm"}, {"days": "Sat", "time": "12:30pm"}, {"days": "Sun", "time": "Closed"}], "id": "5031700010", "name": "USPS COLLECTION BOX - BLUE BOX", "address": {"city": "DES MOINES", "state": "IA", "street": "4815 MAPLE DR", "postcode": "50317"}}},
{"geometry": {"type": "Point", "coordinates": [-93.5694524467, 41.6278376829]}, "type": "Feature", "properties": {"collection_times": [{"days": "Mon-Fri", "time": "3:45pm"}, {"days": "Sat", "time": "1:00pm"}, {"days": "Sun", "time": "Closed"}], "id": "5031700011", "name": "USPS COLLECTION BOX - BLUE BOX", "address": {"city": "DES MOINES", "state": "IA", "street": "2540 E EUCLID AVE", "postcode": "50317"}}},
{"geometry": {"type": "Point", "coordinates": [-93.6942521564, 41.6022451734]}, "type": "Feature", "properties": {"collection_times": [{"days": "Mon-Fri", "time": "6:00pm"}, {"days": "Sat", "time": "5:15pm"}, {"days": "Sun", "time": "Closed"}], "id": "5031700012", "name": "USPS COLLECTION BOX - BLUE BOX", "address": {"city": "DES MOINES", "state": "IA", "street": "1300 NE 56TH ST", "postcode": "50317"}}},
{"geometry": {"type": "Point", "coordinates": [-93.5685452406, 41.6276482692]}, "type": "Feature", "properties": {"collection_times": [{"days": "Mon-Fri", "time": "1:45pm"}, {"days": "Sat-Sun", "time": "Closed"}], "id": "5031700014", "name": "USPS COLLECTION BOX - BLUE BOX", "address": {"city": "DES MOINES", "state": "IA", "street": "2545 1/2 E EUCLID AVE", "postcode": "50317"}}},
{"geometry": {"type": "Point", "coordinates": [-93.5344775963, 41.6345456137]}, "type": "Feature", "properties": {"collection_times": [{"days": "Mon-Fri", "time": "1:30pm"}, {"days": "Sat", "time": "11:00am"}, {"days": "Sun", "time": "Closed"}], "id": "5031700016", "name": "USPS COLLECTION BOX - BLUE BOX", "address": {"city": "DES MOINES", "state": "IA", "street": "4014 HUBBELL AVE", "postcode": "50317"}}},
{"geometry": {"type": "Point", "coordinates": [-93.567612858, 41.6149409475]}, "type": "Feature", "properties": {"collection_times": [{"days": "Mon-Fri", "time": "2:00pm"}, {"days": "Sat", "time": "11:00am"}, {"days": "Sun", "time": "Closed"}], "id": "5031700017", "name": "USPS COLLECTION BOX - BLUE BOX", "address": {"city": "DES MOINES", "state": "IA", "street": "2571 GUTHRIE AVE", "postcode": "50317"}}},
{"geometry": {"type": "Point", "coordinates": [-93.694240422, 41.6022975988]}, "type": "Feature", "properties": {"collection_times": [{"days": "Mon-Fri", "time": "6:00pm"}, {"days": "Sat", "time": "5:15pm"}, {"days": "Sun", "time": "Closed"}], "id": "5031700022", "name": "USPS COLLECTION BOX - BLUE BOX", "address": {"city": "DES MOINES", "state": "IA", "street": "1300 NE 56TH ST", "postcode": "50317"}}},
{"geometry": {"type": "Point", "coordinates": [-93.694240422, 41.6022975988]}, "type": "Feature", "properties": {"collection_times": [{"days": "Mon-Fri", "time": "4:30pm"}, {"days": "Sat", "time": "4:00pm"}, {"days": "Sun", "time": "Closed"}], "id": "5031700024", "name": "USPS COLLECTION BOX - PO LOBBY", "address": {"city": "DES MOINES", "state": "IA", "street": "1300 NE 56TH ST", "postcode": "50317"}}},
{"geometry": {"type": "Point", "coordinates": [-93.5593298669, 41.6005669299]}, "type": "Feature", "properties": {"collection_times": [{"days": "Mon-Fri", "time": "1:15pm"}, {"days": "Sat-Sun", "time": "Closed"}], "id": "5031700025", "name": "USPS COLLECTION BOX - BLUE BOX", "address": {"city": "DES MOINES", "state": "IA", "street": "2930 E UNIVERSITY AVE", "postcode": "50317"}}},
{"geometry": {"type": "Point", "coordinates": [-93.6196394808, 41.5988256143]}, "type": "Feature", "properties": {"collection_times": [{"days": "Mon-Sat", "time": "8:30pm"}, {"days": "Sun", "time": "Closed"}], "id": "5031800000", "name": "USPS COLLECTION BOX - BLUE BOX", "address": {"city": "DES MOINES", "state": "IA", "street": "1165 2ND AVE", "postcode": "50318"}}},
{"geometry": {"type": "Point", "coordinates": [-93.6196394808, 41.5988256143]}, "type": "Feature", "properties": {"collection_times": [{"days": "Mon-Sat", "time": "8:30pm"}, {"days": "Sun", "time": "Closed"}], "id": "5031800001", "name": "USPS COLLECTION BOX - BLUE BOX", "address": {"city": "DES MOINES", "state": "IA", "street": "1165 2ND AVE", "postcode": "50318"}}},
{"geometry": {"type": "Point", "coordinates": [-93.6196394808, 41.5988256143]}, "type": "Feature", "properties": {"collection_times": [{"days": "Mon-Sat", "time": "8:30pm"}, {"days": "Sun", "time": "Closed"}], "id": "5031800003", "name": "USPS COLLECTION BOX - PO LOBBY", "address": {"city": "DES MOINES", "state": "IA", "street": "1165 2ND AVE", "postcode": "50318"}}},
{"geometry": {"type": "Point", "coordinates": [-93.6196394808, 41.5988256143]}, "type": "Feature", "properties": {"collection_times": [{"days": "Mon-Sat", "time": "8:30pm"}, {"days": "Sun", "time": "Closed"}], "id": "5031800004", "name": "USPS COLLECTION BOX - APC", "address": {"city": "DES MOINES", "state": "IA", "street": "1165 2ND AVE", "postcode": "50318"}}},
{"geometry": {"type": "Point", "coordinates": [-93.5968467574, 41.5550602107]}, "type": "Feature", "properties": {"collection_times": [{"days": "Mon-Fri", "time": "3:00pm"}, {"days": "Sat", "time": "1:15pm"}, {"days": "Sun", "time": "Closed"}], "id": "5032000001", "name": "USPS COLLECTION BOX - BLUE BOX", "address": {"city": "DES MOINES", "state": "IA", "street": "3200 SE 14TH ST", "postcode": "50320"}}},
{"geometry": {"type": "Point", "coordinates": [-93.6156465227, 41.5897600842]}, "type": "Feature", "properties": {"collection_times": [{"days": "Mon-Fri", "time": "3:00pm"}, {"days": "Sat-Sun", "time": "Closed"}], "id": "5032000004", "name": "USPS COLLECTION BOX - BLUE BOX", "address": {"city": "DES MOINES", "state": "IA", "street": "2140 E PARK AVE", "postcode": "50320"}}},
{"geometry": {"type": "Point", "coordinates": [-93.596962933, 41.5379564282]}, "type": "Feature", "properties": {"collection_times": [{"days": "Mon-Fri", "time": "3:00pm"}, {"days": "Sat-Sun", "time": "Closed"}], "id": "5032000005", "name": "USPS COLLECTION BOX - BLUE BOX", "address": {"city": "DES MOINES", "state": "IA", "street": "5110 SE 14TH ST", "postcode": "50320"}}},
{"geometry": {"type": "Point", "coordinates": [-93.5968722526, 41.5281994152]}, "type": "Feature", "properties": {"collection_times": [{"days": "Mon-Fri", "time": "3:00pm"}, {"days": "Sat-Sun", "time": "Closed"}], "id": "5032000006", "name": "USPS COLLECTION BOX - BLUE BOX", "address": {"city": "DES MOINES", "state": "IA", "street": "6200 SE 14TH ST", "postcode": "50320"}}},
{"geometry": {"type": "Point", "coordinates": [-93.6450742815, 41.5452683301]}, "type": "Feature", "properties": {"collection_times": [{"days": "Mon-Fri", "time": "1:30pm"}, {"days": "Sat-Sun", "time": "Closed"}], "id": "5032100002", "name": "USPS COLLECTION BOX - BLUE BOX", "address": {"city": "DES MOINES", "state": "IA", "street": "4210 FLEUR DR", "postcode": "50321"}}},
{"geometry": {"type": "Point", "coordinates": [-93.6449500708, 41.542186722]}, "type": "Feature", "properties": {"collection_times": [{"days": "Mon-Fri", "time": "3:45pm"}, {"days": "Sat", "time": "1:30pm"}, {"days": "Sun", "time": "Closed"}], "id": "5032100003", "name": "USPS COLLECTION BOX - BLUE BOX", "address": {"city": "DES MOINES", "state": "IA", "street": "4707 FLEUR DR", "postcode": "50321"}}},
{"geometry": {"type": "Point", "coordinates": [-93.6449204968, 41.5468369337]}, "type": "Feature", "properties": {"collection_times": [{"days": "Mon-Fri", "time": "3:45pm"}, {"days": "Sat", "time": "1:30pm"}, {"days": "Sun", "time": "Closed"}], "id": "5032100004", "name": "USPS COLLECTION BOX - BLUE BOX", "address": {"city": "DES MOINES", "state": "IA", "street": "4121 FLEUR DR", "postcode": "50321"}}},
{"geometry": {"type": "Point", "coordinates": [-93.6451215672, 41.5598557992]}, "type": "Feature", "properties": {"collection_times": [{"days": "Mon-Fri", "time": "1:15pm"}, {"days": "Sat-Sun", "time": "Closed"}], "id": "5032100008", "name": "USPS COLLECTION BOX - BLUE BOX", "address": {"city": "DES MOINES", "state": "IA", "street": "2800 FLEUR DR", "postcode": "50321"}}},
{"geometry": {"type": "Point", "coordinates": [-93.6160475666, 41.5110269259]}, "type": "Feature", "properties": {"collection_times": [{"days": "Mon-Fri", "time": "1:45pm"}, {"days": "Sat-Sun", "time": "Closed"}], "id": "5032100011", "name": "USPS COLLECTION BOX - BLUE BOX", "address": {"city": "DES MOINES", "state": "IA", "street": "8018 S CLOVER HILLS DR", "postcode": "50321"}}},
{"geometry": {"type": "Point", "coordinates": [-93.6449500708, 41.542186722]}, "type": "Feature", "properties": {"collection_times": [{"days": "Mon-Fri", "time": "3:45pm"}, {"days": "Sat", "time": "1:30pm"}, {"days": "Sun", "time": "Closed"}], "id": "5032100012", "name": "USPS COLLECTION BOX - BLUE BOX", "address": {"city": "DES MOINES", "state": "IA", "street": "4707 FLEUR DR", "postcode": "50321"}}},
{"geometry": {"type": "Point", "coordinates": [-93.6449204968, 41.5468369337]}, "type": "Feature", "properties": {"collection_times": [{"days": "Mon-Fri", "time": "3:45pm"}, {"days": "Sat", "time": "1:30pm"}, {"days": "Sun", "time": "Closed"}], "id": "5032100014", "name": "USPS COLLECTION BOX - BLUE BOX", "address": {"city": "DES MOINES", "state": "IA", "street": "4121 FLEUR DR", "postcode": "50321"}}},
{"geometry": {"type": "Point", "coordinates": [-93.6403041766, 41.563407705]}, "type": "Feature", "properties": {"collection_times": [{"days": "Mon-Fri", "time": "1:15pm"}, {"days": "Sat-Sun", "time": "Closed"}], "id": "5032100018", "name": "USPS COLLECTION BOX - BLUE BOX", "address": {"city": "DES MOINES", "state": "IA", "street": "1901 BELL AVE", "postcode": "50321"}}},
{"geometry": {"type": "Point", "coordinates": [-93.7606411838, 41.6188980227]}, "type": "Feature", "properties": {"collection_times": [{"days": "Mon-Fri", "time": "3:30pm"}, {"days": "Sat-Sun", "time": "Closed"}], "id": "5032200002", "name": "USPS COLLECTION BOX - BLUE BOX", "address": {"city": "DES MOINES", "state": "IA", "street": "10400 NEW YORK AVE", "postcode": "50322"}}},
{"geometry": {"type": "Point", "coordinates": [-93.7145468745, 41.6299377954]}, "type": "Feature", "properties": {"collection_times": [{"days": "Mon-Fri", "time": "3:30pm"}, {"days": "Sat-Sun", "time": "Closed"}], "id": "5032200004", "name": "USPS COLLECTION BOX - BLUE BOX", "address": {"city": "DES MOINES", "state": "IA", "street": "3821 71ST ST", "postcode": "50322"}}},
{"geometry": {"type": "Point", "coordinates": [-93.7731861402, 41.6381529718]}, "type": "Feature", "properties": {"collection_times": [{"days": "Mon-Fri", "time": "3:45pm"}, {"days": "Sat-Sun", "time": "Closed"}], "id": "5032200006", "name": "USPS COLLECTION BOX - BLUE BOX", "address": {"city": "DES MOINES", "state": "IA", "street": "11253 AURORA AVE", "postcode": "50322"}}},
{"geometry": {"type": "Point", "coordinates": [-93.7336413185, 41.6293953673]}, "type": "Feature", "properties": {"collection_times": [{"days": "Mon-Fri", "time": "4:00pm"}, {"days": "Sat-Sun", "time": "Closed"}], "id": "5032200007", "name": "USPS COLLECTION BOX - BLUE BOX", "address": {"city": "DES MOINES", "state": "IA", "street": "8401 DOUGLAS AVE", "postcode": "50322"}}},
{"geometry": {"type": "Point", "coordinates": [-93.7365582735, 41.615310564]}, "type": "Feature", "properties": {"collection_times": [{"days": "Mon-Fri", "time": "4:15pm"}, {"days": "Sat-Sun", "time": "Closed"}], "id": "5032200009", "name": "USPS COLLECTION BOX - BLUE BOX", "address": {"city": "DES MOINES", "state": "IA", "street": "2400 86TH ST", "postcode": "50322"}}},
{"geometry": {"type": "Point", "coordinates": [-93.7363010488, 41.6496423637]}, "type": "Feature", "properties": {"collection_times": [{"days": "Mon-Fri", "time": "1:15pm"}, {"days": "Sat-Sun", "time": "Closed"}], "id": "5032200013", "name": "USPS COLLECTION BOX - BLUE BOX", "address": {"city": "DES MOINES", "state": "IA", "street": "4901 86TH ST", "postcode": "50322"}}},
{"geometry": {"type": "Point", "coordinates": [-93.7747317937, 41.6430739488]}, "type": "Feature", "properties": {"collection_times": [{"days": "Mon-Fri", "time": "3:45pm"}, {"days": "Sat-Sun", "time": "Closed"}], "id": "5032200016", "name": "USPS COLLECTION BOX - BLUE BOX", "address": {"city": "DES MOINES", "state": "IA", "street": "4544 114TH ST", "postcode": "50322"}}},
{"geometry": {"type": "Point", "coordinates": [-93.7365051799, 41.6233980379]}, "type": "Feature", "properties": {"collection_times": [{"days": "Mon-Fri", "time": "10:30am"}, {"days": "Sat-Sun", "time": "Closed"}], "id": "5032200017", "name": "USPS COLLECTION BOX - BLUE BOX", "address": {"city": "DES MOINES", "state": "IA", "street": "3201 86TH ST", "postcode": "50322"}}},
{"geometry": {"type": "Point", "coordinates": [-93.7345272634, 41.6331431229]}, "type": "Feature", "properties": {"collection_times": [{"days": "Mon-Fri", "time": "10:30am"}, {"days": "Sat-Sun", "time": "Closed"}], "id": "5032200021", "name": "USPS COLLECTION BOX - BLUE BOX", "address": {"city": "DES MOINES", "state": "IA", "street": "11957 DOUGLAS PKWY", "postcode": "50322"}}},
{"geometry": {"type": "Point", "coordinates": [-93.6981370888, 41.6112738915]}, "type": "Feature", "properties": {"collection_times": [{"days": "Mon-Fri", "time": "2:30pm"}, {"days": "Sat-Sun", "time": "Closed"}], "id": "5032200022", "name": "USPS COLLECTION BOX - BLUE BOX", "address": {"city": "DES MOINES", "state": "IA", "street": "5801 FRANKLIN AVE", "postcode": "50322"}}},
{"geometry": {"type": "Point", "coordinates": [-93.7134058415, 41.6150629802]}, "type": "Feature", "properties": {"collection_times": [{"days": "Mon-Fri", "time": "3:00pm"}, {"days": "Sat-Sun", "time": "Closed"}], "id": "5032200023", "name": "USPS COLLECTION BOX - BLUE BOX", "address": {"city": "DES MOINES", "state": "IA", "street": "7025 HICKMAN RD", "postcode": "50322"}}},
{"geometry": {"type": "Point", "coordinates": [-93.7145468745, 41.6299377954]}, "type": "Feature", "properties": {"collection_times": [{"days": "Mon-Fri", "time": "3:30pm"}, {"days": "Sat-Sun", "time": "Closed"}], "id": "5032200031", "name": "USPS COLLECTION BOX - BLUE BOX", "address": {"city": "DES MOINES", "state": "IA", "street": "3821 71ST ST", "postcode": "50322"}}},
{"geometry": {"type": "Point", "coordinates": [-93.7128164266, 41.6294062865]}, "type": "Feature", "properties": {"collection_times": [{"days": "Mon-Fri", "time": "1:00pm"}, {"days": "Sat-Sun", "time": "Closed"}], "id": "5032200032", "name": "USPS COLLECTION BOX - BLUE BOX", "address": {"city": "DES MOINES", "state": "IA", "street": "7000 DOUGLAS AVE", "postcode": "50322"}}},
{"geometry": {"type": "Point", "coordinates": [-93.7336413185, 41.6293953673]}, "type": "Feature", "properties": {"collection_times": [{"days": "Mon-Fri", "time": "4:00pm"}, {"days": "Sat-Sun", "time": "Closed"}], "id": "5032200033", "name": "USPS COLLECTION BOX - BLUE BOX", "address": {"city": "DES MOINES", "state": "IA", "street": "8401 DOUGLAS AVE", "postcode": "50322"}}},
{"geometry": {"type": "Point", "coordinates": [-93.7731861402, 41.6381529718]}, "type": "Feature", "properties": {"collection_times": [{"days": "Mon-Fri", "time": "3:45pm"}, {"days": "Sat-Sun", "time": "Closed"}], "id": "5032200035", "name": "USPS COLLECTION BOX - BLUE BOX", "address": {"city": "DES MOINES", "state": "IA", "street": "11253 AURORA AVE", "postcode": "50322"}}},
{"geometry": {"type": "Point", "coordinates": [-93.7365582735, 41.615310564]}, "type": "Feature", "properties": {"collection_times": [{"days": "Mon-Fri", "time": "4:15pm"}, {"days": "Sat-Sun", "time": "Closed"}], "id": "5032200038", "name": "USPS COLLECTION BOX - BLUE BOX", "address": {"city": "DES MOINES", "state": "IA", "street": "2400 86TH ST", "postcode": "50322"}}},
{"geometry": {"type": "Point", "coordinates": [-93.7340722452, 41.6438173]}, "type": "Feature", "properties": {"collection_times": [{"days": "Mon-Fri", "time": "1:15pm"}, {"days": "Sat-Sun", "time": "Closed"}], "id": "5032200042", "name": "USPS COLLECTION BOX - BLUE BOX", "address": {"city": "DES MOINES", "state": "IA", "street": "8450 MEREDITH DR", "postcode": "50322"}}},
{"geometry": {"type": "Point", "coordinates": [-93.725432684, 41.6293447726]}, "type": "Feature", "properties": {"collection_times": [{"days": "Mon-Sat", "time": "5:00pm"}, {"days": "Sun", "time": "Closed"}], "id": "5032200044", "name": "USPS COLLECTION BOX - BLUE BOX", "address": {"city": "DES MOINES", "state": "IA", "street": "7755 DOUGLAS AVE", "postcode": "50322"}}},
{"geometry": {"type": "Point", "coordinates": [-93.7037230211, 41.6366507272]}, "type": "Feature", "properties": {"collection_times": [{"days": "Mon-Fri", "time": "3:45pm"}, {"days": "Sat-Sun", "time": "Closed"}], "id": "5032200046", "name": "USPS COLLECTION BOX - BLUE BOX", "address": {"city": "DES MOINES", "state": "IA", "street": "6200 AURORA AVE", "postcode": "50322"}}},
{"geometry": {"type": "Point", "coordinates": [-93.772048365, 41.6378774556]}, "type": "Feature", "properties": {"collection_times": [{"days": "Mon-Fri", "time": "4:00pm"}, {"days": "Sat-Sun", "time": "Closed"}], "id": "5032200052", "name": "USPS COLLECTION BOX - BLUE BOX", "address": {"city": "DES MOINES", "state": "IA", "street": "11200 AURORA AVE", "postcode": "50322"}}},
{"geometry": {"type": "Point", "coordinates": [-93.7345272634, 41.6331431229]}, "type": "Feature", "properties": {"collection_times": [{"days": "Mon-Fri", "time": "6:30pm"}, {"days": "Sat", "time": "3:30pm"}, {"days": "Sun", "time": "Closed"}], "id": "5032200056", "name": "USPS COLLECTION BOX - BLUE BOX", "address": {"city": "DES MOINES", "state": "IA", "street": "3311 100TH ST", "postcode": "50322"}}},
{"geometry": {"type": "Point", "coordinates": [-93.7345272634, 41.6331431229]}, "type": "Feature", "properties": {"collection_times": [{"days": "Mon-Fri", "time": "6:00pm"}, {"days": "Sat", "time": "3:00pm"}, {"days": "Sun", "time": "Closed"}], "id": "5032200062", "name": "USPS COLLECTION BOX - PO LOBBY", "address": {"city": "DES MOINES", "state": "IA", "street": "3311 100TH ST", "postcode": "50322"}}},
{"geometry": {"type": "Point", "coordinates": [-93.7057328684, 41.6294098354]}, "type": "Feature", "properties": {"collection_times": [{"days": "Mon-Fri", "time": "3:30pm"}, {"days": "Sat-Sun", "time": "Closed"}], "id": "5032200063", "name": "USPS COLLECTION BOX - BLUE BOX", "address": {"city": "DES MOINES", "state": "IA", "street": "6401 DOUGLAS AVE", "postcode": "50322"}}},
{"geometry": {"type": "Point", "coordinates": [-93.7037230211, 41.6366507272]}, "type": "Feature", "properties": {"collection_times": [{"days": "Mon-Fri", "time": "3:45pm"}, {"days": "Sat-Sun", "time": "Closed"}], "id": "5032200064", "name": "USPS COLLECTION BOX - BLUE BOX", "address": {"city": "DES MOINES", "state": "IA", "street": "6200 AURORA AVE", "postcode": "50322"}}},
{"geometry": {"type": "Point", "coordinates": [-93.7345272634, 41.6331431229]}, "type": "Feature", "properties": {"collection_times": [{"days": "Mon-Fri", "time": "6:00pm"}, {"days": "Sat", "time": "3:00pm"}, {"days": "Sun", "time": "Closed"}], "id": "5032200065", "name": "USPS COLLECTION BOX - APC", "address": {"city": "DES MOINES", "state": "IA", "street": "3311 100TH ST", "postcode": "50322"}}},
{"geometry": {"type": "Point", "coordinates": [-93.7291998017, 41.632060582]}, "type": "Feature", "properties": {"collection_times": [{"days": "Mon-Fri", "time": "4:00pm"}, {"days": "Sat", "time": "11:30am"}, {"days": "Sun", "time": "Closed"}], "id": "5032200068", "name": "USPS COLLECTION BOX - BLUE BOX", "address": {"city": "DES MOINES", "state": "IA", "street": "8701 DOUGLAS AVE", "postcode": "50322"}}},
{"geometry": {"type": "Point", "coordinates": [-93.7363667737, 41.6131465155]}, "type": "Feature", "properties": {"collection_times": [{"days": "Mon-Fri", "time": "4:15pm"}, {"days": "Sat-Sun", "time": "Closed"}], "id": "5032500000", "name": "USPS COLLECTION BOX - BLUE BOX", "address": {"city": "DES MOINES", "state": "IA", "street": "2175 NW 86TH ST", "postcode": "50325"}}},
{"geometry": {"type": "Point", "coordinates": [-93.7783273785, 41.6147819885]}, "type": "Feature", "properties": {"collection_times": [{"days": "Mon-Fri", "time": "10:30am"}, {"days": "Sat-Sun", "time": "Closed"}], "id": "5032500001", "name": "USPS COLLECTION BOX - BLUE BOX", "address": {"city": "DES MOINES", "state": "IA", "street": "11800 HICKMAN RD", "postcode": "50325"}}},
{"geometry": {"type": "Point", "coordinates": [-93.7734726476, 41.6044174613]}, "type": "Feature", "properties": {"collection_times": [{"days": "Mon-Fri", "time": "3:15pm"}, {"days": "Sat-Sun", "time": "Closed"}], "id": "5032500002", "name": "USPS COLLECTION BOX - BLUE BOX", "address": {"city": "DES MOINES", "state": "IA", "street": "1601 NW 114TH ST", "postcode": "50325"}}},
{"geometry": {"type": "Point", "coordinates": [-93.7736177362, 41.604465917]}, "type": "Feature", "properties": {"collection_times": [{"days": "Mon-Fri", "time": "3:15pm"}, {"days": "Sat-Sun", "time": "Closed"}], "id": "5032500004", "name": "USPS COLLECTION BOX - BLUE BOX", "address": {"city": "DES MOINES", "state": "IA", "street": "1601 NW 114TH ST", "postcode": "50325"}}},
{"geometry": {"type": "Point", "coordinates": [-93.7655681158, 41.6127478583]}, "type": "Feature", "properties": {"collection_times": [{"days": "Mon-Sat", "time": "5:00pm"}, {"days": "Sun", "time": "Closed"}], "id": "5032500005", "name": "USPS COLLECTION BOX - BLUE BOX", "address": {"city": "DES MOINES", "state": "IA", "street": "2135 NW 108TH ST", "postcode": "50325"}}},
{"geometry": {"type": "Point", "coordinates": [-93.7363667737, 41.6131465155]}, "type": "Feature", "properties": {"collection_times": [{"days": "Mon-Fri", "time": "4:15pm"}, {"days": "Sat-Sun", "time": "Closed"}], "id": "5032500008", "name": "USPS COLLECTION BOX - BLUE BOX", "address": {"city": "DES MOINES", "state": "IA", "street": "2175 NW 86TH ST", "postcode": "50325"}}},
{"geometry": {"type": "Point", "coordinates": [-93.7655681158, 41.6127478583]}, "type": "Feature", "properties": {"collection_times": [{"days": "Mon-Sat", "time": "5:00pm"}, {"days": "Sun", "time": "Closed"}], "id": "5032500012", "name": "USPS COLLECTION BOX - BLUE BOX", "address": {"city": "DES MOINES", "state": "IA", "street": "2135 NW 108TH ST", "postcode": "50325"}}},
{"geometry": {"type": "Point", "coordinates": [-93.7749872229, 41.6096303386]}, "type": "Feature", "properties": {"collection_times": [{"days": "Mon-Fri", "time": "3:15pm"}, {"days": "Sat-Sun", "time": "Closed"}], "id": "5032500014", "name": "USPS COLLECTION BOX - BLUE BOX", "address": {"city": "DES MOINES", "state": "IA", "street": "1900 NW 114TH ST", "postcode": "50325"}}},
{"geometry": {"type": "Point", "coordinates": [-93.7559755015, 41.6005077819]}, "type": "Feature", "properties": {"collection_times": [{"days": "Mon-Fri", "time": "4:00pm"}, {"days": "Sat-Sun", "time": "Closed"}], "id": "5032500016", "name": "USPS COLLECTION BOX - BLUE BOX", "address": {"city": "DES MOINES", "state": "IA", "street": "10101 UNIVERSITY AVE", "postcode": "50325"}}},
{"geometry": {"type": "Point", "coordinates": [-93.7655681158, 41.6127478583]}, "type": "Feature", "properties": {"collection_times": [{"days": "Mon-Fri", "time": "5:00pm"}, {"days": "Sat", "time": "2:30pm"}, {"days": "Sun", "time": "Closed"}], "id": "5032500021", "name": "USPS COLLECTION BOX - PO LOBBY", "address": {"city": "DES MOINES", "state": "IA", "street": "2135 NW 108TH ST", "postcode": "50325"}}},
{"geometry": {"type": "Point", "coordinates": [-93.8217571985, 41.6146221226]}, "type": "Feature", "properties": {"collection_times": [{"days": "Mon-Fri", "time": "1:45pm"}, {"days": "Sat", "time": "12:30pm"}, {"days": "Sun", "time": "Closed"}], "id": "5032500022", "name": "USPS COLLECTION BOX - BLUE BOX", "address": {"city": "DES MOINES", "state": "IA", "street": "15500 HICKMAN RD", "postcode": "50325"}}},
{"geometry": {"type": "Point", "coordinates": [-93.8217571985, 41.6146221226]}, "type": "Feature", "properties": {"collection_times": [{"days": "Mon-Fri", "time": "1:45pm"}, {"days": "Sat", "time": "12:30pm"}, {"days": "Sun", "time": "Closed"}], "id": "5032500023", "name": "USPS COLLECTION BOX - BLUE BOX", "address": {"city": "DES MOINES", "state": "IA", "street": "15500 HICKMAN RD", "postcode": "50325"}}},
{"geometry": {"type": "Point", "coordinates": [-93.7943971492, 41.6015407862]}, "type": "Feature", "properties": {"collection_times": [{"days": "Mon-Fri", "time": "4:00pm"}, {"days": "Sat-Sun", "time": "Closed"}], "id": "5032500024", "name": "USPS COLLECTION BOX - BLUE BOX", "address": {"city": "DES MOINES", "state": "IA", "street": "1250 NW 128TH ST", "postcode": "50325"}}},
{"geometry": {"type": "Point", "coordinates": [-93.7871714094, 41.6005422097]}, "type": "Feature", "properties": {"collection_times": [{"days": "Mon-Fri", "time": "4:00pm"}, {"days": "Sat-Sun", "time": "Closed"}], "id": "5032500025", "name": "USPS COLLECTION BOX - BLUE BOX", "address": {"city": "DES MOINES", "state": "IA", "street": "12333 UNIVERSITY AVE", "postcode": "50325"}}},
{"geometry": {"type": "Point", "coordinates": [-93.7871714094, 41.6005422097]}, "type": "Feature", "properties": {"collection_times": [{"days": "Mon-Fri", "time": "4:00pm"}, {"days": "Sat-Sun", "time": "Closed"}], "id": "5032500026", "name": "USPS COLLECTION BOX - BLUE BOX", "address": {"city": "DES MOINES", "state": "IA", "street": "12333 UNIVERSITY AVE", "postcode": "50325"}}}
]}
