{"type": "FeatureCollection", "features": [
{"geometry": {"type": "Point", "coordinates": [-93.1993816974, 43.1517537216]}, "type": "Feature", "properties": {"collection_times": [{"days": "Mon-Sat", "time": "10:00am"}, {"days": "Sun", "time": "Closed"}], "id": "5040100000", "name": "USPS COLLECTION BOX - BLUE BOX", "address": {"city": "MASON CITY", "state": "IA", "street": "103 E STATE ST", "postcode": "50401"}}},
{"geometry": {"type": "Point", "coordinates": [-93.2027530439, 43.153831789]}, "type": "Feature", "properties": {"collection_times": [{"days": "Mon-Fri", "time": "3:00pm"}, {"days": "Sat-Sun", "time": "Closed"}], "id": "5040100007", "name": "USPS COLLECTION BOX - BLUE BOX", "address": {"city": "MASON CITY", "state": "IA", "street": "220 N WASHINGTON AVE", "postcode": "50401"}}},
{"geometry": {"type": "Point", "coordinates": [-93.2211016195, 43.147174203]}, "type": "Feature", "properties": {"collection_times": [{"days": "Mon-Sat", "time": "3:00pm"}, {"days": "Sun", "time": "Closed"}], "id": "5040100023", "name": "USPS COLLECTION BOX - BLUE BOX", "address": {"city": "MASON CITY", "state": "IA", "street": "520 S PIERCE AVE", "postcode": "50401"}}},
{"geometry": {"type": "Point", "coordinates": [-93.2211016195, 43.147174203]}, "type": "Feature", "properties": {"collection_times": [{"days": "Mon-Sat", "time": "3:00pm"}, {"days": "Sun", "time": "Closed"}], "id": "5040100024", "name": "USPS COLLECTION BOX - BLUE BOX", "address": {"city": "MASON CITY", "state": "IA", "street": "520 S PIERCE AVE", "postcode": "50401"}}},
{"geometry": {"type": "Point", "coordinates": [-93.2167321487, 43.1484467004]}, "type": "Feature", "properties": {"collection_times": [{"days": "Mon-Sat", "time": "3:00pm"}, {"days": "Sun", "time": "Closed"}], "id": "5040100027", "name": "USPS COLLECTION BOX - BLUE BOX", "address": {"city": "MASON CITY", "state": "IA", "street": "1010 4TH ST SW", "postcode": "50401"}}},
{"geometry": {"type": "Point", "coordinates": [-93.2259458105, 43.1483024981]}, "type": "Feature", "properties": {"collection_times": [{"days": "Mon-Sat", "time": "10:00am"}, {"days": "Sun", "time": "Closed"}], "id": "5040100031", "name": "USPS COLLECTION BOX - BLUE BOX", "address": {"city": "MASON CITY", "state": "IA", "street": "1631 4TH ST SW", "postcode": "50401"}}},
{"geometry": {"type": "Point", "coordinates": [-93.2011966688, 43.152766462]}, "type": "Feature", "properties": {"collection_times": [{"days": "Mon-Fri", "time": "3:00pm"}, {"days": "Sat-Sun", "time": "Closed"}], "id": "5040100034", "name": "USPS COLLECTION BOX - BLUE BOX", "address": {"city": "MASON CITY", "state": "IA", "street": "10 1ST ST NW", "postcode": "50401"}}},
{"geometry": {"type": "Point", "coordinates": [-93.2099581322, 43.1379888608]}, "type": "Feature", "properties": {"collection_times": [{"days": "Mon-Fri", "time": "2:30pm"}, {"days": "Sat", "time": "9:30am"}, {"days": "Sun", "time": "Closed"}], "id": "5040100036", "name": "USPS COLLECTION BOX - BLUE BOX", "address": {"city": "MASON CITY", "state": "IA", "street": "1415 S MONROE AVE", "postcode": "50401"}}},
{"geometry": {"type": "Point", "coordinates": [-93.2011364875, 43.1341689755]}, "type": "Feature", "properties": {"collection_times": [{"days": "Mon-Sat", "time": "9:15am"}, {"days": "Sun", "time": "Closed"}], "id": "5040100038", "name": "USPS COLLECTION BOX - BLUE BOX", "address": {"city": "MASON CITY", "state": "IA", "street": "1810 S FEDERAL AVE", "postcode": "50401"}}},
{"geometry": {"type": "Point", "coordinates": [-93.2623029588, 43.1481866554]}, "type": "Feature", "properties": {"collection_times": [{"days": "Mon-Sat", "time": "10:30am"}, {"days": "Sun", "time": "Closed"}], "id": "5040100046", "name": "USPS COLLECTION BOX - BLUE BOX", "address": {"city": "MASON CITY", "state": "IA", "street": "4151 4TH ST SW", "postcode": "50401"}}},
{"geometry": {"type": "Point", "coordinates": [-93.2338050692, 43.1508235997]}, "type": "Feature", "properties": {"collection_times": [{"days": "Mon-Fri", "time": "3:00pm"}, {"days": "Sat-Sun", "time": "Closed"}], "id": "5040100051", "name": "USPS COLLECTION BOX - BLUE BOX", "address": {"city": "MASON CITY", "state": "IA", "street": "112 W STATE ST", "postcode": "50401"}}},
{"geometry": {"type": "Point", "coordinates": [-93.1993808785, 43.1537417124]}, "type": "Feature", "properties": {"collection_times": [{"days": "Mon-Sat", "time": "6:00pm"}, {"days": "Sun", "time": "Closed"}], "id": "5040100053", "name": "USPS COLLECTION BOX - BLUE BOX", "address": {"city": "MASON CITY", "state": "IA", "street": "211 N DELAWARE AVE", "postcode": "50401"}}},
{"geometry": {"type": "Point", "coordinates": [-93.1974533567, 43.1518868133]}, "type": "Feature", "properties": {"collection_times": [{"days": "Mon-Fri", "time": "3:00pm"}, {"days": "Sat-Sun", "time": "Closed"}], "id": "5040100056", "name": "USPS COLLECTION BOX - BLUE BOX", "address": {"city": "MASON CITY", "state": "IA", "street": "220 E STATE ST", "postcode": "50401"}}},
{"geometry": {"type": "Point", "coordinates": [-93.2429119372, 43.1486575849]}, "type": "Feature", "properties": {"collection_times": [{"days": "Mon-Sat", "time": "10:15am"}, {"days": "Sun", "time": "Closed"}], "id": "5040100060", "name": "USPS COLLECTION BOX - BLUE BOX", "address": {"city": "MASON CITY", "state": "IA", "street": "2800 4TH ST SW", "postcode": "50401"}}},
{"geometry": {"type": "Point", "coordinates": [-93.1993808785, 43.1537417124]}, "type": "Feature", "properties": {"collection_times": [{"days": "Mon-Sat", "time": "6:00pm"}, {"days": "Sun", "time": "Closed"}], "id": "5040100063", "name": "USPS COLLECTION BOX - PO LOBBY", "address": {"city": "MASON CITY", "state": "IA", "street": "211 N DELAWARE AVE", "postcode": "50401"}}},
{"geometry": {"type": "Point", "coordinates": [-93.2605263035, 43.1448358903]}, "type": "Feature", "properties": {"collection_times": [{"days": "Mon-Sat", "time": "10:30am"}, {"days": "Sun", "time": "Closed"}], "id": "5040100071", "name": "USPS COLLECTION BOX - BLUE BOX", "address": {"city": "MASON CITY", "state": "IA", "street": "777 S EISENHOWER AVE", "postcode": "50401"}}},
{"geometry": {"type": "Point", "coordinates": [-93.2623029588, 43.1481866554]}, "type": "Feature", "properties": {"collection_times": [{"days": "Mon-Sat", "time": "10:30am"}, {"days": "Sun", "time": "Closed"}], "id": "5040100072", "name": "USPS COLLECTION BOX - BLUE BOX", "address": {"city": "MASON CITY", "state": "IA", "street": "4151 4TH ST SW", "postcode": "50401"}}},
{"geometry": {"type": "Point", "coordinates": [-93.2009817417, 43.1636317091]}, "type": "Feature", "properties": {"collection_times": [{"days": "Mon-Fri", "time": "3:00pm"}, {"days": "Sat", "time": "2:30pm"}, {"days": "Sun", "time": "Closed"}], "id": "5040100074", "name": "USPS COLLECTION BOX - BLUE BOX", "address": {"city": "MASON CITY", "state": "IA", "street": "1303 N FEDERAL AVE", "postcode": "50401"}}},
{"geometry": {"type": "Point", "coordinates": [-93.4765897305, 42.806744388]}, "type": "Feature", "properties": {"collection_times": [{"days": "Mon-Sat", "time": "3:45pm"}, {"days": "Sun", "time": "Closed"}], "id": "5042000000", "name": "USPS COLLECTION BOX - BLUE BOX", "address": {"city": "ALEXANDER", "state": "IA", "street": "407 HARRIMAN ST", "postcode": "50420"}}},
{"geometry": {"type": "Point", "coordinates": [-93.4765897305, 42.806744388]}, "type": "Feature", "properties": {"collection_times": [{"days": "Mon-Fri", "time": "11:15am"}, {"days": "Sat-Sun", "time": "Closed"}], "id": "5042000001", "name": "USPS COLLECTION BOX - PO LOBBY", "address": {"city": "ALEXANDER", "state": "IA", "street": "407 HARRIMAN ST", "postcode": "50420"}}},
{"geometry": {"type": "Point", "coordinates": [-93.6152999411, 42.846788057]}, "type": "Feature", "properties": {"collection_times": [{"days": "Mon-Fri", "time": "4:00pm"}, {"days": "Sat", "time": "11:00am"}, {"days": "Sun", "time": "Closed"}], "id": "5042100000", "name": "USPS COLLECTION BOX - PO LOBBY", "address": {"city": "BELMOND", "state": "IA", "street": "216 1ST ST NE", "postcode": "50421"}}},
{"geometry": {"type": "Point", "coordinates": [-93.6152999411, 42.846788057]}, "type": "Feature", "properties": {"collection_times": [{"days": "Mon-Fri", "time": "4:00pm"}, {"days": "Sat", "time": "3:00pm"}, {"days": "Sun", "time": "Closed"}], "id": "5042100001", "name": "USPS COLLECTION BOX - BLUE BOX", "address": {"city": "BELMOND", "state": "IA", "street": "216 1ST ST NE", "postcode": "50421"}}},
{"geometry": {"type": "Point", "coordinates": [-93.8023688343, 43.0960654208]}, "type": "Feature", "properties": {"collection_times": [{"days": "Mon-Sat", "time": "4:30pm"}, {"days": "Sun", "time": "Closed"}], "id": "5042300002", "name": "USPS COLLECTION BOX - BLUE BOX", "address": {"city": "BRITT", "state": "IA", "street": "52 1ST ST SW", "postcode": "50423"}}},
{"geometry": {"type": "Point", "coordinates": [-93.8023688343, 43.0960654208]}, "type": "Feature", "properties": {"collection_times": [{"days": "Mon-Fri", "time": "4:15pm"}, {"days": "Sat", "time": "10:15am"}, {"days": "Sun", "time": "Closed"}], "id": "5042300004", "name": "USPS COLLECTION BOX - PO LOBBY", "address": {"city": "BRITT", "state": "IA", "street": "52 1ST ST SW", "postcode": "50423"}}},
{"geometry": {"type": "Point", "coordinates": [-93.9421782237, 43.3869340114]}, "type": "Feature", "properties": {"collection_times": [{"days": "Mon-Sat", "time": "3:45pm"}, {"days": "Sun", "time": "Closed"}], "id": "5042400000", "name": "USPS COLLECTION BOX - BLUE BOX", "address": {"city": "BUFFALO CENTER", "state": "IA", "street": "15 2ND AVE NE", "postcode": "50424"}}},
{"geometry": {"type": "Point", "coordinates": [-93.9421782237, 43.3869340114]}, "type": "Feature", "properties": {"collection_times": [{"days": "Mon-Fri", "time": "4:00pm"}, {"days": "Sat-Sun", "time": "Closed"}], "id": "5042400001", "name": "USPS COLLECTION BOX - PO LOBBY", "address": {"city": "BUFFALO CENTER", "state": "IA", "street": "15 2ND AVE NE", "postcode": "50424"}}},
{"geometry": {"type": "Point", "coordinates": [-93.3817357042, 43.1374272731]}, "type": "Feature", "properties": {"collection_times": [{"days": "Mon-Fri", "time": "5:00pm"}, {"days": "Sat", "time": "4:00pm"}, {"days": "Sun", "time": "Closed"}], "id": "5042800013", "name": "USPS COLLECTION BOX - BLUE BOX", "address": {"city": "CLEAR LAKE", "state": "IA", "street": "410 1ST AVE N", "postcode": "50428"}}},
{"geometry": {"type": "Point", "coordinates": [-93.3817357042, 43.1374272731]}, "type": "Feature", "properties": {"collection_times": [{"days": "Mon-Fri", "time": "5:00pm"}, {"days": "Sat", "time": "4:00pm"}, {"days": "Sun", "time": "Closed"}], "id": "5042800014", "name": "USPS COLLECTION BOX - PO LOBBY", "address": {"city": "CLEAR LAKE", "state": "IA", "street": "410 1ST AVE N", "postcode": "50428"}}},
{"geometry": {"type": "Point", "coordinates": [-93.9567463131, 42.9920922014]}, "type": "Feature", "properties": {"collection_times": [{"days": "Mon-Sat", "time": "3:45pm"}, {"days": "Sun", "time": "Closed"}], "id": "5043000000", "name": "USPS COLLECTION BOX - BLUE BOX", "address": {"city": "CORWITH", "state": "IA", "street": "112 NW ELM ST", "postcode": "50430"}}},
{"geometry": {"type": "Point", "coordinates": [-93.9567463131, 42.9920922014]}, "type": "Feature", "properties": {"collection_times": [{"days": "Mon-Fri", "time": "11:45am"}, {"days": "Sat-Sun", "time": "Closed"}], "id": "5043000001", "name": "USPS COLLECTION BOX - PO LOBBY", "address": {"city": "CORWITH", "state": "IA", "street": "112 NW ELM ST", "postcode": "50430"}}},
{"geometry": {"type": "Point", "coordinates": [-93.369893566, 42.7366777122]}, "type": "Feature", "properties": {"collection_times": [{"days": "Mon-Sat", "time": "3:45pm"}, {"days": "Sun", "time": "Closed"}], "id": "5043100000", "name": "USPS COLLECTION BOX - BLUE BOX", "address": {"city": "COULTER", "state": "IA", "street": "110 MAIN ST", "postcode": "50431"}}},
{"geometry": {"type": "Point", "coordinates": [-93.369893566, 42.7366777122]}, "type": "Feature", "properties": {"collection_times": [{"days": "Mon-Fri", "time": "3:45pm"}, {"days": "Sat-Sun", "time": "Closed"}], "id": "5043100001", "name": "USPS COLLECTION BOX - PO LOBBY", "address": {"city": "COULTER", "state": "IA", "street": "110 MAIN ST", "postcode": "50431"}}},
{"geometry": {"type": "Point", "coordinates": [-93.7833440156, 43.2204981287]}, "type": "Feature", "properties": {"collection_times": [{"days": "Mon-Sat", "time": "4:00pm"}, {"days": "Sun", "time": "Closed"}], "id": "5043200000", "name": "USPS COLLECTION BOX - BLUE BOX", "address": {"city": "CRYSTAL LAKE", "state": "IA", "street": "210 STATE AVE S", "postcode": "50432"}}},
{"geometry": {"type": "Point", "coordinates": [-93.7833440156, 43.2204981287]}, "type": "Feature", "properties": {"collection_times": [{"days": "Mon-Fri", "time": "4:00pm"}, {"days": "Sat-Sun", "time": "Closed"}], "id": "5043200001", "name": "USPS COLLECTION BOX - PO LOBBY", "address": {"city": "CRYSTAL LAKE", "state": "IA", "street": "210 STATE AVE S", "postcode": "50432"}}},
{"geometry": {"type": "Point", "coordinates": [-93.418511415, 43.2641137714]}, "type": "Feature", "properties": {"collection_times": [{"days": "Mon-Fri", "time": "4:15pm"}, {"days": "Sat", "time": "5:00pm"}, {"days": "Sun", "time": "Closed"}], "id": "5043400000", "name": "USPS COLLECTION BOX - BLUE BOX", "address": {"city": "FERTILE", "state": "IA", "street": "112 W MAIN ST", "postcode": "50434"}}},
{"geometry": {"type": "Point", "coordinates": [-93.418511415, 43.2641137714]}, "type": "Feature", "properties": {"collection_times": [{"days": "Mon-Fri", "time": "1:15pm"}, {"days": "Sat-Sun", "time": "Closed"}], "id": "5043400001", "name": "USPS COLLECTION BOX - PO LOBBY", "address": {"city": "FERTILE", "state": "IA", "street": "112 W MAIN ST", "postcode": "50434"}}},
{"geometry": {"type": "Point", "coordinates": [-92.7366016691, 43.1278504352]}, "type": "Feature", "properties": {"collection_times": [{"days": "Mon-Fri", "time": "4:15pm"}, {"days": "Sat", "time": "5:00pm"}, {"days": "Sun", "time": "Closed"}], "id": "5043500000", "name": "USPS COLLECTION BOX - BLUE BOX", "address": {"city": "FLOYD", "state": "IA", "street": "410 MONROE ST", "postcode": "50435"}}},
{"geometry": {"type": "Point", "coordinates": [-92.7366016691, 43.1278504352]}, "type": "Feature", "properties": {"collection_times": [{"days": "Mon-Fri", "time": "10:45am"}, {"days": "Sat", "time": "9:00am"}, {"days": "Sun", "time": "Closed"}], "id": "5043500001", "name": "USPS COLLECTION BOX - PO LOBBY", "address": {"city": "FLOYD", "state": "IA", "street": "410 MONROE ST", "postcode": "50435"}}},
{"geometry": {"type": "Point", "coordinates": [-93.6382446106, 43.2656714571]}, "type": "Feature", "properties": {"collection_times": [{"days": "Mon-Fri", "time": "4:45pm"}, {"days": "Sat", "time": "3:15pm"}, {"days": "Sun", "time": "Closed"}], "id": "5043600007", "name": "USPS COLLECTION BOX - BLUE BOX", "address": {"city": "FOREST CITY", "state": "IA", "street": "312 N CLARK ST", "postcode": "50436"}}},
{"geometry": {"type": "Point", "coordinates": [-93.6382446106, 43.2656714571]}, "type": "Feature", "properties": {"collection_times": [{"days": "Mon-Fri", "time": "4:45pm"}, {"days": "Sat", "time": "3:15pm"}, {"days": "Sun", "time": "Closed"}], "id": "5043600010", "name": "USPS COLLECTION BOX - PO LOBBY", "address": {"city": "FOREST CITY", "state": "IA", "street": "312 N CLARK ST", "postcode": "50436"}}},
{"geometry": {"type": "Point", "coordinates": [-93.5993773069, 43.1024003673]}, "type": "Feature", "properties": {"collection_times": [{"days": "Mon-Fri", "time": "5:00pm"}, {"days": "Sat", "time": "3:45pm"}, {"days": "Sun", "time": "Closed"}], "id": "5043800005", "name": "USPS COLLECTION BOX - BLUE BOX", "address": {"city": "GARNER", "state": "IA", "street": "190 E 3RD ST", "postcode": "50438"}}},
{"geometry": {"type": "Point", "coordinates": [-93.5993773069, 43.1024003673]}, "type": "Feature", "properties": {"collection_times": [{"days": "Mon-Fri", "time": "5:00pm"}, {"days": "Sat", "time": "10:30am"}, {"days": "Sun", "time": "Closed"}], "id": "5043800006", "name": "USPS COLLECTION BOX - PO LOBBY", "address": {"city": "GARNER", "state": "IA", "street": "190 E 3RD ST", "postcode": "50438"}}},
{"geometry": {"type": "Point", "coordinates": [-93.0703408253, 43.3300152774]}, "type": "Feature", "properties": {"collection_times": [{"days": "Mon-Fri", "time": "4:00pm"}, {"days": "Sat", "time": "4:45pm"}, {"days": "Sun", "time": "Closed"}], "id": "5044000000", "name": "USPS COLLECTION BOX - BLUE BOX", "address": {"city": "GRAFTON", "state": "IA", "street": "311 3RD ST", "postcode": "50440"}}},
{"geometry": {"type": "Point", "coordinates": [-93.0703408253, 43.3300152774]}, "type": "Feature", "properties": {"collection_times": [{"days": "Mon-Fri", "time": "11:45am"}, {"days": "Sat-Sun", "time": "Closed"}], "id": "5044000001", "name": "USPS COLLECTION BOX - PO LOBBY", "address": {"city": "GRAFTON", "state": "IA", "street": "311 3RD ST", "postcode": "50440"}}},
{"geometry": {"type": "Point", "coordinates": [-93.207623603, 42.7427636429]}, "type": "Feature", "properties": {"collection_times": [{"days": "Mon-Sat", "time": "3:00pm"}, {"days": "Sun", "time": "Closed"}], "id": "5044100008", "name": "USPS COLLECTION BOX - BLUE BOX", "address": {"city": "HAMPTON", "state": "IA", "street": "12 1ST AVE NW", "postcode": "50441"}}},
{"geometry": {"type": "Point", "coordinates": [-93.2073763771, 42.7407275926]}, "type": "Feature", "properties": {"collection_times": [{"days": "Mon-Fri", "time": "4:45pm"}, {"days": "Sat", "time": "4:00pm"}, {"days": "Sun", "time": "Closed"}], "id": "5044100012", "name": "USPS COLLECTION BOX - BLUE BOX", "address": {"city": "HAMPTON", "state": "IA", "street": "22 S FEDERAL ST", "postcode": "50441"}}},
{"geometry": {"type": "Point", "coordinates": [-93.2073763771, 42.7407275926]}, "type": "Feature", "properties": {"collection_times": [{"days": "Mon-Fri", "time": "4:45pm"}, {"days": "Sat", "time": "4:00pm"}, {"days": "Sun", "time": "Closed"}], "id": "5044100013", "name": "USPS COLLECTION BOX - PO LOBBY", "address": {"city": "HAMPTON", "state": "IA", "street": "22 S FEDERAL ST", "postcode": "50441"}}},
{"geometry": {"type": "Point", "coordinates": [-93.2073763771, 42.7407275926]}, "type": "Feature", "properties": {"collection_times": [{"days": "Mon-Fri", "time": "4:45pm"}, {"days": "Sat", "time": "4:00pm"}, {"days": "Sun", "time": "Closed"}], "id": "5044100014", "name": "USPS COLLECTION BOX - BLUE BOX", "address": {"city": "HAMPTON", "state": "IA", "street": "22 S FEDERAL ST", "postcode": "50441"}}},
{"geometry": {"type": "Point", "coordinates": [-93.2073763771, 42.7407275926]}, "type": "Feature", "properties": {"collection_times": [{"days": "Mon-Fri", "time": "4:45pm"}, {"days": "Sat", "time": "4:00pm"}, {"days": "Sun", "time": "Closed"}], "id": "5044100015", "name": "USPS COLLECTION BOX - BLUE BOX", "address": {"city": "HAMPTON", "state": "IA", "street": "22 S FEDERAL ST", "postcode": "50441"}}},
{"geometry": {"type": "Point", "coordinates": [-93.3785975788, 43.2809548032]}, "type": "Feature", "properties": {"collection_times": [{"days": "Mon-Fri", "time": "4:45pm"}, {"days": "Sat", "time": "5:15pm"}, {"days": "Sun", "time": "Closed"}], "id": "5044400000", "name": "USPS COLLECTION BOX - BLUE BOX", "address": {"city": "HANLONTOWN", "state": "IA", "street": "201 MAIN ST", "postcode": "50444"}}},
{"geometry": {"type": "Point", "coordinates": [-93.3785975788, 43.2809548032]}, "type": "Feature", "properties": {"collection_times": [{"days": "Mon-Fri", "time": "10:45am"}, {"days": "Sat-Sun", "time": "Closed"}], "id": "5044400001", "name": "USPS COLLECTION BOX - PO LOBBY", "address": {"city": "HANLONTOWN", "state": "IA", "street": "201 MAIN ST", "postcode": "50444"}}},
{"geometry": {"type": "Point", "coordinates": [-93.4524877528, 43.3626755345]}, "type": "Feature", "properties": {"collection_times": [{"days": "Mon-Fri", "time": "4:15pm"}, {"days": "Sat", "time": "4:00pm"}, {"days": "Sun", "time": "Closed"}], "id": "5044600000", "name": "USPS COLLECTION BOX - BLUE BOX", "address": {"city": "JOICE", "state": "IA", "street": "112 MAIN ST", "postcode": "50446"}}},
{"geometry": {"type": "Point", "coordinates": [-93.4524877528, 43.3626755345]}, "type": "Feature", "properties": {"collection_times": [{"days": "Mon-Fri", "time": "11:45am"}, {"days": "Sat-Sun", "time": "Closed"}], "id": "5044600001", "name": "USPS COLLECTION BOX - PO LOBBY", "address": {"city": "JOICE", "state": "IA", "street": "112 MAIN ST", "postcode": "50446"}}},
{"geometry": {"type": "Point", "coordinates": [-93.7931117043, 42.935543342]}, "type": "Feature", "properties": {"collection_times": [{"days": "Mon-Sat", "time": "4:00pm"}, {"days": "Sun", "time": "Closed"}], "id": "5044700000", "name": "USPS COLLECTION BOX - BLUE BOX", "address": {"city": "KANAWHA", "state": "IA", "street": "221 N MAIN ST", "postcode": "50447"}}},
{"geometry": {"type": "Point", "coordinates": [-93.7931117043, 42.935543342]}, "type": "Feature", "properties": {"collection_times": [{"days": "Mon-Fri", "time": "2:45pm"}, {"days": "Sat-Sun", "time": "Closed"}], "id": "5044700001", "name": "USPS COLLECTION BOX - PO LOBBY", "address": {"city": "KANAWHA", "state": "IA", "street": "221 N MAIN ST", "postcode": "50447"}}},
{"geometry": {"type": "Point", "coordinates": [-93.2090154177, 43.3543867887]}, "type": "Feature", "properties": {"collection_times": [{"days": "Mon-Fri", "time": "3:45pm"}, {"days": "Sat", "time": "4:45pm"}, {"days": "Sun", "time": "Closed"}], "id": "5044800000", "name": "USPS COLLECTION BOX - BLUE BOX", "address": {"city": "KENSETT", "state": "IA", "street": "511 ELM ST", "postcode": "50448"}}},
{"geometry": {"type": "Point", "coordinates": [-93.2090154177, 43.3543867887]}, "type": "Feature", "properties": {"collection_times": [{"days": "Mon-Fri", "time": "10:45am"}, {"days": "Sat-Sun", "time": "Closed"}], "id": "5044800001", "name": "USPS COLLECTION BOX - PO LOBBY", "address": {"city": "KENSETT", "state": "IA", "street": "511 ELM ST", "postcode": "50448"}}},
{"geometry": {"type": "Point", "coordinates": [-93.603022331, 43.0069657357]}, "type": "Feature", "properties": {"collection_times": [{"days": "Mon-Fri", "time": "4:30pm"}, {"days": "Sat", "time": "4:15pm"}, {"days": "Sun", "time": "Closed"}], "id": "5044900000", "name": "USPS COLLECTION BOX - BLUE BOX", "address": {"city": "KLEMME", "state": "IA", "street": "115 E MAIN ST", "postcode": "50449"}}},
{"geometry": {"type": "Point", "coordinates": [-93.603022331, 43.0069657357]}, "type": "Feature", "properties": {"collection_times": [{"days": "Mon-Fri", "time": "3:45pm"}, {"days": "Sat-Sun", "time": "Closed"}], "id": "5044900001", "name": "USPS COLLECTION BOX - PO LOBBY", "address": {"city": "KLEMME", "state": "IA", "street": "115 E MAIN ST", "postcode": "50449"}}},
{"geometry": {"type": "Point", "coordinates": [-93.5337293457, 43.419308858]}, "type": "Feature", "properties": {"collection_times": [{"days": "Mon-Sat", "time": "10:00am"}, {"days": "Sun", "time": "Closed"}], "id": "5045000001", "name": "USPS COLLECTION BOX - BLUE BOX", "address": {"city": "LAKE MILLS", "state": "IA", "street": "201 W MAIN ST", "postcode": "50450"}}},
{"geometry": {"type": "Point", "coordinates": [-93.535051862, 43.420348065]}, "type": "Feature", "properties": {"collection_times": [{"days": "Mon-Fri", "time": "4:15pm"}, {"days": "Sat", "time": "4:00pm"}, {"days": "Sun", "time": "Closed"}], "id": "5045000002", "name": "USPS COLLECTION BOX - BLUE BOX", "address": {"city": "LAKE MILLS", "state": "IA", "street": "206 N MILL ST", "postcode": "50450"}}},
{"geometry": {"type": "Point", "coordinates": [-93.535051862, 43.420348065]}, "type": "Feature", "properties": {"collection_times": [{"days": "Mon-Fri", "time": "4:00pm"}, {"days": "Sat-Sun", "time": "Closed"}], "id": "5045000003", "name": "USPS COLLECTION BOX - PO LOBBY", "address": {"city": "LAKE MILLS", "state": "IA", "street": "206 N MILL ST", "postcode": "50450"}}},
{"geometry": {"type": "Point", "coordinates": [-94.0935792453, 43.3840807944]}, "type": "Feature", "properties": {"collection_times": [{"days": "Mon-Fri", "time": "3:45pm"}, {"days": "Sat", "time": "3:15pm"}, {"days": "Sun", "time": "Closed"}], "id": "5045100000", "name": "USPS COLLECTION BOX - BLUE BOX", "address": {"city": "LAKOTA", "state": "IA", "street": "223 3RD ST", "postcode": "50451"}}},
{"geometry": {"type": "Point", "coordinates": [-94.0935792453, 43.3840807944]}, "type": "Feature", "properties": {"collection_times": [{"days": "Mon-Fri", "time": "11:45am"}, {"days": "Sat-Sun", "time": "Closed"}], "id": "5045100001", "name": "USPS COLLECTION BOX - PO LOBBY", "address": {"city": "LAKOTA", "state": "IA", "street": "223 3RD ST", "postcode": "50451"}}},
{"geometry": {"type": "Point", "coordinates": [-93.3683513701, 42.7635203837]}, "type": "Feature", "properties": {"collection_times": [{"days": "Mon-Sat", "time": "4:00pm"}, {"days": "Sun", "time": "Closed"}], "id": "5045200000", "name": "USPS COLLECTION BOX - BLUE BOX", "address": {"city": "LATIMER", "state": "IA", "street": "102 N AKIR ST", "postcode": "50452"}}},
{"geometry": {"type": "Point", "coordinates": [-93.3683513701, 42.7635203837]}, "type": "Feature", "properties": {"collection_times": [{"days": "Mon-Fri", "time": "12:45pm"}, {"days": "Sat", "time": "10:00am"}, {"days": "Sun", "time": "Closed"}], "id": "5045200002", "name": "USPS COLLECTION BOX - PO LOBBY", "address": {"city": "LATIMER", "state": "IA", "street": "102 N AKIR ST", "postcode": "50452"}}},
{"geometry": {"type": "Point", "coordinates": [-93.6369117303, 43.3370516962]}, "type": "Feature", "properties": {"collection_times": [{"days": "Mon-Fri", "time": "4:00pm"}, {"days": "Sat", "time": "4:15pm"}, {"days": "Sun", "time": "Closed"}], "id": "5045300000", "name": "USPS COLLECTION BOX - BLUE BOX", "address": {"city": "LELAND", "state": "IA", "street": "212 W BROADWAY", "postcode": "50453"}}},
{"geometry": {"type": "Point", "coordinates": [-93.6369117303, 43.3370516962]}, "type": "Feature", "properties": {"collection_times": [{"days": "Mon-Fri", "time": "12:45pm"}, {"days": "Sat-Sun", "time": "Closed"}], "id": "5045300001", "name": "USPS COLLECTION BOX - PO LOBBY", "address": {"city": "LELAND", "state": "IA", "street": "212 W BROADWAY", "postcode": "50453"}}},
{"geometry": {"type": "Point", "coordinates": [-93.2029840813, 43.2869420341]}, "type": "Feature", "properties": {"collection_times": [{"days": "Mon-Fri", "time": "4:15pm"}, {"days": "Sat", "time": "4:45pm"}, {"days": "Sun", "time": "Closed"}], "id": "5045600000", "name": "USPS COLLECTION BOX - BLUE BOX", "address": {"city": "MANLY", "state": "IA", "street": "110 E MAIN ST", "postcode": "50456"}}},
{"geometry": {"type": "Point", "coordinates": [-93.2029840813, 43.2869420341]}, "type": "Feature", "properties": {"collection_times": [{"days": "Mon-Fri", "time": "2:45pm"}, {"days": "Sat-Sun", "time": "Closed"}], "id": "5045600001", "name": "USPS COLLECTION BOX - PO LOBBY", "address": {"city": "MANLY", "state": "IA", "street": "110 E MAIN ST", "postcode": "50456"}}},
{"geometry": {"type": "Point", "coordinates": [-93.4781056138, 42.914352104]}, "type": "Feature", "properties": {"collection_times": [{"days": "Mon-Sat", "time": "4:30pm"}, {"days": "Sun", "time": "Closed"}], "id": "5045700000", "name": "USPS COLLECTION BOX - BLUE BOX", "address": {"city": "MESERVEY", "state": "IA", "street": "421 1ST ST", "postcode": "50457"}}},
{"geometry": {"type": "Point", "coordinates": [-93.4781056138, 42.914352104]}, "type": "Feature", "properties": {"collection_times": [{"days": "Mon-Fri", "time": "4:45pm"}, {"days": "Sat", "time": "2:45pm"}, {"days": "Sun", "time": "Closed"}], "id": "5045700001", "name": "USPS COLLECTION BOX - PO LOBBY", "address": {"city": "MESERVEY", "state": "IA", "street": "421 1ST ST", "postcode": "50457"}}},
{"geometry": {"type": "Point", "coordinates": [-93.0055206436, 43.1425452255]}, "type": "Feature", "properties": {"collection_times": [{"days": "Mon-Fri", "time": "4:00pm"}, {"days": "Sat", "time": "5:00pm"}, {"days": "Sun", "time": "Closed"}], "id": "5045800000", "name": "USPS COLLECTION BOX - BLUE BOX", "address": {"city": "NORA SPRINGS", "state": "IA", "street": "19 S HAWKEYE AVE", "postcode": "50458"}}},
{"geometry": {"type": "Point", "coordinates": [-93.0055206436, 43.1425452255]}, "type": "Feature", "properties": {"collection_times": [{"days": "Mon-Fri", "time": "2:15pm"}, {"days": "Sat", "time": "9:15am"}, {"days": "Sun", "time": "Closed"}], "id": "5045800001", "name": "USPS COLLECTION BOX - PO LOBBY", "address": {"city": "NORA SPRINGS", "state": "IA", "street": "19 S HAWKEYE AVE", "postcode": "50458"}}},
{"geometry": {"type": "Point", "coordinates": [-93.2183017857, 43.4441172717]}, "type": "Feature", "properties": {"collection_times": [{"days": "Mon-Fri", "time": "1:00pm"}, {"days": "Sat-Sun", "time": "Closed"}], "id": "5045900000", "name": "USPS COLLECTION BOX - BLUE BOX", "address": {"city": "NORTHWOOD", "state": "IA", "street": "1000 CENTRAL AVE", "postcode": "50459"}}},
{"geometry": {"type": "Point", "coordinates": [-93.2207766365, 43.4432201902]}, "type": "Feature", "properties": {"collection_times": [{"days": "Mon-Sat", "time": "4:00pm"}, {"days": "Sun", "time": "Closed"}], "id": "5045900002", "name": "USPS COLLECTION BOX - BLUE BOX", "address": {"city": "NORTHWOOD", "state": "IA", "street": "806 1ST AVE S", "postcode": "50459"}}},
{"geometry": {"type": "Point", "coordinates": [-93.2207766365, 43.4432201902]}, "type": "Feature", "properties": {"collection_times": [{"days": "Mon-Sat", "time": "4:00pm"}, {"days": "Sun", "time": "Closed"}], "id": "5045900003", "name": "USPS COLLECTION BOX - BLUE BOX", "address": {"city": "NORTHWOOD", "state": "IA", "street": "806 1ST AVE S", "postcode": "50459"}}},
{"geometry": {"type": "Point", "coordinates": [-93.2207766365, 43.4432201902]}, "type": "Feature", "properties": {"collection_times": [{"days": "Mon-Fri", "time": "4:00pm"}, {"days": "Sat-Sun", "time": "Closed"}], "id": "5045900004", "name": "USPS COLLECTION BOX - PO LOBBY", "address": {"city": "NORTHWOOD", "state": "IA", "street": "806 1ST AVE S", "postcode": "50459"}}},
{"geometry": {"type": "Point", "coordinates": [-92.7732965929, 43.2275208854]}, "type": "Feature", "properties": {"collection_times": [{"days": "Mon-Sat", "time": "4:15pm"}, {"days": "Sun", "time": "Closed"}], "id": "5046000000", "name": "USPS COLLECTION BOX - BLUE BOX", "address": {"city": "ORCHARD", "state": "IA", "street": "315 MAIN ST", "postcode": "50460"}}},
{"geometry": {"type": "Point", "coordinates": [-92.7732965929, 43.2275208854]}, "type": "Feature", "properties": {"collection_times": [{"days": "Mon-Fri", "time": "1:15pm"}, {"days": "Sat", "time": "12:00pm"}, {"days": "Sun", "time": "Closed"}], "id": "5046000001", "name": "USPS COLLECTION BOX - PO LOBBY", "address": {"city": "ORCHARD", "state": "IA", "street": "315 MAIN ST", "postcode": "50460"}}},
{"geometry": {"type": "Point", "coordinates": [-92.8094848434, 43.2843274258]}, "type": "Feature", "properties": {"collection_times": [{"days": "Mon-Fri", "time": "4:15pm"}, {"days": "Sat", "time": "4:00pm"}, {"days": "Sun", "time": "Closed"}], "id": "5046100000", "name": "USPS COLLECTION BOX - PO LOBBY", "address": {"city": "OSAGE", "state": "IA", "street": "119 N 8TH ST", "postcode": "50461"}}},
{"geometry": {"type": "Point", "coordinates": [-92.8094848434, 43.2843274258]}, "type": "Feature", "properties": {"collection_times": [{"days": "Mon-Sat", "time": "4:00pm"}, {"days": "Sun", "time": "Closed"}], "id": "5046100001", "name": "USPS COLLECTION BOX - BLUE BOX", "address": {"city": "OSAGE", "state": "IA", "street": "119 N 8TH ST", "postcode": "50461"}}},
{"geometry": {"type": "Point", "coordinates": [-92.8094848434, 43.2843274258]}, "type": "Feature", "properties": {"collection_times": [{"days": "Mon-Sat", "time": "4:00pm"}, {"days": "Sun", "time": "Closed"}], "id": "5046100020", "name": "USPS COLLECTION BOX - BLUE BOX", "address": {"city": "OSAGE", "state": "IA", "street": "119 N 8TH ST", "postcode": "50461"}}},
{"geometry": {"type": "Point", "coordinates": [-93.1249372772, 43.2456088517]}, "type": "Feature", "properties": {"collection_times": [{"days": "Mon-Fri", "time": "4:30pm"}, {"days": "Sat", "time": "5:00pm"}, {"days": "Sun", "time": "Closed"}], "id": "5046400000", "name": "USPS COLLECTION BOX - BLUE BOX", "address": {"city": "PLYMOUTH", "state": "IA", "street": "502 MAIN ST", "postcode": "50464"}}},
{"geometry": {"type": "Point", "coordinates": [-93.1249372772, 43.2456088517]}, "type": "Feature", "properties": {"collection_times": [{"days": "Mon-Fri", "time": "11:45am"}, {"days": "Sat", "time": "9:00am"}, {"days": "Sun", "time": "Closed"}], "id": "5046400001", "name": "USPS COLLECTION BOX - PO LOBBY", "address": {"city": "PLYMOUTH", "state": "IA", "street": "502 MAIN ST", "postcode": "50464"}}},
{"geometry": {"type": "Point", "coordinates": [-93.4999706561, 42.0746980829]}, "type": "Feature", "properties": {"collection_times": [{"days": "Mon-Fri", "time": "3:30pm"}, {"days": "Sat", "time": "3:15pm"}, {"days": "Sun", "time": "Closed"}], "id": "5046500000", "name": "USPS COLLECTION BOX - BLUE BOX", "address": {"city": "RAKE", "state": "IA", "street": "121 N MAIN ST", "postcode": "50465"}}},
{"geometry": {"type": "Point", "coordinates": [-93.4999706561, 42.0746980829]}, "type": "Feature", "properties": {"collection_times": [{"days": "Mon-Fri", "time": "12:15pm"}, {"days": "Sat", "time": "10:00am"}, {"days": "Sun", "time": "Closed"}], "id": "5046500001", "name": "USPS COLLECTION BOX - PO LOBBY", "address": {"city": "RAKE", "state": "IA", "street": "121 N MAIN ST", "postcode": "50465"}}},
{"geometry": {"type": "Point", "coordinates": [-92.5561547121, 43.3637858909]}, "type": "Feature", "properties": {"collection_times": [{"days": "Mon-Sat", "time": "4:00pm"}, {"days": "Sun", "time": "Closed"}], "id": "5046600000", "name": "USPS COLLECTION BOX - BLUE BOX", "address": {"city": "RICEVILLE", "state": "IA", "street": "209 W MAIN ST", "postcode": "50466"}}},
{"geometry": {"type": "Point", "coordinates": [-92.5561547119, 43.363785891]}, "type": "Feature", "properties": {"collection_times": [{"days": "Mon-Fri", "time": "2:00pm"}, {"days": "Sat-Sun", "time": "Closed"}], "id": "5046600001", "name": "USPS COLLECTION BOX - PO LOBBY", "address": {"city": "RICEVILLE", "state": "IA", "street": "209 W MAIN ST", "postcode": "50466"}}},
{"geometry": {"type": "Point", "coordinates": [-92.9470465664, 43.0522630003]}, "type": "Feature", "properties": {"collection_times": [{"days": "Mon-Sat", "time": "4:15pm"}, {"days": "Sun", "time": "Closed"}], "id": "5046800000", "name": "USPS COLLECTION BOX - BLUE BOX", "address": {"city": "ROCKFORD", "state": "IA", "street": "104 W MAIN AVE", "postcode": "50468"}}},
{"geometry": {"type": "Point", "coordinates": [-92.9470465664, 43.0522630003]}, "type": "Feature", "properties": {"collection_times": [{"days": "Mon-Fri", "time": "2:45pm"}, {"days": "Sat", "time": "10:00am"}, {"days": "Sun", "time": "Closed"}], "id": "5046800001", "name": "USPS COLLECTION BOX - PO LOBBY", "address": {"city": "ROCKFORD", "state": "IA", "street": "104 W MAIN AVE", "postcode": "50468"}}},
{"geometry": {"type": "Point", "coordinates": [-93.1886281999, 42.9851664475]}, "type": "Feature", "properties": {"collection_times": [{"days": "Mon-Fri", "time": "4:00pm"}, {"days": "Sat", "time": "4:45pm"}, {"days": "Sun", "time": "Closed"}], "id": "5046900000", "name": "USPS COLLECTION BOX - BLUE BOX", "address": {"city": "ROCKWELL", "state": "IA", "street": "313 MAIN ST E", "postcode": "50469"}}},
{"geometry": {"type": "Point", "coordinates": [-93.1886281999, 42.9851664475]}, "type": "Feature", "properties": {"collection_times": [{"days": "Mon-Fri", "time": "2:45pm"}, {"days": "Sat", "time": "10:00am"}, {"days": "Sun", "time": "Closed"}], "id": "5046900001", "name": "USPS COLLECTION BOX - PO LOBBY", "address": {"city": "ROCKWELL", "state": "IA", "street": "313 MAIN ST E", "postcode": "50469"}}},
{"geometry": {"type": "Point", "coordinates": [-93.5481398515, 42.7407644108]}, "type": "Feature", "properties": {"collection_times": [{"days": "Mon-Fri", "time": "3:45pm"}, {"days": "Sat", "time": "3:00pm"}, {"days": "Sun", "time": "Closed"}], "id": "5047000000", "name": "USPS COLLECTION BOX - BLUE BOX", "address": {"city": "ROWAN", "state": "IA", "street": "118 MAIN ST", "postcode": "50470"}}},
{"geometry": {"type": "Point", "coordinates": [-93.5481398515, 42.7407644108]}, "type": "Feature", "properties": {"collection_times": [{"days": "Mon-Fri", "time": "11:30am"}, {"days": "Sat-Sun", "time": "Closed"}], "id": "5047000001", "name": "USPS COLLECTION BOX - PO LOBBY", "address": {"city": "ROWAN", "state": "IA", "street": "118 MAIN ST", "postcode": "50470"}}},
{"geometry": {"type": "Point", "coordinates": [-92.9051378334, 43.1282372294]}, "type": "Feature", "properties": {"collection_times": [{"days": "Mon-Sat", "time": "4:30pm"}, {"days": "Sun", "time": "Closed"}], "id": "5047100000", "name": "USPS COLLECTION BOX - BLUE BOX", "address": {"city": "RUDD", "state": "IA", "street": "514 CHICKSAW ST", "postcode": "50471"}}},
{"geometry": {"type": "Point", "coordinates": [-92.9051378334, 43.1282372294]}, "type": "Feature", "properties": {"collection_times": [{"days": "Mon-Fri", "time": "11:15am"}, {"days": "Sat", "time": "9:00am"}, {"days": "Sun", "time": "Closed"}], "id": "5047100001", "name": "USPS COLLECTION BOX - PO LOBBY", "address": {"city": "RUDD", "state": "IA", "street": "514 CHICKSAW ST", "postcode": "50471"}}},
{"geometry": {"type": "Point", "coordinates": [-92.9109255013, 43.3785388327]}, "type": "Feature", "properties": {"collection_times": [{"days": "Mon-Fri", "time": "3:45pm"}, {"days": "Sat", "time": "4:30pm"}, {"days": "Sun", "time": "Closed"}], "id": "5047200000", "name": "USPS COLLECTION BOX - BLUE BOX", "address": {"city": "SAINT ANSGAR", "state": "IA", "street": "704 E 4TH ST", "postcode": "50472"}}},
{"geometry": {"type": "Point", "coordinates": [-92.9109255013, 43.3785388327]}, "type": "Feature", "properties": {"collection_times": [{"days": "Mon-Fri", "time": "3:45pm"}, {"days": "Sat", "time": "10:30am"}, {"days": "Sun", "time": "Closed"}], "id": "5047200001", "name": "USPS COLLECTION BOX - PO LOBBY", "address": {"city": "SAINT ANSGAR", "state": "IA", "street": "704 E 4TH ST", "postcode": "50472"}}},
{"geometry": {"type": "Point", "coordinates": [-93.6171000946, 43.4724888436]}, "type": "Feature", "properties": {"collection_times": [{"days": "Mon-Fri", "time": "3:45pm"}, {"days": "Sat", "time": "3:30pm"}, {"days": "Sun", "time": "Closed"}], "id": "5047300000", "name": "USPS COLLECTION BOX - BLUE BOX", "address": {"city": "SCARVILLE", "state": "IA", "street": "403 MAIN ST", "postcode": "50473"}}},
{"geometry": {"type": "Point", "coordinates": [-93.6171000946, 43.4724888436]}, "type": "Feature", "properties": {"collection_times": [{"days": "Mon-Sat", "time": "2:45pm"}, {"days": "Sun", "time": "Closed"}], "id": "5047300001", "name": "USPS COLLECTION BOX - PO LOBBY", "address": {"city": "SCARVILLE", "state": "IA", "street": "403 MAIN ST", "postcode": "50473"}}},
{"geometry": {"type": "Point", "coordinates": [-93.2141854361, 42.8934954989]}, "type": "Feature", "properties": {"collection_times": [{"days": "Mon-Fri", "time": "4:00pm"}, {"days": "Sat", "time": "4:30pm"}, {"days": "Sun", "time": "Closed"}], "id": "5047500000", "name": "USPS COLLECTION BOX - BLUE BOX", "address": {"city": "SHEFFIELD", "state": "IA", "street": "121 N 2ND ST", "postcode": "50475"}}},
{"geometry": {"type": "Point", "coordinates": [-93.2141854361, 42.8934954989]}, "type": "Feature", "properties": {"collection_times": [{"days": "Mon-Fri", "time": "4:00pm"}, {"days": "Sat", "time": "10:00am"}, {"days": "Sun", "time": "Closed"}], "id": "5047500001", "name": "USPS COLLECTION BOX - PO LOBBY", "address": {"city": "SHEFFIELD", "state": "IA", "street": "121 N 2ND ST", "postcode": "50475"}}},
{"geometry": {"type": "Point", "coordinates": [-92.7823725092, 43.4362938009]}, "type": "Feature", "properties": {"collection_times": [{"days": "Mon-Sat", "time": "3:30pm"}, {"days": "Sun", "time": "Closed"}], "id": "5047600000", "name": "USPS COLLECTION BOX - BLUE BOX", "address": {"city": "STACYVILLE", "state": "IA", "street": "107 N BROAD ST", "postcode": "50476"}}},
{"geometry": {"type": "Point", "coordinates": [-92.7823725092, 43.4362938009]}, "type": "Feature", "properties": {"collection_times": [{"days": "Mon-Fri", "time": "12:45pm"}, {"days": "Sat-Sun", "time": "Closed"}], "id": "5047600001", "name": "USPS COLLECTION BOX - PO LOBBY", "address": {"city": "STACYVILLE", "state": "IA", "street": "107 N BROAD ST", "postcode": "50476"}}},
{"geometry": {"type": "Point", "coordinates": [-93.3149460451, 42.9783958961]}, "type": "Feature", "properties": {"collection_times": [{"days": "Mon-Fri", "time": "4:45pm"}, {"days": "Sat", "time": "5:00pm"}, {"days": "Sun", "time": "Closed"}], "id": "5047700000", "name": "USPS COLLECTION BOX - BLUE BOX", "address": {"city": "SWALEDALE", "state": "IA", "street": "202 5TH ST S", "postcode": "50477"}}},
{"geometry": {"type": "Point", "coordinates": [-93.3149460451, 42.9783958961]}, "type": "Feature", "properties": {"collection_times": [{"days": "Mon-Fri", "time": "12:45pm"}, {"days": "Sat-Sun", "time": "Closed"}], "id": "5047700001", "name": "USPS COLLECTION BOX - PO LOBBY", "address": {"city": "SWALEDALE", "state": "IA", "street": "202 5TH ST S", "postcode": "50477"}}},
{"geometry": {"type": "Point", "coordinates": [-93.7710880233, 43.3718017282]}, "type": "Feature", "properties": {"collection_times": [{"days": "Mon-Fri", "time": "4:00pm"}, {"days": "Sat", "time": "4:15pm"}, {"days": "Sun", "time": "Closed"}], "id": "5047800000", "name": "USPS COLLECTION BOX - BLUE BOX", "address": {"city": "THOMPSON", "state": "IA", "street": "132 N JACKSON ST", "postcode": "50478"}}},
{"geometry": {"type": "Point", "coordinates": [-93.7710880233, 43.3718017282]}, "type": "Feature", "properties": {"collection_times": [{"days": "Mon-Fri", "time": "11:45am"}, {"days": "Sat-Sun", "time": "Closed"}], "id": "5047800001", "name": "USPS COLLECTION BOX - PO LOBBY", "address": {"city": "THOMPSON", "state": "IA", "street": "132 N JACKSON ST", "postcode": "50478"}}},
{"geometry": {"type": "Point", "coordinates": [-93.3819315126, 42.9434447779]}, "type": "Feature", "properties": {"collection_times": [{"days": "Mon-Sat", "time": "4:30pm"}, {"days": "Sun", "time": "Closed"}], "id": "5047900000", "name": "USPS COLLECTION BOX - BLUE BOX", "address": {"city": "THORNTON", "state": "IA", "street": "313 MAIN ST", "postcode": "50479"}}},
{"geometry": {"type": "Point", "coordinates": [-93.3819315126, 42.9434447779]}, "type": "Feature", "properties": {"collection_times": [{"days": "Mon-Fri", "time": "10:45am"}, {"days": "Sat", "time": "10:15am"}, {"days": "Sun", "time": "Closed"}], "id": "5047900001", "name": "USPS COLLECTION BOX - PO LOBBY", "address": {"city": "THORNTON", "state": "IA", "street": "313 MAIN ST", "postcode": "50479"}}},
{"geometry": {"type": "Point", "coordinates": [-94.0413215133, 43.2375181266]}, "type": "Feature", "properties": {"collection_times": [{"days": "Mon-Sat", "time": "3:30pm"}, {"days": "Sun", "time": "Closed"}], "id": "5048000000", "name": "USPS COLLECTION BOX - BLUE BOX", "address": {"city": "TITONKA", "state": "IA", "street": "259 MAIN ST N", "postcode": "50480"}}},
{"geometry": {"type": "Point", "coordinates": [-94.0413215133, 43.2375181266]}, "type": "Feature", "properties": {"collection_times": [{"days": "Mon-Fri", "time": "12:45pm"}, {"days": "Sat", "time": "9:30am"}, {"days": "Sun", "time": "Closed"}], "id": "5048000001", "name": "USPS COLLECTION BOX - PO LOBBY", "address": {"city": "TITONKA", "state": "IA", "street": "259 MAIN ST N", "postcode": "50480"}}},
{"geometry": {"type": "Point", "coordinates": [-93.4789074958, 43.1276784801]}, "type": "Feature", "properties": {"collection_times": [{"days": "Mon-Fri", "time": "4:00pm"}, {"days": "Sat", "time": "5:15pm"}, {"days": "Sun", "time": "Closed"}], "id": "5048200000", "name": "USPS COLLECTION BOX - BLUE BOX", "address": {"city": "VENTURA", "state": "IA", "street": "101 N WEIMER ST", "postcode": "50482"}}},
{"geometry": {"type": "Point", "coordinates": [-93.4789074958, 43.1276784801]}, "type": "Feature", "properties": {"collection_times": [{"days": "Mon-Fri", "time": "2:15pm"}, {"days": "Sat-Sun", "time": "Closed"}], "id": "5048200001", "name": "USPS COLLECTION BOX - PO LOBBY", "address": {"city": "VENTURA", "state": "IA", "street": "101 N WEIMER ST", "postcode": "50482"}}},
{"geometry": {"type": "Point", "coordinates": [-93.9913036046, 43.0882008766]}, "type": "Feature", "properties": {"collection_times": [{"days": "Mon-Sat", "time": "4:15pm"}, {"days": "Sun", "time": "Closed"}], "id": "5048300001", "name": "USPS COLLECTION BOX - BLUE BOX", "address": {"city": "WESLEY", "state": "IA", "street": "105 MAIN ST W", "postcode": "50483"}}},
{"geometry": {"type": "Point", "coordinates": [-93.9913036046, 43.0882008766]}, "type": "Feature", "properties": {"collection_times": [{"days": "Mon-Fri", "time": "11:30am"}, {"days": "Sat", "time": "10:00am"}, {"days": "Sun", "time": "Closed"}], "id": "5048300002", "name": "USPS COLLECTION BOX - PO LOBBY", "address": {"city": "WESLEY", "state": "IA", "street": "105 MAIN ST W", "postcode": "50483"}}},
{"geometry": {"type": "Point", "coordinates": [-93.9099978756, 43.2325252065]}, "type": "Feature", "properties": {"collection_times": [{"days": "Mon-Sat", "time": "4:00pm"}, {"days": "Sun", "time": "Closed"}], "id": "5048400000", "name": "USPS COLLECTION BOX - BLUE BOX", "address": {"city": "WODEN", "state": "IA", "street": "222 MAIN", "postcode": "50484"}}},
{"geometry": {"type": "Point", "coordinates": [-93.9099978756, 43.2325252065]}, "type": "Feature", "properties": {"collection_times": [{"days": "Mon-Fri", "time": "11:45am"}, {"days": "Sat-Sun", "time": "Closed"}], "id": "5048400001", "name": "USPS COLLECTION BOX - PO LOBBY", "address": {"city": "WODEN", "state": "IA", "street": "222 MAIN", "postcode": "50484"}}}
]}
