{"type": "FeatureCollection", "features": [
{"geometry": {"type": "Point", "coordinates": [-94.182495475, 42.5073508095]}, "type": "Feature", "properties": {"collection_times": [{"days": "Mon-Fri", "time": "5:15pm"}, {"days": "Sat", "time": "3:00pm"}, {"days": "Sun", "time": "Closed"}], "id": "5050100000", "name": "USPS COLLECTION BOX - BLUE BOX", "address": {"city": "FORT DODGE", "state": "IA", "street": "1210 1ST AVE N", "postcode": "50501"}}},
{"geometry": {"type": "Point", "coordinates": [-94.1873980879, 42.5050288172]}, "type": "Feature", "properties": {"collection_times": [{"days": "Mon-Fri", "time": "5:00pm"}, {"days": "Sat", "time": "3:00pm"}, {"days": "Sun", "time": "Closed"}], "id": "5050100002", "name": "USPS COLLECTION BOX - BLUE BOX", "address": {"city": "FORT DODGE", "state": "IA", "street": "801 CENTRAL AVE", "postcode": "50501"}}},
{"geometry": {"type": "Point", "coordinates": [-94.1873980879, 42.5050288172]}, "type": "Feature", "properties": {"collection_times": [{"days": "Mon-Fri", "time": "5:00pm"}, {"days": "Sat", "time": "3:00pm"}, {"days": "Sun", "time": "Closed"}], "id": "5050100003", "name": "USPS COLLECTION BOX - BLUE BOX", "address": {"city": "FORT DODGE", "state": "IA", "street": "801 CENTRAL AVE", "postcode": "50501"}}},
{"geometry": {"type": "Point", "coordinates": [-94.196623622, 42.5097736062]}, "type": "Feature", "properties": {"collection_times": [{"days": "Mon-Sat", "time": "2:00pm"}, {"days": "Sun", "time": "Closed"}], "id": "5050100004", "name": "USPS COLLECTION BOX - BLUE BOX", "address": {"city": "FORT DODGE", "state": "IA", "street": "231 5TH AVE N", "postcode": "50501"}}},
{"geometry": {"type": "Point", "coordinates": [-94.1581906155, 42.5052529108]}, "type": "Feature", "properties": {"collection_times": [{"days": "Mon-Fri", "time": "4:30pm"}, {"days": "Sat", "time": "3:00pm"}, {"days": "Sun", "time": "Closed"}], "id": "5050100023", "name": "USPS COLLECTION BOX - BLUE BOX", "address": {"city": "FORT DODGE", "state": "IA", "street": "115 S 29TH ST", "postcode": "50501"}}},
{"geometry": {"type": "Point", "coordinates": [-94.200992075, 42.4865824175]}, "type": "Feature", "properties": {"collection_times": [{"days": "Mon-Fri", "time": "4:00pm"}, {"days": "Sat", "time": "3:00pm"}, {"days": "Sun", "time": "Closed"}], "id": "5050100026", "name": "USPS COLLECTION BOX - BLUE BOX", "address": {"city": "FORT DODGE", "state": "IA", "street": "420 KENYON RD", "postcode": "50501"}}},
{"geometry": {"type": "Point", "coordinates": [-94.1939072221, 42.5053086582]}, "type": "Feature", "properties": {"collection_times": [{"days": "Mon-Fri", "time": "5:15pm"}, {"days": "Sat", "time": "3:00pm"}, {"days": "Sun", "time": "Closed"}], "id": "5050100028", "name": "USPS COLLECTION BOX - BLUE BOX", "address": {"city": "FORT DODGE", "state": "IA", "street": "330 1ST AVE N", "postcode": "50501"}}},
{"geometry": {"type": "Point", "coordinates": [-94.1630290302, 42.5042893578]}, "type": "Feature", "properties": {"collection_times": [{"days": "Mon-Fri", "time": "5:00pm"}, {"days": "Sat", "time": "3:00pm"}, {"days": "Sun", "time": "Closed"}], "id": "5050100029", "name": "USPS COLLECTION BOX - BLUE BOX", "address": {"city": "FORT DODGE", "state": "IA", "street": "117 S 25TH ST", "postcode": "50501"}}},
{"geometry": {"type": "Point", "coordinates": [-94.1745169401, 42.5062815241]}, "type": "Feature", "properties": {"collection_times": [{"days": "Mon-Fri", "time": "5:00pm"}, {"days": "Sat", "time": "3:00pm"}, {"days": "Sun", "time": "Closed"}], "id": "5050100032", "name": "USPS COLLECTION BOX - BLUE BOX", "address": {"city": "FORT DODGE", "state": "IA", "street": "1728 CENTRAL AVE", "postcode": "50501"}}},
{"geometry": {"type": "Point", "coordinates": [-94.182509048, 42.5061011493]}, "type": "Feature", "properties": {"collection_times": [{"days": "Mon-Fri", "time": "5:15pm"}, {"days": "Sat", "time": "3:00pm"}, {"days": "Sun", "time": "Closed"}], "id": "5050100034", "name": "USPS COLLECTION BOX - BLUE BOX", "address": {"city": "FORT DODGE", "state": "IA", "street": "1207 CENTRAL AVE", "postcode": "50501"}}},
{"geometry": {"type": "Point", "coordinates": [-94.186883668, 42.504102798]}, "type": "Feature", "properties": {"collection_times": [{"days": "Mon-Fri", "time": "5:15pm"}, {"days": "Sat", "time": "3:00pm"}, {"days": "Sun", "time": "Closed"}], "id": "5050100037", "name": "USPS COLLECTION BOX - BLUE BOX", "address": {"city": "FORT DODGE", "state": "IA", "street": "819 1ST AVE S", "postcode": "50501"}}},
{"geometry": {"type": "Point", "coordinates": [-94.1879248169, 42.5039964007]}, "type": "Feature", "properties": {"collection_times": [{"days": "Mon-Fri", "time": "5:15pm"}, {"days": "Sat", "time": "3:00pm"}, {"days": "Sun", "time": "Closed"}], "id": "5050100039", "name": "USPS COLLECTION BOX - BLUE BOX", "address": {"city": "FORT DODGE", "state": "IA", "street": "702 1ST AVE S", "postcode": "50501"}}},
{"geometry": {"type": "Point", "coordinates": [-94.1902626263, 42.4920566448]}, "type": "Feature", "properties": {"collection_times": [{"days": "Mon-Fri", "time": "4:00pm"}, {"days": "Sat", "time": "3:00pm"}, {"days": "Sun", "time": "Closed"}], "id": "5050100040", "name": "USPS COLLECTION BOX - BLUE BOX", "address": {"city": "FORT DODGE", "state": "IA", "street": "804 KENYON RD", "postcode": "50501"}}},
{"geometry": {"type": "Point", "coordinates": [-94.1705905967, 42.5052854364]}, "type": "Feature", "properties": {"collection_times": [{"days": "Mon-Fri", "time": "5:00pm"}, {"days": "Sat", "time": "3:00pm"}, {"days": "Sun", "time": "Closed"}], "id": "5050100052", "name": "USPS COLLECTION BOX - BLUE BOX", "address": {"city": "FORT DODGE", "state": "IA", "street": "2012 1ST AVE S", "postcode": "50501"}}},
{"geometry": {"type": "Point", "coordinates": [-94.2198071953, 42.5154528625]}, "type": "Feature", "properties": {"collection_times": [{"days": "Mon-Sat", "time": "9:00am"}, {"days": "Sun", "time": "Closed"}], "id": "5050100054", "name": "USPS COLLECTION BOX - BLUE BOX", "address": {"city": "FORT DODGE", "state": "IA", "street": "1338 3RD AVE NW", "postcode": "50501"}}},
{"geometry": {"type": "Point", "coordinates": [-94.1902626263, 42.4920566448]}, "type": "Feature", "properties": {"collection_times": [{"days": "Mon-Fri", "time": "4:00pm"}, {"days": "Sat", "time": "3:00pm"}, {"days": "Sun", "time": "Closed"}], "id": "5050100056", "name": "USPS COLLECTION BOX - BLUE BOX", "address": {"city": "FORT DODGE", "state": "IA", "street": "804 KENYON RD", "postcode": "50501"}}},
{"geometry": {"type": "Point", "coordinates": [-94.1376034592, 42.4994718536]}, "type": "Feature", "properties": {"collection_times": [{"days": "Mon-Sat", "time": "6:00pm"}, {"days": "Sun", "time": "Closed"}], "id": "5050100067", "name": "USPS COLLECTION BOX - BLUE BOX", "address": {"city": "FORT DODGE", "state": "IA", "street": "3440 MAPLE DR", "postcode": "50501"}}},
{"geometry": {"type": "Point", "coordinates": [-94.1780604371, 42.5290778908]}, "type": "Feature", "properties": {"collection_times": [{"days": "Mon-Sat", "time": "9:00am"}, {"days": "Sun", "time": "Closed"}], "id": "5050100073", "name": "USPS COLLECTION BOX - BLUE BOX", "address": {"city": "FORT DODGE", "state": "IA", "street": "2320 N 15TH ST", "postcode": "50501"}}},
{"geometry": {"type": "Point", "coordinates": [-94.1911945613, 42.4925205663]}, "type": "Feature", "properties": {"collection_times": [{"days": "Mon-Fri", "time": "4:30pm"}, {"days": "Sat", "time": "3:00pm"}, {"days": "Sun", "time": "Closed"}], "id": "5050100074", "name": "USPS COLLECTION BOX - BLUE BOX", "address": {"city": "FORT DODGE", "state": "IA", "street": "3036 1ST AVE S", "postcode": "50501"}}},
{"geometry": {"type": "Point", "coordinates": [-94.1898989857, 42.5047006036]}, "type": "Feature", "properties": {"collection_times": [{"days": "Mon-Fri", "time": "5:00pm"}, {"days": "Sat", "time": "3:00pm"}, {"days": "Sun", "time": "Closed"}], "id": "5050100077", "name": "USPS COLLECTION BOX - BLUE BOX", "address": {"city": "FORT DODGE", "state": "IA", "street": "605 CENTRAL AVE", "postcode": "50501"}}},
{"geometry": {"type": "Point", "coordinates": [-94.1789991157, 42.5051634132]}, "type": "Feature", "properties": {"collection_times": [{"days": "Mon-Sat", "time": "6:00pm"}, {"days": "Sun", "time": "Closed"}], "id": "5050100081", "name": "USPS COLLECTION BOX - PO LOBBY", "address": {"city": "FORT DODGE", "state": "IA", "street": "3440 MAPLE DR", "postcode": "50501"}}},
{"geometry": {"type": "Point", "coordinates": [-94.9509285495, 42.7816127301]}, "type": "Feature", "properties": {"collection_times": [{"days": "Mon-Sat", "time": "3:45pm"}, {"days": "Sun", "time": "Closed"}], "id": "5051000000", "name": "USPS COLLECTION BOX - BLUE BOX", "address": {"city": "ALBERT CITY", "state": "IA", "street": "114 MAIN ST", "postcode": "50510"}}},
{"geometry": {"type": "Point", "coordinates": [-94.9509285495, 42.7816127301]}, "type": "Feature", "properties": {"collection_times": [{"days": "Mon-Fri", "time": "3:30pm"}, {"days": "Sat-Sun", "time": "Closed"}], "id": "5051000001", "name": "USPS COLLECTION BOX - PO LOBBY", "address": {"city": "ALBERT CITY", "state": "IA", "street": "114 MAIN ST", "postcode": "50510"}}},
{"geometry": {"type": "Point", "coordinates": [-94.2358526303, 43.0807171768]}, "type": "Feature", "properties": {"collection_times": [{"days": "Mon-Sat", "time": "10:00am"}, {"days": "Sun", "time": "Closed"}], "id": "5051100006", "name": "USPS COLLECTION BOX - BLUE BOX", "address": {"city": "ALGONA", "state": "IA", "street": "1506 HIGHWAY 169 N", "postcode": "50511"}}},
{"geometry": {"type": "Point", "coordinates": [-94.235444684, 43.0688279366]}, "type": "Feature", "properties": {"collection_times": [{"days": "Mon-Fri", "time": "4:00pm"}, {"days": "Sat", "time": "9:00am"}, {"days": "Sun", "time": "Closed"}], "id": "5051100008", "name": "USPS COLLECTION BOX - BLUE BOX", "address": {"city": "ALGONA", "state": "IA", "street": "201 E STATE ST", "postcode": "50511"}}},
{"geometry": {"type": "Point", "coordinates": [-94.2379110342, 43.0688233442]}, "type": "Feature", "properties": {"collection_times": [{"days": "Mon-Fri", "time": "4:00pm"}, {"days": "Sat", "time": "9:00am"}, {"days": "Sun", "time": "Closed"}], "id": "5051100009", "name": "USPS COLLECTION BOX - BLUE BOX", "address": {"city": "ALGONA", "state": "IA", "street": "1 E STATE ST", "postcode": "50511"}}},
{"geometry": {"type": "Point", "coordinates": [-94.2382206895, 43.0689341114]}, "type": "Feature", "properties": {"collection_times": [{"days": "Mon-Fri", "time": "4:00pm"}, {"days": "Sat", "time": "9:00am"}, {"days": "Sun", "time": "Closed"}], "id": "5051100010", "name": "USPS COLLECTION BOX - BLUE BOX", "address": {"city": "ALGONA", "state": "IA", "street": "120 W STATE ST", "postcode": "50511"}}},
{"geometry": {"type": "Point", "coordinates": [-94.2367786897, 43.0701026195]}, "type": "Feature", "properties": {"collection_times": [{"days": "Mon-Fri", "time": "4:00pm"}, {"days": "Sat", "time": "9:00am"}, {"days": "Sun", "time": "Closed"}], "id": "5051100011", "name": "USPS COLLECTION BOX - BLUE BOX", "address": {"city": "ALGONA", "state": "IA", "street": "121 N DODGE ST", "postcode": "50511"}}},
{"geometry": {"type": "Point", "coordinates": [-94.2317131097, 43.0690396014]}, "type": "Feature", "properties": {"collection_times": [{"days": "Mon-Fri", "time": "5:00pm"}, {"days": "Sat", "time": "4:00pm"}, {"days": "Sun", "time": "Closed"}], "id": "5051100012", "name": "USPS COLLECTION BOX - BLUE BOX", "address": {"city": "ALGONA", "state": "IA", "street": "112 N MINNESOTA ST", "postcode": "50511"}}},
{"geometry": {"type": "Point", "coordinates": [-94.2317131097, 43.0690396014]}, "type": "Feature", "properties": {"collection_times": [{"days": "Mon-Fri", "time": "5:00pm"}, {"days": "Sat", "time": "4:00pm"}, {"days": "Sun", "time": "Closed"}], "id": "5051100013", "name": "USPS COLLECTION BOX - PO LOBBY", "address": {"city": "ALGONA", "state": "IA", "street": "112 N MINNESOTA ST", "postcode": "50511"}}},
{"geometry": {"type": "Point", "coordinates": [-94.2317131097, 43.0690396014]}, "type": "Feature", "properties": {"collection_times": [{"days": "Mon-Fri", "time": "5:00pm"}, {"days": "Sat", "time": "4:00pm"}, {"days": "Sun", "time": "Closed"}], "id": "5051100014", "name": "USPS COLLECTION BOX - BLUE BOX", "address": {"city": "ALGONA", "state": "IA", "street": "112 N MINNESOTA ST", "postcode": "50511"}}},
{"geometry": {"type": "Point", "coordinates": [-94.2317131097, 43.0690396014]}, "type": "Feature", "properties": {"collection_times": [{"days": "Mon-Fri", "time": "5:00pm"}, {"days": "Sat", "time": "4:00pm"}, {"days": "Sun", "time": "Closed"}], "id": "5051100015", "name": "USPS COLLECTION BOX - BLUE BOX", "address": {"city": "ALGONA", "state": "IA", "street": "112 N MINNESOTA ST", "postcode": "50511"}}},
{"geometry": {"type": "Point", "coordinates": [-94.2317131097, 43.0690396014]}, "type": "Feature", "properties": {"collection_times": [{"days": "Mon-Fri", "time": "5:00pm"}, {"days": "Sat", "time": "4:00pm"}, {"days": "Sun", "time": "Closed"}], "id": "5051100016", "name": "USPS COLLECTION BOX - BLUE BOX", "address": {"city": "ALGONA", "state": "IA", "street": "112 N MINNESOTA ST", "postcode": "50511"}}},
{"geometry": {"type": "Point", "coordinates": [-94.4800980606, 43.395365979]}, "type": "Feature", "properties": {"collection_times": [{"days": "Mon-Sat", "time": "4:00pm"}, {"days": "Sun", "time": "Closed"}], "id": "5051400000", "name": "USPS COLLECTION BOX - BLUE BOX", "address": {"city": "ARMSTRONG", "state": "IA", "street": "608 1ST AVE", "postcode": "50514"}}},
{"geometry": {"type": "Point", "coordinates": [-94.4800980606, 43.395365979]}, "type": "Feature", "properties": {"collection_times": [{"days": "Mon-Fri", "time": "3:45pm"}, {"days": "Sat-Sun", "time": "Closed"}], "id": "5051400002", "name": "USPS COLLECTION BOX - PO LOBBY", "address": {"city": "ARMSTRONG", "state": "IA", "street": "608 1ST AVE", "postcode": "50514"}}},
{"geometry": {"type": "Point", "coordinates": [-94.8560987031, 43.0310003239]}, "type": "Feature", "properties": {"collection_times": [{"days": "Mon-Fri", "time": "3:30pm"}, {"days": "Sat", "time": "3:45pm"}, {"days": "Sun", "time": "Closed"}], "id": "5051500000", "name": "USPS COLLECTION BOX - BLUE BOX", "address": {"city": "AYRSHIRE", "state": "IA", "street": "1303 CAMPBELL ST", "postcode": "50515"}}},
{"geometry": {"type": "Point", "coordinates": [-94.8329278771, 43.0390122672]}, "type": "Feature", "properties": {"collection_times": [{"days": "Mon-Fri", "time": "2:45pm"}, {"days": "Sat", "time": "1:15pm"}, {"days": "Sun", "time": "Closed"}], "id": "5051500001", "name": "USPS COLLECTION BOX - PO LOBBY", "address": {"city": "AYRSHIRE", "state": "IA", "street": "1303 CAMPBELL ST", "postcode": "50515"}}},
{"geometry": {"type": "Point", "coordinates": [-94.1456887072, 42.6149376299]}, "type": "Feature", "properties": {"collection_times": [{"days": "Mon-Sat", "time": "4:15pm"}, {"days": "Sun", "time": "Closed"}], "id": "5051600000", "name": "USPS COLLECTION BOX - BLUE BOX", "address": {"city": "BADGER", "state": "IA", "street": "130 1ST AVE SE", "postcode": "50516"}}},
{"geometry": {"type": "Point", "coordinates": [-94.1483365489, 42.6145851196]}, "type": "Feature", "properties": {"collection_times": [{"days": "Mon-Fri", "time": "3:45pm"}, {"days": "Sat", "time": "11:45am"}, {"days": "Sun", "time": "Closed"}], "id": "5051600001", "name": "USPS COLLECTION BOX - PO LOBBY", "address": {"city": "BADGER", "state": "IA", "street": "130 1ST AVE SE", "postcode": "50516"}}},
{"geometry": {"type": "Point", "coordinates": [-94.2236922832, 43.2930289282]}, "type": "Feature", "properties": {"collection_times": [{"days": "Mon-Sat", "time": "3:45pm"}, {"days": "Sun", "time": "Closed"}], "id": "5051700001", "name": "USPS COLLECTION BOX - BLUE BOX", "address": {"city": "BANCROFT", "state": "IA", "street": "200 W RAMSEY ST", "postcode": "50517"}}},
{"geometry": {"type": "Point", "coordinates": [-94.2236922832, 43.2930289282]}, "type": "Feature", "properties": {"collection_times": [{"days": "Mon-Fri", "time": "3:45pm"}, {"days": "Sat-Sun", "time": "Closed"}], "id": "5051700002", "name": "USPS COLLECTION BOX - PO LOBBY", "address": {"city": "BANCROFT", "state": "IA", "street": "200 W RAMSEY ST", "postcode": "50517"}}},
{"geometry": {"type": "Point", "coordinates": [-94.3649876934, 42.508992264]}, "type": "Feature", "properties": {"collection_times": [{"days": "Mon-Fri", "time": "4:00pm"}, {"days": "Sat", "time": "5:30pm"}, {"days": "Sun", "time": "Closed"}], "id": "5051800000", "name": "USPS COLLECTION BOX - BLUE BOX", "address": {"city": "BARNUM", "state": "IA", "street": "404 FRONT ST", "postcode": "50518"}}},
{"geometry": {"type": "Point", "coordinates": [-94.3649876934, 42.508992264]}, "type": "Feature", "properties": {"collection_times": [{"days": "Mon-Fri", "time": "11:15am"}, {"days": "Sat-Sun", "time": "Closed"}], "id": "5051800001", "name": "USPS COLLECTION BOX - PO LOBBY", "address": {"city": "BARNUM", "state": "IA", "street": "404 FRONT ST", "postcode": "50518"}}},
{"geometry": {"type": "Point", "coordinates": [-94.2874356603, 42.8685850536]}, "type": "Feature", "properties": {"collection_times": [{"days": "Mon-Fri", "time": "4:00pm"}, {"days": "Sat", "time": "3:00pm"}, {"days": "Sun", "time": "Closed"}], "id": "5051900000", "name": "USPS COLLECTION BOX - BLUE BOX", "address": {"city": "BODE", "state": "IA", "street": "113 HUMBOLDT AVE", "postcode": "50519"}}},
{"geometry": {"type": "Point", "coordinates": [-94.2874356603, 42.8685850536]}, "type": "Feature", "properties": {"collection_times": [{"days": "Mon-Fri", "time": "11:15am"}, {"days": "Sat-Sun", "time": "Closed"}], "id": "5051900001", "name": "USPS COLLECTION BOX - PO LOBBY", "address": {"city": "BODE", "state": "IA", "street": "113 HUMBOLDT AVE", "postcode": "50519"}}},
{"geometry": {"type": "Point", "coordinates": [-94.3964695799, 42.7809399239]}, "type": "Feature", "properties": {"collection_times": [{"days": "Mon-Sat", "time": "11:15am"}, {"days": "Sun", "time": "Closed"}], "id": "5052000000", "name": "USPS COLLECTION BOX - BLUE BOX", "address": {"city": "BRADGATE", "state": "IA", "street": "200 S GARFIELD ST", "postcode": "50520"}}},
{"geometry": {"type": "Point", "coordinates": [-94.3964695799, 42.7809399239]}, "type": "Feature", "properties": {"collection_times": [{"days": "Mon-Sat", "time": "11:15am"}, {"days": "Sun", "time": "Closed"}], "id": "5052000001", "name": "USPS COLLECTION BOX - PO LOBBY", "address": {"city": "BRADGATE", "state": "IA", "street": "200 S GARFIELD ST", "postcode": "50520"}}},
{"geometry": {"type": "Point", "coordinates": [-94.1066418847, 42.3459895706]}, "type": "Feature", "properties": {"collection_times": [{"days": "Mon-Fri", "time": "3:00pm"}, {"days": "Sat", "time": "4:00pm"}, {"days": "Sun", "time": "Closed"}], "id": "5052100000", "name": "USPS COLLECTION BOX - BLUE BOX", "address": {"city": "BURNSIDE", "state": "IA", "street": "30594 249TH AVE", "postcode": "50521"}}},
{"geometry": {"type": "Point", "coordinates": [-94.1066418847, 42.3459895706]}, "type": "Feature", "properties": {"collection_times": [{"days": "Mon-Fri", "time": "2:45pm"}, {"days": "Sat", "time": "12:30pm"}, {"days": "Sun", "time": "Closed"}], "id": "5052100001", "name": "USPS COLLECTION BOX - PO LOBBY", "address": {"city": "BURNSIDE", "state": "IA", "street": "30594 249TH AVE", "postcode": "50521"}}},
{"geometry": {"type": "Point", "coordinates": [-94.218411241, 43.1975149878]}, "type": "Feature", "properties": {"collection_times": [{"days": "Mon-Fri", "time": "4:15pm"}, {"days": "Sat", "time": "4:00pm"}, {"days": "Sun", "time": "Closed"}], "id": "5052200000", "name": "USPS COLLECTION BOX - BLUE BOX", "address": {"city": "BURT", "state": "IA", "street": "117 WALNUT ST", "postcode": "50522"}}},
{"geometry": {"type": "Point", "coordinates": [-94.218411241, 43.1975149878]}, "type": "Feature", "properties": {"collection_times": [{"days": "Mon-Fri", "time": "11:15am"}, {"days": "Sat-Sun", "time": "Closed"}], "id": "5052200001", "name": "USPS COLLECTION BOX - PO LOBBY", "address": {"city": "BURT", "state": "IA", "street": "117 WALNUT ST", "postcode": "50522"}}},
{"geometry": {"type": "Point", "coordinates": [-94.2928517007, 42.3618813877]}, "type": "Feature", "properties": {"collection_times": [{"days": "Mon-Fri", "time": "3:45pm"}, {"days": "Sat", "time": "4:45pm"}, {"days": "Sun", "time": "Closed"}], "id": "5052300000", "name": "USPS COLLECTION BOX - BLUE BOX", "address": {"city": "CALLENDER", "state": "IA", "street": "706 AGNES ST", "postcode": "50523"}}},
{"geometry": {"type": "Point", "coordinates": [-94.2928517007, 42.3618813877]}, "type": "Feature", "properties": {"collection_times": [{"days": "Mon-Fri", "time": "3:45pm"}, {"days": "Sat-Sun", "time": "Closed"}], "id": "5052300001", "name": "USPS COLLECTION BOX - PO LOBBY", "address": {"city": "CALLENDER", "state": "IA", "street": "706 AGNES ST", "postcode": "50523"}}},
{"geometry": {"type": "Point", "coordinates": [-94.3455378169, 42.5875595909]}, "type": "Feature", "properties": {"collection_times": [{"days": "Mon-Fri", "time": "3:45pm"}, {"days": "Sat", "time": "5:15pm"}, {"days": "Sun", "time": "Closed"}], "id": "5052400000", "name": "USPS COLLECTION BOX - BLUE BOX", "address": {"city": "CLARE", "state": "IA", "street": "200 W FRONT ST", "postcode": "50524"}}},
{"geometry": {"type": "Point", "coordinates": [-94.3455378169, 42.5875595909]}, "type": "Feature", "properties": {"collection_times": [{"days": "Mon-Fri", "time": "3:45pm"}, {"days": "Sat", "time": "8:45am"}, {"days": "Sun", "time": "Closed"}], "id": "5052400001", "name": "USPS COLLECTION BOX - PO LOBBY", "address": {"city": "CLARE", "state": "IA", "street": "200 W FRONT ST", "postcode": "50524"}}},
{"geometry": {"type": "Point", "coordinates": [-93.7315186294, 42.7318516899]}, "type": "Feature", "properties": {"collection_times": [{"days": "Mon-Fri", "time": "4:15pm"}, {"days": "Sat", "time": "3:00pm"}, {"days": "Sun", "time": "Closed"}], "id": "5052500000", "name": "USPS COLLECTION BOX - BLUE BOX", "address": {"city": "CLARION", "state": "IA", "street": "115 1ST ST NE", "postcode": "50525"}}},
{"geometry": {"type": "Point", "coordinates": [-93.7357458368, 42.7317000702]}, "type": "Feature", "properties": {"collection_times": [{"days": "Mon-Sat", "time": "2:00pm"}, {"days": "Sun", "time": "Closed"}], "id": "5052500002", "name": "USPS COLLECTION BOX - BLUE BOX", "address": {"city": "CLARION", "state": "IA", "street": "325 CENTRAL AVE W", "postcode": "50525"}}},
{"geometry": {"type": "Point", "coordinates": [-93.7315186294, 42.7318516899]}, "type": "Feature", "properties": {"collection_times": [{"days": "Mon-Fri", "time": "4:15pm"}, {"days": "Sat", "time": "3:00pm"}, {"days": "Sun", "time": "Closed"}], "id": "5052500006", "name": "USPS COLLECTION BOX - BLUE BOX", "address": {"city": "CLARION", "state": "IA", "street": "115 1ST ST NE", "postcode": "50525"}}},
{"geometry": {"type": "Point", "coordinates": [-93.7315186294, 42.7318516899]}, "type": "Feature", "properties": {"collection_times": [{"days": "Mon-Fri", "time": "4:45pm"}, {"days": "Sat", "time": "11:00am"}, {"days": "Sun", "time": "Closed"}], "id": "5052500007", "name": "USPS COLLECTION BOX - PO LOBBY", "address": {"city": "CLARION", "state": "IA", "street": "115 1ST ST NE", "postcode": "50525"}}},
{"geometry": {"type": "Point", "coordinates": [-93.7315186294, 42.7318516899]}, "type": "Feature", "properties": {"collection_times": [{"days": "Mon-Fri", "time": "4:15pm"}, {"days": "Sat-Sun", "time": "Closed"}], "id": "5052500008", "name": "USPS COLLECTION BOX - BLUE BOX", "address": {"city": "CLARION", "state": "IA", "street": "115 1ST ST NE", "postcode": "50525"}}},
{"geometry": {"type": "Point", "coordinates": [-94.7377981068, 42.979095991]}, "type": "Feature", "properties": {"collection_times": [{"days": "Mon-Sat", "time": "4:00pm"}, {"days": "Sun", "time": "Closed"}], "id": "5052700000", "name": "USPS COLLECTION BOX - BLUE BOX", "address": {"city": "CURLEW", "state": "IA", "street": "210 MAIN ST", "postcode": "50527"}}},
{"geometry": {"type": "Point", "coordinates": [-94.7377981068, 42.979095991]}, "type": "Feature", "properties": {"collection_times": [{"days": "Mon-Fri", "time": "2:45pm"}, {"days": "Sat-Sun", "time": "Closed"}], "id": "5052700001", "name": "USPS COLLECTION BOX - PO LOBBY", "address": {"city": "CURLEW", "state": "IA", "street": "210 MAIN ST", "postcode": "50527"}}},
{"geometry": {"type": "Point", "coordinates": [-94.5510045818, 43.0899248538]}, "type": "Feature", "properties": {"collection_times": [{"days": "Mon-Sat", "time": "4:15pm"}, {"days": "Sun", "time": "Closed"}], "id": "5052800000", "name": "USPS COLLECTION BOX - BLUE BOX", "address": {"city": "CYLINDER", "state": "IA", "street": "229 MAIN ST", "postcode": "50528"}}},
{"geometry": {"type": "Point", "coordinates": [-94.2024149225, 42.7214246737]}, "type": "Feature", "properties": {"collection_times": [{"days": "Mon-Fri", "time": "4:15pm"}, {"days": "Sat", "time": "4:00pm"}, {"days": "Sun", "time": "Closed"}], "id": "5052900000", "name": "USPS COLLECTION BOX - BLUE BOX", "address": {"city": "DAKOTA CITY", "state": "IA", "street": "408 MAIN ST", "postcode": "50529"}}},
{"geometry": {"type": "Point", "coordinates": [-94.2024149225, 42.7214246737]}, "type": "Feature", "properties": {"collection_times": [{"days": "Mon-Fri", "time": "1:45pm"}, {"days": "Sat", "time": "11:30am"}, {"days": "Sun", "time": "Closed"}], "id": "5052900001", "name": "USPS COLLECTION BOX - PO LOBBY", "address": {"city": "DAKOTA CITY", "state": "IA", "street": "408 MAIN ST", "postcode": "50529"}}},
{"geometry": {"type": "Point", "coordinates": [-94.0696408919, 42.2619005055]}, "type": "Feature", "properties": {"collection_times": [{"days": "Mon-Sat", "time": "4:00pm"}, {"days": "Sun", "time": "Closed"}], "id": "5053000000", "name": "USPS COLLECTION BOX - BLUE BOX", "address": {"city": "DAYTON", "state": "IA", "street": "24 1ST ST NW", "postcode": "50530"}}},
{"geometry": {"type": "Point", "coordinates": [-94.0696408919, 42.2619005055]}, "type": "Feature", "properties": {"collection_times": [{"days": "Mon-Fri", "time": "3:45pm"}, {"days": "Sat-Sun", "time": "Closed"}], "id": "5053000001", "name": "USPS COLLECTION BOX - PO LOBBY", "address": {"city": "DAYTON", "state": "IA", "street": "24 1ST ST NW", "postcode": "50530"}}},
{"geometry": {"type": "Point", "coordinates": [-94.6126094884, 43.4654036239]}, "type": "Feature", "properties": {"collection_times": [{"days": "Mon-Sat", "time": "12:15pm"}, {"days": "Sun", "time": "Closed"}], "id": "5053100000", "name": "USPS COLLECTION BOX - BLUE BOX", "address": {"city": "DOLLIVER", "state": "IA", "street": "5088 MAIN ST", "postcode": "50531"}}},
{"geometry": {"type": "Point", "coordinates": [-94.6126094884, 43.4654036239]}, "type": "Feature", "properties": {"collection_times": [{"days": "Mon-Fri", "time": "12:15pm"}, {"days": "Sat-Sun", "time": "Closed"}], "id": "5053100001", "name": "USPS COLLECTION BOX - PO LOBBY", "address": {"city": "DOLLIVER", "state": "IA", "street": "5088 MAIN ST", "postcode": "50531"}}},
{"geometry": {"type": "Point", "coordinates": [-93.993502782, 42.4711830291]}, "type": "Feature", "properties": {"collection_times": [{"days": "Mon-Fri", "time": "4:15pm"}, {"days": "Sat", "time": "5:15pm"}, {"days": "Sun", "time": "Closed"}], "id": "5053200000", "name": "USPS COLLECTION BOX - BLUE BOX", "address": {"city": "DUNCOMBE", "state": "IA", "street": "414 MAIN ST", "postcode": "50532"}}},
{"geometry": {"type": "Point", "coordinates": [-93.993502782, 42.4711830291]}, "type": "Feature", "properties": {"collection_times": [{"days": "Mon-Fri", "time": "10:45am"}, {"days": "Sat-Sun", "time": "Closed"}], "id": "5053200001", "name": "USPS COLLECTION BOX - PO LOBBY", "address": {"city": "DUNCOMBE", "state": "IA", "street": "414 MAIN ST", "postcode": "50532"}}},
{"geometry": {"type": "Point", "coordinates": [-93.9059684031, 42.6632591342]}, "type": "Feature", "properties": {"collection_times": [{"days": "Mon-Sat", "time": "4:30pm"}, {"days": "Sun", "time": "Closed"}], "id": "5053300000", "name": "USPS COLLECTION BOX - BLUE BOX", "address": {"city": "EAGLE GROVE", "state": "IA", "street": "119 S IOWA AVE", "postcode": "50533"}}},
{"geometry": {"type": "Point", "coordinates": [-93.9060267496, 42.6638650464]}, "type": "Feature", "properties": {"collection_times": [{"days": "Mon-Fri", "time": "4:30pm"}, {"days": "Sat", "time": "11:00am"}, {"days": "Sun", "time": "Closed"}], "id": "5053300005", "name": "USPS COLLECTION BOX - PO LOBBY", "address": {"city": "EAGLE GROVE", "state": "IA", "street": "119 S IOWA AVE", "postcode": "50533"}}},
{"geometry": {"type": "Point", "coordinates": [-95.1523137568, 42.460663172]}, "type": "Feature", "properties": {"collection_times": [{"days": "Mon-Fri", "time": "4:00pm"}, {"days": "Sat", "time": "3:00pm"}, {"days": "Sun", "time": "Closed"}], "id": "5053500000", "name": "USPS COLLECTION BOX - BLUE BOX", "address": {"city": "EARLY", "state": "IA", "street": "114 N MAIN ST", "postcode": "50535"}}},
{"geometry": {"type": "Point", "coordinates": [-95.1523137568, 42.460663172]}, "type": "Feature", "properties": {"collection_times": [{"days": "Mon-Fri", "time": "1:45pm"}, {"days": "Sat-Sun", "time": "Closed"}], "id": "5053500001", "name": "USPS COLLECTION BOX - PO LOBBY", "address": {"city": "EARLY", "state": "IA", "street": "114 N MAIN ST", "postcode": "50535"}}},
{"geometry": {"type": "Point", "coordinates": [-94.678909074, 43.1111000738]}, "type": "Feature", "properties": {"collection_times": [{"days": "Mon-Sat", "time": "4:00pm"}, {"days": "Sun", "time": "Closed"}], "id": "5053600001", "name": "USPS COLLECTION BOX - BLUE BOX", "address": {"city": "EMMETSBURG", "state": "IA", "street": "2210 10TH ST", "postcode": "50536"}}},
{"geometry": {"type": "Point", "coordinates": [-94.678909074, 43.1111000738]}, "type": "Feature", "properties": {"collection_times": [{"days": "Mon-Fri", "time": "4:00pm"}, {"days": "Sat", "time": "10:00am"}, {"days": "Sun", "time": "Closed"}], "id": "5053600002", "name": "USPS COLLECTION BOX - PO LOBBY", "address": {"city": "EMMETSBURG", "state": "IA", "street": "2210 10TH ST", "postcode": "50536"}}},
{"geometry": {"type": "Point", "coordinates": [-94.4038019947, 42.2759981421]}, "type": "Feature", "properties": {"collection_times": [{"days": "Mon-Sat", "time": "4:00pm"}, {"days": "Sun", "time": "Closed"}], "id": "5053800000", "name": "USPS COLLECTION BOX - BLUE BOX", "address": {"city": "FARNHAMVILLE", "state": "IA", "street": "300 GARFIELD AVE", "postcode": "50538"}}},
{"geometry": {"type": "Point", "coordinates": [-94.4038019947, 42.2759981421]}, "type": "Feature", "properties": {"collection_times": [{"days": "Mon-Fri", "time": "10:45am"}, {"days": "Sat", "time": "8:30am"}, {"days": "Sun", "time": "Closed"}], "id": "5053800001", "name": "USPS COLLECTION BOX - PO LOBBY", "address": {"city": "FARNHAMVILLE", "state": "IA", "street": "300 GARFIELD AVE", "postcode": "50538"}}},
{"geometry": {"type": "Point", "coordinates": [-94.42727292, 43.2178797781]}, "type": "Feature", "properties": {"collection_times": [{"days": "Mon-Sat", "time": "4:15pm"}, {"days": "Sun", "time": "Closed"}], "id": "5053900000", "name": "USPS COLLECTION BOX - BLUE BOX", "address": {"city": "FENTON", "state": "IA", "street": "609 MAPLE ST", "postcode": "50539"}}},
{"geometry": {"type": "Point", "coordinates": [-94.42727292, 43.2178797781]}, "type": "Feature", "properties": {"collection_times": [{"days": "Mon-Fri", "time": "11:15am"}, {"days": "Sat-Sun", "time": "Closed"}], "id": "5053900001", "name": "USPS COLLECTION BOX - PO LOBBY", "address": {"city": "FENTON", "state": "IA", "street": "609 MAPLE ST", "postcode": "50539"}}},
{"geometry": {"type": "Point", "coordinates": [-94.8459770446, 42.5814867743]}, "type": "Feature", "properties": {"collection_times": [{"days": "Mon-Sat", "time": "3:45pm"}, {"days": "Sun", "time": "Closed"}], "id": "5054000000", "name": "USPS COLLECTION BOX - BLUE BOX", "address": {"city": "FONDA", "state": "IA", "street": "214 N MAIN ST", "postcode": "50540"}}},
{"geometry": {"type": "Point", "coordinates": [-94.8459770446, 42.5814867743]}, "type": "Feature", "properties": {"collection_times": [{"days": "Mon-Fri", "time": "11:15am"}, {"days": "Sat-Sun", "time": "Closed"}], "id": "5054000001", "name": "USPS COLLECTION BOX - PO LOBBY", "address": {"city": "FONDA", "state": "IA", "street": "214 N MAIN ST", "postcode": "50540"}}},
{"geometry": {"type": "Point", "coordinates": [-94.4432815555, 42.7299538849]}, "type": "Feature", "properties": {"collection_times": [{"days": "Mon-Sat", "time": "4:30pm"}, {"days": "Sun", "time": "Closed"}], "id": "5054100000", "name": "USPS COLLECTION BOX - BLUE BOX", "address": {"city": "GILMORE CITY", "state": "IA", "street": "402 S GILMORE ST", "postcode": "50541"}}},
{"geometry": {"type": "Point", "coordinates": [-94.4432815555, 42.7299538849]}, "type": "Feature", "properties": {"collection_times": [{"days": "Mon-Fri", "time": "11:15am"}, {"days": "Sat", "time": "10:00am"}, {"days": "Sun", "time": "Closed"}], "id": "5054100001", "name": "USPS COLLECTION BOX - PO LOBBY", "address": {"city": "GILMORE CITY", "state": "IA", "street": "402 S GILMORE ST", "postcode": "50541"}}},
{"geometry": {"type": "Point", "coordinates": [-93.920545457, 42.7398589689]}, "type": "Feature", "properties": {"collection_times": [{"days": "Mon-Sat", "time": "4:00pm"}, {"days": "Sun", "time": "Closed"}], "id": "5054200000", "name": "USPS COLLECTION BOX - BLUE BOX", "address": {"city": "GOLDFIELD", "state": "IA", "street": "539 N MAIN ST", "postcode": "50542"}}},
{"geometry": {"type": "Point", "coordinates": [-93.920545457, 42.7398589689]}, "type": "Feature", "properties": {"collection_times": [{"days": "Mon-Fri", "time": "11:45am"}, {"days": "Sat-Sun", "time": "Closed"}], "id": "5054200001", "name": "USPS COLLECTION BOX - PO LOBBY", "address": {"city": "GOLDFIELD", "state": "IA", "street": "539 N MAIN ST", "postcode": "50542"}}},
{"geometry": {"type": "Point", "coordinates": [-94.2885125023, 42.2808292846]}, "type": "Feature", "properties": {"collection_times": [{"days": "Mon-Fri", "time": "4:15pm"}, {"days": "Sat", "time": "4:00pm"}, {"days": "Sun", "time": "Closed"}], "id": "5054300000", "name": "USPS COLLECTION BOX - BLUE BOX", "address": {"city": "GOWRIE", "state": "IA", "street": "1112 BEEK ST", "postcode": "50543"}}},
{"geometry": {"type": "Point", "coordinates": [-94.2885125023, 42.2808292846]}, "type": "Feature", "properties": {"collection_times": [{"days": "Mon-Fri", "time": "4:15pm"}, {"days": "Sat-Sun", "time": "Closed"}], "id": "5054300001", "name": "USPS COLLECTION BOX - PO LOBBY", "address": {"city": "GOWRIE", "state": "IA", "street": "1112 BEEK ST", "postcode": "50543"}}},
{"geometry": {"type": "Point", "coordinates": [-94.1758092863, 42.2615371764]}, "type": "Feature", "properties": {"collection_times": [{"days": "Mon-Sat", "time": "3:45pm"}, {"days": "Sun", "time": "Closed"}], "id": "5054400000", "name": "USPS COLLECTION BOX - BLUE BOX", "address": {"city": "HARCOURT", "state": "IA", "street": "109 S ASH ST", "postcode": "50544"}}},
{"geometry": {"type": "Point", "coordinates": [-94.1758092863, 42.2615371764]}, "type": "Feature", "properties": {"collection_times": [{"days": "Mon-Fri", "time": "3:45pm"}, {"days": "Sat-Sun", "time": "Closed"}], "id": "5054400001", "name": "USPS COLLECTION BOX - PO LOBBY", "address": {"city": "HARCOURT", "state": "IA", "street": "109 S ASH ST", "postcode": "50544"}}},
{"geometry": {"type": "Point", "coordinates": [-94.0511248007, 42.8097245174]}, "type": "Feature", "properties": {"collection_times": [{"days": "Mon-Sat", "time": "11:00am"}, {"days": "Sun", "time": "Closed"}], "id": "5054500000", "name": "USPS COLLECTION BOX - BLUE BOX", "address": {"city": "HARDY", "state": "IA", "street": "106 N CLINTON AVE", "postcode": "50545"}}},
{"geometry": {"type": "Point", "coordinates": [-94.7023390253, 42.833117306]}, "type": "Feature", "properties": {"collection_times": [{"days": "Mon-Sat", "time": "3:30pm"}, {"days": "Sun", "time": "Closed"}], "id": "5054600000", "name": "USPS COLLECTION BOX - BLUE BOX", "address": {"city": "HAVELOCK", "state": "IA", "street": "944 MAIN ST", "postcode": "50546"}}},
{"geometry": {"type": "Point", "coordinates": [-94.7023390253, 42.833117306]}, "type": "Feature", "properties": {"collection_times": [{"days": "Mon-Fri", "time": "11:15am"}, {"days": "Sat-Sun", "time": "Closed"}], "id": "5054600001", "name": "USPS COLLECTION BOX - PO LOBBY", "address": {"city": "HAVELOCK", "state": "IA", "street": "944 MAIN ST", "postcode": "50546"}}},
{"geometry": {"type": "Point", "coordinates": [-94.2176594282, 42.7211132567]}, "type": "Feature", "properties": {"collection_times": [{"days": "Mon-Fri", "time": "5:15pm"}, {"days": "Sat", "time": "3:00pm"}, {"days": "Sun", "time": "Closed"}], "id": "5054800000", "name": "USPS COLLECTION BOX - BLUE BOX", "address": {"city": "HUMBOLDT", "state": "IA", "street": "601 SUMNER AVE", "postcode": "50548"}}},
{"geometry": {"type": "Point", "coordinates": [-94.2176594282, 42.7211132567]}, "type": "Feature", "properties": {"collection_times": [{"days": "Mon-Fri", "time": "5:15pm"}, {"days": "Sat", "time": "3:00pm"}, {"days": "Sun", "time": "Closed"}], "id": "5054800001", "name": "USPS COLLECTION BOX - BLUE BOX", "address": {"city": "HUMBOLDT", "state": "IA", "street": "601 SUMNER AVE", "postcode": "50548"}}},
{"geometry": {"type": "Point", "coordinates": [-94.2176594282, 42.7211132567]}, "type": "Feature", "properties": {"collection_times": [{"days": "Mon-Fri", "time": "5:15pm"}, {"days": "Sat", "time": "3:00pm"}, {"days": "Sun", "time": "Closed"}], "id": "5054800004", "name": "USPS COLLECTION BOX - PO LOBBY", "address": {"city": "HUMBOLDT", "state": "IA", "street": "601 SUMNER AVE", "postcode": "50548"}}},
{"geometry": {"type": "Point", "coordinates": [-94.2167744914, 42.7318133974]}, "type": "Feature", "properties": {"collection_times": [{"days": "Mon-Sat", "time": "2:00pm"}, {"days": "Sun", "time": "Closed"}], "id": "5054800007", "name": "USPS COLLECTION BOX - BLUE BOX", "address": {"city": "HUMBOLDT", "state": "IA", "street": "611 10TH AVE N", "postcode": "50548"}}},
{"geometry": {"type": "Point", "coordinates": [-94.2176594282, 42.7211132567]}, "type": "Feature", "properties": {"collection_times": [{"days": "Mon-Fri", "time": "5:15pm"}, {"days": "Sat", "time": "3:00pm"}, {"days": "Sun", "time": "Closed"}], "id": "5054800011", "name": "USPS COLLECTION BOX - BLUE BOX", "address": {"city": "HUMBOLDT", "state": "IA", "street": "601 SUMNER AVE", "postcode": "50548"}}},
{"geometry": {"type": "Point", "coordinates": [-94.2179031097, 42.7222465186]}, "type": "Feature", "properties": {"collection_times": [{"days": "Mon-Sat", "time": "2:00pm"}, {"days": "Sun", "time": "Closed"}], "id": "5054800012", "name": "USPS COLLECTION BOX - BLUE BOX", "address": {"city": "HUMBOLDT", "state": "IA", "street": "710 1ST AVE N", "postcode": "50548"}}},
{"geometry": {"type": "Point", "coordinates": [-94.7184107019, 42.478776369]}, "type": "Feature", "properties": {"collection_times": [{"days": "Mon-Sat", "time": "3:15pm"}, {"days": "Sun", "time": "Closed"}], "id": "5055100000", "name": "USPS COLLECTION BOX - BLUE BOX", "address": {"city": "JOLLEY", "state": "IA", "street": "118 MAIN ST", "postcode": "50551"}}},
{"geometry": {"type": "Point", "coordinates": [-94.7184107019, 42.478776369]}, "type": "Feature", "properties": {"collection_times": [{"days": "Mon-Sat", "time": "2:15pm"}, {"days": "Sun", "time": "Closed"}], "id": "5055100001", "name": "USPS COLLECTION BOX - PO LOBBY", "address": {"city": "JOLLEY", "state": "IA", "street": "118 MAIN ST", "postcode": "50551"}}},
{"geometry": {"type": "Point", "coordinates": [-94.4371880324, 42.4448112866]}, "type": "Feature", "properties": {"collection_times": [{"days": "Mon-Sat", "time": "5:15pm"}, {"days": "Sun", "time": "Closed"}], "id": "5055200000", "name": "USPS COLLECTION BOX - BLUE BOX", "address": {"city": "KNIERIM", "state": "IA", "street": "218 CENTER", "postcode": "50552"}}},
{"geometry": {"type": "Point", "coordinates": [-94.4571546563, 42.4556060308]}, "type": "Feature", "properties": {"collection_times": [{"days": "Mon-Fri", "time": "10:45am"}, {"days": "Sat", "time": "11:45am"}, {"days": "Sun", "time": "Closed"}], "id": "5055200001", "name": "USPS COLLECTION BOX - PO LOBBY", "address": {"city": "KNIERIM", "state": "IA", "street": "218 CENTER CTR", "postcode": "50552"}}},
{"geometry": {"type": "Point", "coordinates": [-94.8517040903, 42.8467588785]}, "type": "Feature", "properties": {"collection_times": [{"days": "Mon-Fri", "time": "4:00pm"}, {"days": "Sat", "time": "3:45pm"}, {"days": "Sun", "time": "Closed"}], "id": "5055400001", "name": "USPS COLLECTION BOX - BLUE BOX", "address": {"city": "LAURENS", "state": "IA", "street": "316 W MAIN ST", "postcode": "50554"}}},
{"geometry": {"type": "Point", "coordinates": [-94.8517040903, 42.8467588785]}, "type": "Feature", "properties": {"collection_times": [{"days": "Mon-Fri", "time": "4:00pm"}, {"days": "Sat-Sun", "time": "Closed"}], "id": "5055400002", "name": "USPS COLLECTION BOX - PO LOBBY", "address": {"city": "LAURENS", "state": "IA", "street": "316 W MAIN ST", "postcode": "50554"}}},
{"geometry": {"type": "Point", "coordinates": [-94.162532469, 43.4218367426]}, "type": "Feature", "properties": {"collection_times": [{"days": "Mon-Fri", "time": "3:45pm"}, {"days": "Sat", "time": "3:30pm"}, {"days": "Sun", "time": "Closed"}], "id": "5055600000", "name": "USPS COLLECTION BOX - BLUE BOX", "address": {"city": "LEDYARD", "state": "IA", "street": "217 EDMUNDS ST", "postcode": "50556"}}},
{"geometry": {"type": "Point", "coordinates": [-94.162532469, 43.4218367426]}, "type": "Feature", "properties": {"collection_times": [{"days": "Mon-Fri", "time": "1:45pm"}, {"days": "Sat-Sun", "time": "Closed"}], "id": "5055600001", "name": "USPS COLLECTION BOX - PO LOBBY", "address": {"city": "LEDYARD", "state": "IA", "street": "217 EDMUNDS ST", "postcode": "50556"}}},
{"geometry": {"type": "Point", "coordinates": [-94.0516996557, 42.3566715672]}, "type": "Feature", "properties": {"collection_times": [{"days": "Mon-Fri", "time": "11:45am"}, {"days": "Sat-Sun", "time": "Closed"}], "id": "5055700001", "name": "USPS COLLECTION BOX - PO LOBBY", "address": {"city": "LEHIGH", "state": "IA", "street": "131 MAIN ST", "postcode": "50557"}}},
{"geometry": {"type": "Point", "coordinates": [-94.1850246515, 42.8684530856]}, "type": "Feature", "properties": {"collection_times": [{"days": "Mon-Sat", "time": "4:00pm"}, {"days": "Sun", "time": "Closed"}], "id": "5055800000", "name": "USPS COLLECTION BOX - BLUE BOX", "address": {"city": "LIVERMORE", "state": "IA", "street": "407 4TH AVE", "postcode": "50558"}}},
{"geometry": {"type": "Point", "coordinates": [-94.1850246515, 42.8684530856]}, "type": "Feature", "properties": {"collection_times": [{"days": "Mon-Fri", "time": "11:15am"}, {"days": "Sat-Sun", "time": "Closed"}], "id": "5055800001", "name": "USPS COLLECTION BOX - PO LOBBY", "address": {"city": "LIVERMORE", "state": "IA", "street": "407 4TH AVE", "postcode": "50558"}}},
{"geometry": {"type": "Point", "coordinates": [-94.3246305577, 43.2199782436]}, "type": "Feature", "properties": {"collection_times": [{"days": "Mon-Fri", "time": "4:00pm"}, {"days": "Sat", "time": "4:30pm"}, {"days": "Sun", "time": "Closed"}], "id": "5055900000", "name": "USPS COLLECTION BOX - BLUE BOX", "address": {"city": "LONE ROCK", "state": "IA", "street": "209 MAINE ST", "postcode": "50559"}}},
{"geometry": {"type": "Point", "coordinates": [-94.3246305577, 43.2199782436]}, "type": "Feature", "properties": {"collection_times": [{"days": "Mon-Fri", "time": "12:45pm"}, {"days": "Sat-Sun", "time": "Closed"}], "id": "5055900001", "name": "USPS COLLECTION BOX - PO LOBBY", "address": {"city": "LONE ROCK", "state": "IA", "street": "209 MAINE ST", "postcode": "50559"}}},
{"geometry": {"type": "Point", "coordinates": [-94.0843843918, 42.909287572]}, "type": "Feature", "properties": {"collection_times": [{"days": "Mon-Sat", "time": "4:15pm"}, {"days": "Sun", "time": "Closed"}], "id": "5056000000", "name": "USPS COLLECTION BOX - BLUE BOX", "address": {"city": "LUVERNE", "state": "IA", "street": "109 DEWITT ST", "postcode": "50560"}}},
{"geometry": {"type": "Point", "coordinates": [-94.8596962079, 42.4231567562]}, "type": "Feature", "properties": {"collection_times": [{"days": "Mon-Fri", "time": "3:45pm"}, {"days": "Sat", "time": "5:00pm"}, {"days": "Sun", "time": "Closed"}], "id": "5056100000", "name": "USPS COLLECTION BOX - BLUE BOX", "address": {"city": "LYTTON", "state": "IA", "street": "221 MAIN ST", "postcode": "50561"}}},
{"geometry": {"type": "Point", "coordinates": [-94.8596962079, 42.4231567562]}, "type": "Feature", "properties": {"collection_times": [{"days": "Mon-Fri", "time": "3:15pm"}, {"days": "Sat", "time": "12:00pm"}, {"days": "Sun", "time": "Closed"}], "id": "5056100001", "name": "USPS COLLECTION BOX - PO LOBBY", "address": {"city": "LYTTON", "state": "IA", "street": "221 MAIN ST", "postcode": "50561"}}},
{"geometry": {"type": "Point", "coordinates": [-94.5357190868, 42.5292765553]}, "type": "Feature", "properties": {"collection_times": [{"days": "Mon-Sat", "time": "5:00pm"}, {"days": "Sun", "time": "Closed"}], "id": "5056300000", "name": "USPS COLLECTION BOX - BLUE BOX", "address": {"city": "MANSON", "state": "IA", "street": "1006 11TH ST", "postcode": "50563"}}},
{"geometry": {"type": "Point", "coordinates": [-94.5357190868, 42.5292765553]}, "type": "Feature", "properties": {"collection_times": [{"days": "Mon-Fri", "time": "5:00pm"}, {"days": "Sat", "time": "10:30am"}, {"days": "Sun", "time": "Closed"}], "id": "5056300002", "name": "USPS COLLECTION BOX - PO LOBBY", "address": {"city": "MANSON", "state": "IA", "street": "1006 11TH ST", "postcode": "50563"}}},
{"geometry": {"type": "Point", "coordinates": [-94.9824207619, 42.8613825279]}, "type": "Feature", "properties": {"collection_times": [{"days": "Mon-Fri", "time": "3:45pm"}, {"days": "Sat", "time": "3:30pm"}, {"days": "Sun", "time": "Closed"}], "id": "5056500000", "name": "USPS COLLECTION BOX - BLUE BOX", "address": {"city": "MARATHON", "state": "IA", "street": "114 AGORA ST", "postcode": "50565"}}},
{"geometry": {"type": "Point", "coordinates": [-94.9824207619, 42.8613825279]}, "type": "Feature", "properties": {"collection_times": [{"days": "Mon-Fri", "time": "12:15pm"}, {"days": "Sat-Sun", "time": "Closed"}], "id": "5056500001", "name": "USPS COLLECTION BOX - PO LOBBY", "address": {"city": "MARATHON", "state": "IA", "street": "114 AGORA ST", "postcode": "50565"}}},
{"geometry": {"type": "Point", "coordinates": [-94.2924279833, 42.4412653485]}, "type": "Feature", "properties": {"collection_times": [{"days": "Mon-Fri", "time": "4:15pm"}, {"days": "Sat", "time": "4:30pm"}, {"days": "Sun", "time": "Closed"}], "id": "5056600000", "name": "USPS COLLECTION BOX - BLUE BOX", "address": {"city": "MOORLAND", "state": "IA", "street": "525 FRONT ST", "postcode": "50566"}}},
{"geometry": {"type": "Point", "coordinates": [-94.2924279833, 42.4412653485]}, "type": "Feature", "properties": {"collection_times": [{"days": "Mon-Fri", "time": "11:15am"}, {"days": "Sat-Sun", "time": "Closed"}], "id": "5056600001", "name": "USPS COLLECTION BOX - PO LOBBY", "address": {"city": "MOORLAND", "state": "IA", "street": "525 FRONT ST", "postcode": "50566"}}},
{"geometry": {"type": "Point", "coordinates": [-95.0876984036, 42.5155975373]}, "type": "Feature", "properties": {"collection_times": [{"days": "Mon-Sat", "time": "3:45pm"}, {"days": "Sun", "time": "Closed"}], "id": "5056700000", "name": "USPS COLLECTION BOX - BLUE BOX", "address": {"city": "NEMAHA", "state": "IA", "street": "220 MAIN ST", "postcode": "50567"}}},
{"geometry": {"type": "Point", "coordinates": [-95.0876984036, 42.5155975373]}, "type": "Feature", "properties": {"collection_times": [{"days": "Mon-Fri", "time": "3:45pm"}, {"days": "Sat-Sun", "time": "Closed"}], "id": "5056700001", "name": "USPS COLLECTION BOX - PO LOBBY", "address": {"city": "NEMAHA", "state": "IA", "street": "220 MAIN ST", "postcode": "50567"}}},
{"geometry": {"type": "Point", "coordinates": [-95.0024254019, 42.6063139003]}, "type": "Feature", "properties": {"collection_times": [{"days": "Mon-Fri", "time": "3:00pm"}, {"days": "Sat", "time": "4:00pm"}, {"days": "Sun", "time": "Closed"}], "id": "5056800000", "name": "USPS COLLECTION BOX - BLUE BOX", "address": {"city": "NEWELL", "state": "IA", "street": "119 S FULTON ST", "postcode": "50568"}}},
{"geometry": {"type": "Point", "coordinates": [-95.0024254019, 42.6063139003]}, "type": "Feature", "properties": {"collection_times": [{"days": "Mon-Fri", "time": "2:45pm"}, {"days": "Sat-Sun", "time": "Closed"}], "id": "5056800002", "name": "USPS COLLECTION BOX - PO LOBBY", "address": {"city": "NEWELL", "state": "IA", "street": "119 S FULTON ST", "postcode": "50568"}}},
{"geometry": {"type": "Point", "coordinates": [-94.3794784119, 42.8789115752]}, "type": "Feature", "properties": {"collection_times": [{"days": "Mon-Fri", "time": "10:30am"}, {"days": "Sat", "time": "10:00am"}, {"days": "Sun", "time": "Closed"}], "id": "5057000000", "name": "USPS COLLECTION BOX - BLUE BOX", "address": {"city": "OTTOSEN", "state": "IA", "street": "110 BRADY AVE", "postcode": "50570"}}},
{"geometry": {"type": "Point", "coordinates": [-94.3794784119, 42.8789115752]}, "type": "Feature", "properties": {"collection_times": [{"days": "Mon-Fri", "time": "10:30am"}, {"days": "Sat-Sun", "time": "Closed"}], "id": "5057000001", "name": "USPS COLLECTION BOX - PO LOBBY", "address": {"city": "OTTOSEN", "state": "IA", "street": "110 BRADY AVE", "postcode": "50570"}}},
{"geometry": {"type": "Point", "coordinates": [-94.5988615106, 42.6353084721]}, "type": "Feature", "properties": {"collection_times": [{"days": "Mon-Fri", "time": "4:15pm"}, {"days": "Sat", "time": "5:00pm"}, {"days": "Sun", "time": "Closed"}], "id": "5057100000", "name": "USPS COLLECTION BOX - BLUE BOX", "address": {"city": "PALMER", "state": "IA", "street": "402 HENRIETTA AVE", "postcode": "50571"}}},
{"geometry": {"type": "Point", "coordinates": [-94.5988615106, 42.6353084721]}, "type": "Feature", "properties": {"collection_times": [{"days": "Mon-Fri", "time": "1:45pm"}, {"days": "Sat-Sun", "time": "Closed"}], "id": "5057100001", "name": "USPS COLLECTION BOX - PO LOBBY", "address": {"city": "PALMER", "state": "IA", "street": "402 HENRIETTA AVE", "postcode": "50571"}}},
{"geometry": {"type": "Point", "coordinates": [-94.6232257329, 42.8783896368]}, "type": "Feature", "properties": {"collection_times": [{"days": "Mon-Sat", "time": "4:15pm"}, {"days": "Sun", "time": "Closed"}], "id": "5057300000", "name": "USPS COLLECTION BOX - BLUE BOX", "address": {"city": "PLOVER", "state": "IA", "street": "208 MAIN ST", "postcode": "50573"}}},
{"geometry": {"type": "Point", "coordinates": [-94.6232257329, 42.8783896368]}, "type": "Feature", "properties": {"collection_times": [{"days": "Mon-Fri", "time": "2:15pm"}, {"days": "Sat", "time": "11:45am"}, {"days": "Sun", "time": "Closed"}], "id": "5057300001", "name": "USPS COLLECTION BOX - PO LOBBY", "address": {"city": "PLOVER", "state": "IA", "street": "208 MAIN ST", "postcode": "50573"}}},
{"geometry": {"type": "Point", "coordinates": [-94.6691091617, 42.7377777976]}, "type": "Feature", "properties": {"collection_times": [{"days": "Mon-Fri", "time": "4:45pm"}, {"days": "Sat", "time": "4:00pm"}, {"days": "Sun", "time": "Closed"}], "id": "5057400005", "name": "USPS COLLECTION BOX - BLUE BOX", "address": {"city": "POCAHONTAS", "state": "IA", "street": "88 COURT SQ", "postcode": "50574"}}},
{"geometry": {"type": "Point", "coordinates": [-94.6691091617, 42.7377777976]}, "type": "Feature", "properties": {"collection_times": [{"days": "Mon-Fri", "time": "4:45pm"}, {"days": "Sat-Sun", "time": "Closed"}], "id": "5057400007", "name": "USPS COLLECTION BOX - PO LOBBY", "address": {"city": "POCAHONTAS", "state": "IA", "street": "88 COURT SQ", "postcode": "50574"}}},
{"geometry": {"type": "Point", "coordinates": [-94.6852951771, 42.551072869]}, "type": "Feature", "properties": {"collection_times": [{"days": "Mon-Sat", "time": "4:15pm"}, {"days": "Sun", "time": "Closed"}], "id": "5057500000", "name": "USPS COLLECTION BOX - BLUE BOX", "address": {"city": "POMEROY", "state": "IA", "street": "116 S MAIN ST", "postcode": "50575"}}},
{"geometry": {"type": "Point", "coordinates": [-94.6852951771, 42.551072869]}, "type": "Feature", "properties": {"collection_times": [{"days": "Mon-Fri", "time": "10:45am"}, {"days": "Sat", "time": "8:15am"}, {"days": "Sun", "time": "Closed"}], "id": "5057500001", "name": "USPS COLLECTION BOX - PO LOBBY", "address": {"city": "POMEROY", "state": "IA", "street": "116 S MAIN ST", "postcode": "50575"}}},
{"geometry": {"type": "Point", "coordinates": [-95.1663533997, 42.8256130436]}, "type": "Feature", "properties": {"collection_times": [{"days": "Mon-Sat", "time": "3:45pm"}, {"days": "Sun", "time": "Closed"}], "id": "5057600000", "name": "USPS COLLECTION BOX - BLUE BOX", "address": {"city": "REMBRANDT", "state": "IA", "street": "107 E MAIN ST", "postcode": "50576"}}},
{"geometry": {"type": "Point", "coordinates": [-95.1663533997, 42.8256130436]}, "type": "Feature", "properties": {"collection_times": [{"days": "Mon-Fri", "time": "12:15pm"}, {"days": "Sat-Sun", "time": "Closed"}], "id": "5057600001", "name": "USPS COLLECTION BOX - PO LOBBY", "address": {"city": "REMBRANDT", "state": "IA", "street": "107 E MAIN ST", "postcode": "50576"}}},
{"geometry": {"type": "Point", "coordinates": [-93.978101269, 42.8278752725]}, "type": "Feature", "properties": {"collection_times": [{"days": "Mon-Fri", "time": "4:15pm"}, {"days": "Sat", "time": "3:45pm"}, {"days": "Sun", "time": "Closed"}], "id": "5057700000", "name": "USPS COLLECTION BOX - BLUE BOX", "address": {"city": "RENWICK", "state": "IA", "street": "505 MAIN ST", "postcode": "50577"}}},
{"geometry": {"type": "Point", "coordinates": [-93.978101269, 42.8278752725]}, "type": "Feature", "properties": {"collection_times": [{"days": "Mon-Fri", "time": "11:15am"}, {"days": "Sat-Sun", "time": "Closed"}], "id": "5057700001", "name": "USPS COLLECTION BOX - PO LOBBY", "address": {"city": "RENWICK", "state": "IA", "street": "505 MAIN ST", "postcode": "50577"}}},
{"geometry": {"type": "Point", "coordinates": [-94.5098489165, 43.295103233]}, "type": "Feature", "properties": {"collection_times": [{"days": "Mon-Sat", "time": "4:00pm"}, {"days": "Sun", "time": "Closed"}], "id": "5057800000", "name": "USPS COLLECTION BOX - BLUE BOX", "address": {"city": "RINGSTED", "state": "IA", "street": "102 W MAPLE ST", "postcode": "50578"}}},
{"geometry": {"type": "Point", "coordinates": [-94.5098489165, 43.295103233]}, "type": "Feature", "properties": {"collection_times": [{"days": "Mon-Fri", "time": "3:45pm"}, {"days": "Sat", "time": "9:30am"}, {"days": "Sun", "time": "Closed"}], "id": "5057800001", "name": "USPS COLLECTION BOX - PO LOBBY", "address": {"city": "RINGSTED", "state": "IA", "street": "102 W MAPLE ST", "postcode": "50578"}}},
{"geometry": {"type": "Point", "coordinates": [-94.633360392, 42.3944182123]}, "type": "Feature", "properties": {"collection_times": [{"days": "Mon-Fri", "time": "5:00pm"}, {"days": "Sat", "time": "4:00pm"}, {"days": "Sun", "time": "Closed"}], "id": "5057900000", "name": "USPS COLLECTION BOX - BLUE BOX", "address": {"city": "ROCKWELL CITY", "state": "IA", "street": "520 4TH ST", "postcode": "50579"}}},
{"geometry": {"type": "Point", "coordinates": [-94.633360392, 42.3944182123]}, "type": "Feature", "properties": {"collection_times": [{"days": "Mon-Fri", "time": "4:45pm"}, {"days": "Sat", "time": "10:45am"}, {"days": "Sun", "time": "Closed"}], "id": "5057900006", "name": "USPS COLLECTION BOX - PO LOBBY", "address": {"city": "ROCKWELL CITY", "state": "IA", "street": "520 4TH ST", "postcode": "50579"}}},
{"geometry": {"type": "Point", "coordinates": [-94.5279935284, 42.8190192475]}, "type": "Feature", "properties": {"collection_times": [{"days": "Mon-Fri", "time": "4:00pm"}, {"days": "Sat", "time": "4:30pm"}, {"days": "Sun", "time": "Closed"}], "id": "5058100000", "name": "USPS COLLECTION BOX - BLUE BOX", "address": {"city": "ROLFE", "state": "IA", "street": "202 GARFIELD ST", "postcode": "50581"}}},
{"geometry": {"type": "Point", "coordinates": [-94.5279935284, 42.8190192475]}, "type": "Feature", "properties": {"collection_times": [{"days": "Mon-Fri", "time": "11:15am"}, {"days": "Sat-Sun", "time": "Closed"}], "id": "5058100004", "name": "USPS COLLECTION BOX - PO LOBBY", "address": {"city": "ROLFE", "state": "IA", "street": "202 GARFIELD ST", "postcode": "50581"}}},
{"geometry": {"type": "Point", "coordinates": [-94.3018914032, 42.7608567375]}, "type": "Feature", "properties": {"collection_times": [{"days": "Mon-Fri", "time": "12:30pm"}, {"days": "Sat", "time": "10:00am"}, {"days": "Sun", "time": "Closed"}], "id": "5058200000", "name": "USPS COLLECTION BOX - BLUE BOX", "address": {"city": "RUTLAND", "state": "IA", "street": "109 SHERIDAN AVE", "postcode": "50582"}}},
{"geometry": {"type": "Point", "coordinates": [-94.3018914032, 42.7608567375]}, "type": "Feature", "properties": {"collection_times": [{"days": "Mon-Fri", "time": "12:30pm"}, {"days": "Sat-Sun", "time": "Closed"}], "id": "5058200001", "name": "USPS COLLECTION BOX - PO LOBBY", "address": {"city": "RUTLAND", "state": "IA", "street": "109 SHERIDAN AVE", "postcode": "50582"}}},
{"geometry": {"type": "Point", "coordinates": [-94.98875215, 42.4220646923]}, "type": "Feature", "properties": {"collection_times": [{"days": "Mon-Fri", "time": "2:15pm"}, {"days": "Sat-Sun", "time": "Closed"}], "id": "5058300000", "name": "USPS COLLECTION BOX - BLUE BOX", "address": {"city": "SAC CITY", "state": "IA", "street": "100 NW STATE ST", "postcode": "50583"}}},
{"geometry": {"type": "Point", "coordinates": [-94.9898171705, 42.4210587794]}, "type": "Feature", "properties": {"collection_times": [{"days": "Mon-Sat", "time": "4:15pm"}, {"days": "Sun", "time": "Closed"}], "id": "5058300001", "name": "USPS COLLECTION BOX - BLUE BOX", "address": {"city": "SAC CITY", "state": "IA", "street": "519 AUDUBON ST", "postcode": "50583"}}},
{"geometry": {"type": "Point", "coordinates": [-94.9909353841, 42.4210877152]}, "type": "Feature", "properties": {"collection_times": [{"days": "Mon-Sat", "time": "4:15pm"}, {"days": "Sun", "time": "Closed"}], "id": "5058300002", "name": "USPS COLLECTION BOX - BLUE BOX", "address": {"city": "SAC CITY", "state": "IA", "street": "207 S 6TH ST", "postcode": "50583"}}},
{"geometry": {"type": "Point", "coordinates": [-94.9898171705, 42.4210587794]}, "type": "Feature", "properties": {"collection_times": [{"days": "Mon-Fri", "time": "4:15pm"}, {"days": "Sat-Sun", "time": "Closed"}], "id": "5058300005", "name": "USPS COLLECTION BOX - PO LOBBY", "address": {"city": "SAC CITY", "state": "IA", "street": "519 AUDUBON ST", "postcode": "50583"}}},
{"geometry": {"type": "Point", "coordinates": [-95.15100556, 42.8923314603]}, "type": "Feature", "properties": {"collection_times": [{"days": "Mon-Sat", "time": "3:30pm"}, {"days": "Sun", "time": "Closed"}], "id": "5058500000", "name": "USPS COLLECTION BOX - BLUE BOX", "address": {"city": "SIOUX RAPIDS", "state": "IA", "street": "114 THOMAS ST", "postcode": "50585"}}},
{"geometry": {"type": "Point", "coordinates": [-95.15100556, 42.8923314603]}, "type": "Feature", "properties": {"collection_times": [{"days": "Mon-Fri", "time": "3:30pm"}, {"days": "Sat", "time": "10:15am"}, {"days": "Sun", "time": "Closed"}], "id": "5058500001", "name": "USPS COLLECTION BOX - PO LOBBY", "address": {"city": "SIOUX RAPIDS", "state": "IA", "street": "114 THOMAS ST", "postcode": "50585"}}},
{"geometry": {"type": "Point", "coordinates": [-94.43030504, 42.378271228]}, "type": "Feature", "properties": {"collection_times": [{"days": "Mon-Fri", "time": "3:45pm"}, {"days": "Sat", "time": "4:15pm"}, {"days": "Sun", "time": "Closed"}], "id": "5058600000", "name": "USPS COLLECTION BOX - BLUE BOX", "address": {"city": "SOMERS", "state": "IA", "street": "614 6TH AVE", "postcode": "50586"}}},
{"geometry": {"type": "Point", "coordinates": [-94.43030504, 42.378271228]}, "type": "Feature", "properties": {"collection_times": [{"days": "Mon-Fri", "time": "10:45am"}, {"days": "Sat-Sun", "time": "Closed"}], "id": "5058600001", "name": "USPS COLLECTION BOX - PO LOBBY", "address": {"city": "SOMERS", "state": "IA", "street": "614 6TH AVE", "postcode": "50586"}}},
{"geometry": {"type": "Point", "coordinates": [-95.2007512569, 42.6439493245]}, "type": "Feature", "properties": {"collection_times": [{"days": "Mon-Sat", "time": "3:00pm"}, {"days": "Sun", "time": "Closed"}], "id": "5058800002", "name": "USPS COLLECTION BOX - BLUE BOX", "address": {"city": "STORM LAKE", "state": "IA", "street": "601 LAKE AVE", "postcode": "50588"}}},
{"geometry": {"type": "Point", "coordinates": [-95.1982423106, 42.6445084082]}, "type": "Feature", "properties": {"collection_times": [{"days": "Mon-Fri", "time": "3:15pm"}, {"days": "Sat-Sun", "time": "Closed"}], "id": "5058800008", "name": "USPS COLLECTION BOX - BLUE BOX", "address": {"city": "STORM LAKE", "state": "IA", "street": "605 CAYUGA ST", "postcode": "50588"}}},
{"geometry": {"type": "Point", "coordinates": [-95.1990218853, 42.6558466508]}, "type": "Feature", "properties": {"collection_times": [{"days": "Mon-Sat", "time": "10:30am"}, {"days": "Sun", "time": "Closed"}], "id": "5058800009", "name": "USPS COLLECTION BOX - BLUE BOX", "address": {"city": "STORM LAKE", "state": "IA", "street": "210 E 13TH ST", "postcode": "50588"}}},
{"geometry": {"type": "Point", "coordinates": [-95.198353346, 42.642868818]}, "type": "Feature", "properties": {"collection_times": [{"days": "Mon-Fri", "time": "4:00pm"}, {"days": "Sat", "time": "3:00pm"}, {"days": "Sun", "time": "Closed"}], "id": "5058800016", "name": "USPS COLLECTION BOX - BLUE BOX", "address": {"city": "STORM LAKE", "state": "IA", "street": "509 CAYUGA ST", "postcode": "50588"}}},
{"geometry": {"type": "Point", "coordinates": [-95.1982775602, 42.6427708348]}, "type": "Feature", "properties": {"collection_times": [{"days": "Mon-Fri", "time": "4:00pm"}, {"days": "Sat", "time": "3:00pm"}, {"days": "Sun", "time": "Closed"}], "id": "5058800018", "name": "USPS COLLECTION BOX - PO LOBBY", "address": {"city": "STORM LAKE", "state": "IA", "street": "509 CAYUGA ST", "postcode": "50588"}}},
{"geometry": {"type": "Point", "coordinates": [-95.1982775602, 42.6427708348]}, "type": "Feature", "properties": {"collection_times": [{"days": "Mon-Fri", "time": "4:00pm"}, {"days": "Sat", "time": "3:00pm"}, {"days": "Sun", "time": "Closed"}], "id": "5058800019", "name": "USPS COLLECTION BOX - BLUE BOX", "address": {"city": "STORM LAKE", "state": "IA", "street": "509 CAYUGA ST", "postcode": "50588"}}},
{"geometry": {"type": "Point", "coordinates": [-95.1983434563, 42.6431482572]}, "type": "Feature", "properties": {"collection_times": [{"days": "Mon-Fri", "time": "4:00pm"}, {"days": "Sat", "time": "3:00pm"}, {"days": "Sun", "time": "Closed"}], "id": "5058800020", "name": "USPS COLLECTION BOX - BLUE BOX", "address": {"city": "STORM LAKE", "state": "IA", "street": "509 CAYUGA ST", "postcode": "50588"}}},
{"geometry": {"type": "Point", "coordinates": [-95.2008269795, 42.6546712901]}, "type": "Feature", "properties": {"collection_times": [{"days": "Mon-Sat", "time": "12:00pm"}, {"days": "Sun", "time": "Closed"}], "id": "5058800021", "name": "USPS COLLECTION BOX - BLUE BOX", "address": {"city": "STORM LAKE", "state": "IA", "street": "1250 LAKE AVE", "postcode": "50588"}}},
{"geometry": {"type": "Point", "coordinates": [-94.308597771, 43.3839642762]}, "type": "Feature", "properties": {"collection_times": [{"days": "Mon-Sat", "time": "3:45pm"}, {"days": "Sun", "time": "Closed"}], "id": "5059000000", "name": "USPS COLLECTION BOX - BLUE BOX", "address": {"city": "SWEA CITY", "state": "IA", "street": "202 3RD AVE", "postcode": "50590"}}},
{"geometry": {"type": "Point", "coordinates": [-94.308597771, 43.3839642762]}, "type": "Feature", "properties": {"collection_times": [{"days": "Mon-Fri", "time": "3:45pm"}, {"days": "Sat-Sun", "time": "Closed"}], "id": "5059000002", "name": "USPS COLLECTION BOX - PO LOBBY", "address": {"city": "SWEA CITY", "state": "IA", "street": "202 3RD AVE", "postcode": "50590"}}},
{"geometry": {"type": "Point", "coordinates": [-94.0496980449, 42.6889621958]}, "type": "Feature", "properties": {"collection_times": [{"days": "Mon-Sat", "time": "4:15pm"}, {"days": "Sun", "time": "Closed"}], "id": "5059100000", "name": "USPS COLLECTION BOX - BLUE BOX", "address": {"city": "THOR", "state": "IA", "street": "215 N ANN ST", "postcode": "50591"}}},
{"geometry": {"type": "Point", "coordinates": [-94.0496980449, 42.6889621958]}, "type": "Feature", "properties": {"collection_times": [{"days": "Mon-Fri", "time": "11:45am"}, {"days": "Sat-Sun", "time": "Closed"}], "id": "5059100001", "name": "USPS COLLECTION BOX - PO LOBBY", "address": {"city": "THOR", "state": "IA", "street": "215 N ANN ST", "postcode": "50591"}}},
{"geometry": {"type": "Point", "coordinates": [-95.1834294727, 42.7292317744]}, "type": "Feature", "properties": {"collection_times": [{"days": "Mon-Sat", "time": "3:45pm"}, {"days": "Sun", "time": "Closed"}], "id": "5059200000", "name": "USPS COLLECTION BOX - BLUE BOX", "address": {"city": "TRUESDALE", "state": "IA", "street": "120 MAIN ST", "postcode": "50592"}}},
{"geometry": {"type": "Point", "coordinates": [-94.020485, 42.59199]}, "type": "Feature", "properties": {"collection_times": [{"days": "Mon-Sat", "time": "4:00pm"}, {"days": "Sun", "time": "Closed"}], "id": "5059400000", "name": "USPS COLLECTION BOX - BLUE BOX", "address": {"city": "VINCENT", "state": "IA", "street": "104 N 1ST ST", "postcode": "50594"}}},
{"geometry": {"type": "Point", "coordinates": [-94.020485, 42.59199]}, "type": "Feature", "properties": {"collection_times": [{"days": "Mon-Fri", "time": "3:15pm"}, {"days": "Sat", "time": "1:15pm"}, {"days": "Sun", "time": "Closed"}], "id": "5059400001", "name": "USPS COLLECTION BOX - PO LOBBY", "address": {"city": "VINCENT", "state": "IA", "street": "104 N 1ST ST", "postcode": "50594"}}},
{"geometry": {"type": "Point", "coordinates": [-93.8193964353, 42.4648607237]}, "type": "Feature", "properties": {"collection_times": [{"days": "Mon-Fri", "time": "2:30pm"}, {"days": "Sat-Sun", "time": "Closed"}], "id": "5059500002", "name": "USPS COLLECTION BOX - BLUE BOX", "address": {"city": "WEBSTER CITY", "state": "IA", "street": "2350 HOSPITAL DR", "postcode": "50595"}}},
{"geometry": {"type": "Point", "coordinates": [-93.8158592575, 42.4579112319]}, "type": "Feature", "properties": {"collection_times": [{"days": "Mon-Fri", "time": "2:30pm"}, {"days": "Sat-Sun", "time": "Closed"}], "id": "5059500004", "name": "USPS COLLECTION BOX - BLUE BOX", "address": {"city": "WEBSTER CITY", "state": "IA", "street": "2300 SUPERIOR ST", "postcode": "50595"}}},
{"geometry": {"type": "Point", "coordinates": [-93.8243213955, 42.469514362]}, "type": "Feature", "properties": {"collection_times": [{"days": "Mon-Sat", "time": "3:00pm"}, {"days": "Sun", "time": "Closed"}], "id": "5059500008", "name": "USPS COLLECTION BOX - BLUE BOX", "address": {"city": "WEBSTER CITY", "state": "IA", "street": "823 2ND ST", "postcode": "50595"}}},
{"geometry": {"type": "Point", "coordinates": [-93.8171739552, 42.468402309]}, "type": "Feature", "properties": {"collection_times": [{"days": "Mon-Sat", "time": "5:00pm"}, {"days": "Sun", "time": "Closed"}], "id": "5059500010", "name": "USPS COLLECTION BOX - BLUE BOX", "address": {"city": "WEBSTER CITY", "state": "IA", "street": "805 SENECA ST", "postcode": "50595"}}},
{"geometry": {"type": "Point", "coordinates": [-93.8171739552, 42.468402309]}, "type": "Feature", "properties": {"collection_times": [{"days": "Mon-Sat", "time": "5:00pm"}, {"days": "Sun", "time": "Closed"}], "id": "5059500012", "name": "USPS COLLECTION BOX - BLUE BOX", "address": {"city": "WEBSTER CITY", "state": "IA", "street": "805 SENECA ST", "postcode": "50595"}}},
{"geometry": {"type": "Point", "coordinates": [-93.8171739552, 42.468402309]}, "type": "Feature", "properties": {"collection_times": [{"days": "Mon-Sat", "time": "5:00pm"}, {"days": "Sun", "time": "Closed"}], "id": "5059500013", "name": "USPS COLLECTION BOX - BLUE BOX", "address": {"city": "WEBSTER CITY", "state": "IA", "street": "805 SENECA ST", "postcode": "50595"}}},
{"geometry": {"type": "Point", "coordinates": [-93.8171739552, 42.468402309]}, "type": "Feature", "properties": {"collection_times": [{"days": "Mon-Fri", "time": "5:00pm"}, {"days": "Sat", "time": "12:00pm"}, {"days": "Sun", "time": "Closed"}], "id": "5059500014", "name": "USPS COLLECTION BOX - PO LOBBY", "address": {"city": "WEBSTER CITY", "state": "IA", "street": "805 SENECA ST", "postcode": "50595"}}},
{"geometry": {"type": "Point", "coordinates": [-93.8163886873, 42.4535919307]}, "type": "Feature", "properties": {"collection_times": [{"days": "Mon-Fri", "time": "2:30pm"}, {"days": "Sat-Sun", "time": "Closed"}], "id": "5059500018", "name": "USPS COLLECTION BOX - BLUE BOX", "address": {"city": "WEBSTER CITY", "state": "IA", "street": "500 FAIR MEADOW DR", "postcode": "50595"}}},
{"geometry": {"type": "Point", "coordinates": [-94.4452319924, 42.9577404429]}, "type": "Feature", "properties": {"collection_times": [{"days": "Mon-Sat", "time": "3:30pm"}, {"days": "Sun", "time": "Closed"}], "id": "5059700000", "name": "USPS COLLECTION BOX - BLUE BOX", "address": {"city": "WEST BEND", "state": "IA", "street": "315 S BROADWAY AVE", "postcode": "50597"}}},
{"geometry": {"type": "Point", "coordinates": [-94.4452319924, 42.9577404429]}, "type": "Feature", "properties": {"collection_times": [{"days": "Mon-Fri", "time": "3:30pm"}, {"days": "Sat-Sun", "time": "Closed"}], "id": "5059700001", "name": "USPS COLLECTION BOX - PO LOBBY", "address": {"city": "WEST BEND", "state": "IA", "street": "315 S BROADWAY AVE", "postcode": "50597"}}},
{"geometry": {"type": "Point", "coordinates": [-94.4203818876, 43.0630925684]}, "type": "Feature", "properties": {"collection_times": [{"days": "Mon-Sat", "time": "3:45pm"}, {"days": "Sun", "time": "Closed"}], "id": "5059800000", "name": "USPS COLLECTION BOX - BLUE BOX", "address": {"city": "WHITTEMORE", "state": "IA", "street": "421 BROAD ST", "postcode": "50598"}}},
{"geometry": {"type": "Point", "coordinates": [-94.4203818876, 43.0630925684]}, "type": "Feature", "properties": {"collection_times": [{"days": "Mon-Fri", "time": "3:15pm"}, {"days": "Sat-Sun", "time": "Closed"}], "id": "5059800001", "name": "USPS COLLECTION BOX - PO LOBBY", "address": {"city": "WHITTEMORE", "state": "IA", "street": "421 BROAD ST", "postcode": "50598"}}},
{"geometry": {"type": "Point", "coordinates": [-93.8452283916, 42.5663630434]}, "type": "Feature", "properties": {"collection_times": [{"days": "Mon-Sat", "time": "10:00am"}, {"days": "Sun", "time": "Closed"}], "id": "5059900000", "name": "USPS COLLECTION BOX - BLUE BOX", "address": {"city": "WOOLSTOCK", "state": "IA", "street": "226 W HERMAN ST", "postcode": "50599"}}},
{"geometry": {"type": "Point", "coordinates": [-93.8452283916, 42.5663630434]}, "type": "Feature", "properties": {"collection_times": [{"days": "Mon-Fri", "time": "10:00am"}, {"days": "Sat-Sun", "time": "Closed"}], "id": "5059900001", "name": "USPS COLLECTION BOX - PO LOBBY", "address": {"city": "WOOLSTOCK", "state": "IA", "street": "226 W HERMAN ST", "postcode": "50599"}}}
]}
