{"type": "FeatureCollection", "features": [
{"geometry": {"type": "Point", "coordinates": [-93.052920771, 42.5531944316]}, "type": "Feature", "properties": {"collection_times": [{"days": "Mon-Sat", "time": "4:15pm"}, {"days": "Sun", "time": "Closed"}], "id": "5060100003", "name": "USPS COLLECTION BOX - BLUE BOX", "address": {"city": "ACKLEY", "state": "IA", "street": "706 1ST AVE", "postcode": "50601"}}},
{"geometry": {"type": "Point", "coordinates": [-93.052920771, 42.5531944316]}, "type": "Feature", "properties": {"collection_times": [{"days": "Mon-Fri", "time": "4:15pm"}, {"days": "Sat", "time": "8:30am"}, {"days": "Sun", "time": "Closed"}], "id": "5060100004", "name": "USPS COLLECTION BOX - PO LOBBY", "address": {"city": "ACKLEY", "state": "IA", "street": "706 1ST AVE", "postcode": "50601"}}},
{"geometry": {"type": "Point", "coordinates": [-92.7951959277, 42.7501874642]}, "type": "Feature", "properties": {"collection_times": [{"days": "Mon-Sat", "time": "4:00pm"}, {"days": "Sun", "time": "Closed"}], "id": "5060200000", "name": "USPS COLLECTION BOX - BLUE BOX", "address": {"city": "ALLISON", "state": "IA", "street": "307 N MAIN ST", "postcode": "50602"}}},
{"geometry": {"type": "Point", "coordinates": [-92.7951959277, 42.7501874642]}, "type": "Feature", "properties": {"collection_times": [{"days": "Mon-Fri", "time": "4:00pm"}, {"days": "Sat", "time": "9:00am"}, {"days": "Sun", "time": "Closed"}], "id": "5060200001", "name": "USPS COLLECTION BOX - PO LOBBY", "address": {"city": "ALLISON", "state": "IA", "street": "307 N MAIN ST", "postcode": "50602"}}},
{"geometry": {"type": "Point", "coordinates": [-92.4169505244, 43.1986753113]}, "type": "Feature", "properties": {"collection_times": [{"days": "Mon-Fri", "time": "3:45pm"}, {"days": "Sat", "time": "3:00pm"}, {"days": "Sun", "time": "Closed"}], "id": "5060300000", "name": "USPS COLLECTION BOX - BLUE BOX", "address": {"city": "ALTA VISTA", "state": "IA", "street": "108 N WHITE AVE", "postcode": "50603"}}},
{"geometry": {"type": "Point", "coordinates": [-92.4169505244, 43.1986753113]}, "type": "Feature", "properties": {"collection_times": [{"days": "Mon-Fri", "time": "11:45am"}, {"days": "Sat-Sun", "time": "Closed"}], "id": "5060300001", "name": "USPS COLLECTION BOX - PO LOBBY", "address": {"city": "ALTA VISTA", "state": "IA", "street": "108 N WHITE AVE", "postcode": "50603"}}},
{"geometry": {"type": "Point", "coordinates": [-92.8828649255, 42.5839379087]}, "type": "Feature", "properties": {"collection_times": [{"days": "Mon-Fri", "time": "4:00pm"}, {"days": "Sat", "time": "4:30pm"}, {"days": "Sun", "time": "Closed"}], "id": "5060400000", "name": "USPS COLLECTION BOX - BLUE BOX", "address": {"city": "APLINGTON", "state": "IA", "street": "925 PARRIOTT ST", "postcode": "50604"}}},
{"geometry": {"type": "Point", "coordinates": [-92.8828649255, 42.5839379087]}, "type": "Feature", "properties": {"collection_times": [{"days": "Mon-Fri", "time": "2:15pm"}, {"days": "Sat", "time": "8:30am"}, {"days": "Sun", "time": "Closed"}], "id": "5060400001", "name": "USPS COLLECTION BOX - PO LOBBY", "address": {"city": "APLINGTON", "state": "IA", "street": "925 PARRIOTT ST", "postcode": "50604"}}},
{"geometry": {"type": "Point", "coordinates": [-93.0029266406, 42.8352609434]}, "type": "Feature", "properties": {"collection_times": [{"days": "Mon-Fri", "time": "3:45pm"}, {"days": "Sat", "time": "3:30pm"}, {"days": "Sun", "time": "Closed"}], "id": "5060500000", "name": "USPS COLLECTION BOX - BLUE BOX", "address": {"city": "AREDALE", "state": "IA", "street": "117 E MAIN ST", "postcode": "50605"}}},
{"geometry": {"type": "Point", "coordinates": [-93.0029266406, 42.8352609434]}, "type": "Feature", "properties": {"collection_times": [{"days": "Mon-Fri", "time": "11:15am"}, {"days": "Sat-Sun", "time": "Closed"}], "id": "5060500001", "name": "USPS COLLECTION BOX - PO LOBBY", "address": {"city": "AREDALE", "state": "IA", "street": "117 E MAIN ST", "postcode": "50605"}}},
{"geometry": {"type": "Point", "coordinates": [-91.727980829, 42.6164532807]}, "type": "Feature", "properties": {"collection_times": [{"days": "Mon-Sat", "time": "4:15pm"}, {"days": "Sun", "time": "Closed"}], "id": "5060700000", "name": "USPS COLLECTION BOX - BLUE BOX", "address": {"city": "AURORA", "state": "IA", "street": "405 MAIN ST", "postcode": "50607"}}},
{"geometry": {"type": "Point", "coordinates": [-91.727980829, 42.6164532807]}, "type": "Feature", "properties": {"collection_times": [{"days": "Mon-Fri", "time": "11:45am"}, {"days": "Sat-Sun", "time": "Closed"}], "id": "5060700001", "name": "USPS COLLECTION BOX - PO LOBBY", "address": {"city": "AURORA", "state": "IA", "street": "405 MAIN ST", "postcode": "50607"}}},
{"geometry": {"type": "Point", "coordinates": [-92.8087210166, 42.2328578974]}, "type": "Feature", "properties": {"collection_times": [{"days": "Mon-Fri", "time": "4:15pm"}, {"days": "Sat", "time": "4:00pm"}, {"days": "Sun", "time": "Closed"}], "id": "5060900000", "name": "USPS COLLECTION BOX - BLUE BOX", "address": {"city": "BEAMAN", "state": "IA", "street": "208 CENTER ST", "postcode": "50609"}}},
{"geometry": {"type": "Point", "coordinates": [-92.8087210166, 42.2328578974]}, "type": "Feature", "properties": {"collection_times": [{"days": "Mon-Fri", "time": "11:45am"}, {"days": "Sat-Sun", "time": "Closed"}], "id": "5060900001", "name": "USPS COLLECTION BOX - PO LOBBY", "address": {"city": "BEAMAN", "state": "IA", "street": "208 CENTER ST", "postcode": "50609"}}},
{"geometry": {"type": "Point", "coordinates": [-92.4668837607, 42.5315384142]}, "type": "Feature", "properties": {"collection_times": [{"days": "Mon-Sat", "time": "9:45am"}, {"days": "Sun", "time": "Closed"}], "id": "5061300000", "name": "USPS COLLECTION BOX - BLUE BOX", "address": {"city": "CEDAR FALLS", "state": "IA", "street": "1813 W 8TH ST", "postcode": "50613"}}},
{"geometry": {"type": "Point", "coordinates": [-92.448103732, 42.5339353691]}, "type": "Feature", "properties": {"collection_times": [{"days": "Mon-Fri", "time": "5:30pm"}, {"days": "Sat", "time": "4:30pm"}, {"days": "Sun", "time": "Closed"}], "id": "5061300012", "name": "USPS COLLECTION BOX - BLUE BOX", "address": {"city": "CEDAR FALLS", "state": "IA", "street": "518 CLAY ST", "postcode": "50613"}}},
{"geometry": {"type": "Point", "coordinates": [-92.448103732, 42.5339353691]}, "type": "Feature", "properties": {"collection_times": [{"days": "Mon-Fri", "time": "5:30pm"}, {"days": "Sat", "time": "4:30pm"}, {"days": "Sun", "time": "Closed"}], "id": "5061300014", "name": "USPS COLLECTION BOX - BLUE BOX", "address": {"city": "CEDAR FALLS", "state": "IA", "street": "518 CLAY ST", "postcode": "50613"}}},
{"geometry": {"type": "Point", "coordinates": [-92.4525106127, 42.4839292136]}, "type": "Feature", "properties": {"collection_times": [{"days": "Mon-Fri", "time": "4:15pm"}, {"days": "Sat-Sun", "time": "Closed"}], "id": "5061300016", "name": "USPS COLLECTION BOX - BLUE BOX", "address": {"city": "CEDAR FALLS", "state": "IA", "street": "406 VIKING RD", "postcode": "50613"}}},
{"geometry": {"type": "Point", "coordinates": [-92.4525106127, 42.4839292136]}, "type": "Feature", "properties": {"collection_times": [{"days": "Mon-Fri", "time": "4:15pm"}, {"days": "Sat-Sun", "time": "Closed"}], "id": "5061300017", "name": "USPS COLLECTION BOX - BLUE BOX", "address": {"city": "CEDAR FALLS", "state": "IA", "street": "406 VIKING RD", "postcode": "50613"}}},
{"geometry": {"type": "Point", "coordinates": [-92.4111794105, 42.5030939872]}, "type": "Feature", "properties": {"collection_times": [{"days": "Mon-Sat", "time": "10:30am"}, {"days": "Sun", "time": "Closed"}], "id": "5061300022", "name": "USPS COLLECTION BOX - BLUE BOX", "address": {"city": "CEDAR FALLS", "state": "IA", "street": "3900 CEDAR HEIGHTS DR", "postcode": "50613"}}},
{"geometry": {"type": "Point", "coordinates": [-92.4455377049, 42.5359292648]}, "type": "Feature", "properties": {"collection_times": [{"days": "Mon-Sat", "time": "3:45pm"}, {"days": "Sun", "time": "Closed"}], "id": "5061300025", "name": "USPS COLLECTION BOX - BLUE BOX", "address": {"city": "CEDAR FALLS", "state": "IA", "street": "301 MAIN ST", "postcode": "50613"}}},
{"geometry": {"type": "Point", "coordinates": [-92.475239908, 42.5409444426]}, "type": "Feature", "properties": {"collection_times": [{"days": "Mon-Sat", "time": "12:00pm"}, {"days": "Sun", "time": "Closed"}], "id": "5061300029", "name": "USPS COLLECTION BOX - BLUE BOX", "address": {"city": "CEDAR FALLS", "state": "IA", "street": "2302 W 1ST ST", "postcode": "50613"}}},
{"geometry": {"type": "Point", "coordinates": [-92.4771126968, 42.5376519293]}, "type": "Feature", "properties": {"collection_times": [{"days": "Mon-Sat", "time": "10:00am"}, {"days": "Sun", "time": "Closed"}], "id": "5061300030", "name": "USPS COLLECTION BOX - BLUE BOX", "address": {"city": "CEDAR FALLS", "state": "IA", "street": "2599 CRESCENT DR", "postcode": "50613"}}},
{"geometry": {"type": "Point", "coordinates": [-92.4949327412, 42.5146637093]}, "type": "Feature", "properties": {"collection_times": [{"days": "Mon-Sat", "time": "9:00am"}, {"days": "Sun", "time": "Closed"}], "id": "5061300041", "name": "USPS COLLECTION BOX - BLUE BOX", "address": {"city": "CEDAR FALLS", "state": "IA", "street": "2508 UNION RD", "postcode": "50613"}}},
{"geometry": {"type": "Point", "coordinates": [-92.4673559384, 42.5088484831]}, "type": "Feature", "properties": {"collection_times": [{"days": "Mon-Sat", "time": "12:00pm"}, {"days": "Sun", "time": "Closed"}], "id": "5061300044", "name": "USPS COLLECTION BOX - BLUE BOX", "address": {"city": "CEDAR FALLS", "state": "IA", "street": "1902 UNIVERSITY DR", "postcode": "50613"}}},
{"geometry": {"type": "Point", "coordinates": [-92.4543702469, 42.4695853495]}, "type": "Feature", "properties": {"collection_times": [{"days": "Mon-Sat", "time": "10:30am"}, {"days": "Sun", "time": "Closed"}], "id": "5061300051", "name": "USPS COLLECTION BOX - BLUE BOX", "address": {"city": "CEDAR FALLS", "state": "IA", "street": "700 W RIDGEWAY AVE", "postcode": "50613"}}},
{"geometry": {"type": "Point", "coordinates": [-92.4471274469, 42.5332755845]}, "type": "Feature", "properties": {"collection_times": [{"days": "Mon-Fri", "time": "5:00pm"}, {"days": "Sat", "time": "4:30pm"}, {"days": "Sun", "time": "Closed"}], "id": "5061300055", "name": "USPS COLLECTION BOX - PO LOBBY", "address": {"city": "CEDAR FALLS", "state": "IA", "street": "221 W 6TH ST", "postcode": "50613"}}},
{"geometry": {"type": "Point", "coordinates": [-92.4655925954, 42.4841290685]}, "type": "Feature", "properties": {"collection_times": [{"days": "Mon-Fri", "time": "4:15pm"}, {"days": "Sat-Sun", "time": "Closed"}], "id": "5061300057", "name": "USPS COLLECTION BOX - BLUE BOX", "address": {"city": "CEDAR FALLS", "state": "IA", "street": "1109 VIKING RD", "postcode": "50613"}}},
{"geometry": {"type": "Point", "coordinates": [-92.4655925954, 42.4841290685]}, "type": "Feature", "properties": {"collection_times": [{"days": "Mon-Fri", "time": "4:15pm"}, {"days": "Sat-Sun", "time": "Closed"}], "id": "5061300064", "name": "USPS COLLECTION BOX - BLUE BOX", "address": {"city": "CEDAR FALLS", "state": "IA", "street": "1109 VIKING RD", "postcode": "50613"}}},
{"geometry": {"type": "Point", "coordinates": [-92.4525106127, 42.4839292136]}, "type": "Feature", "properties": {"collection_times": [{"days": "Mon-Fri", "time": "4:15pm"}, {"days": "Sat-Sun", "time": "Closed"}], "id": "5061300065", "name": "USPS COLLECTION BOX - BLUE BOX", "address": {"city": "CEDAR FALLS", "state": "IA", "street": "406 VIKING RD", "postcode": "50613"}}},
{"geometry": {"type": "Point", "coordinates": [-92.4655925954, 42.4841290685]}, "type": "Feature", "properties": {"collection_times": [{"days": "Mon-Fri", "time": "4:15pm"}, {"days": "Sat-Sun", "time": "Closed"}], "id": "5061300066", "name": "USPS COLLECTION BOX - BLUE BOX", "address": {"city": "CEDAR FALLS", "state": "IA", "street": "1109 VIKING RD", "postcode": "50613"}}},
{"geometry": {"type": "Point", "coordinates": [-92.4419477254, 42.4853479149]}, "type": "Feature", "properties": {"collection_times": [{"days": "Mon-Fri", "time": "4:15pm"}, {"days": "Sat", "time": "2:00pm"}, {"days": "Sun", "time": "Closed"}], "id": "5061300068", "name": "USPS COLLECTION BOX - BLUE BOX", "address": {"city": "CEDAR FALLS", "state": "IA", "street": "525 BRANDILYNN BLVD", "postcode": "50613"}}},
{"geometry": {"type": "Point", "coordinates": [-92.4572148577, 42.5131299737]}, "type": "Feature", "properties": {"collection_times": [{"days": "Mon-Sat", "time": "2:00pm"}, {"days": "Sun", "time": "Closed"}], "id": "5061300069", "name": "USPS COLLECTION BOX - BLUE BOX", "address": {"city": "CEDAR FALLS", "state": "IA", "street": "1227 W 27TH ST", "postcode": "50613"}}},
{"geometry": {"type": "Point", "coordinates": [-92.4666765119, 42.5062280015]}, "type": "Feature", "properties": {"collection_times": [{"days": "Mon-Sat", "time": "9:00am"}, {"days": "Sun", "time": "Closed"}], "id": "5061300070", "name": "USPS COLLECTION BOX - BLUE BOX", "address": {"city": "CEDAR FALLS", "state": "IA", "street": "9105 UNIVERSITY AVE", "postcode": "50613"}}},
{"geometry": {"type": "Point", "coordinates": [-92.4471274469, 42.5332755845]}, "type": "Feature", "properties": {"collection_times": [{"days": "Mon-Fri", "time": "5:00pm"}, {"days": "Sat", "time": "4:30pm"}, {"days": "Sun", "time": "Closed"}], "id": "5061300071", "name": "USPS COLLECTION BOX - APC", "address": {"city": "CEDAR FALLS", "state": "IA", "street": "221 W 6TH ST", "postcode": "50613"}}},
{"geometry": {"type": "Point", "coordinates": [-92.4655925954, 42.4841290685]}, "type": "Feature", "properties": {"collection_times": [{"days": "Mon-Fri", "time": "4:15pm"}, {"days": "Sat-Sun", "time": "Closed"}], "id": "5061300073", "name": "USPS COLLECTION BOX - BLUE BOX", "address": {"city": "CEDAR FALLS", "state": "IA", "street": "1109 VIKING RD", "postcode": "50613"}}},
{"geometry": {"type": "Point", "coordinates": [-92.676670807, 43.0696385199]}, "type": "Feature", "properties": {"collection_times": [{"days": "Mon-Fri", "time": "4:45pm"}, {"days": "Sat", "time": "4:15pm"}, {"days": "Sun", "time": "Closed"}], "id": "5061600000", "name": "USPS COLLECTION BOX - BLUE BOX", "address": {"city": "CHARLES CITY", "state": "IA", "street": "500 N MAIN ST", "postcode": "50616"}}},
{"geometry": {"type": "Point", "coordinates": [-92.676670807, 43.0696385199]}, "type": "Feature", "properties": {"collection_times": [{"days": "Mon-Fri", "time": "4:45pm"}, {"days": "Sat", "time": "4:15pm"}, {"days": "Sun", "time": "Closed"}], "id": "5061600001", "name": "USPS COLLECTION BOX - BLUE BOX", "address": {"city": "CHARLES CITY", "state": "IA", "street": "500 N MAIN ST", "postcode": "50616"}}},
{"geometry": {"type": "Point", "coordinates": [-92.6807281831, 43.0653876336]}, "type": "Feature", "properties": {"collection_times": [{"days": "Mon-Fri", "time": "3:00pm"}, {"days": "Sat", "time": "2:30pm"}, {"days": "Sun", "time": "Closed"}], "id": "5061600003", "name": "USPS COLLECTION BOX - BLUE BOX", "address": {"city": "CHARLES CITY", "state": "IA", "street": "101 S MAIN ST", "postcode": "50616"}}},
{"geometry": {"type": "Point", "coordinates": [-92.6785881484, 43.0675532584]}, "type": "Feature", "properties": {"collection_times": [{"days": "Mon-Fri", "time": "3:00pm"}, {"days": "Sat", "time": "2:30pm"}, {"days": "Sun", "time": "Closed"}], "id": "5061600004", "name": "USPS COLLECTION BOX - BLUE BOX", "address": {"city": "CHARLES CITY", "state": "IA", "street": "222 N MAIN ST", "postcode": "50616"}}},
{"geometry": {"type": "Point", "coordinates": [-92.676670807, 43.0696385199]}, "type": "Feature", "properties": {"collection_times": [{"days": "Mon-Fri", "time": "4:45pm"}, {"days": "Sat", "time": "4:15pm"}, {"days": "Sun", "time": "Closed"}], "id": "5061600009", "name": "USPS COLLECTION BOX - BLUE BOX", "address": {"city": "CHARLES CITY", "state": "IA", "street": "500 N MAIN ST", "postcode": "50616"}}},
{"geometry": {"type": "Point", "coordinates": [-92.676670807, 43.0696385199]}, "type": "Feature", "properties": {"collection_times": [{"days": "Mon-Fri", "time": "4:45pm"}, {"days": "Sat", "time": "4:15pm"}, {"days": "Sun", "time": "Closed"}], "id": "5061600010", "name": "USPS COLLECTION BOX - BLUE BOX", "address": {"city": "CHARLES CITY", "state": "IA", "street": "500 N MAIN ST", "postcode": "50616"}}},
{"geometry": {"type": "Point", "coordinates": [-92.676670807, 43.0696385199]}, "type": "Feature", "properties": {"collection_times": [{"days": "Mon-Fri", "time": "4:45pm"}, {"days": "Sat", "time": "4:15pm"}, {"days": "Sun", "time": "Closed"}], "id": "5061600012", "name": "USPS COLLECTION BOX - PO LOBBY", "address": {"city": "CHARLES CITY", "state": "IA", "street": "500 N MAIN ST", "postcode": "50616"}}},
{"geometry": {"type": "Point", "coordinates": [-92.6583209776, 43.0826691954]}, "type": "Feature", "properties": {"collection_times": [{"days": "Mon-Fri", "time": "3:00pm"}, {"days": "Sat", "time": "2:30pm"}, {"days": "Sun", "time": "Closed"}], "id": "5061600013", "name": "USPS COLLECTION BOX - BLUE BOX", "address": {"city": "CHARLES CITY", "state": "IA", "street": "901 KELLY ST", "postcode": "50616"}}},
{"geometry": {"type": "Point", "coordinates": [-92.667830496, 42.7837354202]}, "type": "Feature", "properties": {"collection_times": [{"days": "Mon-Fri", "time": "4:15pm"}, {"days": "Sat", "time": "4:30pm"}, {"days": "Sun", "time": "Closed"}], "id": "5061900000", "name": "USPS COLLECTION BOX - BLUE BOX", "address": {"city": "CLARKSVILLE", "state": "IA", "street": "204 S MAIN ST", "postcode": "50619"}}},
{"geometry": {"type": "Point", "coordinates": [-92.667830496, 42.7837354202]}, "type": "Feature", "properties": {"collection_times": [{"days": "Mon-Fri", "time": "4:15pm"}, {"days": "Sat", "time": "9:15am"}, {"days": "Sun", "time": "Closed"}], "id": "5061900001", "name": "USPS COLLECTION BOX - PO LOBBY", "address": {"city": "CLARKSVILLE", "state": "IA", "street": "204 S MAIN ST", "postcode": "50619"}}},
{"geometry": {"type": "Point", "coordinates": [-92.8745122927, 42.2247865862]}, "type": "Feature", "properties": {"collection_times": [{"days": "Mon-Sat", "time": "4:30pm"}, {"days": "Sun", "time": "Closed"}], "id": "5062100000", "name": "USPS COLLECTION BOX - BLUE BOX", "address": {"city": "CONRAD", "state": "IA", "street": "120 N MAIN ST", "postcode": "50621"}}},
{"geometry": {"type": "Point", "coordinates": [-92.8745122927, 42.2247865862]}, "type": "Feature", "properties": {"collection_times": [{"days": "Mon-Fri", "time": "4:30pm"}, {"days": "Sat", "time": "9:30am"}, {"days": "Sun", "time": "Closed"}], "id": "5062100002", "name": "USPS COLLECTION BOX - PO LOBBY", "address": {"city": "CONRAD", "state": "IA", "street": "120 N MAIN ST", "postcode": "50621"}}},
{"geometry": {"type": "Point", "coordinates": [-92.3373286908, 42.6709826574]}, "type": "Feature", "properties": {"collection_times": [{"days": "Mon-Fri", "time": "4:00pm"}, {"days": "Sat", "time": "4:15pm"}, {"days": "Sun", "time": "Closed"}], "id": "5062200000", "name": "USPS COLLECTION BOX - BLUE BOX", "address": {"city": "DENVER", "state": "IA", "street": "340 S STATE ST", "postcode": "50622"}}},
{"geometry": {"type": "Point", "coordinates": [-92.3373286908, 42.6709826574]}, "type": "Feature", "properties": {"collection_times": [{"days": "Mon-Fri", "time": "4:00pm"}, {"days": "Sat", "time": "8:30am"}, {"days": "Sun", "time": "Closed"}], "id": "5062200002", "name": "USPS COLLECTION BOX - PO LOBBY", "address": {"city": "DENVER", "state": "IA", "street": "340 S STATE ST", "postcode": "50622"}}},
{"geometry": {"type": "Point", "coordinates": [-92.2193850766, 42.5249286725]}, "type": "Feature", "properties": {"collection_times": [{"days": "Mon-Fri", "time": "4:15pm"}, {"days": "Sat", "time": "5:30pm"}, {"days": "Sun", "time": "Closed"}], "id": "5062300000", "name": "USPS COLLECTION BOX - BLUE BOX", "address": {"city": "DEWAR", "state": "IA", "street": "5916 1ST ST", "postcode": "50623"}}},
{"geometry": {"type": "Point", "coordinates": [-92.2193850766, 42.5249286725]}, "type": "Feature", "properties": {"collection_times": [{"days": "Mon-Fri", "time": "4:15pm"}, {"days": "Sat", "time": "9:30am"}, {"days": "Sun", "time": "Closed"}], "id": "5062300001", "name": "USPS COLLECTION BOX - PO LOBBY", "address": {"city": "DEWAR", "state": "IA", "street": "5916 1ST ST", "postcode": "50623"}}},
{"geometry": {"type": "Point", "coordinates": [-92.6280822756, 42.465051692]}, "type": "Feature", "properties": {"collection_times": [{"days": "Mon-Fri", "time": "4:00pm"}, {"days": "Sat", "time": "4:30pm"}, {"days": "Sun", "time": "Closed"}], "id": "5062400000", "name": "USPS COLLECTION BOX - BLUE BOX", "address": {"city": "DIKE", "state": "IA", "street": "508 MAIN ST", "postcode": "50624"}}},
{"geometry": {"type": "Point", "coordinates": [-92.6280822756, 42.465051692]}, "type": "Feature", "properties": {"collection_times": [{"days": "Mon-Fri", "time": "1:45pm"}, {"days": "Sat", "time": "8:15am"}, {"days": "Sun", "time": "Closed"}], "id": "5062400001", "name": "USPS COLLECTION BOX - PO LOBBY", "address": {"city": "DIKE", "state": "IA", "street": "508 MAIN ST", "postcode": "50624"}}},
{"geometry": {"type": "Point", "coordinates": [-92.9730994976, 42.7500243034]}, "type": "Feature", "properties": {"collection_times": [{"days": "Mon-Sat", "time": "4:00pm"}, {"days": "Sun", "time": "Closed"}], "id": "5062500000", "name": "USPS COLLECTION BOX - BLUE BOX", "address": {"city": "DUMONT", "state": "IA", "street": "603 MAIN ST", "postcode": "50625"}}},
{"geometry": {"type": "Point", "coordinates": [-92.9730994976, 42.7500243034]}, "type": "Feature", "properties": {"collection_times": [{"days": "Mon-Fri", "time": "2:15pm"}, {"days": "Sat-Sun", "time": "Closed"}], "id": "5062500001", "name": "USPS COLLECTION BOX - PO LOBBY", "address": {"city": "DUMONT", "state": "IA", "street": "603 MAIN ST", "postcode": "50625"}}},
{"geometry": {"type": "Point", "coordinates": [-92.1606891991, 42.5665620196]}, "type": "Feature", "properties": {"collection_times": [{"days": "Mon-Fri", "time": "4:15pm"}, {"days": "Sat", "time": "5:15pm"}, {"days": "Sun", "time": "Closed"}], "id": "5062600000", "name": "USPS COLLECTION BOX - BLUE BOX", "address": {"city": "DUNKERTON", "state": "IA", "street": "713 S CANFIELD ST", "postcode": "50626"}}},
{"geometry": {"type": "Point", "coordinates": [-92.1606891991, 42.5665620196]}, "type": "Feature", "properties": {"collection_times": [{"days": "Mon-Fri", "time": "3:45pm"}, {"days": "Sat-Sun", "time": "Closed"}], "id": "5062600001", "name": "USPS COLLECTION BOX - PO LOBBY", "address": {"city": "DUNKERTON", "state": "IA", "street": "713 S CANFIELD ST", "postcode": "50626"}}},
{"geometry": {"type": "Point", "coordinates": [-93.1019461177, 42.3563729988]}, "type": "Feature", "properties": {"collection_times": [{"days": "Mon-Sat", "time": "2:30pm"}, {"days": "Sun", "time": "Closed"}], "id": "5062700008", "name": "USPS COLLECTION BOX - BLUE BOX", "address": {"city": "ELDORA", "state": "IA", "street": "1339 12TH ST", "postcode": "50627"}}},
{"geometry": {"type": "Point", "coordinates": [-93.1004702753, 42.3606567054]}, "type": "Feature", "properties": {"collection_times": [{"days": "Mon-Sat", "time": "4:30pm"}, {"days": "Sun", "time": "Closed"}], "id": "5062700020", "name": "USPS COLLECTION BOX - BLUE BOX", "address": {"city": "ELDORA", "state": "IA", "street": "1334 EDGINGTON AVE", "postcode": "50627"}}},
{"geometry": {"type": "Point", "coordinates": [-93.0993856458, 42.3607360851]}, "type": "Feature", "properties": {"collection_times": [{"days": "Mon-Fri", "time": "4:30pm"}, {"days": "Sat", "time": "11:45am"}, {"days": "Sun", "time": "Closed"}], "id": "5062700022", "name": "USPS COLLECTION BOX - PO LOBBY", "address": {"city": "ELDORA", "state": "IA", "street": "1334 EDGINGTON AVE", "postcode": "50627"}}},
{"geometry": {"type": "Point", "coordinates": [-93.0993856458, 42.3607360851]}, "type": "Feature", "properties": {"collection_times": [{"days": "Mon-Sat", "time": "4:30pm"}, {"days": "Sun", "time": "Closed"}], "id": "5062700023", "name": "USPS COLLECTION BOX - BLUE BOX", "address": {"city": "ELDORA", "state": "IA", "street": "1334 EDGINGTON AVE", "postcode": "50627"}}},
{"geometry": {"type": "Point", "coordinates": [-92.4379235514, 43.2439877892]}, "type": "Feature", "properties": {"collection_times": [{"days": "Mon-Sat", "time": "3:30pm"}, {"days": "Sun", "time": "Closed"}], "id": "5062800001", "name": "USPS COLLECTION BOX - BLUE BOX", "address": {"city": "ELMA", "state": "IA", "street": "412 MAIN ST", "postcode": "50628"}}},
{"geometry": {"type": "Point", "coordinates": [-92.4379235514, 43.2439877892]}, "type": "Feature", "properties": {"collection_times": [{"days": "Mon-Fri", "time": "2:15pm"}, {"days": "Sat", "time": "8:30am"}, {"days": "Sun", "time": "Closed"}], "id": "5062800002", "name": "USPS COLLECTION BOX - PO LOBBY", "address": {"city": "ELMA", "state": "IA", "street": "412 MAIN ST", "postcode": "50628"}}},
{"geometry": {"type": "Point", "coordinates": [-92.049635534, 42.639363528]}, "type": "Feature", "properties": {"collection_times": [{"days": "Mon-Fri", "time": "4:30pm"}, {"days": "Sat", "time": "5:00pm"}, {"days": "Sun", "time": "Closed"}], "id": "5062900001", "name": "USPS COLLECTION BOX - BLUE BOX", "address": {"city": "FAIRBANK", "state": "IA", "street": "201 E MAIN ST", "postcode": "50629"}}},
{"geometry": {"type": "Point", "coordinates": [-92.049635534, 42.639363528]}, "type": "Feature", "properties": {"collection_times": [{"days": "Mon-Fri", "time": "4:30pm"}, {"days": "Sat", "time": "8:30am"}, {"days": "Sun", "time": "Closed"}], "id": "5062900002", "name": "USPS COLLECTION BOX - PO LOBBY", "address": {"city": "FAIRBANK", "state": "IA", "street": "201 E MAIN ST", "postcode": "50629"}}},
{"geometry": {"type": "Point", "coordinates": [-92.1987218692, 42.9651586261]}, "type": "Feature", "properties": {"collection_times": [{"days": "Mon-Sat", "time": "4:15pm"}, {"days": "Sun", "time": "Closed"}], "id": "5063000000", "name": "USPS COLLECTION BOX - BLUE BOX", "address": {"city": "FREDERICKSBURG", "state": "IA", "street": "130 E MAIN ST", "postcode": "50630"}}},
{"geometry": {"type": "Point", "coordinates": [-92.1987218692, 42.9651586261]}, "type": "Feature", "properties": {"collection_times": [{"days": "Mon-Fri", "time": "4:15pm"}, {"days": "Sat", "time": "9:00am"}, {"days": "Sun", "time": "Closed"}], "id": "5063000001", "name": "USPS COLLECTION BOX - PO LOBBY", "address": {"city": "FREDERICKSBURG", "state": "IA", "street": "130 E MAIN ST", "postcode": "50630"}}},
{"geometry": {"type": "Point", "coordinates": [-92.3078876729, 42.8814539243]}, "type": "Feature", "properties": {"collection_times": [{"days": "Mon-Fri", "time": "4:15pm"}, {"days": "Sat", "time": "5:30pm"}, {"days": "Sun", "time": "Closed"}], "id": "5063100000", "name": "USPS COLLECTION BOX - BLUE BOX", "address": {"city": "FREDERIKA", "state": "IA", "street": "104 3RD ST", "postcode": "50631"}}},
{"geometry": {"type": "Point", "coordinates": [-92.3079148934, 42.8814669328]}, "type": "Feature", "properties": {"collection_times": [{"days": "Mon-Fri", "time": "11:45am"}, {"days": "Sat-Sun", "time": "Closed"}], "id": "5063100001", "name": "USPS COLLECTION BOX - PO LOBBY", "address": {"city": "FREDERIKA", "state": "IA", "street": "104 3RD ST", "postcode": "50631"}}},
{"geometry": {"type": "Point", "coordinates": [-92.2145569956, 42.4156110942]}, "type": "Feature", "properties": {"collection_times": [{"days": "Mon-Fri", "time": "3:45pm"}, {"days": "Sat", "time": "4:00pm"}, {"days": "Sun", "time": "Closed"}], "id": "5063400000", "name": "USPS COLLECTION BOX - BLUE BOX", "address": {"city": "GILBERTVILLE", "state": "IA", "street": "1320 5TH ST", "postcode": "50634"}}},
{"geometry": {"type": "Point", "coordinates": [-92.2145569956, 42.4156110942]}, "type": "Feature", "properties": {"collection_times": [{"days": "Mon-Fri", "time": "11:45am"}, {"days": "Sat-Sun", "time": "Closed"}], "id": "5063400001", "name": "USPS COLLECTION BOX - PO LOBBY", "address": {"city": "GILBERTVILLE", "state": "IA", "street": "1320 5TH ST", "postcode": "50634"}}},
{"geometry": {"type": "Point", "coordinates": [-92.7153472897, 42.1885125345]}, "type": "Feature", "properties": {"collection_times": [{"days": "Mon-Sat", "time": "4:00pm"}, {"days": "Sun", "time": "Closed"}], "id": "5063500000", "name": "USPS COLLECTION BOX - BLUE BOX", "address": {"city": "GLADBROOK", "state": "IA", "street": "101 GOULD ST", "postcode": "50635"}}},
{"geometry": {"type": "Point", "coordinates": [-92.7153472897, 42.1885125345]}, "type": "Feature", "properties": {"collection_times": [{"days": "Mon-Fri", "time": "4:00pm"}, {"days": "Sat", "time": "10:00am"}, {"days": "Sun", "time": "Closed"}], "id": "5063500001", "name": "USPS COLLECTION BOX - PO LOBBY", "address": {"city": "GLADBROOK", "state": "IA", "street": "101 GOULD ST", "postcode": "50635"}}},
{"geometry": {"type": "Point", "coordinates": [-92.8019110379, 42.8955867065]}, "type": "Feature", "properties": {"collection_times": [{"days": "Mon-Fri", "time": "3:30pm"}, {"days": "Sat", "time": "3:45pm"}, {"days": "Sun", "time": "Closed"}], "id": "5063600000", "name": "USPS COLLECTION BOX - BLUE BOX", "address": {"city": "GREENE", "state": "IA", "street": "114 S 1ST ST", "postcode": "50636"}}},
{"geometry": {"type": "Point", "coordinates": [-92.8019110379, 42.8955867065]}, "type": "Feature", "properties": {"collection_times": [{"days": "Mon-Fri", "time": "3:30pm"}, {"days": "Sat", "time": "10:00am"}, {"days": "Sun", "time": "Closed"}], "id": "5063600001", "name": "USPS COLLECTION BOX - PO LOBBY", "address": {"city": "GREENE", "state": "IA", "street": "114 S 1ST ST", "postcode": "50636"}}},
{"geometry": {"type": "Point", "coordinates": [-92.7864155271, 42.3615486835]}, "type": "Feature", "properties": {"collection_times": [{"days": "Mon-Fri", "time": "5:00pm"}, {"days": "Sat", "time": "4:30pm"}, {"days": "Sun", "time": "Closed"}], "id": "5063800000", "name": "USPS COLLECTION BOX - BLUE BOX", "address": {"city": "GRUNDY CENTER", "state": "IA", "street": "1700 G AVE", "postcode": "50638"}}},
{"geometry": {"type": "Point", "coordinates": [-92.7864155271, 42.3615486835]}, "type": "Feature", "properties": {"collection_times": [{"days": "Mon-Fri", "time": "5:00pm"}, {"days": "Sat-Sun", "time": "Closed"}], "id": "5063800002", "name": "USPS COLLECTION BOX - PO LOBBY", "address": {"city": "GRUNDY CENTER", "state": "IA", "street": "1700 G AVE", "postcode": "50638"}}},
{"geometry": {"type": "Point", "coordinates": [-92.7727298977, 42.3624675115]}, "type": "Feature", "properties": {"collection_times": [{"days": "Mon-Fri", "time": "5:00pm"}, {"days": "Sat", "time": "9:00am"}, {"days": "Sun", "time": "Closed"}], "id": "5063800003", "name": "USPS COLLECTION BOX - BLUE BOX", "address": {"city": "GRUNDY CENTER", "state": "IA", "street": "703 F AVE", "postcode": "50638"}}},
{"geometry": {"type": "Point", "coordinates": [-92.7864155271, 42.3615486835]}, "type": "Feature", "properties": {"collection_times": [{"days": "Mon-Fri", "time": "5:00pm"}, {"days": "Sat", "time": "4:30pm"}, {"days": "Sun", "time": "Closed"}], "id": "5063800004", "name": "USPS COLLECTION BOX - BLUE BOX", "address": {"city": "GRUNDY CENTER", "state": "IA", "street": "1700 G AVE", "postcode": "50638"}}},
{"geometry": {"type": "Point", "coordinates": [-91.9054458238, 42.6155545628]}, "type": "Feature", "properties": {"collection_times": [{"days": "Mon-Fri", "time": "4:30pm"}, {"days": "Sat", "time": "5:00pm"}, {"days": "Sun", "time": "Closed"}], "id": "5064100000", "name": "USPS COLLECTION BOX - BLUE BOX", "address": {"city": "HAZLETON", "state": "IA", "street": "200 MAIN ST S", "postcode": "50641"}}},
{"geometry": {"type": "Point", "coordinates": [-91.9054458238, 42.6155545628]}, "type": "Feature", "properties": {"collection_times": [{"days": "Mon-Fri", "time": "2:15pm"}, {"days": "Sat-Sun", "time": "Closed"}], "id": "5064100001", "name": "USPS COLLECTION BOX - PO LOBBY", "address": {"city": "HAZLETON", "state": "IA", "street": "200 MAIN ST S", "postcode": "50641"}}},
{"geometry": {"type": "Point", "coordinates": [-92.8002225958, 42.3989475307]}, "type": "Feature", "properties": {"collection_times": [{"days": "Mon-Sat", "time": "4:00pm"}, {"days": "Sun", "time": "Closed"}], "id": "5064200000", "name": "USPS COLLECTION BOX - BLUE BOX", "address": {"city": "HOLLAND", "state": "IA", "street": "104 MAIN ST", "postcode": "50642"}}},
{"geometry": {"type": "Point", "coordinates": [-92.8002225958, 42.3989475307]}, "type": "Feature", "properties": {"collection_times": [{"days": "Mon-Fri", "time": "11:45am"}, {"days": "Sat", "time": "11:15am"}, {"days": "Sun", "time": "Closed"}], "id": "5064200001", "name": "USPS COLLECTION BOX - PO LOBBY", "address": {"city": "HOLLAND", "state": "IA", "street": "104 MAIN ST", "postcode": "50642"}}},
{"geometry": {"type": "Point", "coordinates": [-92.4545632369, 42.4060165877]}, "type": "Feature", "properties": {"collection_times": [{"days": "Mon-Fri", "time": "4:00pm"}, {"days": "Sat", "time": "5:30pm"}, {"days": "Sun", "time": "Closed"}], "id": "5064300001", "name": "USPS COLLECTION BOX - BLUE BOX", "address": {"city": "HUDSON", "state": "IA", "street": "410 JEFFERSON ST", "postcode": "50643"}}},
{"geometry": {"type": "Point", "coordinates": [-92.4545632369, 42.4060165877]}, "type": "Feature", "properties": {"collection_times": [{"days": "Mon-Fri", "time": "4:00pm"}, {"days": "Sat-Sun", "time": "Closed"}], "id": "5064300004", "name": "USPS COLLECTION BOX - PO LOBBY", "address": {"city": "HUDSON", "state": "IA", "street": "410 JEFFERSON ST", "postcode": "50643"}}},
{"geometry": {"type": "Point", "coordinates": [-91.8927637473, 42.4697749977]}, "type": "Feature", "properties": {"collection_times": [{"days": "Mon-Fri", "time": "5:00pm"}, {"days": "Sat", "time": "3:30pm"}, {"days": "Sun", "time": "Closed"}], "id": "5064400000", "name": "USPS COLLECTION BOX - BLUE BOX", "address": {"city": "INDEPENDENCE", "state": "IA", "street": "205 2ND ST NE", "postcode": "50644"}}},
{"geometry": {"type": "Point", "coordinates": [-91.8927637473, 42.4697749977]}, "type": "Feature", "properties": {"collection_times": [{"days": "Mon-Fri", "time": "5:00pm"}, {"days": "Sat", "time": "3:30pm"}, {"days": "Sun", "time": "Closed"}], "id": "5064400001", "name": "USPS COLLECTION BOX - BLUE BOX", "address": {"city": "INDEPENDENCE", "state": "IA", "street": "205 2ND ST NE", "postcode": "50644"}}},
{"geometry": {"type": "Point", "coordinates": [-91.8927637473, 42.4697749977]}, "type": "Feature", "properties": {"collection_times": [{"days": "Mon-Fri", "time": "5:00pm"}, {"days": "Sat", "time": "3:30pm"}, {"days": "Sun", "time": "Closed"}], "id": "5064400005", "name": "USPS COLLECTION BOX - BLUE BOX", "address": {"city": "INDEPENDENCE", "state": "IA", "street": "205 2ND ST NE", "postcode": "50644"}}},
{"geometry": {"type": "Point", "coordinates": [-91.9001584246, 42.4697430346]}, "type": "Feature", "properties": {"collection_times": [{"days": "Mon-Fri", "time": "2:30pm"}, {"days": "Sat-Sun", "time": "Closed"}], "id": "5064400011", "name": "USPS COLLECTION BOX - BLUE BOX", "address": {"city": "INDEPENDENCE", "state": "IA", "street": "210 5TH AVE NE", "postcode": "50644"}}},
{"geometry": {"type": "Point", "coordinates": [-91.8931932517, 42.4696856001]}, "type": "Feature", "properties": {"collection_times": [{"days": "Mon-Fri", "time": "5:00pm"}, {"days": "Sat", "time": "3:45pm"}, {"days": "Sun", "time": "Closed"}], "id": "5064400012", "name": "USPS COLLECTION BOX - PO LOBBY", "address": {"city": "INDEPENDENCE", "state": "IA", "street": "200 2ND AVE NE", "postcode": "50644"}}},
{"geometry": {"type": "Point", "coordinates": [-92.4559789578, 43.0345333789]}, "type": "Feature", "properties": {"collection_times": [{"days": "Mon-Sat", "time": "4:30pm"}, {"days": "Sun", "time": "Closed"}], "id": "5064500000", "name": "USPS COLLECTION BOX - BLUE BOX", "address": {"city": "IONIA", "state": "IA", "street": "203 W MAIN ST", "postcode": "50645"}}},
{"geometry": {"type": "Point", "coordinates": [-92.4573006055, 43.0340180632]}, "type": "Feature", "properties": {"collection_times": [{"days": "Mon-Fri", "time": "1:45pm"}, {"days": "Sat-Sun", "time": "Closed"}], "id": "5064500001", "name": "USPS COLLECTION BOX - PO LOBBY", "address": {"city": "IONIA", "state": "IA", "street": "203 W MAIN ST", "postcode": "50645"}}},
{"geometry": {"type": "Point", "coordinates": [-92.4629615062, 42.6462829981]}, "type": "Feature", "properties": {"collection_times": [{"days": "Mon-Fri", "time": "5:15pm"}, {"days": "Sat", "time": "5:30pm"}, {"days": "Sun", "time": "Closed"}], "id": "5064700000", "name": "USPS COLLECTION BOX - BLUE BOX", "address": {"city": "JANESVILLE", "state": "IA", "street": "401 MAIN ST", "postcode": "50647"}}},
{"geometry": {"type": "Point", "coordinates": [-92.4629615062, 42.6462829981]}, "type": "Feature", "properties": {"collection_times": [{"days": "Mon-Fri", "time": "5:15pm"}, {"days": "Sat", "time": "10:00am"}, {"days": "Sun", "time": "Closed"}], "id": "5064700001", "name": "USPS COLLECTION BOX - PO LOBBY", "address": {"city": "JANESVILLE", "state": "IA", "street": "401 MAIN ST", "postcode": "50647"}}},
{"geometry": {"type": "Point", "coordinates": [-92.0613023358, 42.4759624569]}, "type": "Feature", "properties": {"collection_times": [{"days": "Mon-Sat", "time": "4:00pm"}, {"days": "Sun", "time": "Closed"}], "id": "5064800000", "name": "USPS COLLECTION BOX - BLUE BOX", "address": {"city": "JESUP", "state": "IA", "street": "811 MAIN ST", "postcode": "50648"}}},
{"geometry": {"type": "Point", "coordinates": [-92.0613023358, 42.4759624569]}, "type": "Feature", "properties": {"collection_times": [{"days": "Mon-Fri", "time": "4:00pm"}, {"days": "Sat", "time": "8:30am"}, {"days": "Sun", "time": "Closed"}], "id": "5064800002", "name": "USPS COLLECTION BOX - PO LOBBY", "address": {"city": "JESUP", "state": "IA", "street": "811 MAIN ST", "postcode": "50648"}}},
{"geometry": {"type": "Point", "coordinates": [-92.9100045178, 42.6634054837]}, "type": "Feature", "properties": {"collection_times": [{"days": "Mon-Sat", "time": "10:30am"}, {"days": "Sun", "time": "Closed"}], "id": "5064900000", "name": "USPS COLLECTION BOX - BLUE BOX", "address": {"city": "KESLEY", "state": "IA", "street": "15823 MAIN ST", "postcode": "50649"}}},
{"geometry": {"type": "Point", "coordinates": [-91.6419243008, 42.5994021042]}, "type": "Feature", "properties": {"collection_times": [{"days": "Mon-Fri", "time": "4:00pm"}, {"days": "Sat", "time": "4:30pm"}, {"days": "Sun", "time": "Closed"}], "id": "5065000000", "name": "USPS COLLECTION BOX - BLUE BOX", "address": {"city": "LAMONT", "state": "IA", "street": "620 BUSH ST", "postcode": "50650"}}},
{"geometry": {"type": "Point", "coordinates": [-91.6419243008, 42.5994021042]}, "type": "Feature", "properties": {"collection_times": [{"days": "Mon-Fri", "time": "3:15pm"}, {"days": "Sat", "time": "8:15am"}, {"days": "Sun", "time": "Closed"}], "id": "5065000001", "name": "USPS COLLECTION BOX - PO LOBBY", "address": {"city": "LAMONT", "state": "IA", "street": "620 BUSH ST", "postcode": "50650"}}},
{"geometry": {"type": "Point", "coordinates": [-92.1911022783, 42.3142441955]}, "type": "Feature", "properties": {"collection_times": [{"days": "Mon-Fri", "time": "4:45pm"}, {"days": "Sat", "time": "4:30pm"}, {"days": "Sun", "time": "Closed"}], "id": "5065100000", "name": "USPS COLLECTION BOX - BLUE BOX", "address": {"city": "LA PORTE CITY", "state": "IA", "street": "408 CHESTNUT ST", "postcode": "50651"}}},
{"geometry": {"type": "Point", "coordinates": [-92.1911022783, 42.3142441955]}, "type": "Feature", "properties": {"collection_times": [{"days": "Mon-Fri", "time": "4:45pm"}, {"days": "Sat-Sun", "time": "Closed"}], "id": "5065100003", "name": "USPS COLLECTION BOX - PO LOBBY", "address": {"city": "LA PORTE CITY", "state": "IA", "street": "408 CHESTNUT ST", "postcode": "50651"}}},
{"geometry": {"type": "Point", "coordinates": [-92.6924166021, 42.2630186824]}, "type": "Feature", "properties": {"collection_times": [{"days": "Mon-Sat", "time": "10:45am"}, {"days": "Sun", "time": "Closed"}], "id": "5065200000", "name": "USPS COLLECTION BOX - PO LOBBY", "address": {"city": "LINCOLN", "state": "IA", "street": "113 MAIN ST", "postcode": "50652"}}},
{"geometry": {"type": "Point", "coordinates": [-92.6924166021, 42.2630186824]}, "type": "Feature", "properties": {"collection_times": [{"days": "Mon-Fri", "time": "3:45pm"}, {"days": "Sat", "time": "4:00pm"}, {"days": "Sun", "time": "Closed"}], "id": "5065200001", "name": "USPS COLLECTION BOX - BLUE BOX", "address": {"city": "LINCOLN", "state": "IA", "street": "113 MAIN ST", "postcode": "50652"}}},
{"geometry": {"type": "Point", "coordinates": [-92.868480666, 42.964995754]}, "type": "Feature", "properties": {"collection_times": [{"days": "Mon-Sat", "time": "3:30pm"}, {"days": "Sun", "time": "Closed"}], "id": "5065300000", "name": "USPS COLLECTION BOX - BLUE BOX", "address": {"city": "MARBLE ROCK", "state": "IA", "street": "109 S MAIN ST", "postcode": "50653"}}},
{"geometry": {"type": "Point", "coordinates": [-92.868480666, 42.964995754]}, "type": "Feature", "properties": {"collection_times": [{"days": "Mon-Fri", "time": "11:45am"}, {"days": "Sat", "time": "8:45am"}, {"days": "Sun", "time": "Closed"}], "id": "5065300001", "name": "USPS COLLECTION BOX - PO LOBBY", "address": {"city": "MARBLE ROCK", "state": "IA", "street": "109 S MAIN ST", "postcode": "50653"}}},
{"geometry": {"type": "Point", "coordinates": [-91.591240042, 42.4803103378]}, "type": "Feature", "properties": {"collection_times": [{"days": "Mon-Fri", "time": "4:15pm"}, {"days": "Sat", "time": "4:30pm"}, {"days": "Sun", "time": "Closed"}], "id": "5065400000", "name": "USPS COLLECTION BOX - BLUE BOX", "address": {"city": "MASONVILLE", "state": "IA", "street": "504 BARRETT ST", "postcode": "50654"}}},
{"geometry": {"type": "Point", "coordinates": [-91.591240042, 42.4803103378]}, "type": "Feature", "properties": {"collection_times": [{"days": "Mon-Fri", "time": "4:15pm"}, {"days": "Sat", "time": "12:30pm"}, {"days": "Sun", "time": "Closed"}], "id": "5065400001", "name": "USPS COLLECTION BOX - PO LOBBY", "address": {"city": "MASONVILLE", "state": "IA", "street": "504 BARRETT ST", "postcode": "50654"}}},
{"geometry": {"type": "Point", "coordinates": [-91.8796462765, 42.7737980051]}, "type": "Feature", "properties": {"collection_times": [{"days": "Mon-Fri", "time": "4:45pm"}, {"days": "Sat", "time": "4:15pm"}, {"days": "Sun", "time": "Closed"}], "id": "5065500000", "name": "USPS COLLECTION BOX - BLUE BOX", "address": {"city": "MAYNARD", "state": "IA", "street": "255 MAIN ST W", "postcode": "50655"}}},
{"geometry": {"type": "Point", "coordinates": [-91.8796462765, 42.7737980051]}, "type": "Feature", "properties": {"collection_times": [{"days": "Mon-Fri", "time": "3:15pm"}, {"days": "Sat-Sun", "time": "Closed"}], "id": "5065500001", "name": "USPS COLLECTION BOX - PO LOBBY", "address": {"city": "MAYNARD", "state": "IA", "street": "255 MAIN ST W", "postcode": "50655"}}},
{"geometry": {"type": "Point", "coordinates": [-92.5363435754, 42.9534070701]}, "type": "Feature", "properties": {"collection_times": [{"days": "Mon-Fri", "time": "4:15pm"}, {"days": "Sat", "time": "4:30pm"}, {"days": "Sun", "time": "Closed"}], "id": "5065800000", "name": "USPS COLLECTION BOX - BLUE BOX", "address": {"city": "NASHUA", "state": "IA", "street": "212 MAIN ST", "postcode": "50658"}}},
{"geometry": {"type": "Point", "coordinates": [-92.5363435754, 42.9534070701]}, "type": "Feature", "properties": {"collection_times": [{"days": "Mon-Fri", "time": "4:15pm"}, {"days": "Sat", "time": "8:30am"}, {"days": "Sun", "time": "Closed"}], "id": "5065800001", "name": "USPS COLLECTION BOX - PO LOBBY", "address": {"city": "NASHUA", "state": "IA", "street": "212 MAIN ST", "postcode": "50658"}}},
{"geometry": {"type": "Point", "coordinates": [-92.3152830416, 43.0603260296]}, "type": "Feature", "properties": {"collection_times": [{"days": "Mon-Fri", "time": "5:00pm"}, {"days": "Sat-Sun", "time": "Closed"}], "id": "5065900000", "name": "USPS COLLECTION BOX - BLUE BOX", "address": {"city": "NEW HAMPTON", "state": "IA", "street": "108 N CHESTNUT AVE", "postcode": "50659"}}},
{"geometry": {"type": "Point", "coordinates": [-92.3152830416, 43.0603260296]}, "type": "Feature", "properties": {"collection_times": [{"days": "Mon-Sat", "time": "5:00pm"}, {"days": "Sun", "time": "Closed"}], "id": "5065900003", "name": "USPS COLLECTION BOX - BLUE BOX", "address": {"city": "NEW HAMPTON", "state": "IA", "street": "108 N CHESTNUT AVE", "postcode": "50659"}}},
{"geometry": {"type": "Point", "coordinates": [-92.3152830416, 43.0603260296]}, "type": "Feature", "properties": {"collection_times": [{"days": "Mon-Fri", "time": "5:15pm"}, {"days": "Sat", "time": "10:30am"}, {"days": "Sun", "time": "Closed"}], "id": "5065900004", "name": "USPS COLLECTION BOX - PO LOBBY", "address": {"city": "NEW HAMPTON", "state": "IA", "street": "108 N CHESTNUT AVE", "postcode": "50659"}}},
{"geometry": {"type": "Point", "coordinates": [-92.6220031793, 42.5675796978]}, "type": "Feature", "properties": {"collection_times": [{"days": "Mon-Fri", "time": "4:15pm"}, {"days": "Sat", "time": "4:30pm"}, {"days": "Sun", "time": "Closed"}], "id": "5066000000", "name": "USPS COLLECTION BOX - BLUE BOX", "address": {"city": "NEW HARTFORD", "state": "IA", "street": "403 PACKWAUKEE ST", "postcode": "50660"}}},
{"geometry": {"type": "Point", "coordinates": [-92.622, 42.5676]}, "type": "Feature", "properties": {"collection_times": [{"days": "Mon-Fri", "time": "3:45pm"}, {"days": "Sat-Sun", "time": "Closed"}], "id": "5066000001", "name": "USPS COLLECTION BOX - PO LOBBY", "address": {"city": "NEW HARTFORD", "state": "IA", "street": "403 PACKWAUKEE ST", "postcode": "50660"}}},
{"geometry": {"type": "Point", "coordinates": [-91.9120420574, 42.6789325278]}, "type": "Feature", "properties": {"collection_times": [{"days": "Mon-Fri", "time": "5:30pm"}, {"days": "Sat", "time": "3:30pm"}, {"days": "Sun", "time": "Closed"}], "id": "5066200011", "name": "USPS COLLECTION BOX - BLUE BOX", "address": {"city": "OELWEIN", "state": "IA", "street": "30 1ST AVE NE", "postcode": "50662"}}},
{"geometry": {"type": "Point", "coordinates": [-91.911997695, 42.6796076057]}, "type": "Feature", "properties": {"collection_times": [{"days": "Mon-Fri", "time": "5:30pm"}, {"days": "Sat", "time": "3:30pm"}, {"days": "Sun", "time": "Closed"}], "id": "5066200012", "name": "USPS COLLECTION BOX - BLUE BOX", "address": {"city": "OELWEIN", "state": "IA", "street": "30 1ST AVE NE", "postcode": "50662"}}},
{"geometry": {"type": "Point", "coordinates": [-91.9120420574, 42.6789325278]}, "type": "Feature", "properties": {"collection_times": [{"days": "Mon-Fri", "time": "5:30pm"}, {"days": "Sat", "time": "3:45pm"}, {"days": "Sun", "time": "Closed"}], "id": "5066200013", "name": "USPS COLLECTION BOX - PO LOBBY", "address": {"city": "OELWEIN", "state": "IA", "street": "30 1ST AVE NE", "postcode": "50662"}}},
{"geometry": {"type": "Point", "coordinates": [-92.7864622624, 42.5772730638]}, "type": "Feature", "properties": {"collection_times": [{"days": "Mon-Fri", "time": "4:30pm"}, {"days": "Sat", "time": "4:45pm"}, {"days": "Sun", "time": "Closed"}], "id": "5066500000", "name": "USPS COLLECTION BOX - BLUE BOX", "address": {"city": "PARKERSBURG", "state": "IA", "street": "602 COATES ST", "postcode": "50665"}}},
{"geometry": {"type": "Point", "coordinates": [-92.7864622624, 42.5772730638]}, "type": "Feature", "properties": {"collection_times": [{"days": "Mon-Fri", "time": "4:30pm"}, {"days": "Sat", "time": "9:00am"}, {"days": "Sun", "time": "Closed"}], "id": "5066500002", "name": "USPS COLLECTION BOX - PO LOBBY", "address": {"city": "PARKERSBURG", "state": "IA", "street": "602 COATES ST", "postcode": "50665"}}},
{"geometry": {"type": "Point", "coordinates": [-92.5354737577, 42.8405557858]}, "type": "Feature", "properties": {"collection_times": [{"days": "Mon-Sat", "time": "4:00pm"}, {"days": "Sun", "time": "Closed"}], "id": "5066600000", "name": "USPS COLLECTION BOX - BLUE BOX", "address": {"city": "PLAINFIELD", "state": "IA", "street": "720 MAIN ST", "postcode": "50666"}}},
{"geometry": {"type": "Point", "coordinates": [-92.5354737577, 42.8405557858]}, "type": "Feature", "properties": {"collection_times": [{"days": "Mon-Fri", "time": "12:15pm"}, {"days": "Sat-Sun", "time": "Closed"}], "id": "5066600001", "name": "USPS COLLECTION BOX - PO LOBBY", "address": {"city": "PLAINFIELD", "state": "IA", "street": "720 MAIN ST", "postcode": "50666"}}},
{"geometry": {"type": "Point", "coordinates": [-92.2315896199, 42.4724960224]}, "type": "Feature", "properties": {"collection_times": [{"days": "Mon-Fri", "time": "4:00pm"}, {"days": "Sat", "time": "5:45pm"}, {"days": "Sun", "time": "Closed"}], "id": "5066700000", "name": "USPS COLLECTION BOX - BLUE BOX", "address": {"city": "RAYMOND", "state": "IA", "street": "111 COMMERCIAL ST", "postcode": "50667"}}},
{"geometry": {"type": "Point", "coordinates": [-92.2315896199, 42.4724960224]}, "type": "Feature", "properties": {"collection_times": [{"days": "Mon-Fri", "time": "4:00pm"}, {"days": "Sat", "time": "10:30am"}, {"days": "Sun", "time": "Closed"}], "id": "5066700001", "name": "USPS COLLECTION BOX - PO LOBBY", "address": {"city": "RAYMOND", "state": "IA", "street": "111 COMMERCIAL ST", "postcode": "50667"}}},
{"geometry": {"type": "Point", "coordinates": [-92.2253062182, 42.701836742]}, "type": "Feature", "properties": {"collection_times": [{"days": "Mon-Fri", "time": "4:15pm"}, {"days": "Sat", "time": "4:30pm"}, {"days": "Sun", "time": "Closed"}], "id": "5066800000", "name": "USPS COLLECTION BOX - BLUE BOX", "address": {"city": "READLYN", "state": "IA", "street": "218 MAIN ST", "postcode": "50668"}}},
{"geometry": {"type": "Point", "coordinates": [-92.2253062182, 42.701836742]}, "type": "Feature", "properties": {"collection_times": [{"days": "Mon-Fri", "time": "2:15pm"}, {"days": "Sat", "time": "8:30am"}, {"days": "Sun", "time": "Closed"}], "id": "5066800001", "name": "USPS COLLECTION BOX - PO LOBBY", "address": {"city": "READLYN", "state": "IA", "street": "218 MAIN ST", "postcode": "50668"}}},
{"geometry": {"type": "Point", "coordinates": [-92.5993855162, 42.3236538661]}, "type": "Feature", "properties": {"collection_times": [{"days": "Mon-Fri", "time": "5:15pm"}, {"days": "Sat", "time": "6:00pm"}, {"days": "Sun", "time": "Closed"}], "id": "5066900000", "name": "USPS COLLECTION BOX - BLUE BOX", "address": {"city": "REINBECK", "state": "IA", "street": "509 CLARK ST", "postcode": "50669"}}},
{"geometry": {"type": "Point", "coordinates": [-92.5993855162, 42.3236538661]}, "type": "Feature", "properties": {"collection_times": [{"days": "Mon-Fri", "time": "5:15pm"}, {"days": "Sat-Sun", "time": "Closed"}], "id": "5066900002", "name": "USPS COLLECTION BOX - PO LOBBY", "address": {"city": "REINBECK", "state": "IA", "street": "509 CLARK ST", "postcode": "50669"}}},
{"geometry": {"type": "Point", "coordinates": [-92.5835177788, 42.711537249]}, "type": "Feature", "properties": {"collection_times": [{"days": "Mon-Fri", "time": "4:15pm"}, {"days": "Sat", "time": "4:00pm"}, {"days": "Sun", "time": "Closed"}], "id": "5067000001", "name": "USPS COLLECTION BOX - BLUE BOX", "address": {"city": "SHELL ROCK", "state": "IA", "street": "203 S WALNUT ST", "postcode": "50670"}}},
{"geometry": {"type": "Point", "coordinates": [-92.5835177788, 42.711537249]}, "type": "Feature", "properties": {"collection_times": [{"days": "Mon-Fri", "time": "4:15pm"}, {"days": "Sat", "time": "10:00am"}, {"days": "Sun", "time": "Closed"}], "id": "5067000003", "name": "USPS COLLECTION BOX - PO LOBBY", "address": {"city": "SHELL ROCK", "state": "IA", "street": "203 S WALNUT ST", "postcode": "50670"}}},
{"geometry": {"type": "Point", "coordinates": [-93.0657201256, 42.4074126276]}, "type": "Feature", "properties": {"collection_times": [{"days": "Mon-Fri", "time": "4:00pm"}, {"days": "Sat", "time": "3:30pm"}, {"days": "Sun", "time": "Closed"}], "id": "5067200000", "name": "USPS COLLECTION BOX - BLUE BOX", "address": {"city": "STEAMBOAT ROCK", "state": "IA", "street": "108 4TH ST", "postcode": "50672"}}},
{"geometry": {"type": "Point", "coordinates": [-93.0657201256, 42.4074126276]}, "type": "Feature", "properties": {"collection_times": [{"days": "Mon-Fri", "time": "12:45pm"}, {"days": "Sat", "time": "9:45am"}, {"days": "Sun", "time": "Closed"}], "id": "5067200001", "name": "USPS COLLECTION BOX - PO LOBBY", "address": {"city": "STEAMBOAT ROCK", "state": "IA", "street": "108 4TH ST", "postcode": "50672"}}},
{"geometry": {"type": "Point", "coordinates": [-92.7118845725, 42.5276040106]}, "type": "Feature", "properties": {"collection_times": [{"days": "Mon-Fri", "time": "4:00pm"}, {"days": "Sat", "time": "4:45pm"}, {"days": "Sun", "time": "Closed"}], "id": "5067300000", "name": "USPS COLLECTION BOX - BLUE BOX", "address": {"city": "STOUT", "state": "IA", "street": "204 MAIN ST", "postcode": "50673"}}},
{"geometry": {"type": "Point", "coordinates": [-92.7118845725, 42.5276040106]}, "type": "Feature", "properties": {"collection_times": [{"days": "Mon-Fri", "time": "11:45am"}, {"days": "Sat-Sun", "time": "Closed"}], "id": "5067300001", "name": "USPS COLLECTION BOX - PO LOBBY", "address": {"city": "STOUT", "state": "IA", "street": "204 MAIN ST", "postcode": "50673"}}},
{"geometry": {"type": "Point", "coordinates": [-92.0978942801, 42.8473546903]}, "type": "Feature", "properties": {"collection_times": [{"days": "Mon-Sat", "time": "4:30pm"}, {"days": "Sun", "time": "Closed"}], "id": "5067400002", "name": "USPS COLLECTION BOX - BLUE BOX", "address": {"city": "SUMNER", "state": "IA", "street": "113 S CARPENTER ST", "postcode": "50674"}}},
{"geometry": {"type": "Point", "coordinates": [-92.0978942801, 42.8473546903]}, "type": "Feature", "properties": {"collection_times": [{"days": "Mon-Fri", "time": "4:30pm"}, {"days": "Sat", "time": "9:30am"}, {"days": "Sun", "time": "Closed"}], "id": "5067400004", "name": "USPS COLLECTION BOX - PO LOBBY", "address": {"city": "SUMNER", "state": "IA", "street": "113 S CARPENTER ST", "postcode": "50674"}}},
{"geometry": {"type": "Point", "coordinates": [-92.4653740889, 42.1943553049]}, "type": "Feature", "properties": {"collection_times": [{"days": "Mon-Fri", "time": "4:30pm"}, {"days": "Sat", "time": "5:00pm"}, {"days": "Sun", "time": "Closed"}], "id": "5067500001", "name": "USPS COLLECTION BOX - BLUE BOX", "address": {"city": "TRAER", "state": "IA", "street": "101 N MAIN ST", "postcode": "50675"}}},
{"geometry": {"type": "Point", "coordinates": [-92.4653740889, 42.1943553049]}, "type": "Feature", "properties": {"collection_times": [{"days": "Mon-Fri", "time": "4:30pm"}, {"days": "Sat", "time": "10:30am"}, {"days": "Sun", "time": "Closed"}], "id": "5067500002", "name": "USPS COLLECTION BOX - PO LOBBY", "address": {"city": "TRAER", "state": "IA", "street": "101 N MAIN ST", "postcode": "50675"}}},
{"geometry": {"type": "Point", "coordinates": [-92.2582186531, 42.8093336825]}, "type": "Feature", "properties": {"collection_times": [{"days": "Mon-Fri", "time": "4:00pm"}, {"days": "Sat", "time": "5:15pm"}, {"days": "Sun", "time": "Closed"}], "id": "5067600000", "name": "USPS COLLECTION BOX - BLUE BOX", "address": {"city": "TRIPOLI", "state": "IA", "street": "114 S MAIN ST", "postcode": "50676"}}},
{"geometry": {"type": "Point", "coordinates": [-92.2582186531, 42.8093336825]}, "type": "Feature", "properties": {"collection_times": [{"days": "Mon-Fri", "time": "4:00pm"}, {"days": "Sat", "time": "9:45am"}, {"days": "Sun", "time": "Closed"}], "id": "5067600001", "name": "USPS COLLECTION BOX - PO LOBBY", "address": {"city": "TRIPOLI", "state": "IA", "street": "114 S MAIN ST", "postcode": "50676"}}},
{"geometry": {"type": "Point", "coordinates": [-92.4829402355, 42.7255111394]}, "type": "Feature", "properties": {"collection_times": [{"days": "Mon-Sat", "time": "10:00am"}, {"days": "Sun", "time": "Closed"}], "id": "5067700010", "name": "USPS COLLECTION BOX - BLUE BOX", "address": {"city": "WAVERLY", "state": "IA", "street": "114 10TH ST SW", "postcode": "50677"}}},
{"geometry": {"type": "Point", "coordinates": [-92.4949314358, 42.7270610029]}, "type": "Feature", "properties": {"collection_times": [{"days": "Mon-Sat", "time": "11:00am"}, {"days": "Sun", "time": "Closed"}], "id": "5067700013", "name": "USPS COLLECTION BOX - BLUE BOX", "address": {"city": "WAVERLY", "state": "IA", "street": "204 20TH ST NW", "postcode": "50677"}}},
{"geometry": {"type": "Point", "coordinates": [-92.4676061846, 42.7152502223]}, "type": "Feature", "properties": {"collection_times": [{"days": "Mon-Sat", "time": "5:15pm"}, {"days": "Sun", "time": "Closed"}], "id": "5067700020", "name": "USPS COLLECTION BOX - BLUE BOX", "address": {"city": "WAVERLY", "state": "IA", "street": "124 2ND ST SE", "postcode": "50677"}}},
{"geometry": {"type": "Point", "coordinates": [-92.4680265766, 42.725531106]}, "type": "Feature", "properties": {"collection_times": [{"days": "Mon-Fri", "time": "5:15pm"}, {"days": "Sat", "time": "3:30pm"}, {"days": "Sun", "time": "Closed"}], "id": "5067700023", "name": "USPS COLLECTION BOX - PO LOBBY", "address": {"city": "WAVERLY", "state": "IA", "street": "124 2ND ST SE", "postcode": "50677"}}},
{"geometry": {"type": "Point", "coordinates": [-92.4755818249, 42.7133325864]}, "type": "Feature", "properties": {"collection_times": [{"days": "Mon-Sat", "time": "1:00pm"}, {"days": "Sun", "time": "Closed"}], "id": "5067700024", "name": "USPS COLLECTION BOX - BLUE BOX", "address": {"city": "WAVERLY", "state": "IA", "street": "1311 4TH ST SW", "postcode": "50677"}}},
{"geometry": {"type": "Point", "coordinates": [-92.9261891901, 42.4349894598]}, "type": "Feature", "properties": {"collection_times": [{"days": "Mon-Sat", "time": "4:00pm"}, {"days": "Sun", "time": "Closed"}], "id": "5068000000", "name": "USPS COLLECTION BOX - BLUE BOX", "address": {"city": "WELLSBURG", "state": "IA", "street": "500 N ADAMS ST", "postcode": "50680"}}},
{"geometry": {"type": "Point", "coordinates": [-92.9261891901, 42.4349894598]}, "type": "Feature", "properties": {"collection_times": [{"days": "Mon-Fri", "time": "2:15pm"}, {"days": "Sat", "time": "8:30am"}, {"days": "Sun", "time": "Closed"}], "id": "5068000001", "name": "USPS COLLECTION BOX - PO LOBBY", "address": {"city": "WELLSBURG", "state": "IA", "street": "500 N ADAMS ST", "postcode": "50680"}}},
{"geometry": {"type": "Point", "coordinates": [-91.7338365956, 42.4729479186]}, "type": "Feature", "properties": {"collection_times": [{"days": "Mon-Sat", "time": "4:30pm"}, {"days": "Sun", "time": "Closed"}], "id": "5068200000", "name": "USPS COLLECTION BOX - BLUE BOX", "address": {"city": "WINTHROP", "state": "IA", "street": "253 W MADISON ST", "postcode": "50682"}}},
{"geometry": {"type": "Point", "coordinates": [-91.7338365956, 42.4729479186]}, "type": "Feature", "properties": {"collection_times": [{"days": "Mon-Fri", "time": "4:30pm"}, {"days": "Sat-Sun", "time": "Closed"}], "id": "5068200001", "name": "USPS COLLECTION BOX - PO LOBBY", "address": {"city": "WINTHROP", "state": "IA", "street": "253 W MADISON ST", "postcode": "50682"}}}
]}
