{"type": "FeatureCollection", "features": [
{"geometry": {"type": "Point", "coordinates": [-92.3398505785, 42.4952511041]}, "type": "Feature", "properties": {"collection_times": [{"days": "Mon-Fri", "time": "4:00pm"}, {"days": "Sat", "time": "2:30pm"}, {"days": "Sun", "time": "Closed"}], "id": "5070100000", "name": "USPS COLLECTION BOX - BLUE BOX", "address": {"city": "WATERLOO", "state": "IA", "street": "531 COMMERCIAL ST", "postcode": "50701"}}},
{"geometry": {"type": "Point", "coordinates": [-92.3398505785, 42.4952511041]}, "type": "Feature", "properties": {"collection_times": [{"days": "Mon-Fri", "time": "4:00pm"}, {"days": "Sat", "time": "2:30pm"}, {"days": "Sun", "time": "Closed"}], "id": "5070100001", "name": "USPS COLLECTION BOX - BLUE BOX", "address": {"city": "WATERLOO", "state": "IA", "street": "531 COMMERCIAL ST", "postcode": "50701"}}},
{"geometry": {"type": "Point", "coordinates": [-92.3768987504, 42.4912209708]}, "type": "Feature", "properties": {"collection_times": [{"days": "Mon-Fri", "time": "3:00pm"}, {"days": "Sat", "time": "11:30am"}, {"days": "Sun", "time": "Closed"}], "id": "5070100019", "name": "USPS COLLECTION BOX - BLUE BOX", "address": {"city": "WATERLOO", "state": "IA", "street": "1827 ANSBOROUGH AVE", "postcode": "50701"}}},
{"geometry": {"type": "Point", "coordinates": [-92.3790013933, 42.4962622128]}, "type": "Feature", "properties": {"collection_times": [{"days": "Mon-Fri", "time": "3:00pm"}, {"days": "Sat", "time": "2:00pm"}, {"days": "Sun", "time": "Closed"}], "id": "5070100021", "name": "USPS COLLECTION BOX - BLUE BOX", "address": {"city": "WATERLOO", "state": "IA", "street": "2530 UNIVERSITY AVE", "postcode": "50701"}}},
{"geometry": {"type": "Point", "coordinates": [-92.332201011, 42.4282822447]}, "type": "Feature", "properties": {"collection_times": [{"days": "Mon-Sat", "time": "10:00am"}, {"days": "Sun", "time": "Closed"}], "id": "5070100022", "name": "USPS COLLECTION BOX - BLUE BOX", "address": {"city": "WATERLOO", "state": "IA", "street": "6018 STARDUST DR", "postcode": "50701"}}},
{"geometry": {"type": "Point", "coordinates": [-92.3790013933, 42.4962622128]}, "type": "Feature", "properties": {"collection_times": [{"days": "Mon-Fri", "time": "3:00pm"}, {"days": "Sat", "time": "2:00pm"}, {"days": "Sun", "time": "Closed"}], "id": "5070100023", "name": "USPS COLLECTION BOX - BLUE BOX", "address": {"city": "WATERLOO", "state": "IA", "street": "2530 UNIVERSITY AVE", "postcode": "50701"}}},
{"geometry": {"type": "Point", "coordinates": [-92.4038903838, 42.5052689606]}, "type": "Feature", "properties": {"collection_times": [{"days": "Mon-Fri", "time": "3:15pm"}, {"days": "Sat", "time": "2:00pm"}, {"days": "Sun", "time": "Closed"}], "id": "5070100024", "name": "USPS COLLECTION BOX - BLUE BOX", "address": {"city": "WATERLOO", "state": "IA", "street": "4000 UNIVERSITY AVE", "postcode": "50701"}}},
{"geometry": {"type": "Point", "coordinates": [-92.4038903838, 42.5052689606]}, "type": "Feature", "properties": {"collection_times": [{"days": "Mon-Fri", "time": "3:15pm"}, {"days": "Sat", "time": "2:00pm"}, {"days": "Sun", "time": "Closed"}], "id": "5070100025", "name": "USPS COLLECTION BOX - BLUE BOX", "address": {"city": "WATERLOO", "state": "IA", "street": "4000 UNIVERSITY AVE", "postcode": "50701"}}},
{"geometry": {"type": "Point", "coordinates": [-92.3742293763, 42.4687052903]}, "type": "Feature", "properties": {"collection_times": [{"days": "Mon-Sat", "time": "10:00am"}, {"days": "Sun", "time": "Closed"}], "id": "5070100029", "name": "USPS COLLECTION BOX - BLUE BOX", "address": {"city": "WATERLOO", "state": "IA", "street": "1173 DIXON DR", "postcode": "50701"}}},
{"geometry": {"type": "Point", "coordinates": [-92.3761172258, 42.4590182196]}, "type": "Feature", "properties": {"collection_times": [{"days": "Mon-Sat", "time": "1:00pm"}, {"days": "Sun", "time": "Closed"}], "id": "5070100032", "name": "USPS COLLECTION BOX - BLUE BOX", "address": {"city": "WATERLOO", "state": "IA", "street": "999 HOME PLZ", "postcode": "50701"}}},
{"geometry": {"type": "Point", "coordinates": [-92.3804511115, 42.4791604711]}, "type": "Feature", "properties": {"collection_times": [{"days": "Mon-Sat", "time": "2:30pm"}, {"days": "Sun", "time": "Closed"}], "id": "5070100034", "name": "USPS COLLECTION BOX - BLUE BOX", "address": {"city": "WATERLOO", "state": "IA", "street": "2834 ANSBOROUGH AVE", "postcode": "50701"}}},
{"geometry": {"type": "Point", "coordinates": [-92.3672087572, 42.4886486442]}, "type": "Feature", "properties": {"collection_times": [{"days": "Mon-Fri", "time": "3:45pm"}, {"days": "Sat", "time": "2:15pm"}, {"days": "Sun", "time": "Closed"}], "id": "5070100036", "name": "USPS COLLECTION BOX - BLUE BOX", "address": {"city": "WATERLOO", "state": "IA", "street": "324 FLETCHER AVE", "postcode": "50701"}}},
{"geometry": {"type": "Point", "coordinates": [-92.3768987504, 42.4912209708]}, "type": "Feature", "properties": {"collection_times": [{"days": "Mon-Fri", "time": "3:00pm"}, {"days": "Sat", "time": "11:30am"}, {"days": "Sun", "time": "Closed"}], "id": "5070100040", "name": "USPS COLLECTION BOX - BLUE BOX", "address": {"city": "WATERLOO", "state": "IA", "street": "1827 ANSBOROUGH AVE", "postcode": "50701"}}},
{"geometry": {"type": "Point", "coordinates": [-92.2939413165, 42.4286215612]}, "type": "Feature", "properties": {"collection_times": [{"days": "Mon-Sat", "time": "12:00pm"}, {"days": "Sun", "time": "Closed"}], "id": "5070100042", "name": "USPS COLLECTION BOX - BLUE BOX", "address": {"city": "WATERLOO", "state": "IA", "street": "3451 E ORANGE RD", "postcode": "50701"}}},
{"geometry": {"type": "Point", "coordinates": [-92.3751355815, 42.4654922691]}, "type": "Feature", "properties": {"collection_times": [{"days": "Mon-Sat", "time": "1:00pm"}, {"days": "Sun", "time": "Closed"}], "id": "5070100056", "name": "USPS COLLECTION BOX - BLUE BOX", "address": {"city": "WATERLOO", "state": "IA", "street": "1141 LANTERN SQ", "postcode": "50701"}}},
{"geometry": {"type": "Point", "coordinates": [-92.3575058624, 42.457678298]}, "type": "Feature", "properties": {"collection_times": [{"days": "Mon-Fri", "time": "2:00pm"}, {"days": "Sat", "time": "1:45pm"}, {"days": "Sun", "time": "Closed"}], "id": "5070100057", "name": "USPS COLLECTION BOX - BLUE BOX", "address": {"city": "WATERLOO", "state": "IA", "street": "40 W SAN MARNAN DR", "postcode": "50701"}}},
{"geometry": {"type": "Point", "coordinates": [-92.3575058624, 42.457678298]}, "type": "Feature", "properties": {"collection_times": [{"days": "Mon-Fri", "time": "2:00pm"}, {"days": "Sat", "time": "1:45pm"}, {"days": "Sun", "time": "Closed"}], "id": "5070100058", "name": "USPS COLLECTION BOX - BLUE BOX", "address": {"city": "WATERLOO", "state": "IA", "street": "40 W SAN MARNAN DR", "postcode": "50701"}}},
{"geometry": {"type": "Point", "coordinates": [-92.3761172258, 42.4590182196]}, "type": "Feature", "properties": {"collection_times": [{"days": "Mon-Sat", "time": "1:00pm"}, {"days": "Sun", "time": "Closed"}], "id": "5070100061", "name": "USPS COLLECTION BOX - BLUE BOX", "address": {"city": "WATERLOO", "state": "IA", "street": "999 HOME PLZ", "postcode": "50701"}}},
{"geometry": {"type": "Point", "coordinates": [-92.3670579574, 42.4750828941]}, "type": "Feature", "properties": {"collection_times": [{"days": "Mon-Sat", "time": "10:00am"}, {"days": "Sun", "time": "Closed"}], "id": "5070100066", "name": "USPS COLLECTION BOX - BLUE BOX", "address": {"city": "WATERLOO", "state": "IA", "street": "5535 DYSART RD", "postcode": "50701"}}},
{"geometry": {"type": "Point", "coordinates": [-92.3465881353, 42.4897188704]}, "type": "Feature", "properties": {"collection_times": [{"days": "Mon-Fri", "time": "1:15pm"}, {"days": "Sat", "time": "8:30am"}, {"days": "Sun", "time": "Closed"}], "id": "5070200003", "name": "USPS COLLECTION BOX - BLUE BOX", "address": {"city": "WASHBURN", "state": "IA", "street": "847 W 4TH ST", "postcode": "50702"}}},
{"geometry": {"type": "Point", "coordinates": [-92.3539597323, 42.4802319695]}, "type": "Feature", "properties": {"collection_times": [{"days": "Mon-Sat", "time": "9:00am"}, {"days": "Sun", "time": "Closed"}], "id": "5070200009", "name": "USPS COLLECTION BOX - BLUE BOX", "address": {"city": "WASHBURN", "state": "IA", "street": "224 BYRON AVE", "postcode": "50702"}}},
{"geometry": {"type": "Point", "coordinates": [-92.3570404262, 42.4712810564]}, "type": "Feature", "properties": {"collection_times": [{"days": "Mon-Sat", "time": "12:00pm"}, {"days": "Sun", "time": "Closed"}], "id": "5070200016", "name": "USPS COLLECTION BOX - BLUE BOX", "address": {"city": "WASHBURN", "state": "IA", "street": "2120 KIMBALL AVE", "postcode": "50702"}}},
{"geometry": {"type": "Point", "coordinates": [-92.3442935697, 42.4602160531]}, "type": "Feature", "properties": {"collection_times": [{"days": "Mon-Sat", "time": "9:30am"}, {"days": "Sun", "time": "Closed"}], "id": "5070200017", "name": "USPS COLLECTION BOX - BLUE BOX", "address": {"city": "WASHBURN", "state": "IA", "street": "2710 SAINT FRANCIS DR", "postcode": "50702"}}},
{"geometry": {"type": "Point", "coordinates": [-92.3295323506, 42.4598998451]}, "type": "Feature", "properties": {"collection_times": [{"days": "Mon-Sat", "time": "1:30pm"}, {"days": "Sun", "time": "Closed"}], "id": "5070200020", "name": "USPS COLLECTION BOX - BLUE BOX", "address": {"city": "WASHBURN", "state": "IA", "street": "1422 FLAMMANG DR", "postcode": "50702"}}},
{"geometry": {"type": "Point", "coordinates": [-92.2609987448, 42.4049605631]}, "type": "Feature", "properties": {"collection_times": [{"days": "Mon-Sat", "time": "2:00pm"}, {"days": "Sun", "time": "Closed"}], "id": "5070200022", "name": "USPS COLLECTION BOX - BLUE BOX", "address": {"city": "WASHBURN", "state": "IA", "street": "7305 LAPORTE RD", "postcode": "50702"}}},
{"geometry": {"type": "Point", "coordinates": [-92.3228802302, 42.4770510781]}, "type": "Feature", "properties": {"collection_times": [{"days": "Mon-Sat", "time": "1:00pm"}, {"days": "Sun", "time": "Closed"}], "id": "5070200024", "name": "USPS COLLECTION BOX - BLUE BOX", "address": {"city": "WASHBURN", "state": "IA", "street": "928 LAPORTE RD", "postcode": "50702"}}},
{"geometry": {"type": "Point", "coordinates": [-92.34381433, 42.4765881906]}, "type": "Feature", "properties": {"collection_times": [{"days": "Mon-Fri", "time": "1:15pm"}, {"days": "Sat", "time": "1:30pm"}, {"days": "Sun", "time": "Closed"}], "id": "5070200026", "name": "USPS COLLECTION BOX - BLUE BOX", "address": {"city": "WASHBURN", "state": "IA", "street": "1010 E MITCHELL AVE", "postcode": "50702"}}},
{"geometry": {"type": "Point", "coordinates": [-92.3569963743, 42.467068327]}, "type": "Feature", "properties": {"collection_times": [{"days": "Mon-Fri", "time": "2:15pm"}, {"days": "Sat", "time": "1:45pm"}, {"days": "Sun", "time": "Closed"}], "id": "5070200027", "name": "USPS COLLECTION BOX - BLUE BOX", "address": {"city": "WASHBURN", "state": "IA", "street": "3138 KIMBALL AVE", "postcode": "50702"}}},
{"geometry": {"type": "Point", "coordinates": [-92.3569963743, 42.467068327]}, "type": "Feature", "properties": {"collection_times": [{"days": "Mon-Fri", "time": "2:15pm"}, {"days": "Sat", "time": "1:45pm"}, {"days": "Sun", "time": "Closed"}], "id": "5070200028", "name": "USPS COLLECTION BOX - BLUE BOX", "address": {"city": "WASHBURN", "state": "IA", "street": "3138 KIMBALL AVE", "postcode": "50702"}}},
{"geometry": {"type": "Point", "coordinates": [-92.3569963743, 42.467068327]}, "type": "Feature", "properties": {"collection_times": [{"days": "Mon-Fri", "time": "2:15pm"}, {"days": "Sat", "time": "1:45pm"}, {"days": "Sun", "time": "Closed"}], "id": "5070200029", "name": "USPS COLLECTION BOX - BLUE BOX", "address": {"city": "WASHBURN", "state": "IA", "street": "3138 KIMBALL AVE", "postcode": "50702"}}},
{"geometry": {"type": "Point", "coordinates": [-92.327006903, 42.4672965326]}, "type": "Feature", "properties": {"collection_times": [{"days": "Mon-Sat", "time": "9:30am"}, {"days": "Sun", "time": "Closed"}], "id": "5070200033", "name": "USPS COLLECTION BOX - BLUE BOX", "address": {"city": "WASHBURN", "state": "IA", "street": "1650 CAMELOT DR", "postcode": "50702"}}},
{"geometry": {"type": "Point", "coordinates": [-92.3270506389, 42.4692884554]}, "type": "Feature", "properties": {"collection_times": [{"days": "Mon-Sat", "time": "9:30am"}, {"days": "Sun", "time": "Closed"}], "id": "5070200034", "name": "USPS COLLECTION BOX - BLUE BOX", "address": {"city": "WASHBURN", "state": "IA", "street": "1820 E RIDGEWAY AVE", "postcode": "50702"}}},
{"geometry": {"type": "Point", "coordinates": [-92.3234240792, 42.4641570559]}, "type": "Feature", "properties": {"collection_times": [{"days": "Mon-Sat", "time": "1:30pm"}, {"days": "Sun", "time": "Closed"}], "id": "5070200041", "name": "USPS COLLECTION BOX - BLUE BOX", "address": {"city": "WASHBURN", "state": "IA", "street": "2900 CROSSROADS BLVD", "postcode": "50702"}}},
{"geometry": {"type": "Point", "coordinates": [-92.3234240792, 42.4641570559]}, "type": "Feature", "properties": {"collection_times": [{"days": "Mon-Sat", "time": "1:30pm"}, {"days": "Sun", "time": "Closed"}], "id": "5070200042", "name": "USPS COLLECTION BOX - BLUE BOX", "address": {"city": "WASHBURN", "state": "IA", "street": "2900 CROSSROADS BLVD", "postcode": "50702"}}},
{"geometry": {"type": "Point", "coordinates": [-92.3507056084, 42.4635191831]}, "type": "Feature", "properties": {"collection_times": [{"days": "Mon-Fri", "time": "2:00pm"}, {"days": "Sat", "time": "1:45pm"}, {"days": "Sun", "time": "Closed"}], "id": "5070200043", "name": "USPS COLLECTION BOX - BLUE BOX", "address": {"city": "WASHBURN", "state": "IA", "street": "527 PARK LN", "postcode": "50702"}}},
{"geometry": {"type": "Point", "coordinates": [-92.3564372442, 42.4844463133]}, "type": "Feature", "properties": {"collection_times": [{"days": "Mon-Sat", "time": "9:45am"}, {"days": "Sun", "time": "Closed"}], "id": "5070200052", "name": "USPS COLLECTION BOX - BLUE BOX", "address": {"city": "WASHBURN", "state": "IA", "street": "1636 W 4TH ST", "postcode": "50702"}}},
{"geometry": {"type": "Point", "coordinates": [-92.307622661, 42.4984336255]}, "type": "Feature", "properties": {"collection_times": [{"days": "Mon-Fri", "time": "3:00pm"}, {"days": "Sat-Sun", "time": "Closed"}], "id": "5070300000", "name": "USPS COLLECTION BOX - BLUE BOX", "address": {"city": "WATERLOO", "state": "IA", "street": "1407 INDEPENDENCE AVE", "postcode": "50703"}}},
{"geometry": {"type": "Point", "coordinates": [-92.3330480843, 42.5005782152]}, "type": "Feature", "properties": {"collection_times": [{"days": "Mon-Fri", "time": "1:00pm"}, {"days": "Sat-Sun", "time": "Closed"}], "id": "5070300006", "name": "USPS COLLECTION BOX - BLUE BOX", "address": {"city": "WATERLOO", "state": "IA", "street": "500 E 4TH ST", "postcode": "50703"}}},
{"geometry": {"type": "Point", "coordinates": [-92.3337212457, 42.4984402768]}, "type": "Feature", "properties": {"collection_times": [{"days": "Mon-Fri", "time": "1:00pm"}, {"days": "Sat", "time": "9:00am"}, {"days": "Sun", "time": "Closed"}], "id": "5070300007", "name": "USPS COLLECTION BOX - BLUE BOX", "address": {"city": "WATERLOO", "state": "IA", "street": "316 E 5TH ST", "postcode": "50703"}}},
{"geometry": {"type": "Point", "coordinates": [-92.3451991982, 42.5122424852]}, "type": "Feature", "properties": {"collection_times": [{"days": "Mon-Sat", "time": "2:00pm"}, {"days": "Sun", "time": "Closed"}], "id": "5070300016", "name": "USPS COLLECTION BOX - BLUE BOX", "address": {"city": "WATERLOO", "state": "IA", "street": "707 BROADWAY ST", "postcode": "50703"}}},
{"geometry": {"type": "Point", "coordinates": [-92.3337212457, 42.4984402768]}, "type": "Feature", "properties": {"collection_times": [{"days": "Mon-Fri", "time": "1:00pm"}, {"days": "Sat", "time": "9:00am"}, {"days": "Sun", "time": "Closed"}], "id": "5070300021", "name": "USPS COLLECTION BOX - BLUE BOX", "address": {"city": "WATERLOO", "state": "IA", "street": "316 E 5TH ST", "postcode": "50703"}}},
{"geometry": {"type": "Point", "coordinates": [-92.316586637, 42.4908781841]}, "type": "Feature", "properties": {"collection_times": [{"days": "Mon-Sat", "time": "12:00pm"}, {"days": "Sun", "time": "Closed"}], "id": "5070300024", "name": "USPS COLLECTION BOX - BLUE BOX", "address": {"city": "WATERLOO", "state": "IA", "street": "1956 LAFAYETTE ST", "postcode": "50703"}}},
{"geometry": {"type": "Point", "coordinates": [-92.3268261743, 42.4963414644]}, "type": "Feature", "properties": {"collection_times": [{"days": "Mon-Sat", "time": "10:30am"}, {"days": "Sun", "time": "Closed"}], "id": "5070300027", "name": "USPS COLLECTION BOX - BLUE BOX", "address": {"city": "WATERLOO", "state": "IA", "street": "1214 FRANKLIN ST", "postcode": "50703"}}},
{"geometry": {"type": "Point", "coordinates": [-92.3376463082, 42.5317123504]}, "type": "Feature", "properties": {"collection_times": [{"days": "Mon-Fri", "time": "4:15pm"}, {"days": "Sat", "time": "3:15pm"}, {"days": "Sun", "time": "Closed"}], "id": "5070300030", "name": "USPS COLLECTION BOX - BLUE BOX", "address": {"city": "WATERLOO", "state": "IA", "street": "2181 LOGAN AVE", "postcode": "50703"}}},
{"geometry": {"type": "Point", "coordinates": [-92.368841367, 42.5287007922]}, "type": "Feature", "properties": {"collection_times": [{"days": "Mon-Sat", "time": "12:00pm"}, {"days": "Sun", "time": "Closed"}], "id": "5070300032", "name": "USPS COLLECTION BOX - BLUE BOX", "address": {"city": "WATERLOO", "state": "IA", "street": "1105 CEDAR BEND ST", "postcode": "50703"}}},
{"geometry": {"type": "Point", "coordinates": [-92.3063786843, 42.4916693648]}, "type": "Feature", "properties": {"collection_times": [{"days": "Mon-Sat", "time": "9:00am"}, {"days": "Sun", "time": "Closed"}], "id": "5070300034", "name": "USPS COLLECTION BOX - BLUE BOX", "address": {"city": "WATERLOO", "state": "IA", "street": "701 EASTGATE DR", "postcode": "50703"}}},
{"geometry": {"type": "Point", "coordinates": [-92.3390578351, 42.5003726103]}, "type": "Feature", "properties": {"collection_times": [{"days": "Mon-Sat", "time": "6:30pm"}, {"days": "Sun", "time": "Closed"}], "id": "5070300047", "name": "USPS COLLECTION BOX - BLUE BOX", "address": {"city": "WATERLOO", "state": "IA", "street": "300 SYCAMORE ST", "postcode": "50703"}}},
{"geometry": {"type": "Point", "coordinates": [-92.3390578351, 42.5003726103]}, "type": "Feature", "properties": {"collection_times": [{"days": "Mon-Sat", "time": "6:30pm"}, {"days": "Sun", "time": "Closed"}], "id": "5070300049", "name": "USPS COLLECTION BOX - BLUE BOX", "address": {"city": "WATERLOO", "state": "IA", "street": "300 SYCAMORE ST", "postcode": "50703"}}},
{"geometry": {"type": "Point", "coordinates": [-92.3390578351, 42.5003726103]}, "type": "Feature", "properties": {"collection_times": [{"days": "Mon-Sat", "time": "6:30pm"}, {"days": "Sun", "time": "Closed"}], "id": "5070300051", "name": "USPS COLLECTION BOX - PO LOBBY", "address": {"city": "WATERLOO", "state": "IA", "street": "300 SYCAMORE ST", "postcode": "50703"}}},
{"geometry": {"type": "Point", "coordinates": [-92.3327916936, 42.4990424654]}, "type": "Feature", "properties": {"collection_times": [{"days": "Mon-Fri", "time": "1:00pm"}, {"days": "Sat", "time": "9:00am"}, {"days": "Sun", "time": "Closed"}], "id": "5070300052", "name": "USPS COLLECTION BOX - BLUE BOX", "address": {"city": "WATERLOO", "state": "IA", "street": "715 MULBERRY ST", "postcode": "50703"}}},
{"geometry": {"type": "Point", "coordinates": [-92.2485267179, 42.4611618655]}, "type": "Feature", "properties": {"collection_times": [{"days": "Mon-Sat", "time": "11:30am"}, {"days": "Sun", "time": "Closed"}], "id": "5070700000", "name": "USPS COLLECTION BOX - BLUE BOX", "address": {"city": "ELK RUN HEIGHTS", "state": "IA", "street": "100 PLAZA DR", "postcode": "50707"}}},
{"geometry": {"type": "Point", "coordinates": [-92.2887753691, 42.477430083]}, "type": "Feature", "properties": {"collection_times": [{"days": "Mon-Sat", "time": "5:30pm"}, {"days": "Sun", "time": "Closed"}], "id": "5070700001", "name": "USPS COLLECTION BOX - BLUE BOX", "address": {"city": "ELK RUN HEIGHTS", "state": "IA", "street": "3568 LAFAYETTE RD", "postcode": "50707"}}},
{"geometry": {"type": "Point", "coordinates": [-92.2887753691, 42.477430083]}, "type": "Feature", "properties": {"collection_times": [{"days": "Mon-Sat", "time": "5:30pm"}, {"days": "Sun", "time": "Closed"}], "id": "5070700002", "name": "USPS COLLECTION BOX - BLUE BOX", "address": {"city": "ELK RUN HEIGHTS", "state": "IA", "street": "3568 LAFAYETTE RD", "postcode": "50707"}}},
{"geometry": {"type": "Point", "coordinates": [-92.2835599867, 42.4758823751]}, "type": "Feature", "properties": {"collection_times": [{"days": "Mon-Sat", "time": "9:45am"}, {"days": "Sun", "time": "Closed"}], "id": "5070700003", "name": "USPS COLLECTION BOX - BLUE BOX", "address": {"city": "ELK RUN HEIGHTS", "state": "IA", "street": "5202 LAFAYETTE RD", "postcode": "50707"}}},
{"geometry": {"type": "Point", "coordinates": [-92.2506339198, 42.4599544239]}, "type": "Feature", "properties": {"collection_times": [{"days": "Mon-Sat", "time": "11:00am"}, {"days": "Sun", "time": "Closed"}], "id": "5070700004", "name": "USPS COLLECTION BOX - BLUE BOX", "address": {"city": "ELK RUN HEIGHTS", "state": "IA", "street": "441 EVANSDALE DR", "postcode": "50707"}}}
]}
