{"type": "FeatureCollection", "features": [
{"geometry": {"type": "Point", "coordinates": [-94.3639485196, 41.054941787]}, "type": "Feature", "properties": {"collection_times": [{"days": "Mon-Sat", "time": "6:00pm"}, {"days": "Sun", "time": "Closed"}], "id": "5080100000", "name": "USPS COLLECTION BOX - BLUE BOX", "address": {"city": "CRESTON", "state": "IA", "street": "300 S ELM ST", "postcode": "50801"}}},
{"geometry": {"type": "Point", "coordinates": [-94.3639485196, 41.054941787]}, "type": "Feature", "properties": {"collection_times": [{"days": "Mon-Sat", "time": "6:00pm"}, {"days": "Sun", "time": "Closed"}], "id": "5080100001", "name": "USPS COLLECTION BOX - BLUE BOX", "address": {"city": "CRESTON", "state": "IA", "street": "300 S ELM ST", "postcode": "50801"}}},
{"geometry": {"type": "Point", "coordinates": [-94.3615901215, 41.0597653315]}, "type": "Feature", "properties": {"collection_times": [{"days": "Mon-Fri", "time": "5:00pm"}, {"days": "Sat-Sun", "time": "Closed"}], "id": "5080100003", "name": "USPS COLLECTION BOX - BLUE BOX", "address": {"city": "CRESTON", "state": "IA", "street": "300 N PINE ST", "postcode": "50801"}}},
{"geometry": {"type": "Point", "coordinates": [-94.3499424101, 41.0633222729]}, "type": "Feature", "properties": {"collection_times": [{"days": "Mon-Sat", "time": "9:00am"}, {"days": "Sun", "time": "Closed"}], "id": "5080100004", "name": "USPS COLLECTION BOX - BLUE BOX", "address": {"city": "CRESTON", "state": "IA", "street": "612 GRAND AVE", "postcode": "50801"}}},
{"geometry": {"type": "Point", "coordinates": [-94.3711112652, 41.0711855685]}, "type": "Feature", "properties": {"collection_times": [{"days": "Mon-Sat", "time": "5:00pm"}, {"days": "Sun", "time": "Closed"}], "id": "5080100005", "name": "USPS COLLECTION BOX - BLUE BOX", "address": {"city": "CRESTON", "state": "IA", "street": "801 W TOWNLINE ST", "postcode": "50801"}}},
{"geometry": {"type": "Point", "coordinates": [-94.3602941474, 41.0574192716]}, "type": "Feature", "properties": {"collection_times": [{"days": "Mon-Sat", "time": "5:00pm"}, {"days": "Sun", "time": "Closed"}], "id": "5080100007", "name": "USPS COLLECTION BOX - BLUE BOX", "address": {"city": "CRESTON", "state": "IA", "street": "105 E ADAMS ST", "postcode": "50801"}}},
{"geometry": {"type": "Point", "coordinates": [-94.3650893503, 41.0585303875]}, "type": "Feature", "properties": {"collection_times": [{"days": "Mon-Sat", "time": "5:00pm"}, {"days": "Sun", "time": "Closed"}], "id": "5080100009", "name": "USPS COLLECTION BOX - BLUE BOX", "address": {"city": "CRESTON", "state": "IA", "street": "402 W MONTGOMERY ST", "postcode": "50801"}}},
{"geometry": {"type": "Point", "coordinates": [-94.3639485196, 41.054941787]}, "type": "Feature", "properties": {"collection_times": [{"days": "Mon-Sat", "time": "6:00pm"}, {"days": "Sun", "time": "Closed"}], "id": "5080100016", "name": "USPS COLLECTION BOX - PO LOBBY", "address": {"city": "CRESTON", "state": "IA", "street": "300 S ELM ST", "postcode": "50801"}}},
{"geometry": {"type": "Point", "coordinates": [-94.3578398872, 41.0711433617]}, "type": "Feature", "properties": {"collection_times": [{"days": "Mon-Sat", "time": "5:00pm"}, {"days": "Sun", "time": "Closed"}], "id": "5080100017", "name": "USPS COLLECTION BOX - BLUE BOX", "address": {"city": "CRESTON", "state": "IA", "street": "403 E TOWNLINE ST", "postcode": "50801"}}},
{"geometry": {"type": "Point", "coordinates": [-94.3717487342, 41.0519709955]}, "type": "Feature", "properties": {"collection_times": [{"days": "Mon-Sat", "time": "4:30pm"}, {"days": "Sun", "time": "Closed"}], "id": "5080100018", "name": "USPS COLLECTION BOX - BLUE BOX", "address": {"city": "CRESTON", "state": "IA", "street": "600 SHELDON ST", "postcode": "50801"}}},
{"geometry": {"type": "Point", "coordinates": [-94.3946111931, 41.0761669823]}, "type": "Feature", "properties": {"collection_times": [{"days": "Mon-Sat", "time": "4:45pm"}, {"days": "Sun", "time": "Closed"}], "id": "5080100019", "name": "USPS COLLECTION BOX - BLUE BOX", "address": {"city": "CRESTON", "state": "IA", "street": "806 LAUREL ST", "postcode": "50801"}}},
{"geometry": {"type": "Point", "coordinates": [-94.1988468186, 41.0284567588]}, "type": "Feature", "properties": {"collection_times": [{"days": "Mon-Sat", "time": "4:30pm"}, {"days": "Sun", "time": "Closed"}], "id": "5083000000", "name": "USPS COLLECTION BOX - BLUE BOX", "address": {"city": "AFTON", "state": "IA", "street": "208 W KANSAS ST", "postcode": "50830"}}},
{"geometry": {"type": "Point", "coordinates": [-94.1988468186, 41.0284567588]}, "type": "Feature", "properties": {"collection_times": [{"days": "Mon-Fri", "time": "2:15pm"}, {"days": "Sat", "time": "9:15am"}, {"days": "Sun", "time": "Closed"}], "id": "5083000001", "name": "USPS COLLECTION BOX - PO LOBBY", "address": {"city": "AFTON", "state": "IA", "street": "208 W KANSAS ST", "postcode": "50830"}}},
{"geometry": {"type": "Point", "coordinates": [-94.2226099442, 40.9484608887]}, "type": "Feature", "properties": {"collection_times": [{"days": "Mon-Fri", "time": "3:15pm"}, {"days": "Sat", "time": "2:45pm"}, {"days": "Sun", "time": "Closed"}], "id": "5083100000", "name": "USPS COLLECTION BOX - BLUE BOX", "address": {"city": "ARISPE", "state": "IA", "street": "307 FORBES ST", "postcode": "50831"}}},
{"geometry": {"type": "Point", "coordinates": [-94.2232844116, 40.9489101103]}, "type": "Feature", "properties": {"collection_times": [{"days": "Mon-Fri", "time": "3:15pm"}, {"days": "Sat", "time": "2:45pm"}, {"days": "Sun", "time": "Closed"}], "id": "5083100001", "name": "USPS COLLECTION BOX - PO LOBBY", "address": {"city": "ARISPE", "state": "IA", "street": "307 FORBES ST", "postcode": "50831"}}},
{"geometry": {"type": "Point", "coordinates": [-94.7190900287, 40.667132139]}, "type": "Feature", "properties": {"collection_times": [{"days": "Mon-Sat", "time": "4:00pm"}, {"days": "Sun", "time": "Closed"}], "id": "5083300000", "name": "USPS COLLECTION BOX - BLUE BOX", "address": {"city": "BEDFORD", "state": "IA", "street": "609 CENTRAL AVE", "postcode": "50833"}}},
{"geometry": {"type": "Point", "coordinates": [-94.7190900287, 40.667132139]}, "type": "Feature", "properties": {"collection_times": [{"days": "Mon-Sat", "time": "4:00pm"}, {"days": "Sun", "time": "Closed"}], "id": "5083300009", "name": "USPS COLLECTION BOX - BLUE BOX", "address": {"city": "BEDFORD", "state": "IA", "street": "609 CENTRAL AVE", "postcode": "50833"}}},
{"geometry": {"type": "Point", "coordinates": [-94.7190900287, 40.667132139]}, "type": "Feature", "properties": {"collection_times": [{"days": "Mon-Fri", "time": "4:30pm"}, {"days": "Sat", "time": "10:00am"}, {"days": "Sun", "time": "Closed"}], "id": "5083300011", "name": "USPS COLLECTION BOX - PO LOBBY", "address": {"city": "BEDFORD", "state": "IA", "street": "609 CENTRAL AVE", "postcode": "50833"}}},
{"geometry": {"type": "Point", "coordinates": [-94.3904767087, 40.7298065911]}, "type": "Feature", "properties": {"collection_times": [{"days": "Mon-Fri", "time": "9:15am"}, {"days": "Sat", "time": "8:45am"}, {"days": "Sun", "time": "Closed"}], "id": "5083500000", "name": "USPS COLLECTION BOX - BLUE BOX", "address": {"city": "BENTON", "state": "IA", "street": "200 E MARKET ST", "postcode": "50835"}}},
{"geometry": {"type": "Point", "coordinates": [-94.3904767087, 40.7298065911]}, "type": "Feature", "properties": {"collection_times": [{"days": "Mon-Fri", "time": "9:15am"}, {"days": "Sat", "time": "8:45am"}, {"days": "Sun", "time": "Closed"}], "id": "5083500001", "name": "USPS COLLECTION BOX - PO LOBBY", "address": {"city": "BENTON", "state": "IA", "street": "200 E MARKET ST", "postcode": "50835"}}},
{"geometry": {"type": "Point", "coordinates": [-94.4797993179, 40.6153414383]}, "type": "Feature", "properties": {"collection_times": [{"days": "Mon-Sat", "time": "3:45pm"}, {"days": "Sun", "time": "Closed"}], "id": "5083600000", "name": "USPS COLLECTION BOX - BLUE BOX", "address": {"city": "BLOCKTON", "state": "IA", "street": "609 KING ST", "postcode": "50836"}}},
{"geometry": {"type": "Point", "coordinates": [-94.4797993179, 40.6153414383]}, "type": "Feature", "properties": {"collection_times": [{"days": "Mon-Fri", "time": "11:45am"}, {"days": "Sat", "time": "9:15am"}, {"days": "Sun", "time": "Closed"}], "id": "5083600001", "name": "USPS COLLECTION BOX - PO LOBBY", "address": {"city": "BLOCKTON", "state": "IA", "street": "609 KING ST", "postcode": "50836"}}},
{"geometry": {"type": "Point", "coordinates": [-94.6689416271, 41.244413987]}, "type": "Feature", "properties": {"collection_times": [{"days": "Mon-Sat", "time": "4:15pm"}, {"days": "Sun", "time": "Closed"}], "id": "5083700000", "name": "USPS COLLECTION BOX - BLUE BOX", "address": {"city": "BRIDGEWATER", "state": "IA", "street": "114 N MAIN ST", "postcode": "50837"}}},
{"geometry": {"type": "Point", "coordinates": [-94.6689416271, 41.244413987]}, "type": "Feature", "properties": {"collection_times": [{"days": "Mon-Fri", "time": "12:45pm"}, {"days": "Sat-Sun", "time": "Closed"}], "id": "5083700001", "name": "USPS COLLECTION BOX - PO LOBBY", "address": {"city": "BRIDGEWATER", "state": "IA", "street": "114 N MAIN ST", "postcode": "50837"}}},
{"geometry": {"type": "Point", "coordinates": [-94.4756514226, 40.8017108499]}, "type": "Feature", "properties": {"collection_times": [{"days": "Mon-Sat", "time": "3:45pm"}, {"days": "Sun", "time": "Closed"}], "id": "5084000000", "name": "USPS COLLECTION BOX - BLUE BOX", "address": {"city": "CLEARFIELD", "state": "IA", "street": "303 BROADWAY ST", "postcode": "50840"}}},
{"geometry": {"type": "Point", "coordinates": [-94.4756514226, 40.8017108499]}, "type": "Feature", "properties": {"collection_times": [{"days": "Mon-Fri", "time": "3:15pm"}, {"days": "Sat", "time": "1:00pm"}, {"days": "Sun", "time": "Closed"}], "id": "5084000001", "name": "USPS COLLECTION BOX - PO LOBBY", "address": {"city": "CLEARFIELD", "state": "IA", "street": "303 BROADWAY ST", "postcode": "50840"}}},
{"geometry": {"type": "Point", "coordinates": [-94.7353021135, 40.9891025712]}, "type": "Feature", "properties": {"collection_times": [{"days": "Mon-Fri", "time": "4:45pm"}, {"days": "Sat", "time": "4:30pm"}, {"days": "Sun", "time": "Closed"}], "id": "5084100000", "name": "USPS COLLECTION BOX - BLUE BOX", "address": {"city": "CORNING", "state": "IA", "street": "608 7TH ST", "postcode": "50841"}}},
{"geometry": {"type": "Point", "coordinates": [-94.7353021135, 40.9891025712]}, "type": "Feature", "properties": {"collection_times": [{"days": "Mon-Fri", "time": "4:45pm"}, {"days": "Sat", "time": "4:30pm"}, {"days": "Sun", "time": "Closed"}], "id": "5084100004", "name": "USPS COLLECTION BOX - BLUE BOX", "address": {"city": "CORNING", "state": "IA", "street": "608 7TH ST", "postcode": "50841"}}},
{"geometry": {"type": "Point", "coordinates": [-94.7353021135, 40.9891025712]}, "type": "Feature", "properties": {"collection_times": [{"days": "Mon-Fri", "time": "4:45pm"}, {"days": "Sat-Sun", "time": "Closed"}], "id": "5084100005", "name": "USPS COLLECTION BOX - PO LOBBY", "address": {"city": "CORNING", "state": "IA", "street": "608 7TH ST", "postcode": "50841"}}},
{"geometry": {"type": "Point", "coordinates": [-94.8705569893, 41.2724498702]}, "type": "Feature", "properties": {"collection_times": [{"days": "Mon-Sat", "time": "4:00pm"}, {"days": "Sun", "time": "Closed"}], "id": "5084300000", "name": "USPS COLLECTION BOX - BLUE BOX", "address": {"city": "CUMBERLAND", "state": "IA", "street": "123 MAIN ST", "postcode": "50843"}}},
{"geometry": {"type": "Point", "coordinates": [-94.8705569893, 41.2724498702]}, "type": "Feature", "properties": {"collection_times": [{"days": "Mon-Fri", "time": "11:45am"}, {"days": "Sat", "time": "9:00am"}, {"days": "Sun", "time": "Closed"}], "id": "5084300001", "name": "USPS COLLECTION BOX - PO LOBBY", "address": {"city": "CUMBERLAND", "state": "IA", "street": "123 MAIN ST", "postcode": "50843"}}},
{"geometry": {"type": "Point", "coordinates": [-94.3395346669, 40.8076400908]}, "type": "Feature", "properties": {"collection_times": [{"days": "Mon-Sat", "time": "4:00pm"}, {"days": "Sun", "time": "Closed"}], "id": "5084500000", "name": "USPS COLLECTION BOX - BLUE BOX", "address": {"city": "DIAGONAL", "state": "IA", "street": "221 BROADWAY ST", "postcode": "50845"}}},
{"geometry": {"type": "Point", "coordinates": [-94.3395346669, 40.8076400908]}, "type": "Feature", "properties": {"collection_times": [{"days": "Mon-Fri", "time": "11:45am"}, {"days": "Sat", "time": "8:15am"}, {"days": "Sun", "time": "Closed"}], "id": "5084500001", "name": "USPS COLLECTION BOX - PO LOBBY", "address": {"city": "DIAGONAL", "state": "IA", "street": "221 BROADWAY ST", "postcode": "50845"}}},
{"geometry": {"type": "Point", "coordinates": [-94.5626446268, 41.2895023249]}, "type": "Feature", "properties": {"collection_times": [{"days": "Mon-Sat", "time": "4:00pm"}, {"days": "Sun", "time": "Closed"}], "id": "5084600000", "name": "USPS COLLECTION BOX - BLUE BOX", "address": {"city": "FONTANELLE", "state": "IA", "street": "407 WASHINGTON ST", "postcode": "50846"}}},
{"geometry": {"type": "Point", "coordinates": [-94.5626446268, 41.2895023249]}, "type": "Feature", "properties": {"collection_times": [{"days": "Mon-Fri", "time": "2:15pm"}, {"days": "Sat", "time": "9:00am"}, {"days": "Sun", "time": "Closed"}], "id": "5084600002", "name": "USPS COLLECTION BOX - PO LOBBY", "address": {"city": "FONTANELLE", "state": "IA", "street": "407 WASHINGTON ST", "postcode": "50846"}}},
{"geometry": {"type": "Point", "coordinates": [-94.984667416, 41.1433213743]}, "type": "Feature", "properties": {"collection_times": [{"days": "Mon-Sat", "time": "1:00pm"}, {"days": "Sun", "time": "Closed"}], "id": "5084700000", "name": "USPS COLLECTION BOX - BLUE BOX", "address": {"city": "GRANT", "state": "IA", "street": "507 2ND ST", "postcode": "50847"}}},
{"geometry": {"type": "Point", "coordinates": [-94.9896459018, 41.1427293393]}, "type": "Feature", "properties": {"collection_times": [{"days": "Mon-Sat", "time": "1:00pm"}, {"days": "Sun", "time": "Closed"}], "id": "5084700001", "name": "USPS COLLECTION BOX - PO LOBBY", "address": {"city": "GRANT", "state": "IA", "street": "507 2ND ST", "postcode": "50847"}}},
{"geometry": {"type": "Point", "coordinates": [-94.7450371508, 40.7559022384]}, "type": "Feature", "properties": {"collection_times": [{"days": "Mon-Sat", "time": "4:00pm"}, {"days": "Sun", "time": "Closed"}], "id": "5084800000", "name": "USPS COLLECTION BOX - BLUE BOX", "address": {"city": "GRAVITY", "state": "IA", "street": "212 MAIN ST", "postcode": "50848"}}},
{"geometry": {"type": "Point", "coordinates": [-94.7450371508, 40.7559022384]}, "type": "Feature", "properties": {"collection_times": [{"days": "Mon-Fri", "time": "12:45pm"}, {"days": "Sat", "time": "11:45am"}, {"days": "Sun", "time": "Closed"}], "id": "5084800001", "name": "USPS COLLECTION BOX - PO LOBBY", "address": {"city": "GRAVITY", "state": "IA", "street": "212 MAIN ST", "postcode": "50848"}}},
{"geometry": {"type": "Point", "coordinates": [-94.4607190213, 41.3042171891]}, "type": "Feature", "properties": {"collection_times": [{"days": "Mon-Fri", "time": "4:30pm"}, {"days": "Sat", "time": "4:00pm"}, {"days": "Sun", "time": "Closed"}], "id": "5084900000", "name": "USPS COLLECTION BOX - BLUE BOX", "address": {"city": "GREENFIELD", "state": "IA", "street": "119 SE JACKSON ST", "postcode": "50849"}}},
{"geometry": {"type": "Point", "coordinates": [-94.4607190213, 41.3042171891]}, "type": "Feature", "properties": {"collection_times": [{"days": "Mon-Fri", "time": "4:30pm"}, {"days": "Sat", "time": "10:00am"}, {"days": "Sun", "time": "Closed"}], "id": "5084900002", "name": "USPS COLLECTION BOX - PO LOBBY", "address": {"city": "GREENFIELD", "state": "IA", "street": "119 SE JACKSON ST", "postcode": "50849"}}},
{"geometry": {"type": "Point", "coordinates": [-94.4607190213, 41.3042171891]}, "type": "Feature", "properties": {"collection_times": [{"days": "Mon-Fri", "time": "4:30pm"}, {"days": "Sat", "time": "4:00pm"}, {"days": "Sun", "time": "Closed"}], "id": "5084900005", "name": "USPS COLLECTION BOX - BLUE BOX", "address": {"city": "GREENFIELD", "state": "IA", "street": "119 SE JACKSON ST", "postcode": "50849"}}},
{"geometry": {"type": "Point", "coordinates": [-94.5591902961, 40.8815003189]}, "type": "Feature", "properties": {"collection_times": [{"days": "Mon-Fri", "time": "4:45pm"}, {"days": "Sat", "time": "4:30pm"}, {"days": "Sun", "time": "Closed"}], "id": "5085100000", "name": "USPS COLLECTION BOX - BLUE BOX", "address": {"city": "LENOX", "state": "IA", "street": "110 W TEMPLE ST", "postcode": "50851"}}},
{"geometry": {"type": "Point", "coordinates": [-94.5591902961, 40.8815003189]}, "type": "Feature", "properties": {"collection_times": [{"days": "Mon-Fri", "time": "4:45pm"}, {"days": "Sat", "time": "4:30pm"}, {"days": "Sun", "time": "Closed"}], "id": "5085100001", "name": "USPS COLLECTION BOX - BLUE BOX", "address": {"city": "LENOX", "state": "IA", "street": "110 W TEMPLE ST", "postcode": "50851"}}},
{"geometry": {"type": "Point", "coordinates": [-94.5591902961, 40.8815003189]}, "type": "Feature", "properties": {"collection_times": [{"days": "Mon-Fri", "time": "4:45pm"}, {"days": "Sat-Sun", "time": "Closed"}], "id": "5085100002", "name": "USPS COLLECTION BOX - PO LOBBY", "address": {"city": "LENOX", "state": "IA", "street": "110 W TEMPLE ST", "postcode": "50851"}}},
{"geometry": {"type": "Point", "coordinates": [-94.7690067179, 41.2571827318]}, "type": "Feature", "properties": {"collection_times": [{"days": "Mon-Sat", "time": "4:15pm"}, {"days": "Sun", "time": "Closed"}], "id": "5085300000", "name": "USPS COLLECTION BOX - BLUE BOX", "address": {"city": "MASSENA", "state": "IA", "street": "99 MAIN ST", "postcode": "50853"}}},
{"geometry": {"type": "Point", "coordinates": [-94.7690067179, 41.2571827318]}, "type": "Feature", "properties": {"collection_times": [{"days": "Mon-Fri", "time": "11:45am"}, {"days": "Sat", "time": "9:15am"}, {"days": "Sun", "time": "Closed"}], "id": "5085300001", "name": "USPS COLLECTION BOX - PO LOBBY", "address": {"city": "MASSENA", "state": "IA", "street": "99 MAIN ST", "postcode": "50853"}}},
{"geometry": {"type": "Point", "coordinates": [-94.2388318171, 40.7148422054]}, "type": "Feature", "properties": {"collection_times": [{"days": "Mon-Sat", "time": "4:30pm"}, {"days": "Sun", "time": "Closed"}], "id": "5085400000", "name": "USPS COLLECTION BOX - BLUE BOX", "address": {"city": "MOUNT AYR", "state": "IA", "street": "200 W MADISON ST", "postcode": "50854"}}},
{"geometry": {"type": "Point", "coordinates": [-94.2388318171, 40.7148422054]}, "type": "Feature", "properties": {"collection_times": [{"days": "Mon-Sat", "time": "4:30pm"}, {"days": "Sun", "time": "Closed"}], "id": "5085400005", "name": "USPS COLLECTION BOX - BLUE BOX", "address": {"city": "MOUNT AYR", "state": "IA", "street": "200 W MADISON ST", "postcode": "50854"}}},
{"geometry": {"type": "Point", "coordinates": [-94.2388318171, 40.7148422054]}, "type": "Feature", "properties": {"collection_times": [{"days": "Mon-Fri", "time": "4:30pm"}, {"days": "Sat", "time": "9:00am"}, {"days": "Sun", "time": "Closed"}], "id": "5085400006", "name": "USPS COLLECTION BOX - PO LOBBY", "address": {"city": "MOUNT AYR", "state": "IA", "street": "200 W MADISON ST", "postcode": "50854"}}},
{"geometry": {"type": "Point", "coordinates": [-94.4167609866, 41.2032882326]}, "type": "Feature", "properties": {"collection_times": [{"days": "Mon-Sat", "time": "4:45pm"}, {"days": "Sun", "time": "Closed"}], "id": "5085800000", "name": "USPS COLLECTION BOX - BLUE BOX", "address": {"city": "ORIENT", "state": "IA", "street": "122 N BROAD ST", "postcode": "50858"}}},
{"geometry": {"type": "Point", "coordinates": [-94.4167609866, 41.2032882326]}, "type": "Feature", "properties": {"collection_times": [{"days": "Mon-Fri", "time": "4:45pm"}, {"days": "Sat", "time": "1:00pm"}, {"days": "Sun", "time": "Closed"}], "id": "5085800001", "name": "USPS COLLECTION BOX - PO LOBBY", "address": {"city": "ORIENT", "state": "IA", "street": "122 N BROAD ST", "postcode": "50858"}}},
{"geometry": {"type": "Point", "coordinates": [-94.6092804808, 41.0230804705]}, "type": "Feature", "properties": {"collection_times": [{"days": "Mon-Sat", "time": "3:45pm"}, {"days": "Sun", "time": "Closed"}], "id": "5085900000", "name": "USPS COLLECTION BOX - BLUE BOX", "address": {"city": "PRESCOTT", "state": "IA", "street": "113 6TH AVE", "postcode": "50859"}}},
{"geometry": {"type": "Point", "coordinates": [-94.6092804808, 41.0230804705]}, "type": "Feature", "properties": {"collection_times": [{"days": "Mon-Fri", "time": "11:45am"}, {"days": "Sat", "time": "9:00am"}, {"days": "Sun", "time": "Closed"}], "id": "5085900001", "name": "USPS COLLECTION BOX - PO LOBBY", "address": {"city": "PRESCOTT", "state": "IA", "street": "113 6TH AVE", "postcode": "50859"}}},
{"geometry": {"type": "Point", "coordinates": [-94.3862899398, 40.6052326603]}, "type": "Feature", "properties": {"collection_times": [{"days": "Mon-Fri", "time": "4:15pm"}, {"days": "Sat", "time": "2:15pm"}, {"days": "Sun", "time": "Closed"}], "id": "5086000000", "name": "USPS COLLECTION BOX - BLUE BOX", "address": {"city": "REDDING", "state": "IA", "street": "206 3RD ST", "postcode": "50860"}}},
{"geometry": {"type": "Point", "coordinates": [-94.3891555545, 40.6037872799]}, "type": "Feature", "properties": {"collection_times": [{"days": "Mon-Sat", "time": "2:15pm"}, {"days": "Sun", "time": "Closed"}], "id": "5086000001", "name": "USPS COLLECTION BOX - PO LOBBY", "address": {"city": "REDDING", "state": "IA", "street": "206 3RD ST", "postcode": "50860"}}},
{"geometry": {"type": "Point", "coordinates": [-94.2620135902, 40.9294126776]}, "type": "Feature", "properties": {"collection_times": [{"days": "Mon-Fri", "time": "12:45pm"}, {"days": "Sat", "time": "12:15pm"}, {"days": "Sun", "time": "Closed"}], "id": "5086100000", "name": "USPS COLLECTION BOX - BLUE BOX", "address": {"city": "SHANNON CITY", "state": "IA", "street": "103 MAIN ST", "postcode": "50861"}}},
{"geometry": {"type": "Point", "coordinates": [-94.2620135902, 40.9294126776]}, "type": "Feature", "properties": {"collection_times": [{"days": "Mon-Fri", "time": "12:45pm"}, {"days": "Sat-Sun", "time": "Closed"}], "id": "5086100001", "name": "USPS COLLECTION BOX - PO LOBBY", "address": {"city": "SHANNON CITY", "state": "IA", "street": "103 MAIN ST", "postcode": "50861"}}},
{"geometry": {"type": "Point", "coordinates": [-94.6427893478, 40.8080216446]}, "type": "Feature", "properties": {"collection_times": [{"days": "Mon-Fri", "time": "2:45pm"}, {"days": "Sat", "time": "2:15pm"}, {"days": "Sun", "time": "Closed"}], "id": "5086200000", "name": "USPS COLLECTION BOX - BLUE BOX", "address": {"city": "SHARPSBURG", "state": "IA", "street": "109 WABASH ST", "postcode": "50862"}}},
{"geometry": {"type": "Point", "coordinates": [-94.6406727623, 40.8018313382]}, "type": "Feature", "properties": {"collection_times": [{"days": "Mon-Fri", "time": "2:45pm"}, {"days": "Sat", "time": "2:15pm"}, {"days": "Sun", "time": "Closed"}], "id": "5086200001", "name": "USPS COLLECTION BOX - PO LOBBY", "address": {"city": "SHARPSBURG", "state": "IA", "street": "109 WABASH ST", "postcode": "50862"}}},
{"geometry": {"type": "Point", "coordinates": [-94.1952100029, 40.8524250746]}, "type": "Feature", "properties": {"collection_times": [{"days": "Mon-Sat", "time": "4:15pm"}, {"days": "Sun", "time": "Closed"}], "id": "5086300000", "name": "USPS COLLECTION BOX - BLUE BOX", "address": {"city": "TINGLEY", "state": "IA", "street": "101 W MAIN ST", "postcode": "50863"}}},
{"geometry": {"type": "Point", "coordinates": [-94.1952100029, 40.8524250746]}, "type": "Feature", "properties": {"collection_times": [{"days": "Mon-Fri", "time": "10:45am"}, {"days": "Sat", "time": "7:45am"}, {"days": "Sun", "time": "Closed"}], "id": "5086300001", "name": "USPS COLLECTION BOX - PO LOBBY", "address": {"city": "TINGLEY", "state": "IA", "street": "101 W MAIN ST", "postcode": "50863"}}},
{"geometry": {"type": "Point", "coordinates": [-94.9773304255, 40.9271984078]}, "type": "Feature", "properties": {"collection_times": [{"days": "Mon-Sat", "time": "4:00pm"}, {"days": "Sun", "time": "Closed"}], "id": "5086400000", "name": "USPS COLLECTION BOX - BLUE BOX", "address": {"city": "VILLISCA", "state": "IA", "street": "500 S 3RD AVE", "postcode": "50864"}}},
{"geometry": {"type": "Point", "coordinates": [-94.9773304255, 40.9271984078]}, "type": "Feature", "properties": {"collection_times": [{"days": "Mon-Sat", "time": "4:00pm"}, {"days": "Sun", "time": "Closed"}], "id": "5086400006", "name": "USPS COLLECTION BOX - BLUE BOX", "address": {"city": "VILLISCA", "state": "IA", "street": "500 S 3RD AVE", "postcode": "50864"}}},
{"geometry": {"type": "Point", "coordinates": [-94.9773304255, 40.9271984078]}, "type": "Feature", "properties": {"collection_times": [{"days": "Mon-Fri", "time": "4:00pm"}, {"days": "Sat", "time": "8:30am"}, {"days": "Sun", "time": "Closed"}], "id": "5086400009", "name": "USPS COLLECTION BOX - PO LOBBY", "address": {"city": "VILLISCA", "state": "IA", "street": "500 S 3RD AVE", "postcode": "50864"}}}
]}
