{"type": "FeatureCollection", "features": [
{"geometry": {"type": "Point", "coordinates": [-96.5576628726, 42.8287953174]}, "type": "Feature", "properties": {"collection_times": [{"days": "Mon-Fri", "time": "4:00pm"}, {"days": "Sat", "time": "4:30pm"}, {"days": "Sun", "time": "Closed"}], "id": "5100100000", "name": "USPS COLLECTION BOX - BLUE BOX", "address": {"city": "AKRON", "state": "IA", "street": "351 REED ST", "postcode": "51001"}}},
{"geometry": {"type": "Point", "coordinates": [-96.5576628726, 42.8287953174]}, "type": "Feature", "properties": {"collection_times": [{"days": "Mon-Fri", "time": "4:00pm"}, {"days": "Sat-Sun", "time": "Closed"}], "id": "5100100001", "name": "USPS COLLECTION BOX - PO LOBBY", "address": {"city": "AKRON", "state": "IA", "street": "351 REED ST", "postcode": "51001"}}},
{"geometry": {"type": "Point", "coordinates": [-95.3053053063, 42.6747017099]}, "type": "Feature", "properties": {"collection_times": [{"days": "Mon-Sat", "time": "4:00pm"}, {"days": "Sun", "time": "Closed"}], "id": "5100200001", "name": "USPS COLLECTION BOX - BLUE BOX", "address": {"city": "ALTA", "state": "IA", "street": "106 CHEROKEE ST", "postcode": "51002"}}},
{"geometry": {"type": "Point", "coordinates": [-95.3053053063, 42.6747017099]}, "type": "Feature", "properties": {"collection_times": [{"days": "Mon-Fri", "time": "4:00pm"}, {"days": "Sat-Sun", "time": "Closed"}], "id": "5100200002", "name": "USPS COLLECTION BOX - PO LOBBY", "address": {"city": "ALTA", "state": "IA", "street": "106 CHEROKEE ST", "postcode": "51002"}}},
{"geometry": {"type": "Point", "coordinates": [-96.0101952534, 42.987397561]}, "type": "Feature", "properties": {"collection_times": [{"days": "Mon-Sat", "time": "4:15pm"}, {"days": "Sun", "time": "Closed"}], "id": "5100300001", "name": "USPS COLLECTION BOX - BLUE BOX", "address": {"city": "ALTON", "state": "IA", "street": "1022 3RD AVE", "postcode": "51003"}}},
{"geometry": {"type": "Point", "coordinates": [-96.0101952534, 42.987397561]}, "type": "Feature", "properties": {"collection_times": [{"days": "Mon-Fri", "time": "1:45pm"}, {"days": "Sat-Sun", "time": "Closed"}], "id": "5100300002", "name": "USPS COLLECTION BOX - PO LOBBY", "address": {"city": "ALTON", "state": "IA", "street": "1022 3RD AVE", "postcode": "51003"}}},
{"geometry": {"type": "Point", "coordinates": [-95.8663269207, 42.3883978377]}, "type": "Feature", "properties": {"collection_times": [{"days": "Mon-Fri", "time": "4:00pm"}, {"days": "Sat", "time": "5:00pm"}, {"days": "Sun", "time": "Closed"}], "id": "5100400000", "name": "USPS COLLECTION BOX - BLUE BOX", "address": {"city": "ANTHON", "state": "IA", "street": "109 N 2ND AVE", "postcode": "51004"}}},
{"geometry": {"type": "Point", "coordinates": [-95.8663269207, 42.3883978377]}, "type": "Feature", "properties": {"collection_times": [{"days": "Mon-Fri", "time": "3:15pm"}, {"days": "Sat-Sun", "time": "Closed"}], "id": "5100400001", "name": "USPS COLLECTION BOX - PO LOBBY", "address": {"city": "ANTHON", "state": "IA", "street": "109 N 2ND AVE", "postcode": "51004"}}},
{"geometry": {"type": "Point", "coordinates": [-95.4354419183, 42.7125896807]}, "type": "Feature", "properties": {"collection_times": [{"days": "Mon-Sat", "time": "4:15pm"}, {"days": "Sun", "time": "Closed"}], "id": "5100500000", "name": "USPS COLLECTION BOX - BLUE BOX", "address": {"city": "AURELIA", "state": "IA", "street": "209 MYRTLE ST", "postcode": "51005"}}},
{"geometry": {"type": "Point", "coordinates": [-95.4354419183, 42.7125896807]}, "type": "Feature", "properties": {"collection_times": [{"days": "Mon-Fri", "time": "4:15pm"}, {"days": "Sat-Sun", "time": "Closed"}], "id": "5100500001", "name": "USPS COLLECTION BOX - PO LOBBY", "address": {"city": "AURELIA", "state": "IA", "street": "209 MYRTLE ST", "postcode": "51005"}}},
{"geometry": {"type": "Point", "coordinates": [-95.6174581208, 42.2963016314]}, "type": "Feature", "properties": {"collection_times": [{"days": "Mon-Sat", "time": "4:00pm"}, {"days": "Sun", "time": "Closed"}], "id": "5100600000", "name": "USPS COLLECTION BOX - BLUE BOX", "address": {"city": "BATTLE CREEK", "state": "IA", "street": "108 MAIN ST", "postcode": "51006"}}},
{"geometry": {"type": "Point", "coordinates": [-95.6174581208, 42.2963016314]}, "type": "Feature", "properties": {"collection_times": [{"days": "Mon-Fri", "time": "11:30am"}, {"days": "Sat-Sun", "time": "Closed"}], "id": "5100600001", "name": "USPS COLLECTION BOX - PO LOBBY", "address": {"city": "BATTLE CREEK", "state": "IA", "street": "108 MAIN ST", "postcode": "51006"}}},
{"geometry": {"type": "Point", "coordinates": [-96.2149748501, 42.4091831561]}, "type": "Feature", "properties": {"collection_times": [{"days": "Mon-Fri", "time": "4:15pm"}, {"days": "Sat", "time": "4:30pm"}, {"days": "Sun", "time": "Closed"}], "id": "5100700000", "name": "USPS COLLECTION BOX - BLUE BOX", "address": {"city": "BRONSON", "state": "IA", "street": "110 E 1ST ST", "postcode": "51007"}}},
{"geometry": {"type": "Point", "coordinates": [-96.2149748501, 42.4091831561]}, "type": "Feature", "properties": {"collection_times": [{"days": "Mon-Fri", "time": "2:45pm"}, {"days": "Sat", "time": "12:15pm"}, {"days": "Sun", "time": "Closed"}], "id": "5100700001", "name": "USPS COLLECTION BOX - PO LOBBY", "address": {"city": "BRONSON", "state": "IA", "street": "110 E 1ST ST", "postcode": "51007"}}},
{"geometry": {"type": "Point", "coordinates": [-96.2700547087, 42.8096926597]}, "type": "Feature", "properties": {"collection_times": [{"days": "Mon-Fri", "time": "4:00pm"}, {"days": "Sat", "time": "3:30pm"}, {"days": "Sun", "time": "Closed"}], "id": "5100800000", "name": "USPS COLLECTION BOX - BLUE BOX", "address": {"city": "BRUNSVILLE", "state": "IA", "street": "230 OAK ST", "postcode": "51008"}}},
{"geometry": {"type": "Point", "coordinates": [-96.2700547087, 42.8096926597]}, "type": "Feature", "properties": {"collection_times": [{"days": "Mon-Fri", "time": "12:45pm"}, {"days": "Sat", "time": "9:45am"}, {"days": "Sun", "time": "Closed"}], "id": "5100800001", "name": "USPS COLLECTION BOX - PO LOBBY", "address": {"city": "BRUNSVILLE", "state": "IA", "street": "230 OAK ST", "postcode": "51008"}}},
{"geometry": {"type": "Point", "coordinates": [-95.5495569002, 42.9463089538]}, "type": "Feature", "properties": {"collection_times": [{"days": "Mon-Fri", "time": "3:15pm"}, {"days": "Sat", "time": "3:30pm"}, {"days": "Sun", "time": "Closed"}], "id": "5100900000", "name": "USPS COLLECTION BOX - BLUE BOX", "address": {"city": "CALUMET", "state": "IA", "street": "105 2ND ST", "postcode": "51009"}}},
{"geometry": {"type": "Point", "coordinates": [-95.5495569002, 42.9463089538]}, "type": "Feature", "properties": {"collection_times": [{"days": "Mon-Fri", "time": "12:45pm"}, {"days": "Sat", "time": "9:45am"}, {"days": "Sun", "time": "Closed"}], "id": "5100900001", "name": "USPS COLLECTION BOX - PO LOBBY", "address": {"city": "CALUMET", "state": "IA", "street": "105 2ND ST", "postcode": "51009"}}},
{"geometry": {"type": "Point", "coordinates": [-95.9088375975, 42.0743071963]}, "type": "Feature", "properties": {"collection_times": [{"days": "Mon-Sat", "time": "4:15pm"}, {"days": "Sun", "time": "Closed"}], "id": "5101000000", "name": "USPS COLLECTION BOX - BLUE BOX", "address": {"city": "CASTANA", "state": "IA", "street": "301 E PINE ST", "postcode": "51010"}}},
{"geometry": {"type": "Point", "coordinates": [-95.9088375975, 42.0743071963]}, "type": "Feature", "properties": {"collection_times": [{"days": "Mon-Fri", "time": "11:15am"}, {"days": "Sat-Sun", "time": "Closed"}], "id": "5101000001", "name": "USPS COLLECTION BOX - PO LOBBY", "address": {"city": "CASTANA", "state": "IA", "street": "301 E PINE ST", "postcode": "51010"}}},
{"geometry": {"type": "Point", "coordinates": [-95.5530004008, 42.7510472717]}, "type": "Feature", "properties": {"collection_times": [{"days": "Mon-Fri", "time": "5:00pm"}, {"days": "Sat", "time": "4:30pm"}, {"days": "Sun", "time": "Closed"}], "id": "5101200000", "name": "USPS COLLECTION BOX - BLUE BOX", "address": {"city": "CHEROKEE", "state": "IA", "street": "200 N PINE ST", "postcode": "51012"}}},
{"geometry": {"type": "Point", "coordinates": [-95.5512217041, 42.7496193379]}, "type": "Feature", "properties": {"collection_times": [{"days": "Mon-Sat", "time": "2:30pm"}, {"days": "Sun", "time": "Closed"}], "id": "5101200001", "name": "USPS COLLECTION BOX - BLUE BOX", "address": {"city": "CHEROKEE", "state": "IA", "street": "101 E MAIN ST", "postcode": "51012"}}},
{"geometry": {"type": "Point", "coordinates": [-95.5530004008, 42.7510472717]}, "type": "Feature", "properties": {"collection_times": [{"days": "Mon-Fri", "time": "5:00pm"}, {"days": "Sat", "time": "4:30pm"}, {"days": "Sun", "time": "Closed"}], "id": "5101200013", "name": "USPS COLLECTION BOX - BLUE BOX", "address": {"city": "CHEROKEE", "state": "IA", "street": "200 N PINE ST", "postcode": "51012"}}},
{"geometry": {"type": "Point", "coordinates": [-95.5537019639, 42.7505940551]}, "type": "Feature", "properties": {"collection_times": [{"days": "Mon-Fri", "time": "5:00pm"}, {"days": "Sat", "time": "10:30am"}, {"days": "Sun", "time": "Closed"}], "id": "5101200021", "name": "USPS COLLECTION BOX - PO LOBBY", "address": {"city": "CHEROKEE", "state": "IA", "street": "410 W WILLOW ST", "postcode": "51012"}}},
{"geometry": {"type": "Point", "coordinates": [-95.7127048996, 42.813848559]}, "type": "Feature", "properties": {"collection_times": [{"days": "Mon-Sat", "time": "4:00pm"}, {"days": "Sun", "time": "Closed"}], "id": "5101400000", "name": "USPS COLLECTION BOX - BLUE BOX", "address": {"city": "CLEGHORN", "state": "IA", "street": "110 N LEWIS AVE", "postcode": "51014"}}},
{"geometry": {"type": "Point", "coordinates": [-95.7127048996, 42.813848559]}, "type": "Feature", "properties": {"collection_times": [{"days": "Mon-Fri", "time": "11:15am"}, {"days": "Sat-Sun", "time": "Closed"}], "id": "5101400001", "name": "USPS COLLECTION BOX - PO LOBBY", "address": {"city": "CLEGHORN", "state": "IA", "street": "110 N LEWIS AVE", "postcode": "51014"}}},
{"geometry": {"type": "Point", "coordinates": [-95.7882845492, 42.4750127958]}, "type": "Feature", "properties": {"collection_times": [{"days": "Mon-Fri", "time": "4:00pm"}, {"days": "Sat", "time": "5:00pm"}, {"days": "Sun", "time": "Closed"}], "id": "5101600000", "name": "USPS COLLECTION BOX - BLUE BOX", "address": {"city": "CORRECTIONVILLE", "state": "IA", "street": "305 5TH ST", "postcode": "51016"}}},
{"geometry": {"type": "Point", "coordinates": [-95.7882845492, 42.4750127958]}, "type": "Feature", "properties": {"collection_times": [{"days": "Mon-Fri", "time": "1:45pm"}, {"days": "Sat-Sun", "time": "Closed"}], "id": "5101600001", "name": "USPS COLLECTION BOX - PO LOBBY", "address": {"city": "CORRECTIONVILLE", "state": "IA", "street": "305 5TH ST", "postcode": "51016"}}},
{"geometry": {"type": "Point", "coordinates": [-95.6755935962, 42.4647029603]}, "type": "Feature", "properties": {"collection_times": [{"days": "Mon-Fri", "time": "3:30pm"}, {"days": "Sat", "time": "4:30pm"}, {"days": "Sun", "time": "Closed"}], "id": "5101800000", "name": "USPS COLLECTION BOX - BLUE BOX", "address": {"city": "CUSHING", "state": "IA", "street": "406 3RD ST", "postcode": "51018"}}},
{"geometry": {"type": "Point", "coordinates": [-95.6755935962, 42.4647029603]}, "type": "Feature", "properties": {"collection_times": [{"days": "Mon-Fri", "time": "1:45pm"}, {"days": "Sat", "time": "10:45am"}, {"days": "Sun", "time": "Closed"}], "id": "5101800001", "name": "USPS COLLECTION BOX - PO LOBBY", "address": {"city": "CUSHING", "state": "IA", "street": "406 3RD ST", "postcode": "51018"}}},
{"geometry": {"type": "Point", "coordinates": [-95.721859828, 42.2345368873]}, "type": "Feature", "properties": {"collection_times": [{"days": "Mon-Sat", "time": "4:00pm"}, {"days": "Sun", "time": "Closed"}], "id": "5101900000", "name": "USPS COLLECTION BOX - BLUE BOX", "address": {"city": "DANBURY", "state": "IA", "street": "211 MAIN ST", "postcode": "51019"}}},
{"geometry": {"type": "Point", "coordinates": [-95.721859828, 42.2345368873]}, "type": "Feature", "properties": {"collection_times": [{"days": "Mon-Fri", "time": "1:45pm"}, {"days": "Sat-Sun", "time": "Closed"}], "id": "5101900001", "name": "USPS COLLECTION BOX - PO LOBBY", "address": {"city": "DANBURY", "state": "IA", "street": "211 MAIN ST", "postcode": "51019"}}},
{"geometry": {"type": "Point", "coordinates": [-95.4173290133, 42.507862632]}, "type": "Feature", "properties": {"collection_times": [{"days": "Mon-Fri", "time": "3:45pm"}, {"days": "Sat", "time": "4:00pm"}, {"days": "Sun", "time": "Closed"}], "id": "5102000000", "name": "USPS COLLECTION BOX - BLUE BOX", "address": {"city": "GALVA", "state": "IA", "street": "120 S MAIN ST", "postcode": "51020"}}},
{"geometry": {"type": "Point", "coordinates": [-95.4173290133, 42.507862632]}, "type": "Feature", "properties": {"collection_times": [{"days": "Mon-Fri", "time": "11:15am"}, {"days": "Sat-Sun", "time": "Closed"}], "id": "5102000001", "name": "USPS COLLECTION BOX - PO LOBBY", "address": {"city": "GALVA", "state": "IA", "street": "120 S MAIN ST", "postcode": "51020"}}},
{"geometry": {"type": "Point", "coordinates": [-95.8741706516, 42.9857665215]}, "type": "Feature", "properties": {"collection_times": [{"days": "Mon-Sat", "time": "4:15pm"}, {"days": "Sun", "time": "Closed"}], "id": "5102200000", "name": "USPS COLLECTION BOX - BLUE BOX", "address": {"city": "GRANVILLE", "state": "IA", "street": "839 BROAD ST", "postcode": "51022"}}},
{"geometry": {"type": "Point", "coordinates": [-95.8741706516, 42.9857665215]}, "type": "Feature", "properties": {"collection_times": [{"days": "Mon-Fri", "time": "11:15am"}, {"days": "Sat-Sun", "time": "Closed"}], "id": "5102200002", "name": "USPS COLLECTION BOX - PO LOBBY", "address": {"city": "GRANVILLE", "state": "IA", "street": "839 BROAD ST", "postcode": "51022"}}},
{"geometry": {"type": "Point", "coordinates": [-96.4851090522, 42.9956484946]}, "type": "Feature", "properties": {"collection_times": [{"days": "Mon-Sat", "time": "4:30pm"}, {"days": "Sun", "time": "Closed"}], "id": "5102300001", "name": "USPS COLLECTION BOX - BLUE BOX", "address": {"city": "HAWARDEN", "state": "IA", "street": "900 CENTRAL AVE", "postcode": "51023"}}},
{"geometry": {"type": "Point", "coordinates": [-96.4851090522, 42.9956484946]}, "type": "Feature", "properties": {"collection_times": [{"days": "Mon-Sat", "time": "4:30pm"}, {"days": "Sun", "time": "Closed"}], "id": "5102300003", "name": "USPS COLLECTION BOX - BLUE BOX", "address": {"city": "HAWARDEN", "state": "IA", "street": "900 CENTRAL AVE", "postcode": "51023"}}},
{"geometry": {"type": "Point", "coordinates": [-96.4851090522, 42.9956484946]}, "type": "Feature", "properties": {"collection_times": [{"days": "Mon-Fri", "time": "4:30pm"}, {"days": "Sat", "time": "11:00am"}, {"days": "Sun", "time": "Closed"}], "id": "5102300004", "name": "USPS COLLECTION BOX - PO LOBBY", "address": {"city": "HAWARDEN", "state": "IA", "street": "900 CENTRAL AVE", "postcode": "51023"}}},
{"geometry": {"type": "Point", "coordinates": [-96.2923597017, 42.6266893561]}, "type": "Feature", "properties": {"collection_times": [{"days": "Mon-Fri", "time": "4:00pm"}, {"days": "Sat", "time": "5:30pm"}, {"days": "Sun", "time": "Closed"}], "id": "5102400000", "name": "USPS COLLECTION BOX - BLUE BOX", "address": {"city": "HINTON", "state": "IA", "street": "125 W MAIN ST", "postcode": "51024"}}},
{"geometry": {"type": "Point", "coordinates": [-96.2923597017, 42.6266893561]}, "type": "Feature", "properties": {"collection_times": [{"days": "Mon-Fri", "time": "2:15pm"}, {"days": "Sat", "time": "8:45am"}, {"days": "Sun", "time": "Closed"}], "id": "5102400001", "name": "USPS COLLECTION BOX - PO LOBBY", "address": {"city": "HINTON", "state": "IA", "street": "125 W MAIN ST", "postcode": "51024"}}},
{"geometry": {"type": "Point", "coordinates": [-95.5444700965, 42.4892405257]}, "type": "Feature", "properties": {"collection_times": [{"days": "Mon-Fri", "time": "4:00pm"}, {"days": "Sat", "time": "4:30pm"}, {"days": "Sun", "time": "Closed"}], "id": "5102500001", "name": "USPS COLLECTION BOX - BLUE BOX", "address": {"city": "HOLSTEIN", "state": "IA", "street": "121 E 2ND ST", "postcode": "51025"}}},
{"geometry": {"type": "Point", "coordinates": [-95.5444700965, 42.4892405257]}, "type": "Feature", "properties": {"collection_times": [{"days": "Mon-Fri", "time": "4:00pm"}, {"days": "Sat-Sun", "time": "Closed"}], "id": "5102500002", "name": "USPS COLLECTION BOX - PO LOBBY", "address": {"city": "HOLSTEIN", "state": "IA", "street": "121 E 2ND ST", "postcode": "51025"}}},
{"geometry": {"type": "Point", "coordinates": [-96.0973509456, 42.2296114222]}, "type": "Feature", "properties": {"collection_times": [{"days": "Mon-Sat", "time": "4:15pm"}, {"days": "Sun", "time": "Closed"}], "id": "5102600000", "name": "USPS COLLECTION BOX - BLUE BOX", "address": {"city": "HORNICK", "state": "IA", "street": "315 MAIN ST", "postcode": "51026"}}},
{"geometry": {"type": "Point", "coordinates": [-96.0973509456, 42.2296114222]}, "type": "Feature", "properties": {"collection_times": [{"days": "Mon-Fri", "time": "11:15am"}, {"days": "Sat-Sun", "time": "Closed"}], "id": "5102600001", "name": "USPS COLLECTION BOX - PO LOBBY", "address": {"city": "HORNICK", "state": "IA", "street": "315 MAIN ST", "postcode": "51026"}}},
{"geometry": {"type": "Point", "coordinates": [-96.3183375248, 42.9755628632]}, "type": "Feature", "properties": {"collection_times": [{"days": "Mon-Sat", "time": "4:00pm"}, {"days": "Sun", "time": "Closed"}], "id": "5102700000", "name": "USPS COLLECTION BOX - BLUE BOX", "address": {"city": "IRETON", "state": "IA", "street": "320 MAIN ST", "postcode": "51027"}}},
{"geometry": {"type": "Point", "coordinates": [-96.3183375248, 42.9755628632]}, "type": "Feature", "properties": {"collection_times": [{"days": "Mon-Fri", "time": "1:45pm"}, {"days": "Sat-Sun", "time": "Closed"}], "id": "5102700001", "name": "USPS COLLECTION BOX - PO LOBBY", "address": {"city": "IRETON", "state": "IA", "street": "320 MAIN ST", "postcode": "51027"}}},
{"geometry": {"type": "Point", "coordinates": [-95.9673893832, 42.5884702906]}, "type": "Feature", "properties": {"collection_times": [{"days": "Mon-Fri", "time": "4:00pm"}, {"days": "Sat", "time": "3:30pm"}, {"days": "Sun", "time": "Closed"}], "id": "5102800000", "name": "USPS COLLECTION BOX - BLUE BOX", "address": {"city": "KINGSLEY", "state": "IA", "street": "210 MAIN ST", "postcode": "51028"}}},
{"geometry": {"type": "Point", "coordinates": [-95.9621596166, 42.5918966629]}, "type": "Feature", "properties": {"collection_times": [{"days": "Mon-Sat", "time": "1:45pm"}, {"days": "Sun", "time": "Closed"}], "id": "5102800001", "name": "USPS COLLECTION BOX - BLUE BOX", "address": {"city": "KINGSLEY", "state": "IA", "street": "315 E 4TH ST", "postcode": "51028"}}},
{"geometry": {"type": "Point", "coordinates": [-95.9673893832, 42.5884702906]}, "type": "Feature", "properties": {"collection_times": [{"days": "Mon-Fri", "time": "4:00pm"}, {"days": "Sat-Sun", "time": "Closed"}], "id": "5102800002", "name": "USPS COLLECTION BOX - PO LOBBY", "address": {"city": "KINGSLEY", "state": "IA", "street": "210 MAIN ST", "postcode": "51028"}}},
{"geometry": {"type": "Point", "coordinates": [-95.545591767, 42.8609850841]}, "type": "Feature", "properties": {"collection_times": [{"days": "Mon-Sat", "time": "4:30pm"}, {"days": "Sun", "time": "Closed"}], "id": "5102900000", "name": "USPS COLLECTION BOX - BLUE BOX", "address": {"city": "LARRABEE", "state": "IA", "street": "116 N MAIN ST", "postcode": "51029"}}},
{"geometry": {"type": "Point", "coordinates": [-95.545591767, 42.8609850841]}, "type": "Feature", "properties": {"collection_times": [{"days": "Mon-Fri", "time": "12:30pm"}, {"days": "Sat", "time": "12:00pm"}, {"days": "Sun", "time": "Closed"}], "id": "5102900001", "name": "USPS COLLECTION BOX - PO LOBBY", "address": {"city": "LARRABEE", "state": "IA", "street": "116 N MAIN ST", "postcode": "51029"}}},
{"geometry": {"type": "Point", "coordinates": [-96.1837605952, 42.4789024969]}, "type": "Feature", "properties": {"collection_times": [{"days": "Mon-Sat", "time": "4:00pm"}, {"days": "Sun", "time": "Closed"}], "id": "5103000000", "name": "USPS COLLECTION BOX - BLUE BOX", "address": {"city": "LAWTON", "state": "IA", "street": "314 CEDAR ST", "postcode": "51030"}}},
{"geometry": {"type": "Point", "coordinates": [-96.1837605952, 42.4789024969]}, "type": "Feature", "properties": {"collection_times": [{"days": "Mon-Fri", "time": "1:45pm"}, {"days": "Sat-Sun", "time": "Closed"}], "id": "5103000001", "name": "USPS COLLECTION BOX - PO LOBBY", "address": {"city": "LAWTON", "state": "IA", "street": "314 CEDAR ST", "postcode": "51030"}}},
{"geometry": {"type": "Point", "coordinates": [-96.1697575566, 42.7942354365]}, "type": "Feature", "properties": {"collection_times": [{"days": "Mon-Fri", "time": "5:15pm"}, {"days": "Sat", "time": "3:00pm"}, {"days": "Sun", "time": "Closed"}], "id": "5103100013", "name": "USPS COLLECTION BOX - BLUE BOX", "address": {"city": "LE MARS", "state": "IA", "street": "230 1ST ST NW", "postcode": "51031"}}},
{"geometry": {"type": "Point", "coordinates": [-96.1575404833, 42.7945196437]}, "type": "Feature", "properties": {"collection_times": [{"days": "Mon-Sat", "time": "10:00am"}, {"days": "Sun", "time": "Closed"}], "id": "5103100014", "name": "USPS COLLECTION BOX - BLUE BOX", "address": {"city": "LE MARS", "state": "IA", "street": "110 6TH AVE NE", "postcode": "51031"}}},
{"geometry": {"type": "Point", "coordinates": [-96.1697575566, 42.7942354365]}, "type": "Feature", "properties": {"collection_times": [{"days": "Mon-Fri", "time": "5:15pm"}, {"days": "Sat", "time": "3:00pm"}, {"days": "Sun", "time": "Closed"}], "id": "5103100015", "name": "USPS COLLECTION BOX - BLUE BOX", "address": {"city": "LE MARS", "state": "IA", "street": "230 1ST ST NW", "postcode": "51031"}}},
{"geometry": {"type": "Point", "coordinates": [-96.1697575566, 42.7942354365]}, "type": "Feature", "properties": {"collection_times": [{"days": "Mon-Fri", "time": "5:15pm"}, {"days": "Sat", "time": "3:00pm"}, {"days": "Sun", "time": "Closed"}], "id": "5103100019", "name": "USPS COLLECTION BOX - PO LOBBY", "address": {"city": "LE MARS", "state": "IA", "street": "230 1ST ST NW", "postcode": "51031"}}},
{"geometry": {"type": "Point", "coordinates": [-96.1738269824, 42.7891351821]}, "type": "Feature", "properties": {"collection_times": [{"days": "Mon-Sat", "time": "11:00am"}, {"days": "Sun", "time": "Closed"}], "id": "5103100022", "name": "USPS COLLECTION BOX - BLUE BOX", "address": {"city": "LE MARS", "state": "IA", "street": "321 5TH AVE SW", "postcode": "51031"}}},
{"geometry": {"type": "Point", "coordinates": [-95.2422249641, 42.8886254465]}, "type": "Feature", "properties": {"collection_times": [{"days": "Mon-Sat", "time": "3:45pm"}, {"days": "Sun", "time": "Closed"}], "id": "5103300000", "name": "USPS COLLECTION BOX - BLUE BOX", "address": {"city": "LINN GROVE", "state": "IA", "street": "132 WEAVER ST", "postcode": "51033"}}},
{"geometry": {"type": "Point", "coordinates": [-95.2422249641, 42.8886254465]}, "type": "Feature", "properties": {"collection_times": [{"days": "Mon-Fri", "time": "11:15am"}, {"days": "Sat-Sun", "time": "Closed"}], "id": "5103300001", "name": "USPS COLLECTION BOX - PO LOBBY", "address": {"city": "LINN GROVE", "state": "IA", "street": "132 WEAVER ST", "postcode": "51033"}}},
{"geometry": {"type": "Point", "coordinates": [-95.7917899128, 42.1658087618]}, "type": "Feature", "properties": {"collection_times": [{"days": "Mon-Fri", "time": "3:45pm"}, {"days": "Sat", "time": "4:30pm"}, {"days": "Sun", "time": "Closed"}], "id": "5103400003", "name": "USPS COLLECTION BOX - BLUE BOX", "address": {"city": "MAPLETON", "state": "IA", "street": "106 S 5TH ST", "postcode": "51034"}}},
{"geometry": {"type": "Point", "coordinates": [-95.7917899128, 42.1658087618]}, "type": "Feature", "properties": {"collection_times": [{"days": "Mon-Fri", "time": "4:00pm"}, {"days": "Sat-Sun", "time": "Closed"}], "id": "5103400004", "name": "USPS COLLECTION BOX - PO LOBBY", "address": {"city": "MAPLETON", "state": "IA", "street": "106 S 5TH ST", "postcode": "51034"}}},
{"geometry": {"type": "Point", "coordinates": [-95.8078587379, 42.8246488039]}, "type": "Feature", "properties": {"collection_times": [{"days": "Mon-Sat", "time": "3:30pm"}, {"days": "Sun", "time": "Closed"}], "id": "5103500000", "name": "USPS COLLECTION BOX - BLUE BOX", "address": {"city": "MARCUS", "state": "IA", "street": "108 E PINE ST", "postcode": "51035"}}},
{"geometry": {"type": "Point", "coordinates": [-95.8078587379, 42.8246488039]}, "type": "Feature", "properties": {"collection_times": [{"days": "Mon-Fri", "time": "3:15pm"}, {"days": "Sat-Sun", "time": "Closed"}], "id": "5103500002", "name": "USPS COLLECTION BOX - PO LOBBY", "address": {"city": "MARCUS", "state": "IA", "street": "108 E PINE ST", "postcode": "51035"}}},
{"geometry": {"type": "Point", "coordinates": [-96.1797290426, 42.9656816813]}, "type": "Feature", "properties": {"collection_times": [{"days": "Mon-Fri", "time": "4:30pm"}, {"days": "Sat", "time": "3:30pm"}, {"days": "Sun", "time": "Closed"}], "id": "5103600000", "name": "USPS COLLECTION BOX - BLUE BOX", "address": {"city": "MAURICE", "state": "IA", "street": "410 2ND ST", "postcode": "51036"}}},
{"geometry": {"type": "Point", "coordinates": [-96.1797290426, 42.9656816813]}, "type": "Feature", "properties": {"collection_times": [{"days": "Mon-Fri", "time": "2:15pm"}, {"days": "Sat-Sun", "time": "Closed"}], "id": "5103600001", "name": "USPS COLLECTION BOX - PO LOBBY", "address": {"city": "MAURICE", "state": "IA", "street": "410 2ND ST", "postcode": "51036"}}},
{"geometry": {"type": "Point", "coordinates": [-95.6343331868, 42.7954948654]}, "type": "Feature", "properties": {"collection_times": [{"days": "Mon-Sat", "time": "4:00pm"}, {"days": "Sun", "time": "Closed"}], "id": "5103700000", "name": "USPS COLLECTION BOX - BLUE BOX", "address": {"city": "MERIDEN", "state": "IA", "street": "112 EAGLE ST", "postcode": "51037"}}},
{"geometry": {"type": "Point", "coordinates": [-95.6343331868, 42.7954948654]}, "type": "Feature", "properties": {"collection_times": [{"days": "Mon-Fri", "time": "11:15am"}, {"days": "Sat-Sun", "time": "Closed"}], "id": "5103700001", "name": "USPS COLLECTION BOX - PO LOBBY", "address": {"city": "MERIDEN", "state": "IA", "street": "112 EAGLE ST", "postcode": "51037"}}},
{"geometry": {"type": "Point", "coordinates": [-96.2467044662, 42.7199004966]}, "type": "Feature", "properties": {"collection_times": [{"days": "Mon-Fri", "time": "4:00pm"}, {"days": "Sat", "time": "5:30pm"}, {"days": "Sun", "time": "Closed"}], "id": "5103800000", "name": "USPS COLLECTION BOX - BLUE BOX", "address": {"city": "MERRILL", "state": "IA", "street": "134 MAIN ST", "postcode": "51038"}}},
{"geometry": {"type": "Point", "coordinates": [-96.2467044662, 42.7199004966]}, "type": "Feature", "properties": {"collection_times": [{"days": "Mon-Fri", "time": "1:45pm"}, {"days": "Sat-Sun", "time": "Closed"}], "id": "5103800001", "name": "USPS COLLECTION BOX - PO LOBBY", "address": {"city": "MERRILL", "state": "IA", "street": "134 MAIN ST", "postcode": "51038"}}},
{"geometry": {"type": "Point", "coordinates": [-96.0721335194, 42.4888257837]}, "type": "Feature", "properties": {"collection_times": [{"days": "Mon-Fri", "time": "4:00pm"}, {"days": "Sat", "time": "5:30pm"}, {"days": "Sun", "time": "Closed"}], "id": "5103900000", "name": "USPS COLLECTION BOX - BLUE BOX", "address": {"city": "MOVILLE", "state": "IA", "street": "319 MAIN ST", "postcode": "51039"}}},
{"geometry": {"type": "Point", "coordinates": [-96.0721335194, 42.4888257837]}, "type": "Feature", "properties": {"collection_times": [{"days": "Mon-Fri", "time": "4:00pm"}, {"days": "Sat", "time": "10:00am"}, {"days": "Sun", "time": "Closed"}], "id": "5103900001", "name": "USPS COLLECTION BOX - PO LOBBY", "address": {"city": "MOVILLE", "state": "IA", "street": "319 MAIN ST", "postcode": "51039"}}},
{"geometry": {"type": "Point", "coordinates": [-96.0975004518, 42.0266811434]}, "type": "Feature", "properties": {"collection_times": [{"days": "Mon-Sat", "time": "4:30pm"}, {"days": "Sun", "time": "Closed"}], "id": "5104000002", "name": "USPS COLLECTION BOX - BLUE BOX", "address": {"city": "ONAWA", "state": "IA", "street": "1017 IOWA AVE", "postcode": "51040"}}},
{"geometry": {"type": "Point", "coordinates": [-96.0975004518, 42.0266811434]}, "type": "Feature", "properties": {"collection_times": [{"days": "Mon-Fri", "time": "4:30pm"}, {"days": "Sat", "time": "2:00pm"}, {"days": "Sun", "time": "Closed"}], "id": "5104000004", "name": "USPS COLLECTION BOX - PO LOBBY", "address": {"city": "ONAWA", "state": "IA", "street": "1017 IOWA AVE", "postcode": "51040"}}},
{"geometry": {"type": "Point", "coordinates": [-96.1238082542, 42.0272686118]}, "type": "Feature", "properties": {"collection_times": [{"days": "Mon-Sat", "time": "1:30pm"}, {"days": "Sun", "time": "Closed"}], "id": "5104000005", "name": "USPS COLLECTION BOX - BLUE BOX", "address": {"city": "ONAWA", "state": "IA", "street": "2650 IOWA AVE", "postcode": "51040"}}},
{"geometry": {"type": "Point", "coordinates": [-96.0958918145, 42.0267899703]}, "type": "Feature", "properties": {"collection_times": [{"days": "Mon-Fri", "time": "3:30pm"}, {"days": "Sat", "time": "12:00pm"}, {"days": "Sun", "time": "Closed"}], "id": "5104000006", "name": "USPS COLLECTION BOX - BLUE BOX", "address": {"city": "ONAWA", "state": "IA", "street": "900 IOWA AVE", "postcode": "51040"}}},
{"geometry": {"type": "Point", "coordinates": [-96.0567970911, 43.0059499114]}, "type": "Feature", "properties": {"collection_times": [{"days": "Mon-Fri", "time": "4:30pm"}, {"days": "Sat", "time": "4:00pm"}, {"days": "Sun", "time": "Closed"}], "id": "5104100000", "name": "USPS COLLECTION BOX - BLUE BOX", "address": {"city": "ORANGE CITY", "state": "IA", "street": "108 ALBANY AVE SE", "postcode": "51041"}}},
{"geometry": {"type": "Point", "coordinates": [-96.0567970911, 43.0059499114]}, "type": "Feature", "properties": {"collection_times": [{"days": "Mon-Fri", "time": "4:30pm"}, {"days": "Sat", "time": "12:00pm"}, {"days": "Sun", "time": "Closed"}], "id": "5104100004", "name": "USPS COLLECTION BOX - PO LOBBY", "address": {"city": "ORANGE CITY", "state": "IA", "street": "108 ALBANY AVE SE", "postcode": "51041"}}},
{"geometry": {"type": "Point", "coordinates": [-96.0567970911, 43.0059499114]}, "type": "Feature", "properties": {"collection_times": [{"days": "Mon-Fri", "time": "4:30pm"}, {"days": "Sat", "time": "4:00pm"}, {"days": "Sun", "time": "Closed"}], "id": "5104100005", "name": "USPS COLLECTION BOX - BLUE BOX", "address": {"city": "ORANGE CITY", "state": "IA", "street": "108 ALBANY AVE SE", "postcode": "51041"}}},
{"geometry": {"type": "Point", "coordinates": [-95.8938269637, 42.2870910366]}, "type": "Feature", "properties": {"collection_times": [{"days": "Mon-Fri", "time": "4:15pm"}, {"days": "Sat", "time": "5:00pm"}, {"days": "Sun", "time": "Closed"}], "id": "5104400000", "name": "USPS COLLECTION BOX - BLUE BOX", "address": {"city": "OTO", "state": "IA", "street": "32 WASHINGTON ST", "postcode": "51044"}}},
{"geometry": {"type": "Point", "coordinates": [-95.8938269637, 42.2870910366]}, "type": "Feature", "properties": {"collection_times": [{"days": "Mon-Fri", "time": "10:45am"}, {"days": "Sat", "time": "8:15am"}, {"days": "Sun", "time": "Closed"}], "id": "5104400001", "name": "USPS COLLECTION BOX - PO LOBBY", "address": {"city": "OTO", "state": "IA", "street": "32 WASHINGTON ST", "postcode": "51044"}}},
{"geometry": {"type": "Point", "coordinates": [-96.0559734694, 42.8205641971]}, "type": "Feature", "properties": {"collection_times": [{"days": "Mon-Sat", "time": "3:30pm"}, {"days": "Sun", "time": "Closed"}], "id": "5104500000", "name": "USPS COLLECTION BOX - BLUE BOX", "address": {"city": "OYENS", "state": "IA", "street": "205 MAIN ST", "postcode": "51045"}}},
{"geometry": {"type": "Point", "coordinates": [-96.0559734694, 42.8205641971]}, "type": "Feature", "properties": {"collection_times": [{"days": "Mon-Fri", "time": "10:45am"}, {"days": "Sat", "time": "10:15am"}, {"days": "Sun", "time": "Closed"}], "id": "5104500001", "name": "USPS COLLECTION BOX - PO LOBBY", "address": {"city": "OYENS", "state": "IA", "street": "205 MAIN ST", "postcode": "51045"}}},
{"geometry": {"type": "Point", "coordinates": [-95.6875849913, 42.9788888503]}, "type": "Feature", "properties": {"collection_times": [{"days": "Mon-Fri", "time": "4:00pm"}, {"days": "Sat", "time": "4:15pm"}, {"days": "Sun", "time": "Closed"}], "id": "5104600000", "name": "USPS COLLECTION BOX - BLUE BOX", "address": {"city": "PAULLINA", "state": "IA", "street": "121 S MAIN ST", "postcode": "51046"}}},
{"geometry": {"type": "Point", "coordinates": [-95.6875849913, 42.9788888503]}, "type": "Feature", "properties": {"collection_times": [{"days": "Mon-Fri", "time": "4:00pm"}, {"days": "Sat", "time": "4:15pm"}, {"days": "Sun", "time": "Closed"}], "id": "5104600001", "name": "USPS COLLECTION BOX - BLUE BOX", "address": {"city": "PAULLINA", "state": "IA", "street": "121 S MAIN ST", "postcode": "51046"}}},
{"geometry": {"type": "Point", "coordinates": [-95.6875849913, 42.9788888503]}, "type": "Feature", "properties": {"collection_times": [{"days": "Mon-Fri", "time": "4:00pm"}, {"days": "Sat-Sun", "time": "Closed"}], "id": "5104600002", "name": "USPS COLLECTION BOX - PO LOBBY", "address": {"city": "PAULLINA", "state": "IA", "street": "121 S MAIN ST", "postcode": "51046"}}},
{"geometry": {"type": "Point", "coordinates": [-95.3609609609, 42.9336572633]}, "type": "Feature", "properties": {"collection_times": [{"days": "Mon-Sat", "time": "4:00pm"}, {"days": "Sun", "time": "Closed"}], "id": "5104700000", "name": "USPS COLLECTION BOX - BLUE BOX", "address": {"city": "PETERSON", "state": "IA", "street": "222 MAIN ST", "postcode": "51047"}}},
{"geometry": {"type": "Point", "coordinates": [-95.3609609609, 42.9336572633]}, "type": "Feature", "properties": {"collection_times": [{"days": "Mon-Fri", "time": "11:15am"}, {"days": "Sat", "time": "10:00am"}, {"days": "Sun", "time": "Closed"}], "id": "5104700001", "name": "USPS COLLECTION BOX - PO LOBBY", "address": {"city": "PETERSON", "state": "IA", "street": "222 MAIN ST", "postcode": "51047"}}},
{"geometry": {"type": "Point", "coordinates": [-95.8696477245, 42.5451133744]}, "type": "Feature", "properties": {"collection_times": [{"days": "Mon-Fri", "time": "4:00pm"}, {"days": "Sat", "time": "5:00pm"}, {"days": "Sun", "time": "Closed"}], "id": "5104800000", "name": "USPS COLLECTION BOX - BLUE BOX", "address": {"city": "PIERSON", "state": "IA", "street": "324 FRONT ST", "postcode": "51048"}}},
{"geometry": {"type": "Point", "coordinates": [-95.8696477245, 42.5451133744]}, "type": "Feature", "properties": {"collection_times": [{"days": "Mon-Fri", "time": "1:45pm"}, {"days": "Sat-Sun", "time": "Closed"}], "id": "5104800001", "name": "USPS COLLECTION BOX - PO LOBBY", "address": {"city": "PIERSON", "state": "IA", "street": "324 FRONT ST", "postcode": "51048"}}},
{"geometry": {"type": "Point", "coordinates": [-95.6421072028, 42.6304113736]}, "type": "Feature", "properties": {"collection_times": [{"days": "Mon-Fri", "time": "4:00pm"}, {"days": "Sat", "time": "3:30pm"}, {"days": "Sun", "time": "Closed"}], "id": "5104900000", "name": "USPS COLLECTION BOX - BLUE BOX", "address": {"city": "QUIMBY", "state": "IA", "street": "106 W 2ND AVE", "postcode": "51049"}}},
{"geometry": {"type": "Point", "coordinates": [-95.6421072028, 42.6304113736]}, "type": "Feature", "properties": {"collection_times": [{"days": "Mon-Fri", "time": "3:45pm"}, {"days": "Sat", "time": "12:15pm"}, {"days": "Sun", "time": "Closed"}], "id": "5104900001", "name": "USPS COLLECTION BOX - PO LOBBY", "address": {"city": "QUIMBY", "state": "IA", "street": "106 W 2ND AVE", "postcode": "51049"}}},
{"geometry": {"type": "Point", "coordinates": [-95.9730010099, 42.8147811889]}, "type": "Feature", "properties": {"collection_times": [{"days": "Mon-Fri", "time": "4:00pm"}, {"days": "Sat", "time": "3:30pm"}, {"days": "Sun", "time": "Closed"}], "id": "5105000000", "name": "USPS COLLECTION BOX - BLUE BOX", "address": {"city": "REMSEN", "state": "IA", "street": "23 E 2ND ST", "postcode": "51050"}}},
{"geometry": {"type": "Point", "coordinates": [-95.9730010099, 42.8147811889]}, "type": "Feature", "properties": {"collection_times": [{"days": "Mon-Fri", "time": "4:00pm"}, {"days": "Sat-Sun", "time": "Closed"}], "id": "5105000001", "name": "USPS COLLECTION BOX - PO LOBBY", "address": {"city": "REMSEN", "state": "IA", "street": "23 E 2ND ST", "postcode": "51050"}}},
{"geometry": {"type": "Point", "coordinates": [-95.950699111, 42.2035546447]}, "type": "Feature", "properties": {"collection_times": [{"days": "Mon-Sat", "time": "4:45pm"}, {"days": "Sun", "time": "Closed"}], "id": "5105100000", "name": "USPS COLLECTION BOX - BLUE BOX", "address": {"city": "RODNEY", "state": "IA", "street": "120 MAIN ST", "postcode": "51051"}}},
{"geometry": {"type": "Point", "coordinates": [-95.950699111, 42.2035546447]}, "type": "Feature", "properties": {"collection_times": [{"days": "Mon-Fri", "time": "1:15pm"}, {"days": "Sat-Sun", "time": "Closed"}], "id": "5105100001", "name": "USPS COLLECTION BOX - PO LOBBY", "address": {"city": "RODNEY", "state": "IA", "street": "120 MAIN ST", "postcode": "51051"}}},
{"geometry": {"type": "Point", "coordinates": [-96.2878697137, 42.3083535468]}, "type": "Feature", "properties": {"collection_times": [{"days": "Mon-Fri", "time": "11:45am"}, {"days": "Sat-Sun", "time": "Closed"}], "id": "5105200001", "name": "USPS COLLECTION BOX - PO LOBBY", "address": {"city": "SALIX", "state": "IA", "street": "310 TIPTON ST", "postcode": "51052"}}},
{"geometry": {"type": "Point", "coordinates": [-96.2878697137, 42.3083535468]}, "type": "Feature", "properties": {"collection_times": [{"days": "Mon-Fri", "time": "4:45pm"}, {"days": "Sat", "time": "5:00pm"}, {"days": "Sun", "time": "Closed"}], "id": "5105200002", "name": "USPS COLLECTION BOX - BLUE BOX", "address": {"city": "SALIX", "state": "IA", "street": "310 TIPTON ST", "postcode": "51052"}}},
{"geometry": {"type": "Point", "coordinates": [-95.2933808612, 42.4996347096]}, "type": "Feature", "properties": {"collection_times": [{"days": "Mon-Sat", "time": "4:00pm"}, {"days": "Sun", "time": "Closed"}], "id": "5105300000", "name": "USPS COLLECTION BOX - BLUE BOX", "address": {"city": "SCHALLER", "state": "IA", "street": "205 S MAIN ST", "postcode": "51053"}}},
{"geometry": {"type": "Point", "coordinates": [-95.2933808612, 42.4996347096]}, "type": "Feature", "properties": {"collection_times": [{"days": "Mon-Fri", "time": "1:45pm"}, {"days": "Sat", "time": "10:45am"}, {"days": "Sun", "time": "Closed"}], "id": "5105300001", "name": "USPS COLLECTION BOX - PO LOBBY", "address": {"city": "SCHALLER", "state": "IA", "street": "205 S MAIN ST", "postcode": "51053"}}},
{"geometry": {"type": "Point", "coordinates": [-96.360338905, 42.4038096814]}, "type": "Feature", "properties": {"collection_times": [{"days": "Mon-Fri", "time": "4:00pm"}, {"days": "Sat", "time": "5:30pm"}, {"days": "Sun", "time": "Closed"}], "id": "5105400001", "name": "USPS COLLECTION BOX - BLUE BOX", "address": {"city": "SERGEANT BLUFF", "state": "IA", "street": "410 4TH ST", "postcode": "51054"}}},
{"geometry": {"type": "Point", "coordinates": [-96.360338905, 42.4038096814]}, "type": "Feature", "properties": {"collection_times": [{"days": "Mon-Fri", "time": "4:30pm"}, {"days": "Sat", "time": "9:30am"}, {"days": "Sun", "time": "Closed"}], "id": "5105400004", "name": "USPS COLLECTION BOX - PO LOBBY", "address": {"city": "SERGEANT BLUFF", "state": "IA", "street": "410 4TH ST", "postcode": "51054"}}},
{"geometry": {"type": "Point", "coordinates": [-96.228273218, 42.2325654601]}, "type": "Feature", "properties": {"collection_times": [{"days": "Mon-Fri", "time": "4:45pm"}, {"days": "Sat", "time": "5:00pm"}, {"days": "Sun", "time": "Closed"}], "id": "5105500000", "name": "USPS COLLECTION BOX - BLUE BOX", "address": {"city": "SLOAN", "state": "IA", "street": "309 4TH ST", "postcode": "51055"}}},
{"geometry": {"type": "Point", "coordinates": [-96.228273218, 42.2325654601]}, "type": "Feature", "properties": {"collection_times": [{"days": "Mon-Fri", "time": "2:15pm"}, {"days": "Sat-Sun", "time": "Closed"}], "id": "5105500001", "name": "USPS COLLECTION BOX - PO LOBBY", "address": {"city": "SLOAN", "state": "IA", "street": "309 4TH ST", "postcode": "51055"}}},
{"geometry": {"type": "Point", "coordinates": [-95.9307471366, 42.2277816321]}, "type": "Feature", "properties": {"collection_times": [{"days": "Mon-Fri", "time": "4:15pm"}, {"days": "Sat", "time": "4:45pm"}, {"days": "Sun", "time": "Closed"}], "id": "5105600000", "name": "USPS COLLECTION BOX - BLUE BOX", "address": {"city": "SMITHLAND", "state": "IA", "street": "207 S HICKORY ST", "postcode": "51056"}}},
{"geometry": {"type": "Point", "coordinates": [-95.9307471366, 42.2277816321]}, "type": "Feature", "properties": {"collection_times": [{"days": "Mon-Fri", "time": "11:15am"}, {"days": "Sat-Sun", "time": "Closed"}], "id": "5105600001", "name": "USPS COLLECTION BOX - PO LOBBY", "address": {"city": "SMITHLAND", "state": "IA", "street": "207 S HICKORY ST", "postcode": "51056"}}},
{"geometry": {"type": "Point", "coordinates": [-95.4977856624, 42.9747420015]}, "type": "Feature", "properties": {"collection_times": [{"days": "Mon-Fri", "time": "4:00pm"}, {"days": "Sat", "time": "4:15pm"}, {"days": "Sun", "time": "Closed"}], "id": "5105800000", "name": "USPS COLLECTION BOX - BLUE BOX", "address": {"city": "SUTHERLAND", "state": "IA", "street": "111 W 1ST ST", "postcode": "51058"}}},
{"geometry": {"type": "Point", "coordinates": [-95.4977856624, 42.9747420015]}, "type": "Feature", "properties": {"collection_times": [{"days": "Mon-Fri", "time": "2:15pm"}, {"days": "Sat-Sun", "time": "Closed"}], "id": "5105800001", "name": "USPS COLLECTION BOX - PO LOBBY", "address": {"city": "SUTHERLAND", "state": "IA", "street": "111 W 1ST ST", "postcode": "51058"}}},
{"geometry": {"type": "Point", "coordinates": [-95.7062028071, 42.0502226259]}, "type": "Feature", "properties": {"collection_times": [{"days": "Mon-Sat", "time": "4:00pm"}, {"days": "Sun", "time": "Closed"}], "id": "5106000000", "name": "USPS COLLECTION BOX - BLUE BOX", "address": {"city": "UTE", "state": "IA", "street": "100 E MAIN ST", "postcode": "51060"}}},
{"geometry": {"type": "Point", "coordinates": [-95.7062028071, 42.0502226259]}, "type": "Feature", "properties": {"collection_times": [{"days": "Mon-Fri", "time": "11:15am"}, {"days": "Sat-Sun", "time": "Closed"}], "id": "5106000001", "name": "USPS COLLECTION BOX - PO LOBBY", "address": {"city": "UTE", "state": "IA", "street": "100 E MAIN ST", "postcode": "51060"}}},
{"geometry": {"type": "Point", "coordinates": [-95.7196836024, 42.577391159]}, "type": "Feature", "properties": {"collection_times": [{"days": "Mon-Fri", "time": "4:00pm"}, {"days": "Sat", "time": "4:15pm"}, {"days": "Sun", "time": "Closed"}], "id": "5106100000", "name": "USPS COLLECTION BOX - BLUE BOX", "address": {"city": "WASHTA", "state": "IA", "street": "306 MAIN ST", "postcode": "51061"}}},
{"geometry": {"type": "Point", "coordinates": [-95.7196836024, 42.577391159]}, "type": "Feature", "properties": {"collection_times": [{"days": "Mon-Fri", "time": "11:15am"}, {"days": "Sat", "time": "8:15am"}, {"days": "Sun", "time": "Closed"}], "id": "5106100002", "name": "USPS COLLECTION BOX - PO LOBBY", "address": {"city": "WASHTA", "state": "IA", "street": "306 MAIN ST", "postcode": "51061"}}},
{"geometry": {"type": "Point", "coordinates": [-96.6041925756, 42.7564164265]}, "type": "Feature", "properties": {"collection_times": [{"days": "Mon-Fri", "time": "3:45pm"}, {"days": "Sat", "time": "4:30pm"}, {"days": "Sun", "time": "Closed"}], "id": "5106200000", "name": "USPS COLLECTION BOX - BLUE BOX", "address": {"city": "WESTFIELD", "state": "IA", "street": "220 UNION ST", "postcode": "51062"}}},
{"geometry": {"type": "Point", "coordinates": [-96.6041925756, 42.7564164265]}, "type": "Feature", "properties": {"collection_times": [{"days": "Mon-Fri", "time": "2:45pm"}, {"days": "Sat-Sun", "time": "Closed"}], "id": "5106200001", "name": "USPS COLLECTION BOX - PO LOBBY", "address": {"city": "WESTFIELD", "state": "IA", "street": "220 UNION ST", "postcode": "51062"}}},
{"geometry": {"type": "Point", "coordinates": [-96.1524979549, 42.1274225753]}, "type": "Feature", "properties": {"collection_times": [{"days": "Mon-Fri", "time": "3:45pm"}, {"days": "Sat", "time": "4:45pm"}, {"days": "Sun", "time": "Closed"}], "id": "5106300000", "name": "USPS COLLECTION BOX - BLUE BOX", "address": {"city": "WHITING", "state": "IA", "street": "609 WHITTIER ST", "postcode": "51063"}}},
{"geometry": {"type": "Point", "coordinates": [-96.1524979549, 42.1274225753]}, "type": "Feature", "properties": {"collection_times": [{"days": "Mon-Fri", "time": "1:45pm"}, {"days": "Sat-Sun", "time": "Closed"}], "id": "5106300001", "name": "USPS COLLECTION BOX - PO LOBBY", "address": {"city": "WHITING", "state": "IA", "street": "609 WHITTIER ST", "postcode": "51063"}}}
]}
