{"type": "FeatureCollection", "features": [
{"geometry": {"type": "Point", "coordinates": [-96.4065639477, 42.4975164918]}, "type": "Feature", "properties": {"collection_times": [{"days": "Mon-Fri", "time": "5:00pm"}, {"days": "Sat-Sun", "time": "Closed"}], "id": "5110100002", "name": "USPS COLLECTION BOX - BLUE BOX", "address": {"city": "SIOUX CITY", "state": "IA", "street": "705 DOUGLAS ST", "postcode": "51101"}}},
{"geometry": {"type": "Point", "coordinates": [-96.406386964, 42.4987873431]}, "type": "Feature", "properties": {"collection_times": [{"days": "Mon-Fri", "time": "4:15pm"}, {"days": "Sat-Sun", "time": "Closed"}], "id": "5110100003", "name": "USPS COLLECTION BOX - BLUE BOX", "address": {"city": "SIOUX CITY", "state": "IA", "street": "822 DOUGLAS ST", "postcode": "51101"}}},
{"geometry": {"type": "Point", "coordinates": [-96.4018956897, 42.4921107543]}, "type": "Feature", "properties": {"collection_times": [{"days": "Mon-Fri", "time": "6:00pm"}, {"days": "Sat", "time": "5:30pm"}, {"days": "Sun", "time": "Closed"}], "id": "5110100014", "name": "USPS COLLECTION BOX - BLUE BOX", "address": {"city": "SIOUX CITY", "state": "IA", "street": "214 JACKSON ST", "postcode": "51101"}}},
{"geometry": {"type": "Point", "coordinates": [-96.4018956897, 42.4921107543]}, "type": "Feature", "properties": {"collection_times": [{"days": "Mon-Fri", "time": "6:00pm"}, {"days": "Sat", "time": "5:30pm"}, {"days": "Sun", "time": "Closed"}], "id": "5110100015", "name": "USPS COLLECTION BOX - BLUE BOX", "address": {"city": "SIOUX CITY", "state": "IA", "street": "214 JACKSON ST", "postcode": "51101"}}},
{"geometry": {"type": "Point", "coordinates": [-96.4018956897, 42.4921107543]}, "type": "Feature", "properties": {"collection_times": [{"days": "Mon-Fri", "time": "6:00pm"}, {"days": "Sat", "time": "5:30pm"}, {"days": "Sun", "time": "Closed"}], "id": "5110100016", "name": "USPS COLLECTION BOX - BLUE BOX", "address": {"city": "SIOUX CITY", "state": "IA", "street": "214 JACKSON ST", "postcode": "51101"}}},
{"geometry": {"type": "Point", "coordinates": [-96.4018956897, 42.4921107543]}, "type": "Feature", "properties": {"collection_times": [{"days": "Mon-Fri", "time": "6:00pm"}, {"days": "Sat", "time": "5:30pm"}, {"days": "Sun", "time": "Closed"}], "id": "5110100020", "name": "USPS COLLECTION BOX - BLUE BOX", "address": {"city": "SIOUX CITY", "state": "IA", "street": "214 JACKSON ST", "postcode": "51101"}}},
{"geometry": {"type": "Point", "coordinates": [-96.40503729, 42.4999023145]}, "type": "Feature", "properties": {"collection_times": [{"days": "Mon-Fri", "time": "4:30pm"}, {"days": "Sat-Sun", "time": "Closed"}], "id": "5110100037", "name": "USPS COLLECTION BOX - BLUE BOX", "address": {"city": "SIOUX CITY", "state": "IA", "street": "925 PIERCE ST", "postcode": "51101"}}},
{"geometry": {"type": "Point", "coordinates": [-96.4034013204, 42.4955225202]}, "type": "Feature", "properties": {"collection_times": [{"days": "Mon-Sat", "time": "5:00pm"}, {"days": "Sun", "time": "Closed"}], "id": "5110100042", "name": "USPS COLLECTION BOX - BLUE BOX", "address": {"city": "SIOUX CITY", "state": "IA", "street": "520 NEBRASKA ST", "postcode": "51101"}}},
{"geometry": {"type": "Point", "coordinates": [-96.4041851434, 42.4941426623]}, "type": "Feature", "properties": {"collection_times": [{"days": "Mon-Sat", "time": "4:00pm"}, {"days": "Sun", "time": "Closed"}], "id": "5110100053", "name": "USPS COLLECTION BOX - BLUE BOX", "address": {"city": "SIOUX CITY", "state": "IA", "street": "600 4TH ST", "postcode": "51101"}}},
{"geometry": {"type": "Point", "coordinates": [-96.4018956897, 42.4921107543]}, "type": "Feature", "properties": {"collection_times": [{"days": "Mon-Fri", "time": "6:00pm"}, {"days": "Sat", "time": "5:30pm"}, {"days": "Sun", "time": "Closed"}], "id": "5110100065", "name": "USPS COLLECTION BOX - PO LOBBY", "address": {"city": "SIOUX CITY", "state": "IA", "street": "214 JACKSON ST", "postcode": "51101"}}},
{"geometry": {"type": "Point", "coordinates": [-96.4049447865, 42.495312148]}, "type": "Feature", "properties": {"collection_times": [{"days": "Mon-Sat", "time": "5:00pm"}, {"days": "Sun", "time": "Closed"}], "id": "5110100069", "name": "USPS COLLECTION BOX - BLUE BOX", "address": {"city": "SIOUX CITY", "state": "IA", "street": "501 5TH ST", "postcode": "51101"}}},
{"geometry": {"type": "Point", "coordinates": [-96.4050491971, 42.4974704579]}, "type": "Feature", "properties": {"collection_times": [{"days": "Mon-Fri", "time": "4:30pm"}, {"days": "Sat-Sun", "time": "Closed"}], "id": "5110100078", "name": "USPS COLLECTION BOX - BLUE BOX", "address": {"city": "SIOUX CITY", "state": "IA", "street": "701 PIERCE ST", "postcode": "51101"}}},
{"geometry": {"type": "Point", "coordinates": [-96.4050491971, 42.4974704579]}, "type": "Feature", "properties": {"collection_times": [{"days": "Mon-Fri", "time": "4:30pm"}, {"days": "Sat-Sun", "time": "Closed"}], "id": "5110100079", "name": "USPS COLLECTION BOX - BLUE BOX", "address": {"city": "SIOUX CITY", "state": "IA", "street": "701 PIERCE ST", "postcode": "51101"}}},
{"geometry": {"type": "Point", "coordinates": [-96.4018956897, 42.4921107543]}, "type": "Feature", "properties": {"collection_times": [{"days": "Mon-Fri", "time": "6:00pm"}, {"days": "Sat", "time": "5:30pm"}, {"days": "Sun", "time": "Closed"}], "id": "5110100088", "name": "USPS COLLECTION BOX - APC", "address": {"city": "SIOUX CITY", "state": "IA", "street": "214 JACKSON ST", "postcode": "51101"}}},
{"geometry": {"type": "Point", "coordinates": [-96.4006178082, 42.4952524096]}, "type": "Feature", "properties": {"collection_times": [{"days": "Mon-Sat", "time": "4:30pm"}, {"days": "Sun", "time": "Closed"}], "id": "5110100089", "name": "USPS COLLECTION BOX - BLUE BOX", "address": {"city": "SIOUX CITY", "state": "IA", "street": "523 PEARL ST", "postcode": "51101"}}},
{"geometry": {"type": "Point", "coordinates": [-96.4186522574, 42.503372569]}, "type": "Feature", "properties": {"collection_times": [{"days": "Mon-Sat", "time": "4:00pm"}, {"days": "Sun", "time": "Closed"}], "id": "5110300012", "name": "USPS COLLECTION BOX - BLUE BOX", "address": {"city": "SIOUX CITY", "state": "IA", "street": "911 W 7TH ST", "postcode": "51103"}}},
{"geometry": {"type": "Point", "coordinates": [-96.4249825389, 42.4944199396]}, "type": "Feature", "properties": {"collection_times": [{"days": "Mon-Sat", "time": "4:45pm"}, {"days": "Sun", "time": "Closed"}], "id": "5110300015", "name": "USPS COLLECTION BOX - BLUE BOX", "address": {"city": "SIOUX CITY", "state": "IA", "street": "1404 TRI VIEW AVE", "postcode": "51103"}}},
{"geometry": {"type": "Point", "coordinates": [-96.3851794135, 42.533768435]}, "type": "Feature", "properties": {"collection_times": [{"days": "Mon-Fri", "time": "9:30am"}, {"days": "Sat", "time": "4:00pm"}, {"days": "Sun", "time": "Closed"}], "id": "5110400002", "name": "USPS COLLECTION BOX - BLUE BOX", "address": {"city": "SIOUX CITY", "state": "IA", "street": "3638 GLEN OAKS BLVD", "postcode": "51104"}}},
{"geometry": {"type": "Point", "coordinates": [-96.356384, 42.47188]}, "type": "Feature", "properties": {"collection_times": [{"days": "Mon-Sat", "time": "5:15pm"}, {"days": "Sun", "time": "Closed"}], "id": "5110400004", "name": "USPS COLLECTION BOX - BLUE BOX", "address": {"city": "SIOUX CITY", "state": "IA", "street": "1802 MORNINGSIDE AVE", "postcode": "51104"}}},
{"geometry": {"type": "Point", "coordinates": [-96.4178351791, 42.5187466245]}, "type": "Feature", "properties": {"collection_times": [{"days": "Mon-Sat", "time": "4:30pm"}, {"days": "Sun", "time": "Closed"}], "id": "5110400027", "name": "USPS COLLECTION BOX - BLUE BOX", "address": {"city": "SIOUX CITY", "state": "IA", "street": "312 W 28TH ST", "postcode": "51104"}}},
{"geometry": {"type": "Point", "coordinates": [-96.4174488315, 42.5234654888]}, "type": "Feature", "properties": {"collection_times": [{"days": "Mon-Sat", "time": "4:00pm"}, {"days": "Sun", "time": "Closed"}], "id": "5110400030", "name": "USPS COLLECTION BOX - BLUE BOX", "address": {"city": "SIOUX CITY", "state": "IA", "street": "3025 HAMILTON BLVD", "postcode": "51104"}}},
{"geometry": {"type": "Point", "coordinates": [-96.4241517158, 42.5263856525]}, "type": "Feature", "properties": {"collection_times": [{"days": "Mon-Fri", "time": "4:00pm"}, {"days": "Sat-Sun", "time": "Closed"}], "id": "5110400032", "name": "USPS COLLECTION BOX - BLUE BOX", "address": {"city": "SIOUX CITY", "state": "IA", "street": "3303 REBECCA ST", "postcode": "51104"}}},
{"geometry": {"type": "Point", "coordinates": [-96.4051087735, 42.5194532058]}, "type": "Feature", "properties": {"collection_times": [{"days": "Mon-Sat", "time": "4:00pm"}, {"days": "Sun", "time": "Closed"}], "id": "5110400033", "name": "USPS COLLECTION BOX - BLUE BOX", "address": {"city": "SIOUX CITY", "state": "IA", "street": "2800 PIERCE ST", "postcode": "51104"}}},
{"geometry": {"type": "Point", "coordinates": [-96.4051087735, 42.5194532058]}, "type": "Feature", "properties": {"collection_times": [{"days": "Mon-Sat", "time": "4:00pm"}, {"days": "Sun", "time": "Closed"}], "id": "5110400037", "name": "USPS COLLECTION BOX - BLUE BOX", "address": {"city": "SIOUX CITY", "state": "IA", "street": "2800 PIERCE ST", "postcode": "51104"}}},
{"geometry": {"type": "Point", "coordinates": [-96.3553861517, 42.4499018828]}, "type": "Feature", "properties": {"collection_times": [{"days": "Mon-Fri", "time": "4:00pm"}, {"days": "Sat-Sun", "time": "Closed"}], "id": "5110600002", "name": "USPS COLLECTION BOX - BLUE BOX", "address": {"city": "SIOUX CITY", "state": "IA", "street": "3539 SOUTHERN HILLS DR", "postcode": "51106"}}},
{"geometry": {"type": "Point", "coordinates": [-96.3515086519, 42.4412085836]}, "type": "Feature", "properties": {"collection_times": [{"days": "Mon-Sat", "time": "4:00pm"}, {"days": "Sun", "time": "Closed"}], "id": "5110600004", "name": "USPS COLLECTION BOX - BLUE BOX", "address": {"city": "SIOUX CITY", "state": "IA", "street": "4501 SOUTHERN HILLS DR", "postcode": "51106"}}},
{"geometry": {"type": "Point", "coordinates": [-96.3475074945, 42.4703770241]}, "type": "Feature", "properties": {"collection_times": [{"days": "Mon-Sat", "time": "4:00pm"}, {"days": "Sun", "time": "Closed"}], "id": "5110600009", "name": "USPS COLLECTION BOX - BLUE BOX", "address": {"city": "SIOUX CITY", "state": "IA", "street": "4650 MORNINGSIDE AVE", "postcode": "51106"}}},
{"geometry": {"type": "Point", "coordinates": [-96.35637, 42.47175]}, "type": "Feature", "properties": {"collection_times": [{"days": "Mon-Sat", "time": "5:15pm"}, {"days": "Sun", "time": "Closed"}], "id": "5110600011", "name": "USPS COLLECTION BOX - BLUE BOX", "address": {"city": "SIOUX CITY", "state": "IA", "street": "1802 MORNINGSIDE AVE", "postcode": "51106"}}},
{"geometry": {"type": "Point", "coordinates": [-96.3755775563, 42.4653065488]}, "type": "Feature", "properties": {"collection_times": [{"days": "Mon-Sat", "time": "4:00pm"}, {"days": "Sun", "time": "Closed"}], "id": "5110600035", "name": "USPS COLLECTION BOX - BLUE BOX", "address": {"city": "SIOUX CITY", "state": "IA", "street": "2500 GLENN AVE", "postcode": "51106"}}},
{"geometry": {"type": "Point", "coordinates": [-96.3534962236, 42.4676616247]}, "type": "Feature", "properties": {"collection_times": [{"days": "Mon-Sat", "time": "4:00pm"}, {"days": "Sun", "time": "Closed"}], "id": "5110600041", "name": "USPS COLLECTION BOX - BLUE BOX", "address": {"city": "SIOUX CITY", "state": "IA", "street": "1935 LEECH AVE", "postcode": "51106"}}},
{"geometry": {"type": "Point", "coordinates": [-96.3586438009, 42.5419456065]}, "type": "Feature", "properties": {"collection_times": [{"days": "Mon-Sat", "time": "4:00pm"}, {"days": "Sun", "time": "Closed"}], "id": "5110800002", "name": "USPS COLLECTION BOX - BLUE BOX", "address": {"city": "SIOUX CITY", "state": "IA", "street": "4103 FLOYD BLVD", "postcode": "51108"}}},
{"geometry": {"type": "Point", "coordinates": [-96.3697426305, 42.5345005468]}, "type": "Feature", "properties": {"collection_times": [{"days": "Mon-Sat", "time": "4:00pm"}, {"days": "Sun", "time": "Closed"}], "id": "5110800003", "name": "USPS COLLECTION BOX - BLUE BOX", "address": {"city": "SIOUX CITY", "state": "IA", "street": "3101 FLOYD BLVD", "postcode": "51108"}}},
{"geometry": {"type": "Point", "coordinates": [-96.4771688014, 42.5219603036]}, "type": "Feature", "properties": {"collection_times": [{"days": "Mon-Sat", "time": "1:30pm"}, {"days": "Sun", "time": "Closed"}], "id": "5110900001", "name": "USPS COLLECTION BOX - BLUE BOX", "address": {"city": "SIOUX CITY", "state": "IA", "street": "5306 MILITARY RD", "postcode": "51109"}}},
{"geometry": {"type": "Point", "coordinates": [-96.4745047852, 42.5149373162]}, "type": "Feature", "properties": {"collection_times": [{"days": "Mon-Sat", "time": "2:00pm"}, {"days": "Sun", "time": "Closed"}], "id": "5110900002", "name": "USPS COLLECTION BOX - BLUE BOX", "address": {"city": "SIOUX CITY", "state": "IA", "street": "2026 RIVERSIDE BLVD", "postcode": "51109"}}},
{"geometry": {"type": "Point", "coordinates": [-96.3805040054, 42.4340581067]}, "type": "Feature", "properties": {"collection_times": [{"days": "Mon-Sat", "time": "4:00pm"}, {"days": "Sun", "time": "Closed"}], "id": "5111100000", "name": "USPS COLLECTION BOX - BLUE BOX", "address": {"city": "SIOUX CITY", "state": "IA", "street": "2525 SINGING HILLS BLVD", "postcode": "51111"}}}
]}
