{"type": "FeatureCollection", "features": [
{"geometry": {"type": "Point", "coordinates": [-95.841902483, 43.1785511938]}, "type": "Feature", "properties": {"collection_times": [{"days": "Mon-Sat", "time": "10:00am"}, {"days": "Sun", "time": "Closed"}], "id": "5120100000", "name": "USPS COLLECTION BOX - BLUE BOX", "address": {"city": "SHELDON", "state": "IA", "street": "820 WASHINGTON AVE", "postcode": "51201"}}},
{"geometry": {"type": "Point", "coordinates": [-95.8558597222, 43.1810616042]}, "type": "Feature", "properties": {"collection_times": [{"days": "Mon-Sat", "time": "3:00pm"}, {"days": "Sun", "time": "Closed"}], "id": "5120100002", "name": "USPS COLLECTION BOX - BLUE BOX", "address": {"city": "SHELDON", "state": "IA", "street": "223 9TH ST", "postcode": "51201"}}},
{"geometry": {"type": "Point", "coordinates": [-95.8457084566, 43.184072296]}, "type": "Feature", "properties": {"collection_times": [{"days": "Mon-Sat", "time": "1:00pm"}, {"days": "Sun", "time": "Closed"}], "id": "5120100004", "name": "USPS COLLECTION BOX - BLUE BOX", "address": {"city": "SHELDON", "state": "IA", "street": "801 5TH ST", "postcode": "51201"}}},
{"geometry": {"type": "Point", "coordinates": [-95.8321012204, 43.1859847999]}, "type": "Feature", "properties": {"collection_times": [{"days": "Mon-Sat", "time": "1:00pm"}, {"days": "Sun", "time": "Closed"}], "id": "5120100005", "name": "USPS COLLECTION BOX - BLUE BOX", "address": {"city": "SHELDON", "state": "IA", "street": "1989 PARK ST", "postcode": "51201"}}},
{"geometry": {"type": "Point", "coordinates": [-95.8555687875, 43.1786819124]}, "type": "Feature", "properties": {"collection_times": [{"days": "Mon-Sat", "time": "5:00pm"}, {"days": "Sun", "time": "Closed"}], "id": "5120100008", "name": "USPS COLLECTION BOX - BLUE BOX", "address": {"city": "SHELDON", "state": "IA", "street": "312 11TH ST", "postcode": "51201"}}},
{"geometry": {"type": "Point", "coordinates": [-95.8555687875, 43.1786819124]}, "type": "Feature", "properties": {"collection_times": [{"days": "Mon-Sat", "time": "5:00pm"}, {"days": "Sun", "time": "Closed"}], "id": "5120100009", "name": "USPS COLLECTION BOX - BLUE BOX", "address": {"city": "SHELDON", "state": "IA", "street": "312 11TH ST", "postcode": "51201"}}},
{"geometry": {"type": "Point", "coordinates": [-95.8555687875, 43.1786819124]}, "type": "Feature", "properties": {"collection_times": [{"days": "Mon-Sat", "time": "5:00pm"}, {"days": "Sun", "time": "Closed"}], "id": "5120100010", "name": "USPS COLLECTION BOX - PO LOBBY", "address": {"city": "SHELDON", "state": "IA", "street": "312 11TH ST", "postcode": "51201"}}},
{"geometry": {"type": "Point", "coordinates": [-96.3136568681, 43.3560631743]}, "type": "Feature", "properties": {"collection_times": [{"days": "Mon-Sat", "time": "4:00pm"}, {"days": "Sun", "time": "Closed"}], "id": "5123000000", "name": "USPS COLLECTION BOX - BLUE BOX", "address": {"city": "ALVORD", "state": "IA", "street": "217 N MAIN ST", "postcode": "51230"}}},
{"geometry": {"type": "Point", "coordinates": [-96.3136568681, 43.3560631743]}, "type": "Feature", "properties": {"collection_times": [{"days": "Mon-Fri", "time": "11:15am"}, {"days": "Sat-Sun", "time": "Closed"}], "id": "5123000001", "name": "USPS COLLECTION BOX - PO LOBBY", "address": {"city": "ALVORD", "state": "IA", "street": "217 N MAIN ST", "postcode": "51230"}}},
{"geometry": {"type": "Point", "coordinates": [-95.7422582294, 43.1063818243]}, "type": "Feature", "properties": {"collection_times": [{"days": "Mon-Sat", "time": "4:15pm"}, {"days": "Sun", "time": "Closed"}], "id": "5123100000", "name": "USPS COLLECTION BOX - BLUE BOX", "address": {"city": "ARCHER", "state": "IA", "street": "203 MAIN ST", "postcode": "51231"}}},
{"geometry": {"type": "Point", "coordinates": [-95.7458094763, 43.1143188038]}, "type": "Feature", "properties": {"collection_times": [{"days": "Mon-Fri", "time": "11:45am"}, {"days": "Sat-Sun", "time": "Closed"}], "id": "5123100001", "name": "USPS COLLECTION BOX - PO LOBBY", "address": {"city": "ARCHER", "state": "IA", "street": "203 MAIN ST", "postcode": "51231"}}},
{"geometry": {"type": "Point", "coordinates": [-95.8133468648, 43.301342175]}, "type": "Feature", "properties": {"collection_times": [{"days": "Mon-Sat", "time": "4:30pm"}, {"days": "Sun", "time": "Closed"}], "id": "5123200000", "name": "USPS COLLECTION BOX - BLUE BOX", "address": {"city": "ASHTON", "state": "IA", "street": "152 1ST AVE", "postcode": "51232"}}},
{"geometry": {"type": "Point", "coordinates": [-95.8133468648, 43.301342175]}, "type": "Feature", "properties": {"collection_times": [{"days": "Mon-Fri", "time": "1:45pm"}, {"days": "Sat-Sun", "time": "Closed"}], "id": "5123200002", "name": "USPS COLLECTION BOX - PO LOBBY", "address": {"city": "ASHTON", "state": "IA", "street": "152 1ST AVE", "postcode": "51232"}}},
{"geometry": {"type": "Point", "coordinates": [-96.0101582339, 43.1912223556]}, "type": "Feature", "properties": {"collection_times": [{"days": "Mon-Fri", "time": "4:30pm"}, {"days": "Sat", "time": "5:30pm"}, {"days": "Sun", "time": "Closed"}], "id": "5123400000", "name": "USPS COLLECTION BOX - BLUE BOX", "address": {"city": "BOYDEN", "state": "IA", "street": "911 MAIN ST", "postcode": "51234"}}},
{"geometry": {"type": "Point", "coordinates": [-96.0101582339, 43.1912223556]}, "type": "Feature", "properties": {"collection_times": [{"days": "Mon-Fri", "time": "4:15pm"}, {"days": "Sat", "time": "11:15am"}, {"days": "Sun", "time": "Closed"}], "id": "5123400001", "name": "USPS COLLECTION BOX - PO LOBBY", "address": {"city": "BOYDEN", "state": "IA", "street": "911 MAIN ST", "postcode": "51234"}}},
{"geometry": {"type": "Point", "coordinates": [-96.2340060943, 43.2793239026]}, "type": "Feature", "properties": {"collection_times": [{"days": "Mon-Sat", "time": "4:15pm"}, {"days": "Sun", "time": "Closed"}], "id": "5123500000", "name": "USPS COLLECTION BOX - BLUE BOX", "address": {"city": "DOON", "state": "IA", "street": "223 MAIN ST", "postcode": "51235"}}},
{"geometry": {"type": "Point", "coordinates": [-96.2340249856, 43.2793692804]}, "type": "Feature", "properties": {"collection_times": [{"days": "Mon-Fri", "time": "1:45pm"}, {"days": "Sat", "time": "9:30am"}, {"days": "Sun", "time": "Closed"}], "id": "5123500001", "name": "USPS COLLECTION BOX - PO LOBBY", "address": {"city": "DOON", "state": "IA", "street": "223 MAIN ST", "postcode": "51235"}}},
{"geometry": {"type": "Point", "coordinates": [-96.000686122, 43.339274073]}, "type": "Feature", "properties": {"collection_times": [{"days": "Mon-Sat", "time": "3:30pm"}, {"days": "Sun", "time": "Closed"}], "id": "5123700000", "name": "USPS COLLECTION BOX - BLUE BOX", "address": {"city": "GEORGE", "state": "IA", "street": "120 E MICHIGAN AVE", "postcode": "51237"}}},
{"geometry": {"type": "Point", "coordinates": [-96.0019603668, 43.3436970513]}, "type": "Feature", "properties": {"collection_times": [{"days": "Mon-Fri", "time": "3:30pm"}, {"days": "Sat-Sun", "time": "Closed"}], "id": "5123700001", "name": "USPS COLLECTION BOX - PO LOBBY", "address": {"city": "GEORGE", "state": "IA", "street": "120 E MICHIGAN AVE", "postcode": "51237"}}},
{"geometry": {"type": "Point", "coordinates": [-95.9058318164, 43.0723732326]}, "type": "Feature", "properties": {"collection_times": [{"days": "Mon-Sat", "time": "4:00pm"}, {"days": "Sun", "time": "Closed"}], "id": "5123800000", "name": "USPS COLLECTION BOX - BLUE BOX", "address": {"city": "HOSPERS", "state": "IA", "street": "202 MAIN ST", "postcode": "51238"}}},
{"geometry": {"type": "Point", "coordinates": [-95.905877407, 43.0723776637]}, "type": "Feature", "properties": {"collection_times": [{"days": "Mon-Fri", "time": "1:15pm"}, {"days": "Sat", "time": "9:30am"}, {"days": "Sun", "time": "Closed"}], "id": "5123800001", "name": "USPS COLLECTION BOX - PO LOBBY", "address": {"city": "HOSPERS", "state": "IA", "street": "202 MAIN ST", "postcode": "51238"}}},
{"geometry": {"type": "Point", "coordinates": [-96.1336392691, 43.1897533235]}, "type": "Feature", "properties": {"collection_times": [{"days": "Mon-Sat", "time": "4:30pm"}, {"days": "Sun", "time": "Closed"}], "id": "5123900001", "name": "USPS COLLECTION BOX - BLUE BOX", "address": {"city": "HULL", "state": "IA", "street": "1204 MAIN ST", "postcode": "51239"}}},
{"geometry": {"type": "Point", "coordinates": [-96.1336392691, 43.1897533235]}, "type": "Feature", "properties": {"collection_times": [{"days": "Mon-Fri", "time": "4:30pm"}, {"days": "Sat-Sun", "time": "Closed"}], "id": "5123900002", "name": "USPS COLLECTION BOX - PO LOBBY", "address": {"city": "HULL", "state": "IA", "street": "1204 MAIN ST", "postcode": "51239"}}},
{"geometry": {"type": "Point", "coordinates": [-96.431908383, 43.3081416154]}, "type": "Feature", "properties": {"collection_times": [{"days": "Mon-Fri", "time": "3:45pm"}, {"days": "Sat", "time": "4:00pm"}, {"days": "Sun", "time": "Closed"}], "id": "5124000000", "name": "USPS COLLECTION BOX - BLUE BOX", "address": {"city": "INWOOD", "state": "IA", "street": "201 S MAIN ST", "postcode": "51240"}}},
{"geometry": {"type": "Point", "coordinates": [-96.4319154306, 43.3082877081]}, "type": "Feature", "properties": {"collection_times": [{"days": "Mon-Fri", "time": "4:00pm"}, {"days": "Sat-Sun", "time": "Closed"}], "id": "5124000001", "name": "USPS COLLECTION BOX - PO LOBBY", "address": {"city": "INWOOD", "state": "IA", "street": "201 S MAIN ST", "postcode": "51240"}}},
{"geometry": {"type": "Point", "coordinates": [-96.4341605983, 43.4536526563]}, "type": "Feature", "properties": {"collection_times": [{"days": "Mon-Sat", "time": "4:00pm"}, {"days": "Sun", "time": "Closed"}], "id": "5124100000", "name": "USPS COLLECTION BOX - BLUE BOX", "address": {"city": "LARCHWOOD", "state": "IA", "street": "935 BROADWAY ST", "postcode": "51241"}}},
{"geometry": {"type": "Point", "coordinates": [-96.4342146672, 43.4533389649]}, "type": "Feature", "properties": {"collection_times": [{"days": "Mon-Fri", "time": "4:00pm"}, {"days": "Sat-Sun", "time": "Closed"}], "id": "5124100001", "name": "USPS COLLECTION BOX - PO LOBBY", "address": {"city": "LARCHWOOD", "state": "IA", "street": "935 BROADWAY ST", "postcode": "51241"}}},
{"geometry": {"type": "Point", "coordinates": [-96.3324630185, 43.437537612]}, "type": "Feature", "properties": {"collection_times": [{"days": "Mon-Fri", "time": "4:00pm"}, {"days": "Sat", "time": "4:30pm"}, {"days": "Sun", "time": "Closed"}], "id": "5124200000", "name": "USPS COLLECTION BOX - BLUE BOX", "address": {"city": "LESTER", "state": "IA", "street": "311 MAIN ST", "postcode": "51242"}}},
{"geometry": {"type": "Point", "coordinates": [-96.3311172011, 43.4376104045]}, "type": "Feature", "properties": {"collection_times": [{"days": "Mon-Fri", "time": "11:45am"}, {"days": "Sat", "time": "8:15am"}, {"days": "Sun", "time": "Closed"}], "id": "5124200001", "name": "USPS COLLECTION BOX - PO LOBBY", "address": {"city": "LESTER", "state": "IA", "street": "311 MAIN ST", "postcode": "51242"}}},
{"geometry": {"type": "Point", "coordinates": [-95.8832482444, 43.4437697941]}, "type": "Feature", "properties": {"collection_times": [{"days": "Mon-Sat", "time": "4:15pm"}, {"days": "Sun", "time": "Closed"}], "id": "5124300000", "name": "USPS COLLECTION BOX - BLUE BOX", "address": {"city": "LITTLE ROCK", "state": "IA", "street": "319 MAIN ST", "postcode": "51243"}}},
{"geometry": {"type": "Point", "coordinates": [-95.8831175449, 43.4419035397]}, "type": "Feature", "properties": {"collection_times": [{"days": "Mon-Fri", "time": "11:45am"}, {"days": "Sat-Sun", "time": "Closed"}], "id": "5124300001", "name": "USPS COLLECTION BOX - PO LOBBY", "address": {"city": "LITTLE ROCK", "state": "IA", "street": "319 MAIN ST", "postcode": "51243"}}},
{"geometry": {"type": "Point", "coordinates": [-95.6283550328, 43.0856574217]}, "type": "Feature", "properties": {"collection_times": [{"days": "Mon-Sat", "time": "4:00pm"}, {"days": "Sun", "time": "Closed"}], "id": "5124500000", "name": "USPS COLLECTION BOX - BLUE BOX", "address": {"city": "PRIMGHAR", "state": "IA", "street": "280 S GREEN AVE", "postcode": "51245"}}},
{"geometry": {"type": "Point", "coordinates": [-95.6282676286, 43.0847142701]}, "type": "Feature", "properties": {"collection_times": [{"days": "Mon-Fri", "time": "4:00pm"}, {"days": "Sat-Sun", "time": "Closed"}], "id": "5124500002", "name": "USPS COLLECTION BOX - PO LOBBY", "address": {"city": "PRIMGHAR", "state": "IA", "street": "280 S GREEN AVE", "postcode": "51245"}}},
{"geometry": {"type": "Point", "coordinates": [-96.167589818, 43.433006402]}, "type": "Feature", "properties": {"collection_times": [{"days": "Mon-Sat", "time": "4:30pm"}, {"days": "Sun", "time": "Closed"}], "id": "5124600000", "name": "USPS COLLECTION BOX - BLUE BOX", "address": {"city": "ROCK RAPIDS", "state": "IA", "street": "217 N 2ND AVE", "postcode": "51246"}}},
{"geometry": {"type": "Point", "coordinates": [-96.167589818, 43.433006402]}, "type": "Feature", "properties": {"collection_times": [{"days": "Mon-Sat", "time": "4:30pm"}, {"days": "Sun", "time": "Closed"}], "id": "5124600004", "name": "USPS COLLECTION BOX - BLUE BOX", "address": {"city": "ROCK RAPIDS", "state": "IA", "street": "217 N 2ND AVE", "postcode": "51246"}}},
{"geometry": {"type": "Point", "coordinates": [-96.167589818, 43.433006402]}, "type": "Feature", "properties": {"collection_times": [{"days": "Mon-Fri", "time": "4:30pm"}, {"days": "Sat", "time": "10:00am"}, {"days": "Sun", "time": "Closed"}], "id": "5124600005", "name": "USPS COLLECTION BOX - PO LOBBY", "address": {"city": "ROCK RAPIDS", "state": "IA", "street": "217 N 2ND AVE", "postcode": "51246"}}},
{"geometry": {"type": "Point", "coordinates": [-96.2949677553, 43.2053592292]}, "type": "Feature", "properties": {"collection_times": [{"days": "Mon-Sat", "time": "4:30pm"}, {"days": "Sun", "time": "Closed"}], "id": "5124700000", "name": "USPS COLLECTION BOX - BLUE BOX", "address": {"city": "ROCK VALLEY", "state": "IA", "street": "1501 MAIN ST", "postcode": "51247"}}},
{"geometry": {"type": "Point", "coordinates": [-96.2949677553, 43.2053592292]}, "type": "Feature", "properties": {"collection_times": [{"days": "Mon-Sat", "time": "4:30pm"}, {"days": "Sun", "time": "Closed"}], "id": "5124700001", "name": "USPS COLLECTION BOX - BLUE BOX", "address": {"city": "ROCK VALLEY", "state": "IA", "street": "1501 MAIN ST", "postcode": "51247"}}},
{"geometry": {"type": "Point", "coordinates": [-96.2949427245, 43.2052592242]}, "type": "Feature", "properties": {"collection_times": [{"days": "Mon-Fri", "time": "4:30pm"}, {"days": "Sat-Sun", "time": "Closed"}], "id": "5124700002", "name": "USPS COLLECTION BOX - PO LOBBY", "address": {"city": "ROCK VALLEY", "state": "IA", "street": "1501 MAIN ST", "postcode": "51247"}}},
{"geometry": {"type": "Point", "coordinates": [-95.6585386639, 43.1887326674]}, "type": "Feature", "properties": {"collection_times": [{"days": "Mon-Sat", "time": "4:30pm"}, {"days": "Sun", "time": "Closed"}], "id": "5124800001", "name": "USPS COLLECTION BOX - BLUE BOX", "address": {"city": "SANBORN", "state": "IA", "street": "312 MAIN ST", "postcode": "51248"}}},
{"geometry": {"type": "Point", "coordinates": [-95.6585386639, 43.1887326674]}, "type": "Feature", "properties": {"collection_times": [{"days": "Mon-Fri", "time": "4:30pm"}, {"days": "Sat-Sun", "time": "Closed"}], "id": "5124800002", "name": "USPS COLLECTION BOX - PO LOBBY", "address": {"city": "SANBORN", "state": "IA", "street": "312 MAIN ST", "postcode": "51248"}}},
{"geometry": {"type": "Point", "coordinates": [-95.7487718347, 43.3991885324]}, "type": "Feature", "properties": {"collection_times": [{"days": "Mon-Sat", "time": "4:30pm"}, {"days": "Sun", "time": "Closed"}], "id": "5124900004", "name": "USPS COLLECTION BOX - BLUE BOX", "address": {"city": "SIBLEY", "state": "IA", "street": "412 9TH ST", "postcode": "51249"}}},
{"geometry": {"type": "Point", "coordinates": [-95.7487718347, 43.3991885324]}, "type": "Feature", "properties": {"collection_times": [{"days": "Mon-Sat", "time": "4:30pm"}, {"days": "Sun", "time": "Closed"}], "id": "5124900005", "name": "USPS COLLECTION BOX - BLUE BOX", "address": {"city": "SIBLEY", "state": "IA", "street": "412 9TH ST", "postcode": "51249"}}},
{"geometry": {"type": "Point", "coordinates": [-95.7488235871, 43.3992454186]}, "type": "Feature", "properties": {"collection_times": [{"days": "Mon-Fri", "time": "4:45pm"}, {"days": "Sat", "time": "9:45am"}, {"days": "Sun", "time": "Closed"}], "id": "5124900007", "name": "USPS COLLECTION BOX - PO LOBBY", "address": {"city": "SIBLEY", "state": "IA", "street": "412 9TH ST", "postcode": "51249"}}},
{"geometry": {"type": "Point", "coordinates": [-96.1753431059, 43.0562821813]}, "type": "Feature", "properties": {"collection_times": [{"days": "Mon-Sat", "time": "12:00pm"}, {"days": "Sun", "time": "Closed"}], "id": "5125000001", "name": "USPS COLLECTION BOX - BLUE BOX", "address": {"city": "SIOUX CENTER", "state": "IA", "street": "1951 S MAIN AVE", "postcode": "51250"}}},
{"geometry": {"type": "Point", "coordinates": [-96.1754428812, 43.0774598989]}, "type": "Feature", "properties": {"collection_times": [{"days": "Mon-Sat", "time": "4:30pm"}, {"days": "Sun", "time": "Closed"}], "id": "5125000005", "name": "USPS COLLECTION BOX - BLUE BOX", "address": {"city": "SIOUX CENTER", "state": "IA", "street": "100 N MAIN AVE", "postcode": "51250"}}},
{"geometry": {"type": "Point", "coordinates": [-96.1753915606, 43.0774822799]}, "type": "Feature", "properties": {"collection_times": [{"days": "Mon-Sat", "time": "4:30pm"}, {"days": "Sun", "time": "Closed"}], "id": "5125000006", "name": "USPS COLLECTION BOX - BLUE BOX", "address": {"city": "SIOUX CENTER", "state": "IA", "street": "100 N MAIN AVE", "postcode": "51250"}}},
{"geometry": {"type": "Point", "coordinates": [-96.1753915606, 43.0774822799]}, "type": "Feature", "properties": {"collection_times": [{"days": "Mon-Sat", "time": "4:30pm"}, {"days": "Sun", "time": "Closed"}], "id": "5125000007", "name": "USPS COLLECTION BOX - BLUE BOX", "address": {"city": "SIOUX CENTER", "state": "IA", "street": "100 N MAIN AVE", "postcode": "51250"}}},
{"geometry": {"type": "Point", "coordinates": [-96.1753915606, 43.0774822799]}, "type": "Feature", "properties": {"collection_times": [{"days": "Mon-Sat", "time": "4:30pm"}, {"days": "Sun", "time": "Closed"}], "id": "5125000008", "name": "USPS COLLECTION BOX - PO LOBBY", "address": {"city": "SIOUX CENTER", "state": "IA", "street": "100 N MAIN AVE", "postcode": "51250"}}}
]}
