{"type": "FeatureCollection", "features": [
{"geometry": {"type": "Point", "coordinates": [-94.8666165019, 42.0642729843]}, "type": "Feature", "properties": {"collection_times": [{"days": "Mon-Fri", "time": "3:00pm"}, {"days": "Sat-Sun", "time": "Closed"}], "id": "5140100001", "name": "USPS COLLECTION BOX - BLUE BOX", "address": {"city": "CARROLL", "state": "IA", "street": "118 E 5TH ST", "postcode": "51401"}}},
{"geometry": {"type": "Point", "coordinates": [-94.8770759236, 42.0709376005]}, "type": "Feature", "properties": {"collection_times": [{"days": "Mon-Sat", "time": "3:00pm"}, {"days": "Sun", "time": "Closed"}], "id": "5140100002", "name": "USPS COLLECTION BOX - BLUE BOX", "address": {"city": "CARROLL", "state": "IA", "street": "905 W US HIGHWAY 30", "postcode": "51401"}}},
{"geometry": {"type": "Point", "coordinates": [-94.8641776582, 42.0650260128]}, "type": "Feature", "properties": {"collection_times": [{"days": "Mon-Sat", "time": "5:30pm"}, {"days": "Sun", "time": "Closed"}], "id": "5140100013", "name": "USPS COLLECTION BOX - BLUE BOX", "address": {"city": "CARROLL", "state": "IA", "street": "614 N CLARK ST", "postcode": "51401"}}},
{"geometry": {"type": "Point", "coordinates": [-94.8641776582, 42.0650260128]}, "type": "Feature", "properties": {"collection_times": [{"days": "Mon-Sat", "time": "5:30pm"}, {"days": "Sun", "time": "Closed"}], "id": "5140100014", "name": "USPS COLLECTION BOX - BLUE BOX", "address": {"city": "CARROLL", "state": "IA", "street": "614 N CLARK ST", "postcode": "51401"}}},
{"geometry": {"type": "Point", "coordinates": [-94.8641776582, 42.0650260128]}, "type": "Feature", "properties": {"collection_times": [{"days": "Mon-Sat", "time": "5:30pm"}, {"days": "Sun", "time": "Closed"}], "id": "5140100015", "name": "USPS COLLECTION BOX - BLUE BOX", "address": {"city": "CARROLL", "state": "IA", "street": "614 N CLARK ST", "postcode": "51401"}}},
{"geometry": {"type": "Point", "coordinates": [-94.8641776582, 42.0650260128]}, "type": "Feature", "properties": {"collection_times": [{"days": "Mon-Sat", "time": "5:30pm"}, {"days": "Sun", "time": "Closed"}], "id": "5140100016", "name": "USPS COLLECTION BOX - PO LOBBY", "address": {"city": "CARROLL", "state": "IA", "street": "614 N CLARK ST", "postcode": "51401"}}},
{"geometry": {"type": "Point", "coordinates": [-95.0458929698, 42.0868962486]}, "type": "Feature", "properties": {"collection_times": [{"days": "Mon-Fri", "time": "4:15pm"}, {"days": "Sat", "time": "5:30pm"}, {"days": "Sun", "time": "Closed"}], "id": "5143000000", "name": "USPS COLLECTION BOX - BLUE BOX", "address": {"city": "ARCADIA", "state": "IA", "street": "212 S GAULT ST", "postcode": "51430"}}},
{"geometry": {"type": "Point", "coordinates": [-95.0458929698, 42.0868962486]}, "type": "Feature", "properties": {"collection_times": [{"days": "Mon-Fri", "time": "11:00am"}, {"days": "Sat-Sun", "time": "Closed"}], "id": "5143000001", "name": "USPS COLLECTION BOX - PO LOBBY", "address": {"city": "ARCADIA", "state": "IA", "street": "212 S GAULT ST", "postcode": "51430"}}},
{"geometry": {"type": "Point", "coordinates": [-95.3474033132, 42.3351000876]}, "type": "Feature", "properties": {"collection_times": [{"days": "Mon-Fri", "time": "3:45pm"}, {"days": "Sat", "time": "4:30pm"}, {"days": "Sun", "time": "Closed"}], "id": "5143100000", "name": "USPS COLLECTION BOX - BLUE BOX", "address": {"city": "ARTHUR", "state": "IA", "street": "205 S MAIN ST", "postcode": "51431"}}},
{"geometry": {"type": "Point", "coordinates": [-95.3474033132, 42.3351000876]}, "type": "Feature", "properties": {"collection_times": [{"days": "Mon-Fri", "time": "11:45am"}, {"days": "Sat", "time": "9:30am"}, {"days": "Sun", "time": "Closed"}], "id": "5143100001", "name": "USPS COLLECTION BOX - PO LOBBY", "address": {"city": "ARTHUR", "state": "IA", "street": "205 S MAIN ST", "postcode": "51431"}}},
{"geometry": {"type": "Point", "coordinates": [-95.1355901462, 41.9129218854]}, "type": "Feature", "properties": {"collection_times": [{"days": "Mon-Sat", "time": "4:15pm"}, {"days": "Sun", "time": "Closed"}], "id": "5143200000", "name": "USPS COLLECTION BOX - BLUE BOX", "address": {"city": "ASPINWALL", "state": "IA", "street": "201 E MAIN ST", "postcode": "51432"}}},
{"geometry": {"type": "Point", "coordinates": [-94.8777336064, 42.2495534911]}, "type": "Feature", "properties": {"collection_times": [{"days": "Mon-Fri", "time": "3:45pm"}, {"days": "Sat", "time": "4:45pm"}, {"days": "Sun", "time": "Closed"}], "id": "5143300000", "name": "USPS COLLECTION BOX - BLUE BOX", "address": {"city": "AUBURN", "state": "IA", "street": "107 PINE ST", "postcode": "51433"}}},
{"geometry": {"type": "Point", "coordinates": [-94.8777336064, 42.2495534911]}, "type": "Feature", "properties": {"collection_times": [{"days": "Mon-Fri", "time": "11:15am"}, {"days": "Sat-Sun", "time": "Closed"}], "id": "5143300001", "name": "USPS COLLECTION BOX - PO LOBBY", "address": {"city": "AUBURN", "state": "IA", "street": "107 PINE ST", "postcode": "51433"}}},
{"geometry": {"type": "Point", "coordinates": [-94.976400344, 42.18158692]}, "type": "Feature", "properties": {"collection_times": [{"days": "Mon-Fri", "time": "4:00pm"}, {"days": "Sat", "time": "5:00pm"}, {"days": "Sun", "time": "Closed"}], "id": "5143600000", "name": "USPS COLLECTION BOX - BLUE BOX", "address": {"city": "BREDA", "state": "IA", "street": "108 MAIN ST", "postcode": "51436"}}},
{"geometry": {"type": "Point", "coordinates": [-94.976400344, 42.18158692]}, "type": "Feature", "properties": {"collection_times": [{"days": "Mon-Fri", "time": "1:45pm"}, {"days": "Sat-Sun", "time": "Closed"}], "id": "5143600001", "name": "USPS COLLECTION BOX - PO LOBBY", "address": {"city": "BREDA", "state": "IA", "street": "108 MAIN ST", "postcode": "51436"}}},
{"geometry": {"type": "Point", "coordinates": [-95.5911526213, 42.0686141155]}, "type": "Feature", "properties": {"collection_times": [{"days": "Mon-Sat", "time": "4:00pm"}, {"days": "Sun", "time": "Closed"}], "id": "5143900000", "name": "USPS COLLECTION BOX - BLUE BOX", "address": {"city": "CHARTER OAK", "state": "IA", "street": "82 MAIN ST", "postcode": "51439"}}},
{"geometry": {"type": "Point", "coordinates": [-95.5911526213, 42.0686141155]}, "type": "Feature", "properties": {"collection_times": [{"days": "Mon-Fri", "time": "11:15am"}, {"days": "Sat-Sun", "time": "Closed"}], "id": "5143900001", "name": "USPS COLLECTION BOX - PO LOBBY", "address": {"city": "CHARTER OAK", "state": "IA", "street": "82 MAIN ST", "postcode": "51439"}}},
{"geometry": {"type": "Point", "coordinates": [-94.8084915504, 41.9123913132]}, "type": "Feature", "properties": {"collection_times": [{"days": "Mon-Fri", "time": "4:00pm"}, {"days": "Sat", "time": "4:30pm"}, {"days": "Sun", "time": "Closed"}], "id": "5144000000", "name": "USPS COLLECTION BOX - BLUE BOX", "address": {"city": "DEDHAM", "state": "IA", "street": "415 3RD ST", "postcode": "51440"}}},
{"geometry": {"type": "Point", "coordinates": [-94.8084915504, 41.9123913132]}, "type": "Feature", "properties": {"collection_times": [{"days": "Mon-Fri", "time": "11:45am"}, {"days": "Sat", "time": "9:15am"}, {"days": "Sun", "time": "Closed"}], "id": "5144000001", "name": "USPS COLLECTION BOX - PO LOBBY", "address": {"city": "DEDHAM", "state": "IA", "street": "415 3RD ST", "postcode": "51440"}}},
{"geometry": {"type": "Point", "coordinates": [-95.317079092, 42.0978067703]}, "type": "Feature", "properties": {"collection_times": [{"days": "Mon-Sat", "time": "3:45pm"}, {"days": "Sun", "time": "Closed"}], "id": "5144100000", "name": "USPS COLLECTION BOX - BLUE BOX", "address": {"city": "DELOIT", "state": "IA", "street": "600 WOLF ST", "postcode": "51441"}}},
{"geometry": {"type": "Point", "coordinates": [-95.317079092, 42.0978067703]}, "type": "Feature", "properties": {"collection_times": [{"days": "Mon-Fri", "time": "11:45am"}, {"days": "Sat-Sun", "time": "Closed"}], "id": "5144100001", "name": "USPS COLLECTION BOX - PO LOBBY", "address": {"city": "DELOIT", "state": "IA", "street": "600 WOLF ST", "postcode": "51441"}}},
{"geometry": {"type": "Point", "coordinates": [-95.356617148, 42.0168437103]}, "type": "Feature", "properties": {"collection_times": [{"days": "Mon-Fri", "time": "9:00am"}, {"days": "Sat-Sun", "time": "Closed"}], "id": "5144200000", "name": "USPS COLLECTION BOX - BLUE BOX", "address": {"city": "DENISON", "state": "IA", "street": "1202 BROADWAY", "postcode": "51442"}}},
{"geometry": {"type": "Point", "coordinates": [-95.3532387842, 42.0168127959]}, "type": "Feature", "properties": {"collection_times": [{"days": "Mon-Sat", "time": "9:00am"}, {"days": "Sun", "time": "Closed"}], "id": "5144200002", "name": "USPS COLLECTION BOX - BLUE BOX", "address": {"city": "DENISON", "state": "IA", "street": "1426 BROADWAY", "postcode": "51442"}}},
{"geometry": {"type": "Point", "coordinates": [-95.3685225053, 42.0221115909]}, "type": "Feature", "properties": {"collection_times": [{"days": "Mon-Sat", "time": "2:00pm"}, {"days": "Sun", "time": "Closed"}], "id": "5144200003", "name": "USPS COLLECTION BOX - BLUE BOX", "address": {"city": "DENISON", "state": "IA", "street": "529 HIGHWAY 39", "postcode": "51442"}}},
{"geometry": {"type": "Point", "coordinates": [-95.3345251086, 42.0321291841]}, "type": "Feature", "properties": {"collection_times": [{"days": "Mon-Sat", "time": "10:45am"}, {"days": "Sun", "time": "Closed"}], "id": "5144200004", "name": "USPS COLLECTION BOX - BLUE BOX", "address": {"city": "DENISON", "state": "IA", "street": "1209 N 26TH ST", "postcode": "51442"}}},
{"geometry": {"type": "Point", "coordinates": [-95.3551812575, 42.0179069453]}, "type": "Feature", "properties": {"collection_times": [{"days": "Mon-Sat", "time": "4:45pm"}, {"days": "Sun", "time": "Closed"}], "id": "5144200005", "name": "USPS COLLECTION BOX - BLUE BOX", "address": {"city": "DENISON", "state": "IA", "street": "102 N MAIN ST", "postcode": "51442"}}},
{"geometry": {"type": "Point", "coordinates": [-95.355263499, 42.018090682]}, "type": "Feature", "properties": {"collection_times": [{"days": "Mon-Sat", "time": "4:45pm"}, {"days": "Sun", "time": "Closed"}], "id": "5144200006", "name": "USPS COLLECTION BOX - BLUE BOX", "address": {"city": "DENISON", "state": "IA", "street": "102 N MAIN ST", "postcode": "51442"}}},
{"geometry": {"type": "Point", "coordinates": [-95.3723789135, 42.0233222806]}, "type": "Feature", "properties": {"collection_times": [{"days": "Mon-Sat", "time": "2:00pm"}, {"days": "Sun", "time": "Closed"}], "id": "5144200007", "name": "USPS COLLECTION BOX - BLUE BOX", "address": {"city": "DENISON", "state": "IA", "street": "404 ARROWHEAD DR", "postcode": "51442"}}},
{"geometry": {"type": "Point", "coordinates": [-95.3551812575, 42.0179069453]}, "type": "Feature", "properties": {"collection_times": [{"days": "Mon-Sat", "time": "4:45pm"}, {"days": "Sun", "time": "Closed"}], "id": "5144200008", "name": "USPS COLLECTION BOX - BLUE BOX", "address": {"city": "DENISON", "state": "IA", "street": "102 N MAIN ST", "postcode": "51442"}}},
{"geometry": {"type": "Point", "coordinates": [-95.3551812575, 42.0179069453]}, "type": "Feature", "properties": {"collection_times": [{"days": "Mon-Sat", "time": "4:45pm"}, {"days": "Sun", "time": "Closed"}], "id": "5144200009", "name": "USPS COLLECTION BOX - BLUE BOX", "address": {"city": "DENISON", "state": "IA", "street": "102 N MAIN ST", "postcode": "51442"}}},
{"geometry": {"type": "Point", "coordinates": [-95.3551812575, 42.0179069453]}, "type": "Feature", "properties": {"collection_times": [{"days": "Mon-Fri", "time": "4:45pm"}, {"days": "Sat", "time": "11:00am"}, {"days": "Sun", "time": "Closed"}], "id": "5144200010", "name": "USPS COLLECTION BOX - PO LOBBY", "address": {"city": "DENISON", "state": "IA", "street": "102 N MAIN ST", "postcode": "51442"}}},
{"geometry": {"type": "Point", "coordinates": [-95.3551812575, 42.0179069453]}, "type": "Feature", "properties": {"collection_times": [{"days": "Mon-Fri", "time": "4:45pm"}, {"days": "Sat", "time": "11:00am"}, {"days": "Sun", "time": "Closed"}], "id": "5144200011", "name": "USPS COLLECTION BOX - PO LOBBY", "address": {"city": "DENISON", "state": "IA", "street": "102 N MAIN ST", "postcode": "51442"}}},
{"geometry": {"type": "Point", "coordinates": [-95.356617148, 42.0168437103]}, "type": "Feature", "properties": {"collection_times": [{"days": "Mon-Fri", "time": "9:00am"}, {"days": "Sat-Sun", "time": "Closed"}], "id": "5144200012", "name": "USPS COLLECTION BOX - BLUE BOX", "address": {"city": "DENISON", "state": "IA", "street": "1202 BROADWAY", "postcode": "51442"}}},
{"geometry": {"type": "Point", "coordinates": [-94.7292971634, 42.0568329405]}, "type": "Feature", "properties": {"collection_times": [{"days": "Mon-Fri", "time": "4:15pm"}, {"days": "Sat", "time": "5:30pm"}, {"days": "Sun", "time": "Closed"}], "id": "5144300000", "name": "USPS COLLECTION BOX - BLUE BOX", "address": {"city": "GLIDDEN", "state": "IA", "street": "128 W 2ND ST", "postcode": "51443"}}},
{"geometry": {"type": "Point", "coordinates": [-94.7292971634, 42.0568329405]}, "type": "Feature", "properties": {"collection_times": [{"days": "Mon-Fri", "time": "1:45pm"}, {"days": "Sat-Sun", "time": "Closed"}], "id": "5144300001", "name": "USPS COLLECTION BOX - PO LOBBY", "address": {"city": "GLIDDEN", "state": "IA", "street": "128 W 2ND ST", "postcode": "51443"}}},
{"geometry": {"type": "Point", "coordinates": [-94.9726561281, 42.005680823]}, "type": "Feature", "properties": {"collection_times": [{"days": "Mon-Fri", "time": "4:45pm"}, {"days": "Sat", "time": "5:30pm"}, {"days": "Sun", "time": "Closed"}], "id": "5144400000", "name": "USPS COLLECTION BOX - BLUE BOX", "address": {"city": "HALBUR", "state": "IA", "street": "206 W 2ND ST", "postcode": "51444"}}},
{"geometry": {"type": "Point", "coordinates": [-94.9726561281, 42.005680823]}, "type": "Feature", "properties": {"collection_times": [{"days": "Mon-Fri", "time": "11:45am"}, {"days": "Sat-Sun", "time": "Closed"}], "id": "5144400001", "name": "USPS COLLECTION BOX - PO LOBBY", "address": {"city": "HALBUR", "state": "IA", "street": "206 W 2ND ST", "postcode": "51444"}}},
{"geometry": {"type": "Point", "coordinates": [-95.471219827, 42.3433214434]}, "type": "Feature", "properties": {"collection_times": [{"days": "Mon-Fri", "time": "4:30pm"}, {"days": "Sat", "time": "4:00pm"}, {"days": "Sun", "time": "Closed"}], "id": "5144500000", "name": "USPS COLLECTION BOX - BLUE BOX", "address": {"city": "IDA GROVE", "state": "IA", "street": "300 MAIN ST", "postcode": "51445"}}},
{"geometry": {"type": "Point", "coordinates": [-95.471219827, 42.3433214434]}, "type": "Feature", "properties": {"collection_times": [{"days": "Mon-Fri", "time": "4:30pm"}, {"days": "Sat", "time": "4:00pm"}, {"days": "Sun", "time": "Closed"}], "id": "5144500003", "name": "USPS COLLECTION BOX - BLUE BOX", "address": {"city": "IDA GROVE", "state": "IA", "street": "300 MAIN ST", "postcode": "51445"}}},
{"geometry": {"type": "Point", "coordinates": [-95.471219827, 42.3433214434]}, "type": "Feature", "properties": {"collection_times": [{"days": "Mon-Fri", "time": "4:30pm"}, {"days": "Sat-Sun", "time": "Closed"}], "id": "5144500004", "name": "USPS COLLECTION BOX - PO LOBBY", "address": {"city": "IDA GROVE", "state": "IA", "street": "300 MAIN ST", "postcode": "51445"}}},
{"geometry": {"type": "Point", "coordinates": [-95.472097223, 42.3495548417]}, "type": "Feature", "properties": {"collection_times": [{"days": "Mon-Sat", "time": "9:30am"}, {"days": "Sun", "time": "Closed"}], "id": "5144500005", "name": "USPS COLLECTION BOX - BLUE BOX", "address": {"city": "IDA GROVE", "state": "IA", "street": "200 OAK GROVE DR", "postcode": "51445"}}},
{"geometry": {"type": "Point", "coordinates": [-95.2061979301, 41.7905234368]}, "type": "Feature", "properties": {"collection_times": [{"days": "Mon-Sat", "time": "3:45pm"}, {"days": "Sun", "time": "Closed"}], "id": "5144600000", "name": "USPS COLLECTION BOX - BLUE BOX", "address": {"city": "IRWIN", "state": "IA", "street": "512 ANN ST", "postcode": "51446"}}},
{"geometry": {"type": "Point", "coordinates": [-95.2061979301, 41.7905234368]}, "type": "Feature", "properties": {"collection_times": [{"days": "Mon-Fri", "time": "11:00am"}, {"days": "Sat-Sun", "time": "Closed"}], "id": "5144600001", "name": "USPS COLLECTION BOX - PO LOBBY", "address": {"city": "IRWIN", "state": "IA", "street": "512 ANN ST", "postcode": "51446"}}},
{"geometry": {"type": "Point", "coordinates": [-95.3271398422, 42.1946185948]}, "type": "Feature", "properties": {"collection_times": [{"days": "Mon-Sat", "time": "3:45pm"}, {"days": "Sun", "time": "Closed"}], "id": "5144800000", "name": "USPS COLLECTION BOX - BLUE BOX", "address": {"city": "KIRON", "state": "IA", "street": "134 MAIN ST", "postcode": "51448"}}},
{"geometry": {"type": "Point", "coordinates": [-95.3271398422, 42.1946185948]}, "type": "Feature", "properties": {"collection_times": [{"days": "Mon-Fri", "time": "11:15am"}, {"days": "Sat-Sun", "time": "Closed"}], "id": "5144800001", "name": "USPS COLLECTION BOX - PO LOBBY", "address": {"city": "KIRON", "state": "IA", "street": "134 MAIN ST", "postcode": "51448"}}},
{"geometry": {"type": "Point", "coordinates": [-94.7325278955, 42.266379533]}, "type": "Feature", "properties": {"collection_times": [{"days": "Mon-Fri", "time": "4:30pm"}, {"days": "Sat", "time": "4:45pm"}, {"days": "Sun", "time": "Closed"}], "id": "5144900004", "name": "USPS COLLECTION BOX - BLUE BOX", "address": {"city": "LAKE CITY", "state": "IA", "street": "202 E JEFFERSON ST", "postcode": "51449"}}},
{"geometry": {"type": "Point", "coordinates": [-94.7325278955, 42.266379533]}, "type": "Feature", "properties": {"collection_times": [{"days": "Mon-Fri", "time": "4:30pm"}, {"days": "Sat", "time": "9:00am"}, {"days": "Sun", "time": "Closed"}], "id": "5144900006", "name": "USPS COLLECTION BOX - PO LOBBY", "address": {"city": "LAKE CITY", "state": "IA", "street": "202 E JEFFERSON ST", "postcode": "51449"}}},
{"geometry": {"type": "Point", "coordinates": [-95.0514612483, 42.3058510092]}, "type": "Feature", "properties": {"collection_times": [{"days": "Mon-Fri", "time": "4:15pm"}, {"days": "Sat", "time": "5:00pm"}, {"days": "Sun", "time": "Closed"}], "id": "5145000000", "name": "USPS COLLECTION BOX - BLUE BOX", "address": {"city": "LAKE VIEW", "state": "IA", "street": "521 3RD ST", "postcode": "51450"}}},
{"geometry": {"type": "Point", "coordinates": [-95.0514612483, 42.3058510092]}, "type": "Feature", "properties": {"collection_times": [{"days": "Mon-Fri", "time": "4:15pm"}, {"days": "Sat-Sun", "time": "Closed"}], "id": "5145000001", "name": "USPS COLLECTION BOX - PO LOBBY", "address": {"city": "LAKE VIEW", "state": "IA", "street": "521 3RD ST", "postcode": "51450"}}},
{"geometry": {"type": "Point", "coordinates": [-95.0201667695, 42.2537043379]}, "type": "Feature", "properties": {"collection_times": [{"days": "Mon-Fri", "time": "5:45pm"}, {"days": "Sat", "time": "5:00pm"}, {"days": "Sun", "time": "Closed"}], "id": "5145000002", "name": "USPS COLLECTION BOX - BLUE BOX", "address": {"city": "LAKE VIEW", "state": "IA", "street": "201 370TH ST", "postcode": "51450"}}},
{"geometry": {"type": "Point", "coordinates": [-94.6928101216, 42.1835682371]}, "type": "Feature", "properties": {"collection_times": [{"days": "Mon-Sat", "time": "4:00pm"}, {"days": "Sun", "time": "Closed"}], "id": "5145100000", "name": "USPS COLLECTION BOX - BLUE BOX", "address": {"city": "LANESBORO", "state": "IA", "street": "117 MAIN ST", "postcode": "51451"}}},
{"geometry": {"type": "Point", "coordinates": [-94.6928101216, 42.1835682371]}, "type": "Feature", "properties": {"collection_times": [{"days": "Mon-Fri", "time": "10:45am"}, {"days": "Sat-Sun", "time": "Closed"}], "id": "5145100001", "name": "USPS COLLECTION BOX - PO LOBBY", "address": {"city": "LANESBORO", "state": "IA", "street": "117 MAIN ST", "postcode": "51451"}}},
{"geometry": {"type": "Point", "coordinates": [-94.7835718854, 42.1236403003]}, "type": "Feature", "properties": {"collection_times": [{"days": "Mon-Sat", "time": "3:30pm"}, {"days": "Sun", "time": "Closed"}], "id": "5145200000", "name": "USPS COLLECTION BOX - BLUE BOX", "address": {"city": "LIDDERDALE", "state": "IA", "street": "120 S MAIN ST", "postcode": "51452"}}},
{"geometry": {"type": "Point", "coordinates": [-94.7835718854, 42.1236403003]}, "type": "Feature", "properties": {"collection_times": [{"days": "Mon-Fri", "time": "11:45am"}, {"days": "Sat", "time": "9:45am"}, {"days": "Sun", "time": "Closed"}], "id": "5145200001", "name": "USPS COLLECTION BOX - PO LOBBY", "address": {"city": "LIDDERDALE", "state": "IA", "street": "120 S MAIN ST", "postcode": "51452"}}},
{"geometry": {"type": "Point", "coordinates": [-94.5506757581, 42.2702618987]}, "type": "Feature", "properties": {"collection_times": [{"days": "Mon-Sat", "time": "4:15pm"}, {"days": "Sun", "time": "Closed"}], "id": "5145300000", "name": "USPS COLLECTION BOX - BLUE BOX", "address": {"city": "LOHRVILLE", "state": "IA", "street": "416 2ND ST", "postcode": "51453"}}},
{"geometry": {"type": "Point", "coordinates": [-94.5506757581, 42.2702618987]}, "type": "Feature", "properties": {"collection_times": [{"days": "Mon-Fri", "time": "10:45am"}, {"days": "Sat", "time": "9:45am"}, {"days": "Sun", "time": "Closed"}], "id": "5145300001", "name": "USPS COLLECTION BOX - PO LOBBY", "address": {"city": "LOHRVILLE", "state": "IA", "street": "416 2ND ST", "postcode": "51453"}}},
{"geometry": {"type": "Point", "coordinates": [-95.2333816663, 41.8902178294]}, "type": "Feature", "properties": {"collection_times": [{"days": "Mon-Sat", "time": "4:00pm"}, {"days": "Sun", "time": "Closed"}], "id": "5145400000", "name": "USPS COLLECTION BOX - BLUE BOX", "address": {"city": "MANILLA", "state": "IA", "street": "348 4TH ST", "postcode": "51454"}}},
{"geometry": {"type": "Point", "coordinates": [-95.2333816663, 41.8902178294]}, "type": "Feature", "properties": {"collection_times": [{"days": "Mon-Fri", "time": "1:45pm"}, {"days": "Sat-Sun", "time": "Closed"}], "id": "5145400001", "name": "USPS COLLECTION BOX - PO LOBBY", "address": {"city": "MANILLA", "state": "IA", "street": "348 4TH ST", "postcode": "51454"}}},
{"geometry": {"type": "Point", "coordinates": [-95.0650460146, 41.9100017716]}, "type": "Feature", "properties": {"collection_times": [{"days": "Mon-Sat", "time": "4:30pm"}, {"days": "Sun", "time": "Closed"}], "id": "5145500000", "name": "USPS COLLECTION BOX - BLUE BOX", "address": {"city": "MANNING", "state": "IA", "street": "216 MAIN ST", "postcode": "51455"}}},
{"geometry": {"type": "Point", "coordinates": [-95.0650460146, 41.9100017716]}, "type": "Feature", "properties": {"collection_times": [{"days": "Mon-Fri", "time": "4:30pm"}, {"days": "Sat", "time": "9:30am"}, {"days": "Sun", "time": "Closed"}], "id": "5145500006", "name": "USPS COLLECTION BOX - PO LOBBY", "address": {"city": "MANNING", "state": "IA", "street": "216 MAIN ST", "postcode": "51455"}}},
{"geometry": {"type": "Point", "coordinates": [-95.2506317202, 42.3108159255]}, "type": "Feature", "properties": {"collection_times": [{"days": "Mon-Fri", "time": "4:15pm"}, {"days": "Sat", "time": "4:30pm"}, {"days": "Sun", "time": "Closed"}], "id": "5145800000", "name": "USPS COLLECTION BOX - BLUE BOX", "address": {"city": "ODEBOLT", "state": "IA", "street": "315 S MAIN ST", "postcode": "51458"}}},
{"geometry": {"type": "Point", "coordinates": [-95.2506317202, 42.3108159255]}, "type": "Feature", "properties": {"collection_times": [{"days": "Mon-Fri", "time": "4:15pm"}, {"days": "Sat-Sun", "time": "Closed"}], "id": "5145800001", "name": "USPS COLLECTION BOX - PO LOBBY", "address": {"city": "ODEBOLT", "state": "IA", "street": "315 S MAIN ST", "postcode": "51458"}}},
{"geometry": {"type": "Point", "coordinates": [-94.6337747637, 42.0405913044]}, "type": "Feature", "properties": {"collection_times": [{"days": "Mon-Fri", "time": "4:45pm"}, {"days": "Sat", "time": "5:00pm"}, {"days": "Sun", "time": "Closed"}], "id": "5145900000", "name": "USPS COLLECTION BOX - BLUE BOX", "address": {"city": "RALSTON", "state": "IA", "street": "107 MAIN ST", "postcode": "51459"}}},
{"geometry": {"type": "Point", "coordinates": [-95.574885649, 42.124344217]}, "type": "Feature", "properties": {"collection_times": [{"days": "Mon-Fri", "time": "3:45pm"}, {"days": "Sat", "time": "4:00pm"}, {"days": "Sun", "time": "Closed"}], "id": "5146000000", "name": "USPS COLLECTION BOX - BLUE BOX", "address": {"city": "RICKETTS", "state": "IA", "street": "40 MAPLE ST", "postcode": "51460"}}},
{"geometry": {"type": "Point", "coordinates": [-95.574885649, 42.124344217]}, "type": "Feature", "properties": {"collection_times": [{"days": "Mon-Fri", "time": "9:45am"}, {"days": "Sat-Sun", "time": "Closed"}], "id": "5146000001", "name": "USPS COLLECTION BOX - PO LOBBY", "address": {"city": "RICKETTS", "state": "IA", "street": "40 MAPLE ST", "postcode": "51460"}}},
{"geometry": {"type": "Point", "coordinates": [-95.436622211, 42.1654012904]}, "type": "Feature", "properties": {"collection_times": [{"days": "Mon-Sat", "time": "4:00pm"}, {"days": "Sun", "time": "Closed"}], "id": "5146100000", "name": "USPS COLLECTION BOX - BLUE BOX", "address": {"city": "SCHLESWIG", "state": "IA", "street": "200 CEDAR ST", "postcode": "51461"}}},
{"geometry": {"type": "Point", "coordinates": [-95.436622211, 42.1654012904]}, "type": "Feature", "properties": {"collection_times": [{"days": "Mon-Fri", "time": "2:15pm"}, {"days": "Sat-Sun", "time": "Closed"}], "id": "5146100001", "name": "USPS COLLECTION BOX - PO LOBBY", "address": {"city": "SCHLESWIG", "state": "IA", "street": "200 CEDAR ST", "postcode": "51461"}}},
{"geometry": {"type": "Point", "coordinates": [-94.5454189117, 42.0198807399]}, "type": "Feature", "properties": {"collection_times": [{"days": "Mon-Sat", "time": "4:15pm"}, {"days": "Sun", "time": "Closed"}], "id": "5146200000", "name": "USPS COLLECTION BOX - BLUE BOX", "address": {"city": "SCRANTON", "state": "IA", "street": "1020 MAIN ST", "postcode": "51462"}}},
{"geometry": {"type": "Point", "coordinates": [-94.5454189117, 42.0198807399]}, "type": "Feature", "properties": {"collection_times": [{"days": "Mon-Fri", "time": "1:45pm"}, {"days": "Sat", "time": "9:00am"}, {"days": "Sun", "time": "Closed"}], "id": "5146200001", "name": "USPS COLLECTION BOX - PO LOBBY", "address": {"city": "SCRANTON", "state": "IA", "street": "1020 MAIN ST", "postcode": "51462"}}},
{"geometry": {"type": "Point", "coordinates": [-94.9430382758, 41.9184116429]}, "type": "Feature", "properties": {"collection_times": [{"days": "Mon-Fri", "time": "4:00pm"}, {"days": "Sat", "time": "5:15pm"}, {"days": "Sun", "time": "Closed"}], "id": "5146300000", "name": "USPS COLLECTION BOX - BLUE BOX", "address": {"city": "TEMPLETON", "state": "IA", "street": "203 S MAIN ST", "postcode": "51463"}}},
{"geometry": {"type": "Point", "coordinates": [-94.9430382758, 41.9184116429]}, "type": "Feature", "properties": {"collection_times": [{"days": "Mon-Fri", "time": "3:15pm"}, {"days": "Sat-Sun", "time": "Closed"}], "id": "5146300001", "name": "USPS COLLECTION BOX - PO LOBBY", "address": {"city": "TEMPLETON", "state": "IA", "street": "203 S MAIN ST", "postcode": "51463"}}},
{"geometry": {"type": "Point", "coordinates": [-95.2034143732, 42.0956256939]}, "type": "Feature", "properties": {"collection_times": [{"days": "Mon-Fri", "time": "3:45pm"}, {"days": "Sat", "time": "4:45pm"}, {"days": "Sun", "time": "Closed"}], "id": "5146500000", "name": "USPS COLLECTION BOX - BLUE BOX", "address": {"city": "VAIL", "state": "IA", "street": "117 HIGHWAY 30", "postcode": "51465"}}},
{"geometry": {"type": "Point", "coordinates": [-95.2034143732, 42.0956256939]}, "type": "Feature", "properties": {"collection_times": [{"days": "Mon-Fri", "time": "10:45am"}, {"days": "Sat-Sun", "time": "Closed"}], "id": "5146500001", "name": "USPS COLLECTION BOX - PO LOBBY", "address": {"city": "VAIL", "state": "IA", "street": "117 HIGHWAY 30", "postcode": "51465"}}},
{"geometry": {"type": "Point", "coordinates": [-95.0934656151, 42.2697812263]}, "type": "Feature", "properties": {"collection_times": [{"days": "Mon-Fri", "time": "4:15pm"}, {"days": "Sat", "time": "5:00pm"}, {"days": "Sun", "time": "Closed"}], "id": "5146600000", "name": "USPS COLLECTION BOX - BLUE BOX", "address": {"city": "WALL LAKE", "state": "IA", "street": "106 BOYER ST", "postcode": "51466"}}},
{"geometry": {"type": "Point", "coordinates": [-95.0934656151, 42.2697812263]}, "type": "Feature", "properties": {"collection_times": [{"days": "Mon-Fri", "time": "2:15pm"}, {"days": "Sat-Sun", "time": "Closed"}], "id": "5146600001", "name": "USPS COLLECTION BOX - PO LOBBY", "address": {"city": "WALL LAKE", "state": "IA", "street": "106 BOYER ST", "postcode": "51466"}}},
{"geometry": {"type": "Point", "coordinates": [-95.0981886843, 42.0750795518]}, "type": "Feature", "properties": {"collection_times": [{"days": "Mon-Fri", "time": "4:00pm"}, {"days": "Sat", "time": "4:30pm"}, {"days": "Sun", "time": "Closed"}], "id": "5146700000", "name": "USPS COLLECTION BOX - BLUE BOX", "address": {"city": "WESTSIDE", "state": "IA", "street": "130 MAIN ST", "postcode": "51467"}}},
{"geometry": {"type": "Point", "coordinates": [-95.0981886843, 42.0750795518]}, "type": "Feature", "properties": {"collection_times": [{"days": "Mon-Fri", "time": "11:15am"}, {"days": "Sat-Sun", "time": "Closed"}], "id": "5146700001", "name": "USPS COLLECTION BOX - PO LOBBY", "address": {"city": "WESTSIDE", "state": "IA", "street": "130 MAIN ST", "postcode": "51467"}}}
]}
