{"type": "FeatureCollection", "features": [
{"geometry": {"type": "Point", "coordinates": [-95.852754546, 41.2582070463]}, "type": "Feature", "properties": {"collection_times": [{"days": "Mon-Fri", "time": "5:00pm"}, {"days": "Sat", "time": "1:00pm"}, {"days": "Sun", "time": "Closed"}], "id": "5150100006", "name": "USPS COLLECTION BOX - BLUE BOX", "address": {"city": "COUNCIL BLUFFS", "state": "IA", "street": "227 S 6TH ST", "postcode": "51501"}}},
{"geometry": {"type": "Point", "coordinates": [-95.852754546, 41.2582070463]}, "type": "Feature", "properties": {"collection_times": [{"days": "Mon-Fri", "time": "5:00pm"}, {"days": "Sat", "time": "1:00pm"}, {"days": "Sun", "time": "Closed"}], "id": "5150100007", "name": "USPS COLLECTION BOX - BLUE BOX", "address": {"city": "COUNCIL BLUFFS", "state": "IA", "street": "227 S 6TH ST", "postcode": "51501"}}},
{"geometry": {"type": "Point", "coordinates": [-95.8524036739, 41.2612337089]}, "type": "Feature", "properties": {"collection_times": [{"days": "Mon-Fri", "time": "5:00pm"}, {"days": "Sat", "time": "4:55pm"}, {"days": "Sun", "time": "Closed"}], "id": "5150100008", "name": "USPS COLLECTION BOX - BLUE BOX", "address": {"city": "COUNCIL BLUFFS", "state": "IA", "street": "623 W BROADWAY", "postcode": "51501"}}},
{"geometry": {"type": "Point", "coordinates": [-95.8548670363, 41.2465684725]}, "type": "Feature", "properties": {"collection_times": [{"days": "Mon-Fri", "time": "5:00pm"}, {"days": "Sat", "time": "3:45pm"}, {"days": "Sun", "time": "Closed"}], "id": "5150100020", "name": "USPS COLLECTION BOX - BLUE BOX", "address": {"city": "COUNCIL BLUFFS", "state": "IA", "street": "701 16TH AVE", "postcode": "51501"}}},
{"geometry": {"type": "Point", "coordinates": [-95.8725160796, 41.2277745227]}, "type": "Feature", "properties": {"collection_times": [{"days": "Mon-Sat", "time": "10:00am"}, {"days": "Sun", "time": "Closed"}], "id": "5150100026", "name": "USPS COLLECTION BOX - BLUE BOX", "address": {"city": "COUNCIL BLUFFS", "state": "IA", "street": "3200 CHIPPEWA LN", "postcode": "51501"}}},
{"geometry": {"type": "Point", "coordinates": [-95.871165109, 41.261858779]}, "type": "Feature", "properties": {"collection_times": [{"days": "Mon-Sat", "time": "9:00am"}, {"days": "Sun", "time": "Closed"}], "id": "5150100032", "name": "USPS COLLECTION BOX - BLUE BOX", "address": {"city": "COUNCIL BLUFFS", "state": "IA", "street": "1817 W BROADWAY", "postcode": "51501"}}},
{"geometry": {"type": "Point", "coordinates": [-95.8791941031, 41.2360846502]}, "type": "Feature", "properties": {"collection_times": [{"days": "Mon-Sat", "time": "2:00pm"}, {"days": "Sun", "time": "Closed"}], "id": "5150100036", "name": "USPS COLLECTION BOX - BLUE BOX", "address": {"city": "COUNCIL BLUFFS", "state": "IA", "street": "2608 S 24TH ST", "postcode": "51501"}}},
{"geometry": {"type": "Point", "coordinates": [-95.852103131, 41.26115649]}, "type": "Feature", "properties": {"collection_times": [{"days": "Mon-Sat", "time": "5:00pm"}, {"days": "Sun", "time": "Closed"}], "id": "5150100045", "name": "USPS COLLECTION BOX - PO LOBBY", "address": {"city": "COUNCIL BLUFFS", "state": "IA", "street": "8 S 6TH ST", "postcode": "51501"}}},
{"geometry": {"type": "Point", "coordinates": [-95.8519193318, 41.2618434032]}, "type": "Feature", "properties": {"collection_times": [{"days": "Mon-Fri", "time": "5:00pm"}, {"days": "Sat", "time": "12:00pm"}, {"days": "Sun", "time": "Closed"}], "id": "5150100046", "name": "USPS COLLECTION BOX - PO LOBBY", "address": {"city": "COUNCIL BLUFFS", "state": "IA", "street": "8 S 6TH ST", "postcode": "51501"}}},
{"geometry": {"type": "Point", "coordinates": [-95.8821001578, 41.2619925188]}, "type": "Feature", "properties": {"collection_times": [{"days": "Mon-Sat", "time": "10:00am"}, {"days": "Sun", "time": "Closed"}], "id": "5150100047", "name": "USPS COLLECTION BOX - BLUE BOX", "address": {"city": "COUNCIL BLUFFS", "state": "IA", "street": "2508 W BROADWAY", "postcode": "51501"}}},
{"geometry": {"type": "Point", "coordinates": [-95.8474508412, 41.2273152898]}, "type": "Feature", "properties": {"collection_times": [{"days": "Mon-Sat", "time": "10:00am"}, {"days": "Sun", "time": "Closed"}], "id": "5150100049", "name": "USPS COLLECTION BOX - BLUE BOX", "address": {"city": "COUNCIL BLUFFS", "state": "IA", "street": "3201 MANAWA CENTRE DR", "postcode": "51501"}}},
{"geometry": {"type": "Point", "coordinates": [-95.8521746613, 41.2607603725]}, "type": "Feature", "properties": {"collection_times": [{"days": "Mon-Sat", "time": "5:00pm"}, {"days": "Sun", "time": "Closed"}], "id": "5150100050", "name": "USPS COLLECTION BOX - BLUE BOX", "address": {"city": "COUNCIL BLUFFS", "state": "IA", "street": "8 S 6TH ST", "postcode": "51501"}}},
{"geometry": {"type": "Point", "coordinates": [-95.8523833585, 41.2612659574]}, "type": "Feature", "properties": {"collection_times": [{"days": "Mon-Fri", "time": "5:00pm"}, {"days": "Sat", "time": "4:55pm"}, {"days": "Sun", "time": "Closed"}], "id": "5150100052", "name": "USPS COLLECTION BOX - BLUE BOX", "address": {"city": "COUNCIL BLUFFS", "state": "IA", "street": "623 W BROADWAY", "postcode": "51501"}}},
{"geometry": {"type": "Point", "coordinates": [-95.9051704064, 41.2536634688]}, "type": "Feature", "properties": {"collection_times": [{"days": "Mon-Sat", "time": "11:00am"}, {"days": "Sun", "time": "Closed"}], "id": "5150100056", "name": "USPS COLLECTION BOX - BLUE BOX", "address": {"city": "COUNCIL BLUFFS", "state": "IA", "street": "3607 9TH AVE", "postcode": "51501"}}},
{"geometry": {"type": "Point", "coordinates": [-95.852754546, 41.2582070463]}, "type": "Feature", "properties": {"collection_times": [{"days": "Mon-Fri", "time": "5:00pm"}, {"days": "Sat", "time": "1:00pm"}, {"days": "Sun", "time": "Closed"}], "id": "5150100057", "name": "USPS COLLECTION BOX - BLUE BOX", "address": {"city": "COUNCIL BLUFFS", "state": "IA", "street": "227 S 6TH ST", "postcode": "51501"}}},
{"geometry": {"type": "Point", "coordinates": [-95.8519193318, 41.2618434032]}, "type": "Feature", "properties": {"collection_times": [{"days": "Mon-Sat", "time": "5:00pm"}, {"days": "Sun", "time": "Closed"}], "id": "5150100058", "name": "USPS COLLECTION BOX - PO LOBBY", "address": {"city": "COUNCIL BLUFFS", "state": "IA", "street": "8 S 6TH ST", "postcode": "51501"}}},
{"geometry": {"type": "Point", "coordinates": [-95.8271709833, 41.2441850633]}, "type": "Feature", "properties": {"collection_times": [{"days": "Mon-Fri", "time": "5:00pm"}, {"days": "Sat", "time": "4:15pm"}, {"days": "Sun", "time": "Closed"}], "id": "5150300001", "name": "USPS COLLECTION BOX - BLUE BOX", "address": {"city": "COUNCIL BLUFFS", "state": "IA", "street": "1745 MADISON AVE", "postcode": "51503"}}},
{"geometry": {"type": "Point", "coordinates": [-95.8271709833, 41.2441850633]}, "type": "Feature", "properties": {"collection_times": [{"days": "Mon-Fri", "time": "5:00pm"}, {"days": "Sat", "time": "4:15pm"}, {"days": "Sun", "time": "Closed"}], "id": "5150300003", "name": "USPS COLLECTION BOX - BLUE BOX", "address": {"city": "COUNCIL BLUFFS", "state": "IA", "street": "1745 MADISON AVE", "postcode": "51503"}}},
{"geometry": {"type": "Point", "coordinates": [-95.8510145412, 41.2582580839]}, "type": "Feature", "properties": {"collection_times": [{"days": "Mon-Fri", "time": "5:00pm"}, {"days": "Sat", "time": "1:00pm"}, {"days": "Sun", "time": "Closed"}], "id": "5150300005", "name": "USPS COLLECTION BOX - BLUE BOX", "address": {"city": "COUNCIL BLUFFS", "state": "IA", "street": "209 PEARL ST", "postcode": "51503"}}},
{"geometry": {"type": "Point", "coordinates": [-95.8504156089, 41.2581686947]}, "type": "Feature", "properties": {"collection_times": [{"days": "Mon-Sat", "time": "5:00pm"}, {"days": "Sun", "time": "Closed"}], "id": "5150300006", "name": "USPS COLLECTION BOX - BLUE BOX", "address": {"city": "COUNCIL BLUFFS", "state": "IA", "street": "229 S MAIN ST", "postcode": "51503"}}},
{"geometry": {"type": "Point", "coordinates": [-95.8504470427, 41.2583892245]}, "type": "Feature", "properties": {"collection_times": [{"days": "Mon-Fri", "time": "5:00pm"}, {"days": "Sat", "time": "1:00pm"}, {"days": "Sun", "time": "Closed"}], "id": "5150300008", "name": "USPS COLLECTION BOX - BLUE BOX", "address": {"city": "COUNCIL BLUFFS", "state": "IA", "street": "500 WILLOW AVE", "postcode": "51503"}}},
{"geometry": {"type": "Point", "coordinates": [-95.8415781498, 41.2661345829]}, "type": "Feature", "properties": {"collection_times": [{"days": "Mon-Fri", "time": "5:00pm"}, {"days": "Sat", "time": "1:00pm"}, {"days": "Sun", "time": "Closed"}], "id": "5150300012", "name": "USPS COLLECTION BOX - BLUE BOX", "address": {"city": "COUNCIL BLUFFS", "state": "IA", "street": "427 E KANESVILLE BLVD", "postcode": "51503"}}},
{"geometry": {"type": "Point", "coordinates": [-95.8495700475, 41.2622581725]}, "type": "Feature", "properties": {"collection_times": [{"days": "Mon-Fri", "time": "5:00pm"}, {"days": "Sat", "time": "4:45pm"}, {"days": "Sun", "time": "Closed"}], "id": "5150300018", "name": "USPS COLLECTION BOX - BLUE BOX", "address": {"city": "COUNCIL BLUFFS", "state": "IA", "street": "25 MAIN PL", "postcode": "51503"}}},
{"geometry": {"type": "Point", "coordinates": [-95.835038987, 41.2677983693]}, "type": "Feature", "properties": {"collection_times": [{"days": "Mon-Fri", "time": "5:00pm"}, {"days": "Sat", "time": "1:00pm"}, {"days": "Sun", "time": "Closed"}], "id": "5150300020", "name": "USPS COLLECTION BOX - BLUE BOX", "address": {"city": "COUNCIL BLUFFS", "state": "IA", "street": "201 RIDGE ST", "postcode": "51503"}}},
{"geometry": {"type": "Point", "coordinates": [-95.8417549301, 41.2660388269]}, "type": "Feature", "properties": {"collection_times": [{"days": "Mon-Fri", "time": "5:00pm"}, {"days": "Sat", "time": "1:00pm"}, {"days": "Sun", "time": "Closed"}], "id": "5150300026", "name": "USPS COLLECTION BOX - BLUE BOX", "address": {"city": "COUNCIL BLUFFS", "state": "IA", "street": "417 E KANESVILLE BLVD", "postcode": "51503"}}},
{"geometry": {"type": "Point", "coordinates": [-95.8083518482, 41.2795280884]}, "type": "Feature", "properties": {"collection_times": [{"days": "Mon-Sat", "time": "9:00am"}, {"days": "Sun", "time": "Closed"}], "id": "5150300027", "name": "USPS COLLECTION BOX - BLUE BOX", "address": {"city": "COUNCIL BLUFFS", "state": "IA", "street": "2731 E KANESVILLE BLVD", "postcode": "51503"}}},
{"geometry": {"type": "Point", "coordinates": [-95.8180661683, 41.2422409997]}, "type": "Feature", "properties": {"collection_times": [{"days": "Mon-Sat", "time": "10:00am"}, {"days": "Sun", "time": "Closed"}], "id": "5150300030", "name": "USPS COLLECTION BOX - BLUE BOX", "address": {"city": "COUNCIL BLUFFS", "state": "IA", "street": "1801 VALLEY VIEW DR", "postcode": "51503"}}},
{"geometry": {"type": "Point", "coordinates": [-95.8363424151, 41.271588778]}, "type": "Feature", "properties": {"collection_times": [{"days": "Mon-Sat", "time": "2:00pm"}, {"days": "Sun", "time": "Closed"}], "id": "5150300032", "name": "USPS COLLECTION BOX - BLUE BOX", "address": {"city": "COUNCIL BLUFFS", "state": "IA", "street": "1141 N BROADWAY", "postcode": "51503"}}},
{"geometry": {"type": "Point", "coordinates": [-95.8157858359, 41.2182981442]}, "type": "Feature", "properties": {"collection_times": [{"days": "Mon-Sat", "time": "9:00am"}, {"days": "Sun", "time": "Closed"}], "id": "5150300035", "name": "USPS COLLECTION BOX - BLUE BOX", "address": {"city": "COUNCIL BLUFFS", "state": "IA", "street": "14151 WABASH AVE", "postcode": "51503"}}},
{"geometry": {"type": "Point", "coordinates": [-95.8057941656, 41.2320236166]}, "type": "Feature", "properties": {"collection_times": [{"days": "Mon-Sat", "time": "11:00am"}, {"days": "Sun", "time": "Closed"}], "id": "5150300042", "name": "USPS COLLECTION BOX - BLUE BOX", "address": {"city": "COUNCIL BLUFFS", "state": "IA", "street": "19900 VIRGINIA HILLS RD", "postcode": "51503"}}},
{"geometry": {"type": "Point", "coordinates": [-95.8488639242, 41.2607648672]}, "type": "Feature", "properties": {"collection_times": [{"days": "Mon-Fri", "time": "5:00pm"}, {"days": "Sat", "time": "1:00pm"}, {"days": "Sun", "time": "Closed"}], "id": "5150300043", "name": "USPS COLLECTION BOX - BLUE BOX", "address": {"city": "COUNCIL BLUFFS", "state": "IA", "street": "421 W BROADWAY", "postcode": "51503"}}},
{"geometry": {"type": "Point", "coordinates": [-95.8471505133, 41.2616307388]}, "type": "Feature", "properties": {"collection_times": [{"days": "Mon-Fri", "time": "5:00pm"}, {"days": "Sat", "time": "1:00pm"}, {"days": "Sun", "time": "Closed"}], "id": "5150300047", "name": "USPS COLLECTION BOX - BLUE BOX", "address": {"city": "COUNCIL BLUFFS", "state": "IA", "street": "300 W BROADWAY", "postcode": "51503"}}},
{"geometry": {"type": "Point", "coordinates": [-95.8401185074, 41.2655986313]}, "type": "Feature", "properties": {"collection_times": [{"days": "Mon-Fri", "time": "5:00pm"}, {"days": "Sat", "time": "4:30pm"}, {"days": "Sun", "time": "Closed"}], "id": "5150300048", "name": "USPS COLLECTION BOX - BLUE BOX", "address": {"city": "COUNCIL BLUFFS", "state": "IA", "street": "535 E BROADWAY", "postcode": "51503"}}},
{"geometry": {"type": "Point", "coordinates": [-95.8504156089, 41.2581686947]}, "type": "Feature", "properties": {"collection_times": [{"days": "Mon-Sat", "time": "5:00pm"}, {"days": "Sun", "time": "Closed"}], "id": "5150300049", "name": "USPS COLLECTION BOX - BLUE BOX", "address": {"city": "COUNCIL BLUFFS", "state": "IA", "street": "229 S MAIN ST", "postcode": "51503"}}},
{"geometry": {"type": "Point", "coordinates": [-95.8504156089, 41.2581686947]}, "type": "Feature", "properties": {"collection_times": [{"days": "Mon-Fri", "time": "5:00pm"}, {"days": "Sat-Sun", "time": "Closed"}], "id": "5150300052", "name": "USPS COLLECTION BOX - BLUE BOX", "address": {"city": "COUNCIL BLUFFS", "state": "IA", "street": "229 S MAIN ST", "postcode": "51503"}}},
{"geometry": {"type": "Point", "coordinates": [-95.8269764348, 41.244038993]}, "type": "Feature", "properties": {"collection_times": [{"days": "Mon-Sat", "time": "10:00am"}, {"days": "Sun", "time": "Closed"}], "id": "5150300053", "name": "USPS COLLECTION BOX - BLUE BOX", "address": {"city": "COUNCIL BLUFFS", "state": "IA", "street": "1751 MADISON AVE", "postcode": "51503"}}},
{"geometry": {"type": "Point", "coordinates": [-95.8471505133, 41.2616307388]}, "type": "Feature", "properties": {"collection_times": [{"days": "Mon-Fri", "time": "5:00pm"}, {"days": "Sat", "time": "1:00pm"}, {"days": "Sun", "time": "Closed"}], "id": "5150300054", "name": "USPS COLLECTION BOX - BLUE BOX", "address": {"city": "COUNCIL BLUFFS", "state": "IA", "street": "300 W BROADWAY", "postcode": "51503"}}},
{"geometry": {"type": "Point", "coordinates": [-95.8181313871, 41.2806352419]}, "type": "Feature", "properties": {"collection_times": [{"days": "Mon-Sat", "time": "2:00pm"}, {"days": "Sun", "time": "Closed"}], "id": "5150300055", "name": "USPS COLLECTION BOX - BLUE BOX", "address": {"city": "COUNCIL BLUFFS", "state": "IA", "street": "310 MCKENZIE AVE", "postcode": "51503"}}},
{"geometry": {"type": "Point", "coordinates": [-95.8135988751, 41.257634078]}, "type": "Feature", "properties": {"collection_times": [{"days": "Mon-Sat", "time": "9:00am"}, {"days": "Sun", "time": "Closed"}], "id": "5150300056", "name": "USPS COLLECTION BOX - BLUE BOX", "address": {"city": "COUNCIL BLUFFS", "state": "IA", "street": "105 LANDMARK DR", "postcode": "51503"}}},
{"geometry": {"type": "Point", "coordinates": [-95.3392932218, 41.4776170075]}, "type": "Feature", "properties": {"collection_times": [{"days": "Mon-Fri", "time": "4:00pm"}, {"days": "Sat", "time": "4:30pm"}, {"days": "Sun", "time": "Closed"}], "id": "5152100001", "name": "USPS COLLECTION BOX - BLUE BOX", "address": {"city": "AVOCA", "state": "IA", "street": "202 N ELM ST", "postcode": "51521"}}},
{"geometry": {"type": "Point", "coordinates": [-95.3392932218, 41.4776170075]}, "type": "Feature", "properties": {"collection_times": [{"days": "Mon-Fri", "time": "4:00pm"}, {"days": "Sat", "time": "9:00am"}, {"days": "Sun", "time": "Closed"}], "id": "5152100002", "name": "USPS COLLECTION BOX - PO LOBBY", "address": {"city": "AVOCA", "state": "IA", "street": "202 N ELM ST", "postcode": "51521"}}},
{"geometry": {"type": "Point", "coordinates": [-96.0812711654, 41.9303430845]}, "type": "Feature", "properties": {"collection_times": [{"days": "Mon-Sat", "time": "3:15pm"}, {"days": "Sun", "time": "Closed"}], "id": "5152300001", "name": "USPS COLLECTION BOX - BLUE BOX", "address": {"city": "BLENCOE", "state": "IA", "street": "412 MAIN ST", "postcode": "51523"}}},
{"geometry": {"type": "Point", "coordinates": [-96.0812711654, 41.9303430845]}, "type": "Feature", "properties": {"collection_times": [{"days": "Mon-Fri", "time": "3:00pm"}, {"days": "Sat", "time": "12:45pm"}, {"days": "Sun", "time": "Closed"}], "id": "5152300004", "name": "USPS COLLECTION BOX - PO LOBBY", "address": {"city": "BLENCOE", "state": "IA", "street": "412 MAIN ST", "postcode": "51523"}}},
{"geometry": {"type": "Point", "coordinates": [-95.4222666444, 41.2363793622]}, "type": "Feature", "properties": {"collection_times": [{"days": "Mon-Sat", "time": "4:55pm"}, {"days": "Sun", "time": "Closed"}], "id": "5152500001", "name": "USPS COLLECTION BOX - BLUE BOX", "address": {"city": "CARSON", "state": "IA", "street": "115 BROADWAY ST", "postcode": "51525"}}},
{"geometry": {"type": "Point", "coordinates": [-95.4222666444, 41.2363793622]}, "type": "Feature", "properties": {"collection_times": [{"days": "Mon-Fri", "time": "2:30pm"}, {"days": "Sat", "time": "10:00am"}, {"days": "Sun", "time": "Closed"}], "id": "5152500002", "name": "USPS COLLECTION BOX - PO LOBBY", "address": {"city": "CARSON", "state": "IA", "street": "115 BROADWAY ST", "postcode": "51525"}}},
{"geometry": {"type": "Point", "coordinates": [-95.8583992696, 41.3645307187]}, "type": "Feature", "properties": {"collection_times": [{"days": "Mon-Fri", "time": "4:30pm"}, {"days": "Sat", "time": "5:55pm"}, {"days": "Sun", "time": "Closed"}], "id": "5152600001", "name": "USPS COLLECTION BOX - BLUE BOX", "address": {"city": "CRESCENT", "state": "IA", "street": "718 OLD LINCOLN HWY", "postcode": "51526"}}},
{"geometry": {"type": "Point", "coordinates": [-95.8583992696, 41.3645307187]}, "type": "Feature", "properties": {"collection_times": [{"days": "Mon-Fri", "time": "4:30pm"}, {"days": "Sat", "time": "9:00am"}, {"days": "Sun", "time": "Closed"}], "id": "5152600002", "name": "USPS COLLECTION BOX - PO LOBBY", "address": {"city": "CRESCENT", "state": "IA", "street": "718 OLD LINCOLN HWY", "postcode": "51526"}}},
{"geometry": {"type": "Point", "coordinates": [-95.3403077624, 41.8239855842]}, "type": "Feature", "properties": {"collection_times": [{"days": "Mon-Fri", "time": "3:50pm"}, {"days": "Sat", "time": "3:55pm"}, {"days": "Sun", "time": "Closed"}], "id": "5152700001", "name": "USPS COLLECTION BOX - BLUE BOX", "address": {"city": "DEFIANCE", "state": "IA", "street": "209 MAIN AVE", "postcode": "51527"}}},
{"geometry": {"type": "Point", "coordinates": [-95.3403077624, 41.8239855842]}, "type": "Feature", "properties": {"collection_times": [{"days": "Mon-Fri", "time": "12:00pm"}, {"days": "Sat", "time": "11:00am"}, {"days": "Sun", "time": "Closed"}], "id": "5152700002", "name": "USPS COLLECTION BOX - PO LOBBY", "address": {"city": "DEFIANCE", "state": "IA", "street": "209 MAIN AVE", "postcode": "51527"}}},
{"geometry": {"type": "Point", "coordinates": [-95.4962918901, 41.9286284138]}, "type": "Feature", "properties": {"collection_times": [{"days": "Mon-Sat", "time": "4:25pm"}, {"days": "Sun", "time": "Closed"}], "id": "5152800001", "name": "USPS COLLECTION BOX - BLUE BOX", "address": {"city": "DOW CITY", "state": "IA", "street": "105 N FRANKLIN ST", "postcode": "51528"}}},
{"geometry": {"type": "Point", "coordinates": [-95.4962918901, 41.9286284138]}, "type": "Feature", "properties": {"collection_times": [{"days": "Mon-Fri", "time": "2:00pm"}, {"days": "Sat", "time": "9:30am"}, {"days": "Sun", "time": "Closed"}], "id": "5152800002", "name": "USPS COLLECTION BOX - PO LOBBY", "address": {"city": "DOW CITY", "state": "IA", "street": "105 N FRANKLIN ST", "postcode": "51528"}}},
{"geometry": {"type": "Point", "coordinates": [-95.6002282231, 41.8542816601]}, "type": "Feature", "properties": {"collection_times": [{"days": "Mon-Fri", "time": "2:00pm"}, {"days": "Sat", "time": "10:30am"}, {"days": "Sun", "time": "Closed"}], "id": "5152900001", "name": "USPS COLLECTION BOX - PO LOBBY", "address": {"city": "DUNLAP", "state": "IA", "street": "719 IOWA AVE", "postcode": "51529"}}},
{"geometry": {"type": "Point", "coordinates": [-95.6002282231, 41.8542816601]}, "type": "Feature", "properties": {"collection_times": [{"days": "Mon-Sat", "time": "4:40pm"}, {"days": "Sun", "time": "Closed"}], "id": "5152900002", "name": "USPS COLLECTION BOX - BLUE BOX", "address": {"city": "DUNLAP", "state": "IA", "street": "719 IOWA AVE", "postcode": "51529"}}},
{"geometry": {"type": "Point", "coordinates": [-95.4176162243, 41.7747691056]}, "type": "Feature", "properties": {"collection_times": [{"days": "Mon-Sat", "time": "4:10pm"}, {"days": "Sun", "time": "Closed"}], "id": "5153000001", "name": "USPS COLLECTION BOX - BLUE BOX", "address": {"city": "EARLING", "state": "IA", "street": "110 MAIN ST", "postcode": "51530"}}},
{"geometry": {"type": "Point", "coordinates": [-95.4176162243, 41.7747691056]}, "type": "Feature", "properties": {"collection_times": [{"days": "Mon-Fri", "time": "12:00pm"}, {"days": "Sat", "time": "10:00am"}, {"days": "Sun", "time": "Closed"}], "id": "5153000002", "name": "USPS COLLECTION BOX - PO LOBBY", "address": {"city": "EARLING", "state": "IA", "street": "110 MAIN ST", "postcode": "51530"}}},
{"geometry": {"type": "Point", "coordinates": [-95.0602737379, 41.6003040276]}, "type": "Feature", "properties": {"collection_times": [{"days": "Mon-Sat", "time": "3:55pm"}, {"days": "Sun", "time": "Closed"}], "id": "5153100001", "name": "USPS COLLECTION BOX - BLUE BOX", "address": {"city": "ELK HORN", "state": "IA", "street": "4214 MAIN ST", "postcode": "51531"}}},
{"geometry": {"type": "Point", "coordinates": [-95.0602737379, 41.6003040276]}, "type": "Feature", "properties": {"collection_times": [{"days": "Mon-Fri", "time": "3:30pm"}, {"days": "Sat", "time": "12:30pm"}, {"days": "Sun", "time": "Closed"}], "id": "5153100002", "name": "USPS COLLECTION BOX - PO LOBBY", "address": {"city": "ELK HORN", "state": "IA", "street": "4214 MAIN ST", "postcode": "51531"}}},
{"geometry": {"type": "Point", "coordinates": [-95.1637903566, 41.1493633292]}, "type": "Feature", "properties": {"collection_times": [{"days": "Mon-Fri", "time": "2:50pm"}, {"days": "Sat", "time": "2:55pm"}, {"days": "Sun", "time": "Closed"}], "id": "5153200001", "name": "USPS COLLECTION BOX - BLUE BOX", "address": {"city": "ELLIOTT", "state": "IA", "street": "308 MAIN ST", "postcode": "51532"}}},
{"geometry": {"type": "Point", "coordinates": [-95.1637903566, 41.1493633292]}, "type": "Feature", "properties": {"collection_times": [{"days": "Mon-Fri", "time": "1:00pm"}, {"days": "Sat", "time": "11:30am"}, {"days": "Sun", "time": "Closed"}], "id": "5153200002", "name": "USPS COLLECTION BOX - PO LOBBY", "address": {"city": "ELLIOTT", "state": "IA", "street": "308 MAIN ST", "postcode": "51532"}}},
{"geometry": {"type": "Point", "coordinates": [-95.4024732053, 41.0170660498]}, "type": "Feature", "properties": {"collection_times": [{"days": "Mon-Sat", "time": "4:45pm"}, {"days": "Sun", "time": "Closed"}], "id": "5153300001", "name": "USPS COLLECTION BOX - BLUE BOX", "address": {"city": "EMERSON", "state": "IA", "street": "707 MORTON AVE", "postcode": "51533"}}},
{"geometry": {"type": "Point", "coordinates": [-95.4024732053, 41.0170660498]}, "type": "Feature", "properties": {"collection_times": [{"days": "Mon-Fri", "time": "1:00pm"}, {"days": "Sat", "time": "10:00am"}, {"days": "Sun", "time": "Closed"}], "id": "5153300002", "name": "USPS COLLECTION BOX - PO LOBBY", "address": {"city": "EMERSON", "state": "IA", "street": "707 MORTON AVE", "postcode": "51533"}}},
{"geometry": {"type": "Point", "coordinates": [-95.7433302149, 41.0465000868]}, "type": "Feature", "properties": {"collection_times": [{"days": "Mon-Fri", "time": "3:30pm"}, {"days": "Sat-Sun", "time": "Closed"}], "id": "5153400001", "name": "USPS COLLECTION BOX - BLUE BOX", "address": {"city": "GLENWOOD", "state": "IA", "street": "14 N WALNUT ST", "postcode": "51534"}}},
{"geometry": {"type": "Point", "coordinates": [-95.7417139209, 41.0463487808]}, "type": "Feature", "properties": {"collection_times": [{"days": "Mon-Fri", "time": "5:00pm"}, {"days": "Sat", "time": "5:20pm"}, {"days": "Sun", "time": "Closed"}], "id": "5153400004", "name": "USPS COLLECTION BOX - BLUE BOX", "address": {"city": "GLENWOOD", "state": "IA", "street": "101 S VINE ST", "postcode": "51534"}}},
{"geometry": {"type": "Point", "coordinates": [-95.7453808366, 41.0387226195]}, "type": "Feature", "properties": {"collection_times": [{"days": "Mon-Fri", "time": "10:30am"}, {"days": "Sat-Sun", "time": "Closed"}], "id": "5153400005", "name": "USPS COLLECTION BOX - BLUE BOX", "address": {"city": "GLENWOOD", "state": "IA", "street": "902 S LOCUST ST", "postcode": "51534"}}},
{"geometry": {"type": "Point", "coordinates": [-95.742086482, 41.0464280187]}, "type": "Feature", "properties": {"collection_times": [{"days": "Mon-Fri", "time": "3:30pm"}, {"days": "Sat-Sun", "time": "Closed"}], "id": "5153400007", "name": "USPS COLLECTION BOX - BLUE BOX", "address": {"city": "GLENWOOD", "state": "IA", "street": "418 SHARP ST", "postcode": "51534"}}},
{"geometry": {"type": "Point", "coordinates": [-95.7417139209, 41.0463487808]}, "type": "Feature", "properties": {"collection_times": [{"days": "Mon-Fri", "time": "5:00pm"}, {"days": "Sat", "time": "5:20pm"}, {"days": "Sun", "time": "Closed"}], "id": "5153400008", "name": "USPS COLLECTION BOX - BLUE BOX", "address": {"city": "GLENWOOD", "state": "IA", "street": "101 S VINE ST", "postcode": "51534"}}},
{"geometry": {"type": "Point", "coordinates": [-95.7417139209, 41.0463487808]}, "type": "Feature", "properties": {"collection_times": [{"days": "Mon-Fri", "time": "5:00pm"}, {"days": "Sat", "time": "3:45pm"}, {"days": "Sun", "time": "Closed"}], "id": "5153400009", "name": "USPS COLLECTION BOX - PO LOBBY", "address": {"city": "GLENWOOD", "state": "IA", "street": "101 S VINE ST", "postcode": "51534"}}},
{"geometry": {"type": "Point", "coordinates": [-95.1412453043, 41.2337170146]}, "type": "Feature", "properties": {"collection_times": [{"days": "Mon-Fri", "time": "3:00pm"}, {"days": "Sat", "time": "3:10pm"}, {"days": "Sun", "time": "Closed"}], "id": "5153500002", "name": "USPS COLLECTION BOX - BLUE BOX", "address": {"city": "GRISWOLD", "state": "IA", "street": "608 4TH ST", "postcode": "51535"}}},
{"geometry": {"type": "Point", "coordinates": [-95.1412453043, 41.2337170146]}, "type": "Feature", "properties": {"collection_times": [{"days": "Mon-Fri", "time": "3:00pm"}, {"days": "Sat", "time": "10:00am"}, {"days": "Sun", "time": "Closed"}], "id": "5153500003", "name": "USPS COLLECTION BOX - PO LOBBY", "address": {"city": "GRISWOLD", "state": "IA", "street": "608 4TH ST", "postcode": "51535"}}},
{"geometry": {"type": "Point", "coordinates": [-95.3624889937, 41.3901746934]}, "type": "Feature", "properties": {"collection_times": [{"days": "Mon-Fri", "time": "4:00pm"}, {"days": "Sat", "time": "4:05pm"}, {"days": "Sun", "time": "Closed"}], "id": "5153600001", "name": "USPS COLLECTION BOX - BLUE BOX", "address": {"city": "HANCOCK", "state": "IA", "street": "117 N MAIN ST", "postcode": "51536"}}},
{"geometry": {"type": "Point", "coordinates": [-95.3624889937, 41.3901746934]}, "type": "Feature", "properties": {"collection_times": [{"days": "Mon-Fri", "time": "2:00pm"}, {"days": "Sat", "time": "12:30pm"}, {"days": "Sun", "time": "Closed"}], "id": "5153600002", "name": "USPS COLLECTION BOX - PO LOBBY", "address": {"city": "HANCOCK", "state": "IA", "street": "117 N MAIN ST", "postcode": "51536"}}},
{"geometry": {"type": "Point", "coordinates": [-95.3243484827, 41.6471933135]}, "type": "Feature", "properties": {"collection_times": [{"days": "Mon-Fri", "time": "4:00pm"}, {"days": "Sat-Sun", "time": "Closed"}], "id": "5153700002", "name": "USPS COLLECTION BOX - BLUE BOX", "address": {"city": "HARLAN", "state": "IA", "street": "1116 MORNINGVIEW DR", "postcode": "51537"}}},
{"geometry": {"type": "Point", "coordinates": [-95.3398355606, 41.6511020824]}, "type": "Feature", "properties": {"collection_times": [{"days": "Mon-Fri", "time": "4:10pm"}, {"days": "Sat-Sun", "time": "Closed"}], "id": "5153700003", "name": "USPS COLLECTION BOX - BLUE BOX", "address": {"city": "HARLAN", "state": "IA", "street": "1808 23RD ST", "postcode": "51537"}}},
{"geometry": {"type": "Point", "coordinates": [-95.3179637202, 41.6577881086]}, "type": "Feature", "properties": {"collection_times": [{"days": "Mon-Fri", "time": "4:15pm"}, {"days": "Sat-Sun", "time": "Closed"}], "id": "5153700004", "name": "USPS COLLECTION BOX - BLUE BOX", "address": {"city": "HARLAN", "state": "IA", "street": "612 COURT ST", "postcode": "51537"}}},
{"geometry": {"type": "Point", "coordinates": [-95.319020209, 41.6572415342]}, "type": "Feature", "properties": {"collection_times": [{"days": "Mon-Sat", "time": "4:35pm"}, {"days": "Sun", "time": "Closed"}], "id": "5153700005", "name": "USPS COLLECTION BOX - BLUE BOX", "address": {"city": "HARLAN", "state": "IA", "street": "1209 7TH ST", "postcode": "51537"}}},
{"geometry": {"type": "Point", "coordinates": [-95.319020209, 41.6572415342]}, "type": "Feature", "properties": {"collection_times": [{"days": "Mon-Sat", "time": "4:35pm"}, {"days": "Sun", "time": "Closed"}], "id": "5153700006", "name": "USPS COLLECTION BOX - BLUE BOX", "address": {"city": "HARLAN", "state": "IA", "street": "1209 7TH ST", "postcode": "51537"}}},
{"geometry": {"type": "Point", "coordinates": [-95.319020209, 41.6572415342]}, "type": "Feature", "properties": {"collection_times": [{"days": "Mon-Fri", "time": "4:30pm"}, {"days": "Sat", "time": "3:45pm"}, {"days": "Sun", "time": "Closed"}], "id": "5153700009", "name": "USPS COLLECTION BOX - PO LOBBY", "address": {"city": "HARLAN", "state": "IA", "street": "1209 7TH ST", "postcode": "51537"}}},
{"geometry": {"type": "Point", "coordinates": [-95.319020209, 41.6572415342]}, "type": "Feature", "properties": {"collection_times": [{"days": "Mon-Sat", "time": "4:35pm"}, {"days": "Sun", "time": "Closed"}], "id": "5153700011", "name": "USPS COLLECTION BOX - BLUE BOX", "address": {"city": "HARLAN", "state": "IA", "street": "1209 7TH ST", "postcode": "51537"}}},
{"geometry": {"type": "Point", "coordinates": [-95.4992419975, 41.0228994662]}, "type": "Feature", "properties": {"collection_times": [{"days": "Mon-Fri", "time": "5:00pm"}, {"days": "Sat", "time": "5:05pm"}, {"days": "Sun", "time": "Closed"}], "id": "5154000001", "name": "USPS COLLECTION BOX - BLUE BOX", "address": {"city": "HASTINGS", "state": "IA", "street": "427 INDIAN AVE", "postcode": "51540"}}},
{"geometry": {"type": "Point", "coordinates": [-95.4992419975, 41.0228994662]}, "type": "Feature", "properties": {"collection_times": [{"days": "Mon-Fri", "time": "12:00pm"}, {"days": "Sat", "time": "9:00am"}, {"days": "Sun", "time": "Closed"}], "id": "5154000002", "name": "USPS COLLECTION BOX - PO LOBBY", "address": {"city": "HASTINGS", "state": "IA", "street": "427 INDIAN AVE", "postcode": "51540"}}},
{"geometry": {"type": "Point", "coordinates": [-95.0726788612, 41.6301969836]}, "type": "Feature", "properties": {"collection_times": [{"days": "Mon-Sat", "time": "4:10pm"}, {"days": "Sun", "time": "Closed"}], "id": "5154300001", "name": "USPS COLLECTION BOX - BLUE BOX", "address": {"city": "KIMBALLTON", "state": "IA", "street": "207 N MAIN ST", "postcode": "51543"}}},
{"geometry": {"type": "Point", "coordinates": [-95.0726788612, 41.6301969836]}, "type": "Feature", "properties": {"collection_times": [{"days": "Mon-Fri", "time": "1:30pm"}, {"days": "Sat", "time": "11:00am"}, {"days": "Sun", "time": "Closed"}], "id": "5154300002", "name": "USPS COLLECTION BOX - PO LOBBY", "address": {"city": "KIMBALLTON", "state": "IA", "street": "207 N MAIN ST", "postcode": "51543"}}},
{"geometry": {"type": "Point", "coordinates": [-95.0726788612, 41.6301969836]}, "type": "Feature", "properties": {"collection_times": [{"days": "Mon-Fri", "time": "1:30pm"}, {"days": "Sat", "time": "11:00am"}, {"days": "Sun", "time": "Closed"}], "id": "5154300005", "name": "USPS COLLECTION BOX - PO LOBBY", "address": {"city": "KIMBALLTON", "state": "IA", "street": "207 N MAIN ST", "postcode": "51543"}}},
{"geometry": {"type": "Point", "coordinates": [-95.0899046688, 41.3058253724]}, "type": "Feature", "properties": {"collection_times": [{"days": "Mon-Sat", "time": "3:25pm"}, {"days": "Sun", "time": "Closed"}], "id": "5154400001", "name": "USPS COLLECTION BOX - BLUE BOX", "address": {"city": "LEWIS", "state": "IA", "street": "501 W MAIN ST", "postcode": "51544"}}},
{"geometry": {"type": "Point", "coordinates": [-95.0899046688, 41.3058253724]}, "type": "Feature", "properties": {"collection_times": [{"days": "Mon-Fri", "time": "2:00pm"}, {"days": "Sat", "time": "12:00pm"}, {"days": "Sun", "time": "Closed"}], "id": "5154400002", "name": "USPS COLLECTION BOX - PO LOBBY", "address": {"city": "LEWIS", "state": "IA", "street": "501 W MAIN ST", "postcode": "51544"}}},
{"geometry": {"type": "Point", "coordinates": [-95.7875942354, 41.6440398366]}, "type": "Feature", "properties": {"collection_times": [{"days": "Mon-Fri", "time": "4:35pm"}, {"days": "Sat", "time": "5:25pm"}, {"days": "Sun", "time": "Closed"}], "id": "5154600001", "name": "USPS COLLECTION BOX - BLUE BOX", "address": {"city": "LOGAN", "state": "IA", "street": "315 E 6TH ST", "postcode": "51546"}}},
{"geometry": {"type": "Point", "coordinates": [-95.7875942354, 41.6440398366]}, "type": "Feature", "properties": {"collection_times": [{"days": "Mon-Fri", "time": "4:35pm"}, {"days": "Sat", "time": "10:00am"}, {"days": "Sun", "time": "Closed"}], "id": "5154600004", "name": "USPS COLLECTION BOX - PO LOBBY", "address": {"city": "LOGAN", "state": "IA", "street": "315 E 6TH ST", "postcode": "51546"}}},
{"geometry": {"type": "Point", "coordinates": [-95.4246369507, 41.1927918442]}, "type": "Feature", "properties": {"collection_times": [{"days": "Mon-Sat", "time": "4:35pm"}, {"days": "Sun", "time": "Closed"}], "id": "5154900001", "name": "USPS COLLECTION BOX - BLUE BOX", "address": {"city": "MACEDONIA", "state": "IA", "street": "319 MAIN ST", "postcode": "51549"}}},
{"geometry": {"type": "Point", "coordinates": [-95.4246369507, 41.1927918442]}, "type": "Feature", "properties": {"collection_times": [{"days": "Mon-Fri", "time": "12:00pm"}, {"days": "Sat", "time": "10:45am"}, {"days": "Sun", "time": "Closed"}], "id": "5154900002", "name": "USPS COLLECTION BOX - PO LOBBY", "address": {"city": "MACEDONIA", "state": "IA", "street": "319 MAIN ST", "postcode": "51549"}}},
{"geometry": {"type": "Point", "coordinates": [-95.5864159665, 41.0023427693]}, "type": "Feature", "properties": {"collection_times": [{"days": "Mon-Fri", "time": "4:00pm"}, {"days": "Sat", "time": "5:20pm"}, {"days": "Sun", "time": "Closed"}], "id": "5155100001", "name": "USPS COLLECTION BOX - BLUE BOX", "address": {"city": "MALVERN", "state": "IA", "street": "202 W 4TH ST", "postcode": "51551"}}},
{"geometry": {"type": "Point", "coordinates": [-95.5864159665, 41.0023427693]}, "type": "Feature", "properties": {"collection_times": [{"days": "Mon-Fri", "time": "4:00pm"}, {"days": "Sat", "time": "9:00am"}, {"days": "Sun", "time": "Closed"}], "id": "5155100002", "name": "USPS COLLECTION BOX - PO LOBBY", "address": {"city": "MALVERN", "state": "IA", "street": "202 W 4TH ST", "postcode": "51551"}}},
{"geometry": {"type": "Point", "coordinates": [-95.1112611438, 41.449061128]}, "type": "Feature", "properties": {"collection_times": [{"days": "Mon-Sat", "time": "3:55pm"}, {"days": "Sun", "time": "Closed"}], "id": "5155200001", "name": "USPS COLLECTION BOX - BLUE BOX", "address": {"city": "MARNE", "state": "IA", "street": "202 WASHINGTON ST", "postcode": "51552"}}},
{"geometry": {"type": "Point", "coordinates": [-95.1112611438, 41.449061128]}, "type": "Feature", "properties": {"collection_times": [{"days": "Mon-Fri", "time": "3:30pm"}, {"days": "Sat", "time": "2:15pm"}, {"days": "Sun", "time": "Closed"}], "id": "5155200002", "name": "USPS COLLECTION BOX - PO LOBBY", "address": {"city": "MARNE", "state": "IA", "street": "202 WASHINGTON ST", "postcode": "51552"}}},
{"geometry": {"type": "Point", "coordinates": [-95.5428823666, 41.4665046474]}, "type": "Feature", "properties": {"collection_times": [{"days": "Mon-Fri", "time": "4:55pm"}, {"days": "Sat", "time": "5:00pm"}, {"days": "Sun", "time": "Closed"}], "id": "5155300001", "name": "USPS COLLECTION BOX - BLUE BOX", "address": {"city": "MINDEN", "state": "IA", "street": "207 BROADWAY ST", "postcode": "51553"}}},
{"geometry": {"type": "Point", "coordinates": [-95.5428823666, 41.4665046474]}, "type": "Feature", "properties": {"collection_times": [{"days": "Mon-Fri", "time": "11:30am"}, {"days": "Sat", "time": "9:30am"}, {"days": "Sun", "time": "Closed"}], "id": "5155300004", "name": "USPS COLLECTION BOX - PO LOBBY", "address": {"city": "MINDEN", "state": "IA", "street": "207 BROADWAY ST", "postcode": "51553"}}},
{"geometry": {"type": "Point", "coordinates": [-95.6967450284, 41.1432095647]}, "type": "Feature", "properties": {"collection_times": [{"days": "Mon-Sat", "time": "5:25pm"}, {"days": "Sun", "time": "Closed"}], "id": "5155400001", "name": "USPS COLLECTION BOX - BLUE BOX", "address": {"city": "MINEOLA", "state": "IA", "street": "410 MAIN ST", "postcode": "51554"}}},
{"geometry": {"type": "Point", "coordinates": [-95.6967450284, 41.1432095647]}, "type": "Feature", "properties": {"collection_times": [{"days": "Mon-Fri", "time": "12:00pm"}, {"days": "Sat", "time": "10:30am"}, {"days": "Sun", "time": "Closed"}], "id": "5155400002", "name": "USPS COLLECTION BOX - PO LOBBY", "address": {"city": "MINEOLA", "state": "IA", "street": "410 MAIN ST", "postcode": "51554"}}},
{"geometry": {"type": "Point", "coordinates": [-95.8889560583, 41.5566417062]}, "type": "Feature", "properties": {"collection_times": [{"days": "Mon-Fri", "time": "4:30pm"}, {"days": "Sat", "time": "5:30pm"}, {"days": "Sun", "time": "Closed"}], "id": "5155500004", "name": "USPS COLLECTION BOX - BLUE BOX", "address": {"city": "MISSOURI VALLEY", "state": "IA", "street": "116 N 5TH ST", "postcode": "51555"}}},
{"geometry": {"type": "Point", "coordinates": [-95.8889560583, 41.5566417062]}, "type": "Feature", "properties": {"collection_times": [{"days": "Mon-Fri", "time": "4:30pm"}, {"days": "Sat", "time": "10:30am"}, {"days": "Sun", "time": "Closed"}], "id": "5155500007", "name": "USPS COLLECTION BOX - PO LOBBY", "address": {"city": "MISSOURI VALLEY", "state": "IA", "street": "116 N 5TH ST", "postcode": "51555"}}},
{"geometry": {"type": "Point", "coordinates": [-96.0118532748, 41.6210748002]}, "type": "Feature", "properties": {"collection_times": [{"days": "Mon-Sat", "time": "5:15pm"}, {"days": "Sun", "time": "Closed"}], "id": "5155600001", "name": "USPS COLLECTION BOX - BLUE BOX", "address": {"city": "MODALE", "state": "IA", "street": "204 N MAIN ST", "postcode": "51556"}}},
{"geometry": {"type": "Point", "coordinates": [-96.0118532748, 41.6210748002]}, "type": "Feature", "properties": {"collection_times": [{"days": "Mon-Fri", "time": "11:45am"}, {"days": "Sat", "time": "10:45am"}, {"days": "Sun", "time": "Closed"}], "id": "5155600002", "name": "USPS COLLECTION BOX - PO LOBBY", "address": {"city": "MODALE", "state": "IA", "street": "204 N MAIN ST", "postcode": "51556"}}},
{"geometry": {"type": "Point", "coordinates": [-96.0232388926, 41.7103312854]}, "type": "Feature", "properties": {"collection_times": [{"days": "Mon-Sat", "time": "4:45pm"}, {"days": "Sun", "time": "Closed"}], "id": "5155700001", "name": "USPS COLLECTION BOX - BLUE BOX", "address": {"city": "MONDAMIN", "state": "IA", "street": "106 MAPLE ST", "postcode": "51557"}}},
{"geometry": {"type": "Point", "coordinates": [-96.0232388926, 41.7103312854]}, "type": "Feature", "properties": {"collection_times": [{"days": "Mon-Fri", "time": "11:30am"}, {"days": "Sat", "time": "9:00am"}, {"days": "Sun", "time": "Closed"}], "id": "5155700002", "name": "USPS COLLECTION BOX - PO LOBBY", "address": {"city": "MONDAMIN", "state": "IA", "street": "106 MAPLE ST", "postcode": "51557"}}},
{"geometry": {"type": "Point", "coordinates": [-95.8514182066, 41.921648796]}, "type": "Feature", "properties": {"collection_times": [{"days": "Mon-Sat", "time": "4:00pm"}, {"days": "Sun", "time": "Closed"}], "id": "5155800001", "name": "USPS COLLECTION BOX - BLUE BOX", "address": {"city": "MOORHEAD", "state": "IA", "street": "116 OAK ST", "postcode": "51558"}}},
{"geometry": {"type": "Point", "coordinates": [-95.6167110597, 41.4485565872]}, "type": "Feature", "properties": {"collection_times": [{"days": "Mon-Fri", "time": "5:10pm"}, {"days": "Sat", "time": "5:15pm"}, {"days": "Sun", "time": "Closed"}], "id": "5155900001", "name": "USPS COLLECTION BOX - BLUE BOX", "address": {"city": "NEOLA", "state": "IA", "street": "314 FRONT ST", "postcode": "51559"}}},
{"geometry": {"type": "Point", "coordinates": [-95.6167110597, 41.4485565872]}, "type": "Feature", "properties": {"collection_times": [{"days": "Mon-Fri", "time": "2:00pm"}, {"days": "Sat", "time": "9:30am"}, {"days": "Sun", "time": "Closed"}], "id": "5155900002", "name": "USPS COLLECTION BOX - PO LOBBY", "address": {"city": "NEOLA", "state": "IA", "street": "314 FRONT ST", "postcode": "51559"}}},
{"geometry": {"type": "Point", "coordinates": [-95.4015886847, 41.3019982345]}, "type": "Feature", "properties": {"collection_times": [{"days": "Mon-Fri", "time": "4:15pm"}, {"days": "Sat", "time": "4:20pm"}, {"days": "Sun", "time": "Closed"}], "id": "5156000001", "name": "USPS COLLECTION BOX - BLUE BOX", "address": {"city": "OAKLAND", "state": "IA", "street": "503 PIONEER AVE", "postcode": "51560"}}},
{"geometry": {"type": "Point", "coordinates": [-95.4013220008, 41.3024793736]}, "type": "Feature", "properties": {"collection_times": [{"days": "Mon-Fri", "time": "2:30pm"}, {"days": "Sat", "time": "9:00am"}, {"days": "Sun", "time": "Closed"}], "id": "5156000002", "name": "USPS COLLECTION BOX - PO LOBBY", "address": {"city": "OAKLAND", "state": "IA", "street": "503 PIONEER AVE", "postcode": "51560"}}},
{"geometry": {"type": "Point", "coordinates": [-95.800555104, 41.018556567]}, "type": "Feature", "properties": {"collection_times": [{"days": "Mon-Fri", "time": "4:55pm"}, {"days": "Sat", "time": "5:00pm"}, {"days": "Sun", "time": "Closed"}], "id": "5156100001", "name": "USPS COLLECTION BOX - BLUE BOX", "address": {"city": "PACIFIC JUNCTION", "state": "IA", "street": "405 LINCOLN AVE", "postcode": "51561"}}},
{"geometry": {"type": "Point", "coordinates": [-95.8005914029, 41.0185659213]}, "type": "Feature", "properties": {"collection_times": [{"days": "Mon-Fri", "time": "2:00pm"}, {"days": "Sat", "time": "1:00pm"}, {"days": "Sun", "time": "Closed"}], "id": "5156100002", "name": "USPS COLLECTION BOX - PO LOBBY", "address": {"city": "PACIFIC JUNCTION", "state": "IA", "street": "405 LINCOLN AVE", "postcode": "51561"}}},
{"geometry": {"type": "Point", "coordinates": [-95.4724169094, 41.7261518475]}, "type": "Feature", "properties": {"collection_times": [{"days": "Mon-Fri", "time": "4:25pm"}, {"days": "Sat", "time": "4:30pm"}, {"days": "Sun", "time": "Closed"}], "id": "5156200001", "name": "USPS COLLECTION BOX - BLUE BOX", "address": {"city": "PANAMA", "state": "IA", "street": "118 MAIN ST", "postcode": "51562"}}},
{"geometry": {"type": "Point", "coordinates": [-95.4724169094, 41.7261518475]}, "type": "Feature", "properties": {"collection_times": [{"days": "Mon-Fri", "time": "4:30pm"}, {"days": "Sat", "time": "12:00pm"}, {"days": "Sun", "time": "Closed"}], "id": "5156200002", "name": "USPS COLLECTION BOX - PO LOBBY", "address": {"city": "PANAMA", "state": "IA", "street": "118 MAIN ST", "postcode": "51562"}}},
{"geometry": {"type": "Point", "coordinates": [-95.5683882131, 41.579690274]}, "type": "Feature", "properties": {"collection_times": [{"days": "Mon-Fri", "time": "5:05pm"}, {"days": "Sat", "time": "5:10pm"}, {"days": "Sun", "time": "Closed"}], "id": "5156300001", "name": "USPS COLLECTION BOX - BLUE BOX", "address": {"city": "PERSIA", "state": "IA", "street": "105 MAIN ST", "postcode": "51563"}}},
{"geometry": {"type": "Point", "coordinates": [-95.5683882131, 41.579690274]}, "type": "Feature", "properties": {"collection_times": [{"days": "Mon-Fri", "time": "11:30am"}, {"days": "Sat", "time": "9:30am"}, {"days": "Sun", "time": "Closed"}], "id": "5156300002", "name": "USPS COLLECTION BOX - PO LOBBY", "address": {"city": "PERSIA", "state": "IA", "street": "105 MAIN ST", "postcode": "51563"}}},
{"geometry": {"type": "Point", "coordinates": [-95.9263371598, 41.8314765543]}, "type": "Feature", "properties": {"collection_times": [{"days": "Mon-Sat", "time": "4:20pm"}, {"days": "Sun", "time": "Closed"}], "id": "5156400001", "name": "USPS COLLECTION BOX - BLUE BOX", "address": {"city": "PISGAH", "state": "IA", "street": "105 W MAIN ST", "postcode": "51564"}}},
{"geometry": {"type": "Point", "coordinates": [-95.9263371598, 41.8314765543]}, "type": "Feature", "properties": {"collection_times": [{"days": "Mon-Fri", "time": "4:20pm"}, {"days": "Sat", "time": "2:30pm"}, {"days": "Sun", "time": "Closed"}], "id": "5156400002", "name": "USPS COLLECTION BOX - PO LOBBY", "address": {"city": "PISGAH", "state": "IA", "street": "105 W MAIN ST", "postcode": "51564"}}},
{"geometry": {"type": "Point", "coordinates": [-95.5188892106, 41.650142776]}, "type": "Feature", "properties": {"collection_times": [{"days": "Mon-Fri", "time": "4:45pm"}, {"days": "Sat", "time": "4:50pm"}, {"days": "Sun", "time": "Closed"}], "id": "5156500001", "name": "USPS COLLECTION BOX - BLUE BOX", "address": {"city": "PORTSMOUTH", "state": "IA", "street": "207 MAIN ST", "postcode": "51565"}}},
{"geometry": {"type": "Point", "coordinates": [-95.5188892106, 41.650142776]}, "type": "Feature", "properties": {"collection_times": [{"days": "Mon-Fri", "time": "12:00pm"}, {"days": "Sat", "time": "9:45am"}, {"days": "Sun", "time": "Closed"}], "id": "5156500002", "name": "USPS COLLECTION BOX - PO LOBBY", "address": {"city": "PORTSMOUTH", "state": "IA", "street": "207 MAIN ST", "postcode": "51565"}}},
{"geometry": {"type": "Point", "coordinates": [-95.2328257566, 41.0185472027]}, "type": "Feature", "properties": {"collection_times": [{"days": "Mon-Fri", "time": "3:30pm"}, {"days": "Sat", "time": "1:00pm"}, {"days": "Sun", "time": "Closed"}], "id": "5156600002", "name": "USPS COLLECTION BOX - BLUE BOX", "address": {"city": "RED OAK", "state": "IA", "street": "1605A N BROADWAY ST", "postcode": "51566"}}},
{"geometry": {"type": "Point", "coordinates": [-95.2302202104, 41.0167490524]}, "type": "Feature", "properties": {"collection_times": [{"days": "Mon-Sat", "time": "12:00pm"}, {"days": "Sun", "time": "Closed"}], "id": "5156600003", "name": "USPS COLLECTION BOX - BLUE BOX", "address": {"city": "RED OAK", "state": "IA", "street": "205 E OAK ST", "postcode": "51566"}}},
{"geometry": {"type": "Point", "coordinates": [-95.2314534009, 41.008975327]}, "type": "Feature", "properties": {"collection_times": [{"days": "Mon-Fri", "time": "3:30pm"}, {"days": "Sat", "time": "1:00pm"}, {"days": "Sun", "time": "Closed"}], "id": "5156600004", "name": "USPS COLLECTION BOX - BLUE BOX", "address": {"city": "RED OAK", "state": "IA", "street": "105 E COOLBAUGH ST", "postcode": "51566"}}},
{"geometry": {"type": "Point", "coordinates": [-95.2266594391, 41.0089368595]}, "type": "Feature", "properties": {"collection_times": [{"days": "Mon-Sat", "time": "4:15pm"}, {"days": "Sun", "time": "Closed"}], "id": "5156600007", "name": "USPS COLLECTION BOX - BLUE BOX", "address": {"city": "RED OAK", "state": "IA", "street": "503 E COOLBAUGH ST", "postcode": "51566"}}},
{"geometry": {"type": "Point", "coordinates": [-95.2266594391, 41.0089368595]}, "type": "Feature", "properties": {"collection_times": [{"days": "Mon-Fri", "time": "4:00pm"}, {"days": "Sat", "time": "11:00am"}, {"days": "Sun", "time": "Closed"}], "id": "5156600011", "name": "USPS COLLECTION BOX - PO LOBBY", "address": {"city": "RED OAK", "state": "IA", "street": "503 E COOLBAUGH ST", "postcode": "51566"}}},
{"geometry": {"type": "Point", "coordinates": [-95.4503853406, 41.5151688929]}, "type": "Feature", "properties": {"collection_times": [{"days": "Mon-Fri", "time": "5:15pm"}, {"days": "Sat", "time": "5:20pm"}, {"days": "Sun", "time": "Closed"}], "id": "5157000001", "name": "USPS COLLECTION BOX - BLUE BOX", "address": {"city": "SHELBY", "state": "IA", "street": "415 EAST ST", "postcode": "51570"}}},
{"geometry": {"type": "Point", "coordinates": [-95.4503853406, 41.5151688929]}, "type": "Feature", "properties": {"collection_times": [{"days": "Mon-Fri", "time": "11:30am"}, {"days": "Sat", "time": "9:30am"}, {"days": "Sun", "time": "Closed"}], "id": "5157000002", "name": "USPS COLLECTION BOX - PO LOBBY", "address": {"city": "SHELBY", "state": "IA", "street": "415 EAST ST", "postcode": "51570"}}},
{"geometry": {"type": "Point", "coordinates": [-95.6372995631, 41.1124656695]}, "type": "Feature", "properties": {"collection_times": [{"days": "Mon-Fri", "time": "4:00pm"}, {"days": "Sat", "time": "5:10pm"}, {"days": "Sun", "time": "Closed"}], "id": "5157100001", "name": "USPS COLLECTION BOX - BLUE BOX", "address": {"city": "SILVER CITY", "state": "IA", "street": "413 MAIN ST", "postcode": "51571"}}},
{"geometry": {"type": "Point", "coordinates": [-95.6372995631, 41.1124656695]}, "type": "Feature", "properties": {"collection_times": [{"days": "Mon-Fri", "time": "1:00pm"}, {"days": "Sat", "time": "12:15pm"}, {"days": "Sun", "time": "Closed"}], "id": "5157100002", "name": "USPS COLLECTION BOX - PO LOBBY", "address": {"city": "SILVER CITY", "state": "IA", "street": "413 MAIN ST", "postcode": "51571"}}},
{"geometry": {"type": "Point", "coordinates": [-95.7813708899, 41.9840775406]}, "type": "Feature", "properties": {"collection_times": [{"days": "Mon-Sat", "time": "3:45pm"}, {"days": "Sun", "time": "Closed"}], "id": "5157200001", "name": "USPS COLLECTION BOX - BLUE BOX", "address": {"city": "SOLDIER", "state": "IA", "street": "200 ELM ST", "postcode": "51572"}}},
{"geometry": {"type": "Point", "coordinates": [-95.7813708899, 41.9840775406]}, "type": "Feature", "properties": {"collection_times": [{"days": "Mon-Fri", "time": "11:30am"}, {"days": "Sat", "time": "9:15am"}, {"days": "Sun", "time": "Closed"}], "id": "5157200002", "name": "USPS COLLECTION BOX - PO LOBBY", "address": {"city": "SOLDIER", "state": "IA", "street": "200 ELM ST", "postcode": "51572"}}},
{"geometry": {"type": "Point", "coordinates": [-95.1040435674, 40.9806040328]}, "type": "Feature", "properties": {"collection_times": [{"days": "Mon-Sat", "time": "3:50pm"}, {"days": "Sun", "time": "Closed"}], "id": "5157300001", "name": "USPS COLLECTION BOX - BLUE BOX", "address": {"city": "STANTON", "state": "IA", "street": "304 BROAD AVE", "postcode": "51573"}}},
{"geometry": {"type": "Point", "coordinates": [-95.103992627, 40.980517589]}, "type": "Feature", "properties": {"collection_times": [{"days": "Mon-Fri", "time": "3:30pm"}, {"days": "Sat", "time": "10:30am"}, {"days": "Sun", "time": "Closed"}], "id": "5157300002", "name": "USPS COLLECTION BOX - PO LOBBY", "address": {"city": "STANTON", "state": "IA", "street": "304 BROAD AVE", "postcode": "51573"}}},
{"geometry": {"type": "Point", "coordinates": [-95.6130801071, 41.2327424479]}, "type": "Feature", "properties": {"collection_times": [{"days": "Mon-Fri", "time": "4:00pm"}, {"days": "Sat", "time": "5:00pm"}, {"days": "Sun", "time": "Closed"}], "id": "5157500001", "name": "USPS COLLECTION BOX - BLUE BOX", "address": {"city": "TREYNOR", "state": "IA", "street": "5 N EYBERG ST", "postcode": "51575"}}},
{"geometry": {"type": "Point", "coordinates": [-95.6130801071, 41.2327424479]}, "type": "Feature", "properties": {"collection_times": [{"days": "Mon-Fri", "time": "4:00pm"}, {"days": "Sat", "time": "10:30am"}, {"days": "Sun", "time": "Closed"}], "id": "5157500003", "name": "USPS COLLECTION BOX - PO LOBBY", "address": {"city": "TREYNOR", "state": "IA", "street": "5 N EYBERG ST", "postcode": "51575"}}},
{"geometry": {"type": "Point", "coordinates": [-95.678923636, 41.3870666626]}, "type": "Feature", "properties": {"collection_times": [{"days": "Mon-Sat", "time": "5:35pm"}, {"days": "Sun", "time": "Closed"}], "id": "5157600001", "name": "USPS COLLECTION BOX - BLUE BOX", "address": {"city": "UNDERWOOD", "state": "IA", "street": "313 3RD ST", "postcode": "51576"}}},
{"geometry": {"type": "Point", "coordinates": [-95.678923636, 41.3870666626]}, "type": "Feature", "properties": {"collection_times": [{"days": "Mon-Fri", "time": "2:30pm"}, {"days": "Sat", "time": "10:00am"}, {"days": "Sun", "time": "Closed"}], "id": "5157600002", "name": "USPS COLLECTION BOX - PO LOBBY", "address": {"city": "UNDERWOOD", "state": "IA", "street": "313 3RD ST", "postcode": "51576"}}},
{"geometry": {"type": "Point", "coordinates": [-95.222182587, 41.4766969475]}, "type": "Feature", "properties": {"collection_times": [{"days": "Mon-Fri", "time": "4:10pm"}, {"days": "Sat", "time": "4:15pm"}, {"days": "Sun", "time": "Closed"}], "id": "5157700000", "name": "USPS COLLECTION BOX - BLUE BOX", "address": {"city": "WALNUT", "state": "IA", "street": "217 ANTIQUE CITY DR", "postcode": "51577"}}},
{"geometry": {"type": "Point", "coordinates": [-95.222182587, 41.4766969475]}, "type": "Feature", "properties": {"collection_times": [{"days": "Mon-Fri", "time": "2:30pm"}, {"days": "Sat", "time": "9:45am"}, {"days": "Sun", "time": "Closed"}], "id": "5157700001", "name": "USPS COLLECTION BOX - PO LOBBY", "address": {"city": "WALNUT", "state": "IA", "street": "217 ANTIQUE CITY DR", "postcode": "51577"}}},
{"geometry": {"type": "Point", "coordinates": [-95.4764300256, 41.7250730958]}, "type": "Feature", "properties": {"collection_times": [{"days": "Mon-Sat", "time": "11:30am"}, {"days": "Sun", "time": "Closed"}], "id": "5157800001", "name": "USPS COLLECTION BOX - BLUE BOX", "address": {"city": "WESTPHALIA", "state": "IA", "street": "205 4TH ST", "postcode": "51578"}}},
{"geometry": {"type": "Point", "coordinates": [-95.4764300256, 41.7250730958]}, "type": "Feature", "properties": {"collection_times": [{"days": "Mon-Fri", "time": "10:00am"}, {"days": "Sat", "time": "9:00am"}, {"days": "Sun", "time": "Closed"}], "id": "5157800002", "name": "USPS COLLECTION BOX - PO LOBBY", "address": {"city": "WESTPHALIA", "state": "IA", "street": "205 4TH ST", "postcode": "51578"}}},
{"geometry": {"type": "Point", "coordinates": [-95.7031564186, 41.7360193025]}, "type": "Feature", "properties": {"collection_times": [{"days": "Mon-Fri", "time": "4:30pm"}, {"days": "Sat", "time": "5:00pm"}, {"days": "Sun", "time": "Closed"}], "id": "5157900003", "name": "USPS COLLECTION BOX - BLUE BOX", "address": {"city": "WOODBINE", "state": "IA", "street": "405 LINCOLNWAY ST", "postcode": "51579"}}},
{"geometry": {"type": "Point", "coordinates": [-95.7031564186, 41.7360193025]}, "type": "Feature", "properties": {"collection_times": [{"days": "Mon-Fri", "time": "4:30pm"}, {"days": "Sat", "time": "9:00am"}, {"days": "Sun", "time": "Closed"}], "id": "5157900006", "name": "USPS COLLECTION BOX - PO LOBBY", "address": {"city": "WOODBINE", "state": "IA", "street": "405 LINCOLNWAY ST", "postcode": "51579"}}}
]}
