{"type": "FeatureCollection", "features": [
{"geometry": {"type": "Point", "coordinates": [-95.371254434, 40.7668493278]}, "type": "Feature", "properties": {"collection_times": [{"days": "Mon-Fri", "time": "4:45pm"}, {"days": "Sat", "time": "4:35pm"}, {"days": "Sun", "time": "Closed"}], "id": "5160100001", "name": "USPS COLLECTION BOX - BLUE BOX", "address": {"city": "SHENANDOAH", "state": "IA", "street": "501 W LOWELL AVE", "postcode": "51601"}}},
{"geometry": {"type": "Point", "coordinates": [-95.3850365375, 40.761849327]}, "type": "Feature", "properties": {"collection_times": [{"days": "Mon-Sat", "time": "3:00pm"}, {"days": "Sun", "time": "Closed"}], "id": "5160100003", "name": "USPS COLLECTION BOX - BLUE BOX", "address": {"city": "SHENANDOAH", "state": "IA", "street": "500 S FREMONT ST", "postcode": "51601"}}},
{"geometry": {"type": "Point", "coordinates": [-95.371254434, 40.7668493278]}, "type": "Feature", "properties": {"collection_times": [{"days": "Mon-Fri", "time": "4:45pm"}, {"days": "Sat", "time": "4:35pm"}, {"days": "Sun", "time": "Closed"}], "id": "5160100008", "name": "USPS COLLECTION BOX - BLUE BOX", "address": {"city": "SHENANDOAH", "state": "IA", "street": "501 W LOWELL AVE", "postcode": "51601"}}},
{"geometry": {"type": "Point", "coordinates": [-95.371254434, 40.7668493278]}, "type": "Feature", "properties": {"collection_times": [{"days": "Mon-Sat", "time": "4:30pm"}, {"days": "Sun", "time": "Closed"}], "id": "5160100012", "name": "USPS COLLECTION BOX - PO LOBBY", "address": {"city": "SHENANDOAH", "state": "IA", "street": "501 W LOWELL AVE", "postcode": "51601"}}},
{"geometry": {"type": "Point", "coordinates": [-95.3337358785, 40.7385060578]}, "type": "Feature", "properties": {"collection_times": [{"days": "Mon-Sat", "time": "3:00pm"}, {"days": "Sun", "time": "Closed"}], "id": "5160100013", "name": "USPS COLLECTION BOX - BLUE BOX", "address": {"city": "SHENANDOAH", "state": "IA", "street": "1007 S FREMONT ST", "postcode": "51601"}}},
{"geometry": {"type": "Point", "coordinates": [-95.196800619, 40.6000036724]}, "type": "Feature", "properties": {"collection_times": [{"days": "Mon-Fri", "time": "3:35pm"}, {"days": "Sat", "time": "3:30pm"}, {"days": "Sun", "time": "Closed"}], "id": "5163000000", "name": "USPS COLLECTION BOX - BLUE BOX", "address": {"city": "BLANCHARD", "state": "IA", "street": "106 MAIN ST", "postcode": "51630"}}},
{"geometry": {"type": "Point", "coordinates": [-95.196800619, 40.6000036724]}, "type": "Feature", "properties": {"collection_times": [{"days": "Mon-Fri", "time": "9:30am"}, {"days": "Sat", "time": "9:15am"}, {"days": "Sun", "time": "Closed"}], "id": "5163000001", "name": "USPS COLLECTION BOX - PO LOBBY", "address": {"city": "BLANCHARD", "state": "IA", "street": "106 MAIN ST", "postcode": "51630"}}},
{"geometry": {"type": "Point", "coordinates": [-95.0299843304, 40.5783457832]}, "type": "Feature", "properties": {"collection_times": [{"days": "Mon-Fri", "time": "2:55pm"}, {"days": "Sat", "time": "2:40pm"}, {"days": "Sun", "time": "Closed"}], "id": "5163100001", "name": "USPS COLLECTION BOX - BLUE BOX", "address": {"city": "BRADDYVILLE", "state": "IA", "street": "700 MULBERRY ST", "postcode": "51631"}}},
{"geometry": {"type": "Point", "coordinates": [-95.0299843304, 40.5783457832]}, "type": "Feature", "properties": {"collection_times": [{"days": "Mon-Fri", "time": "1:00pm"}, {"days": "Sat", "time": "1:30pm"}, {"days": "Sun", "time": "Closed"}], "id": "5163100002", "name": "USPS COLLECTION BOX - PO LOBBY", "address": {"city": "BRADDYVILLE", "state": "IA", "street": "700 MULBERRY ST", "postcode": "51631"}}},
{"geometry": {"type": "Point", "coordinates": [-95.0377403432, 40.7298779872]}, "type": "Feature", "properties": {"collection_times": [{"days": "Mon-Sat", "time": "12:30pm"}, {"days": "Sun", "time": "Closed"}], "id": "5163200007", "name": "USPS COLLECTION BOX - BLUE BOX", "address": {"city": "CLARINDA", "state": "IA", "street": "1200 S 16TH ST", "postcode": "51632"}}},
{"geometry": {"type": "Point", "coordinates": [-95.0378915362, 40.73824147]}, "type": "Feature", "properties": {"collection_times": [{"days": "Mon-Sat", "time": "4:00pm"}, {"days": "Sun", "time": "Closed"}], "id": "5163200010", "name": "USPS COLLECTION BOX - BLUE BOX", "address": {"city": "CLARINDA", "state": "IA", "street": "101 S 16TH ST", "postcode": "51632"}}},
{"geometry": {"type": "Point", "coordinates": [-95.0378915362, 40.73824147]}, "type": "Feature", "properties": {"collection_times": [{"days": "Mon-Sat", "time": "4:00pm"}, {"days": "Sun", "time": "Closed"}], "id": "5163200011", "name": "USPS COLLECTION BOX - BLUE BOX", "address": {"city": "CLARINDA", "state": "IA", "street": "101 S 16TH ST", "postcode": "51632"}}},
{"geometry": {"type": "Point", "coordinates": [-95.0378915362, 40.73824147]}, "type": "Feature", "properties": {"collection_times": [{"days": "Mon-Sat", "time": "4:00pm"}, {"days": "Sun", "time": "Closed"}], "id": "5163200012", "name": "USPS COLLECTION BOX - PO LOBBY", "address": {"city": "CLARINDA", "state": "IA", "street": "101 S 16TH ST", "postcode": "51632"}}},
{"geometry": {"type": "Point", "coordinates": [-95.2323302973, 40.6554531252]}, "type": "Feature", "properties": {"collection_times": [{"days": "Mon-Fri", "time": "3:50pm"}, {"days": "Sat", "time": "3:45pm"}, {"days": "Sun", "time": "Closed"}], "id": "5163600001", "name": "USPS COLLECTION BOX - BLUE BOX", "address": {"city": "COIN", "state": "IA", "street": "112 MAIN ST", "postcode": "51636"}}},
{"geometry": {"type": "Point", "coordinates": [-95.2323302973, 40.6554531252]}, "type": "Feature", "properties": {"collection_times": [{"days": "Mon-Fri", "time": "12:00pm"}, {"days": "Sat", "time": "9:00am"}, {"days": "Sun", "time": "Closed"}], "id": "5163600002", "name": "USPS COLLECTION BOX - PO LOBBY", "address": {"city": "COIN", "state": "IA", "street": "112 MAIN ST", "postcode": "51636"}}},
{"geometry": {"type": "Point", "coordinates": [-95.1175648596, 40.6187409851]}, "type": "Feature", "properties": {"collection_times": [{"days": "Mon-Sat", "time": "3:15pm"}, {"days": "Sun", "time": "Closed"}], "id": "5163700001", "name": "USPS COLLECTION BOX - BLUE BOX", "address": {"city": "COLLEGE SPRINGS", "state": "IA", "street": "504 MISSOURI AVE", "postcode": "51637"}}},
{"geometry": {"type": "Point", "coordinates": [-95.1175648596, 40.6187409851]}, "type": "Feature", "properties": {"collection_times": [{"days": "Mon-Fri", "time": "10:00am"}, {"days": "Sat", "time": "9:45am"}, {"days": "Sun", "time": "Closed"}], "id": "5163700002", "name": "USPS COLLECTION BOX - PO LOBBY", "address": {"city": "COLLEGE SPRINGS", "state": "IA", "street": "504 MISSOURI AVE", "postcode": "51637"}}},
{"geometry": {"type": "Point", "coordinates": [-95.3057961497, 40.833441191]}, "type": "Feature", "properties": {"collection_times": [{"days": "Mon-Sat", "time": "4:10pm"}, {"days": "Sun", "time": "Closed"}], "id": "5163800001", "name": "USPS COLLECTION BOX - BLUE BOX", "address": {"city": "ESSEX", "state": "IA", "street": "610 IOWA AVE", "postcode": "51638"}}},
{"geometry": {"type": "Point", "coordinates": [-95.3057961497, 40.833441191]}, "type": "Feature", "properties": {"collection_times": [{"days": "Mon-Fri", "time": "2:30pm"}, {"days": "Sat", "time": "10:00am"}, {"days": "Sun", "time": "Closed"}], "id": "5163800002", "name": "USPS COLLECTION BOX - PO LOBBY", "address": {"city": "ESSEX", "state": "IA", "street": "610 IOWA AVE", "postcode": "51638"}}},
{"geometry": {"type": "Point", "coordinates": [-95.4809933349, 40.7194360089]}, "type": "Feature", "properties": {"collection_times": [{"days": "Mon-Sat", "time": "4:20pm"}, {"days": "Sun", "time": "Closed"}], "id": "5163900001", "name": "USPS COLLECTION BOX - BLUE BOX", "address": {"city": "FARRAGUT", "state": "IA", "street": "604 HARTFORD AVE", "postcode": "51639"}}},
{"geometry": {"type": "Point", "coordinates": [-95.4809933349, 40.7194360089]}, "type": "Feature", "properties": {"collection_times": [{"days": "Mon-Fri", "time": "4:00pm"}, {"days": "Sat", "time": "1:00pm"}, {"days": "Sun", "time": "Closed"}], "id": "5163900002", "name": "USPS COLLECTION BOX - PO LOBBY", "address": {"city": "FARRAGUT", "state": "IA", "street": "604 HARTFORD AVE", "postcode": "51639"}}},
{"geometry": {"type": "Point", "coordinates": [-95.6536592227, 40.6124007613]}, "type": "Feature", "properties": {"collection_times": [{"days": "Mon-Sat", "time": "3:35pm"}, {"days": "Sun", "time": "Closed"}], "id": "5164000004", "name": "USPS COLLECTION BOX - BLUE BOX", "address": {"city": "HAMBURG", "state": "IA", "street": "308 F ST", "postcode": "51640"}}},
{"geometry": {"type": "Point", "coordinates": [-95.6573839232, 40.6051221584]}, "type": "Feature", "properties": {"collection_times": [{"days": "Mon-Fri", "time": "3:00pm"}, {"days": "Sat", "time": "10:45am"}, {"days": "Sun", "time": "Closed"}], "id": "5164000005", "name": "USPS COLLECTION BOX - PO LOBBY", "address": {"city": "HAMBURG", "state": "IA", "street": "308 F ST", "postcode": "51640"}}},
{"geometry": {"type": "Point", "coordinates": [-94.8995981471, 40.734630532]}, "type": "Feature", "properties": {"collection_times": [{"days": "Mon-Sat", "time": "3:25pm"}, {"days": "Sun", "time": "Closed"}], "id": "5164600001", "name": "USPS COLLECTION BOX - BLUE BOX", "address": {"city": "NEW MARKET", "state": "IA", "street": "412 MAIN ST", "postcode": "51646"}}},
{"geometry": {"type": "Point", "coordinates": [-94.8995981471, 40.734630532]}, "type": "Feature", "properties": {"collection_times": [{"days": "Mon-Fri", "time": "3:15pm"}, {"days": "Sat", "time": "9:25am"}, {"days": "Sun", "time": "Closed"}], "id": "5164600002", "name": "USPS COLLECTION BOX - PO LOBBY", "address": {"city": "NEW MARKET", "state": "IA", "street": "412 MAIN ST", "postcode": "51646"}}},
{"geometry": {"type": "Point", "coordinates": [-94.8995639594, 40.7335192926]}, "type": "Feature", "properties": {"collection_times": [{"days": "Mon-Sat", "time": "1:00pm"}, {"days": "Sun", "time": "Closed"}], "id": "5164600005", "name": "USPS COLLECTION BOX - BLUE BOX", "address": {"city": "NEW MARKET", "state": "IA", "street": "512 MAIN ST", "postcode": "51646"}}},
{"geometry": {"type": "Point", "coordinates": [-95.5661842891, 40.8731505975]}, "type": "Feature", "properties": {"collection_times": [{"days": "Mon-Sat", "time": "3:35pm"}, {"days": "Sun", "time": "Closed"}], "id": "5164900000", "name": "USPS COLLECTION BOX - BLUE BOX", "address": {"city": "RANDOLPH", "state": "IA", "street": "105 S MAIN ST", "postcode": "51649"}}},
{"geometry": {"type": "Point", "coordinates": [-95.5661842891, 40.8731505975]}, "type": "Feature", "properties": {"collection_times": [{"days": "Mon-Fri", "time": "3:00pm"}, {"days": "Sat", "time": "12:45pm"}, {"days": "Sun", "time": "Closed"}], "id": "5164900001", "name": "USPS COLLECTION BOX - PO LOBBY", "address": {"city": "RANDOLPH", "state": "IA", "street": "105 S MAIN ST", "postcode": "51649"}}},
{"geometry": {"type": "Point", "coordinates": [-95.5685492056, 40.687043561]}, "type": "Feature", "properties": {"collection_times": [{"days": "Mon-Sat", "time": "3:10pm"}, {"days": "Sun", "time": "Closed"}], "id": "5165000001", "name": "USPS COLLECTION BOX - BLUE BOX", "address": {"city": "RIVERTON", "state": "IA", "street": "909 SUMMER AVE", "postcode": "51650"}}},
{"geometry": {"type": "Point", "coordinates": [-95.5685492056, 40.687043561]}, "type": "Feature", "properties": {"collection_times": [{"days": "Mon-Fri", "time": "12:00pm"}, {"days": "Sat", "time": "10:00am"}, {"days": "Sun", "time": "Closed"}], "id": "5165000002", "name": "USPS COLLECTION BOX - PO LOBBY", "address": {"city": "RIVERTON", "state": "IA", "street": "909 SUMMER AVE", "postcode": "51650"}}},
{"geometry": {"type": "Point", "coordinates": [-95.0375485357, 40.6604115684]}, "type": "Feature", "properties": {"collection_times": [{"days": "Mon-Sat", "time": "3:05pm"}, {"days": "Sun", "time": "Closed"}], "id": "5165100001", "name": "USPS COLLECTION BOX - BLUE BOX", "address": {"city": "SHAMBAUGH", "state": "IA", "street": "309 MAIN ST", "postcode": "51651"}}},
{"geometry": {"type": "Point", "coordinates": [-95.0375485357, 40.6604115684]}, "type": "Feature", "properties": {"collection_times": [{"days": "Mon-Fri", "time": "11:50am"}, {"days": "Sat", "time": "12:30pm"}, {"days": "Sun", "time": "Closed"}], "id": "5165100002", "name": "USPS COLLECTION BOX - PO LOBBY", "address": {"city": "SHAMBAUGH", "state": "IA", "street": "309 MAIN ST", "postcode": "51651"}}},
{"geometry": {"type": "Point", "coordinates": [-95.6467009201, 40.7483475628]}, "type": "Feature", "properties": {"collection_times": [{"days": "Mon-Fri", "time": "3:55pm"}, {"days": "Sat", "time": "3:30pm"}, {"days": "Sun", "time": "Closed"}], "id": "5165200001", "name": "USPS COLLECTION BOX - BLUE BOX", "address": {"city": "SIDNEY", "state": "IA", "street": "509 FILMORE ST", "postcode": "51652"}}},
{"geometry": {"type": "Point", "coordinates": [-95.6471697649, 40.748273183]}, "type": "Feature", "properties": {"collection_times": [{"days": "Mon-Fri", "time": "3:35pm"}, {"days": "Sat", "time": "10:30am"}, {"days": "Sun", "time": "Closed"}], "id": "5165200002", "name": "USPS COLLECTION BOX - PO LOBBY", "address": {"city": "SIDNEY", "state": "IA", "street": "509 FILMORE ST", "postcode": "51652"}}},
{"geometry": {"type": "Point", "coordinates": [-95.6712842442, 40.8982773674]}, "type": "Feature", "properties": {"collection_times": [{"days": "Mon-Sat", "time": "3:25pm"}, {"days": "Sun", "time": "Closed"}], "id": "5165300001", "name": "USPS COLLECTION BOX - BLUE BOX", "address": {"city": "TABOR", "state": "IA", "street": "502 ORANGE ST", "postcode": "51653"}}},
{"geometry": {"type": "Point", "coordinates": [-95.6712842442, 40.8982773674]}, "type": "Feature", "properties": {"collection_times": [{"days": "Mon-Fri", "time": "2:30pm"}, {"days": "Sat", "time": "10:00am"}, {"days": "Sun", "time": "Closed"}], "id": "5165300002", "name": "USPS COLLECTION BOX - PO LOBBY", "address": {"city": "TABOR", "state": "IA", "street": "502 ORANGE ST", "postcode": "51653"}}},
{"geometry": {"type": "Point", "coordinates": [-95.7491596091, 40.8197498708]}, "type": "Feature", "properties": {"collection_times": [{"days": "Mon-Sat", "time": "3:20pm"}, {"days": "Sun", "time": "Closed"}], "id": "5165400001", "name": "USPS COLLECTION BOX - BLUE BOX", "address": {"city": "THURMAN", "state": "IA", "street": "704 FILMORE ST", "postcode": "51654"}}},
{"geometry": {"type": "Point", "coordinates": [-95.1731985384, 40.75691659]}, "type": "Feature", "properties": {"collection_times": [{"days": "Mon-Sat", "time": "4:15pm"}, {"days": "Sun", "time": "Closed"}], "id": "5165600000", "name": "USPS COLLECTION BOX - BLUE BOX", "address": {"city": "YORKTOWN", "state": "IA", "street": "303 ADAMS ST", "postcode": "51656"}}}
]}
