{"type": "FeatureCollection", "features": [
{"geometry": {"type": "Point", "coordinates": [-90.6940167078, 42.4970508772]}, "type": "Feature", "properties": {"collection_times": [{"days": "Mon-Sat", "time": "3:00pm"}, {"days": "Sun", "time": "Closed"}], "id": "5200100000", "name": "USPS COLLECTION BOX - BLUE BOX", "address": {"city": "DUBUQUE", "state": "IA", "street": "2201 GRACE ST", "postcode": "52001"}}},
{"geometry": {"type": "Point", "coordinates": [-90.7117959363, 42.5090722013]}, "type": "Feature", "properties": {"collection_times": [{"days": "Mon-Sat", "time": "9:30am"}, {"days": "Sun", "time": "Closed"}], "id": "5200100006", "name": "USPS COLLECTION BOX - BLUE BOX", "address": {"city": "DUBUQUE", "state": "IA", "street": "3003 ASBURY RD", "postcode": "52001"}}},
{"geometry": {"type": "Point", "coordinates": [-90.6622157293, 42.519108881]}, "type": "Feature", "properties": {"collection_times": [{"days": "Mon-Sat", "time": "1:00pm"}, {"days": "Sun", "time": "Closed"}], "id": "5200100013", "name": "USPS COLLECTION BOX - BLUE BOX", "address": {"city": "DUBUQUE", "state": "IA", "street": "1005 LINCOLN AVE", "postcode": "52001"}}},
{"geometry": {"type": "Point", "coordinates": [-90.6682301076, 42.4982183214]}, "type": "Feature", "properties": {"collection_times": [{"days": "Mon-Fri", "time": "5:00pm"}, {"days": "Sat", "time": "5:30pm"}, {"days": "Sun", "time": "Closed"}], "id": "5200100015", "name": "USPS COLLECTION BOX - BLUE BOX", "address": {"city": "DUBUQUE", "state": "IA", "street": "550 BLUFF ST", "postcode": "52001"}}},
{"geometry": {"type": "Point", "coordinates": [-90.6682301076, 42.4982183214]}, "type": "Feature", "properties": {"collection_times": [{"days": "Mon-Fri", "time": "5:00pm"}, {"days": "Sat", "time": "5:30pm"}, {"days": "Sun", "time": "Closed"}], "id": "5200100016", "name": "USPS COLLECTION BOX - BLUE BOX", "address": {"city": "DUBUQUE", "state": "IA", "street": "550 BLUFF ST", "postcode": "52001"}}},
{"geometry": {"type": "Point", "coordinates": [-90.7183427892, 42.4991094492]}, "type": "Feature", "properties": {"collection_times": [{"days": "Mon-Sat", "time": "9:00am"}, {"days": "Sun", "time": "Closed"}], "id": "5200100022", "name": "USPS COLLECTION BOX - BLUE BOX", "address": {"city": "DUBUQUE", "state": "IA", "street": "1600 BUTTERFIELD DR", "postcode": "52001"}}},
{"geometry": {"type": "Point", "coordinates": [-90.6713704596, 42.5134481271]}, "type": "Feature", "properties": {"collection_times": [{"days": "Mon-Sat", "time": "4:30pm"}, {"days": "Sun", "time": "Closed"}], "id": "5200100032", "name": "USPS COLLECTION BOX - BLUE BOX", "address": {"city": "DUBUQUE", "state": "IA", "street": "2201 CENTRAL AVE", "postcode": "52001"}}},
{"geometry": {"type": "Point", "coordinates": [-90.6713704596, 42.5134481271]}, "type": "Feature", "properties": {"collection_times": [{"days": "Mon-Sat", "time": "4:30pm"}, {"days": "Sun", "time": "Closed"}], "id": "5200100033", "name": "USPS COLLECTION BOX - BLUE BOX", "address": {"city": "DUBUQUE", "state": "IA", "street": "2201 CENTRAL AVE", "postcode": "52001"}}},
{"geometry": {"type": "Point", "coordinates": [-90.6794019351, 42.5236430965]}, "type": "Feature", "properties": {"collection_times": [{"days": "Mon-Sat", "time": "10:00am"}, {"days": "Sun", "time": "Closed"}], "id": "5200100037", "name": "USPS COLLECTION BOX - BLUE BOX", "address": {"city": "DUBUQUE", "state": "IA", "street": "2887 CENTRAL AVE", "postcode": "52001"}}},
{"geometry": {"type": "Point", "coordinates": [-90.6897645788, 42.5105762732]}, "type": "Feature", "properties": {"collection_times": [{"days": "Mon-Fri", "time": "2:30pm"}, {"days": "Sat", "time": "12:00pm"}, {"days": "Sun", "time": "Closed"}], "id": "5200100044", "name": "USPS COLLECTION BOX - BLUE BOX", "address": {"city": "DUBUQUE", "state": "IA", "street": "1551 CLARKE DR", "postcode": "52001"}}},
{"geometry": {"type": "Point", "coordinates": [-90.6671366886, 42.5006901872]}, "type": "Feature", "properties": {"collection_times": [{"days": "Mon-Fri", "time": "4:45pm"}, {"days": "Sat", "time": "2:00pm"}, {"days": "Sun", "time": "Closed"}], "id": "5200100048", "name": "USPS COLLECTION BOX - BLUE BOX", "address": {"city": "DUBUQUE", "state": "IA", "street": "200 W 8TH ST", "postcode": "52001"}}},
{"geometry": {"type": "Point", "coordinates": [-90.6671366886, 42.5006901872]}, "type": "Feature", "properties": {"collection_times": [{"days": "Mon-Fri", "time": "4:45pm"}, {"days": "Sat", "time": "2:00pm"}, {"days": "Sun", "time": "Closed"}], "id": "5200100049", "name": "USPS COLLECTION BOX - BLUE BOX", "address": {"city": "DUBUQUE", "state": "IA", "street": "200 W 8TH ST", "postcode": "52001"}}},
{"geometry": {"type": "Point", "coordinates": [-90.6688668458, 42.5297364457]}, "type": "Feature", "properties": {"collection_times": [{"days": "Mon-Sat", "time": "12:00pm"}, {"days": "Sun", "time": "Closed"}], "id": "5200100053", "name": "USPS COLLECTION BOX - BLUE BOX", "address": {"city": "DUBUQUE", "state": "IA", "street": "899 DAVIS ST", "postcode": "52001"}}},
{"geometry": {"type": "Point", "coordinates": [-90.6664812556, 42.5122917184]}, "type": "Feature", "properties": {"collection_times": [{"days": "Mon-Sat", "time": "11:30am"}, {"days": "Sun", "time": "Closed"}], "id": "5200100065", "name": "USPS COLLECTION BOX - BLUE BOX", "address": {"city": "DUBUQUE", "state": "IA", "street": "401 RHOMBERG AVE", "postcode": "52001"}}},
{"geometry": {"type": "Point", "coordinates": [-90.6677460702, 42.5016147118]}, "type": "Feature", "properties": {"collection_times": [{"days": "Mon-Fri", "time": "4:45pm"}, {"days": "Sat", "time": "2:00pm"}, {"days": "Sun", "time": "Closed"}], "id": "5200100070", "name": "USPS COLLECTION BOX - BLUE BOX", "address": {"city": "DUBUQUE", "state": "IA", "street": "215 W 9TH ST", "postcode": "52001"}}},
{"geometry": {"type": "Point", "coordinates": [-90.6677460702, 42.5016147118]}, "type": "Feature", "properties": {"collection_times": [{"days": "Mon-Fri", "time": "4:45pm"}, {"days": "Sat", "time": "2:00pm"}, {"days": "Sun", "time": "Closed"}], "id": "5200100071", "name": "USPS COLLECTION BOX - BLUE BOX", "address": {"city": "DUBUQUE", "state": "IA", "street": "215 W 9TH ST", "postcode": "52001"}}},
{"geometry": {"type": "Point", "coordinates": [-90.6671160577, 42.4985247292]}, "type": "Feature", "properties": {"collection_times": [{"days": "Mon-Fri", "time": "5:00pm"}, {"days": "Sat", "time": "5:30pm"}, {"days": "Sun", "time": "Closed"}], "id": "5200100094", "name": "USPS COLLECTION BOX - BLUE BOX", "address": {"city": "DUBUQUE", "state": "IA", "street": "550 LOCUST ST", "postcode": "52001"}}},
{"geometry": {"type": "Point", "coordinates": [-90.6671160577, 42.4985247292]}, "type": "Feature", "properties": {"collection_times": [{"days": "Mon-Fri", "time": "5:00pm"}, {"days": "Sat", "time": "5:30pm"}, {"days": "Sun", "time": "Closed"}], "id": "5200100095", "name": "USPS COLLECTION BOX - BLUE BOX", "address": {"city": "DUBUQUE", "state": "IA", "street": "550 LOCUST ST", "postcode": "52001"}}},
{"geometry": {"type": "Point", "coordinates": [-90.6710863933, 42.5055220869]}, "type": "Feature", "properties": {"collection_times": [{"days": "Mon-Fri", "time": "2:30pm"}, {"days": "Sat", "time": "2:00pm"}, {"days": "Sun", "time": "Closed"}], "id": "5200100098", "name": "USPS COLLECTION BOX - BLUE BOX", "address": {"city": "DUBUQUE", "state": "IA", "street": "1415 LOCUST ST", "postcode": "52001"}}},
{"geometry": {"type": "Point", "coordinates": [-90.687144019, 42.5007423568]}, "type": "Feature", "properties": {"collection_times": [{"days": "Mon-Sat", "time": "9:30am"}, {"days": "Sun", "time": "Closed"}], "id": "5200100099", "name": "USPS COLLECTION BOX - BLUE BOX", "address": {"city": "DUBUQUE", "state": "IA", "street": "1450 LORAS BLVD", "postcode": "52001"}}},
{"geometry": {"type": "Point", "coordinates": [-90.6815283956, 42.5029853519]}, "type": "Feature", "properties": {"collection_times": [{"days": "Mon-Sat", "time": "2:15pm"}, {"days": "Sun", "time": "Closed"}], "id": "5200100100", "name": "USPS COLLECTION BOX - BLUE BOX", "address": {"city": "DUBUQUE", "state": "IA", "street": "1450 ALTA VISTA ST", "postcode": "52001"}}},
{"geometry": {"type": "Point", "coordinates": [-90.6679230454, 42.5022887356]}, "type": "Feature", "properties": {"collection_times": [{"days": "Mon-Sat", "time": "9:30am"}, {"days": "Sun", "time": "Closed"}], "id": "5200100102", "name": "USPS COLLECTION BOX - BLUE BOX", "address": {"city": "DUBUQUE", "state": "IA", "street": "980 MAIN ST", "postcode": "52001"}}},
{"geometry": {"type": "Point", "coordinates": [-90.6693345143, 42.5049688336]}, "type": "Feature", "properties": {"collection_times": [{"days": "Mon-Sat", "time": "10:00am"}, {"days": "Sun", "time": "Closed"}], "id": "5200100103", "name": "USPS COLLECTION BOX - BLUE BOX", "address": {"city": "DUBUQUE", "state": "IA", "street": "1300 MAIN ST", "postcode": "52001"}}},
{"geometry": {"type": "Point", "coordinates": [-90.6932857958, 42.5493420213]}, "type": "Feature", "properties": {"collection_times": [{"days": "Mon-Fri", "time": "1:30pm"}, {"days": "Sat", "time": "1:00pm"}, {"days": "Sun", "time": "Closed"}], "id": "5200100104", "name": "USPS COLLECTION BOX - BLUE BOX", "address": {"city": "DUBUQUE", "state": "IA", "street": "1701 N MAIN ST", "postcode": "52001"}}},
{"geometry": {"type": "Point", "coordinates": [-90.6682270082, 42.5199313055]}, "type": "Feature", "properties": {"collection_times": [{"days": "Mon-Sat", "time": "12:00pm"}, {"days": "Sun", "time": "Closed"}], "id": "5200100107", "name": "USPS COLLECTION BOX - BLUE BOX", "address": {"city": "DUBUQUE", "state": "IA", "street": "2510 WINDSOR AVE", "postcode": "52001"}}},
{"geometry": {"type": "Point", "coordinates": [-90.6740769168, 42.4926869809]}, "type": "Feature", "properties": {"collection_times": [{"days": "Mon-Sat", "time": "9:00am"}, {"days": "Sun", "time": "Closed"}], "id": "5200100110", "name": "USPS COLLECTION BOX - BLUE BOX", "address": {"city": "DUBUQUE", "state": "IA", "street": "200 MERCY DR", "postcode": "52001"}}},
{"geometry": {"type": "Point", "coordinates": [-90.6502136749, 42.5300787454]}, "type": "Feature", "properties": {"collection_times": [{"days": "Mon-Sat", "time": "10:00am"}, {"days": "Sun", "time": "Closed"}], "id": "5200100112", "name": "USPS COLLECTION BOX - BLUE BOX", "address": {"city": "DUBUQUE", "state": "IA", "street": "2001 SHIRAS AVE", "postcode": "52001"}}},
{"geometry": {"type": "Point", "coordinates": [-90.6561112009, 42.5186526994]}, "type": "Feature", "properties": {"collection_times": [{"days": "Mon-Fri", "time": "3:15pm"}, {"days": "Sat", "time": "10:00am"}, {"days": "Sun", "time": "Closed"}], "id": "5200100113", "name": "USPS COLLECTION BOX - BLUE BOX", "address": {"city": "DUBUQUE", "state": "IA", "street": "2255 KERPER BLVD", "postcode": "52001"}}},
{"geometry": {"type": "Point", "coordinates": [-90.6561112009, 42.5186526994]}, "type": "Feature", "properties": {"collection_times": [{"days": "Mon-Fri", "time": "3:15pm"}, {"days": "Sat", "time": "10:00am"}, {"days": "Sun", "time": "Closed"}], "id": "5200100114", "name": "USPS COLLECTION BOX - BLUE BOX", "address": {"city": "DUBUQUE", "state": "IA", "street": "2255 KERPER BLVD", "postcode": "52001"}}},
{"geometry": {"type": "Point", "coordinates": [-90.6972838475, 42.5038794415]}, "type": "Feature", "properties": {"collection_times": [{"days": "Mon-Sat", "time": "10:00am"}, {"days": "Sun", "time": "Closed"}], "id": "5200100117", "name": "USPS COLLECTION BOX - BLUE BOX", "address": {"city": "DUBUQUE", "state": "IA", "street": "2190 ROSEDALE AVE", "postcode": "52001"}}},
{"geometry": {"type": "Point", "coordinates": [-90.6760680872, 42.5388276925]}, "type": "Feature", "properties": {"collection_times": [{"days": "Mon-Sat", "time": "11:00am"}, {"days": "Sun", "time": "Closed"}], "id": "5200100121", "name": "USPS COLLECTION BOX - BLUE BOX", "address": {"city": "DUBUQUE", "state": "IA", "street": "4001 PERU RD", "postcode": "52001"}}},
{"geometry": {"type": "Point", "coordinates": [-90.6638048834, 42.5013355648]}, "type": "Feature", "properties": {"collection_times": [{"days": "Mon-Fri", "time": "6:00pm"}, {"days": "Sat", "time": "5:30pm"}, {"days": "Sun", "time": "Closed"}], "id": "5200100127", "name": "USPS COLLECTION BOX - BLUE BOX", "address": {"city": "DUBUQUE", "state": "IA", "street": "750 WHITE ST", "postcode": "52001"}}},
{"geometry": {"type": "Point", "coordinates": [-90.6638048834, 42.5013355648]}, "type": "Feature", "properties": {"collection_times": [{"days": "Mon-Fri", "time": "6:00pm"}, {"days": "Sat", "time": "5:30pm"}, {"days": "Sun", "time": "Closed"}], "id": "5200100128", "name": "USPS COLLECTION BOX - BLUE BOX", "address": {"city": "DUBUQUE", "state": "IA", "street": "750 WHITE ST", "postcode": "52001"}}},
{"geometry": {"type": "Point", "coordinates": [-90.6761583462, 42.4946573409]}, "type": "Feature", "properties": {"collection_times": [{"days": "Mon-Sat", "time": "3:00pm"}, {"days": "Sun", "time": "Closed"}], "id": "5200100129", "name": "USPS COLLECTION BOX - BLUE BOX", "address": {"city": "DUBUQUE", "state": "IA", "street": "988 W 3RD ST", "postcode": "52001"}}},
{"geometry": {"type": "Point", "coordinates": [-90.687450572, 42.494928968]}, "type": "Feature", "properties": {"collection_times": [{"days": "Mon-Sat", "time": "3:00pm"}, {"days": "Sun", "time": "Closed"}], "id": "5200100131", "name": "USPS COLLECTION BOX - BLUE BOX", "address": {"city": "DUBUQUE", "state": "IA", "street": "300 N GRANDVIEW AVE", "postcode": "52001"}}},
{"geometry": {"type": "Point", "coordinates": [-90.7062539153, 42.5110463986]}, "type": "Feature", "properties": {"collection_times": [{"days": "Mon-Fri", "time": "4:30pm"}, {"days": "Sat", "time": "9:00am"}, {"days": "Sun", "time": "Closed"}], "id": "5200100139", "name": "USPS COLLECTION BOX - BLUE BOX", "address": {"city": "DUBUQUE", "state": "IA", "street": "2300 CHANEY RD", "postcode": "52001"}}},
{"geometry": {"type": "Point", "coordinates": [-90.6638048834, 42.5013355648]}, "type": "Feature", "properties": {"collection_times": [{"days": "Mon-Fri", "time": "6:30pm"}, {"days": "Sat", "time": "5:30pm"}, {"days": "Sun", "time": "Closed"}], "id": "5200100140", "name": "USPS COLLECTION BOX - BLUE BOX", "address": {"city": "DUBUQUE", "state": "IA", "street": "750 WHITE ST", "postcode": "52001"}}},
{"geometry": {"type": "Point", "coordinates": [-90.6829230101, 42.5274407039]}, "type": "Feature", "properties": {"collection_times": [{"days": "Mon-Sat", "time": "11:00am"}, {"days": "Sun", "time": "Closed"}], "id": "5200100141", "name": "USPS COLLECTION BOX - BLUE BOX", "address": {"city": "DUBUQUE", "state": "IA", "street": "3201 CENTRAL AVE", "postcode": "52001"}}},
{"geometry": {"type": "Point", "coordinates": [-90.6679649749, 42.4987382739]}, "type": "Feature", "properties": {"collection_times": [{"days": "Mon-Fri", "time": "4:30pm"}, {"days": "Sat", "time": "12:30pm"}, {"days": "Sun", "time": "Closed"}], "id": "5200100142", "name": "USPS COLLECTION BOX - PO LOBBY", "address": {"city": "DUBUQUE", "state": "IA", "street": "350 W 6TH ST", "postcode": "52001"}}},
{"geometry": {"type": "Point", "coordinates": [-90.6671366886, 42.5006901872]}, "type": "Feature", "properties": {"collection_times": [{"days": "Mon-Fri", "time": "4:45pm"}, {"days": "Sat", "time": "2:00pm"}, {"days": "Sun", "time": "Closed"}], "id": "5200100145", "name": "USPS COLLECTION BOX - BLUE BOX", "address": {"city": "DUBUQUE", "state": "IA", "street": "200 W 8TH ST", "postcode": "52001"}}},
{"geometry": {"type": "Point", "coordinates": [-90.6648682821, 42.4968400872]}, "type": "Feature", "properties": {"collection_times": [{"days": "Mon-Fri", "time": "11:30am"}, {"days": "Sat", "time": "11:00am"}, {"days": "Sun", "time": "Closed"}], "id": "5200100146", "name": "USPS COLLECTION BOX - BLUE BOX", "address": {"city": "DUBUQUE", "state": "IA", "street": "300 MAIN ST", "postcode": "52001"}}},
{"geometry": {"type": "Point", "coordinates": [-90.6873973267, 42.4983035359]}, "type": "Feature", "properties": {"collection_times": [{"days": "Mon-Sat", "time": "4:15pm"}, {"days": "Sun", "time": "Closed"}], "id": "5200100147", "name": "USPS COLLECTION BOX - BLUE BOX", "address": {"city": "DUBUQUE", "state": "IA", "street": "1600 UNIVERSITY AVE", "postcode": "52001"}}},
{"geometry": {"type": "Point", "coordinates": [-90.6873973267, 42.4983035359]}, "type": "Feature", "properties": {"collection_times": [{"days": "Mon-Sat", "time": "4:15pm"}, {"days": "Sun", "time": "Closed"}], "id": "5200100148", "name": "USPS COLLECTION BOX - BLUE BOX", "address": {"city": "DUBUQUE", "state": "IA", "street": "1600 UNIVERSITY AVE", "postcode": "52001"}}},
{"geometry": {"type": "Point", "coordinates": [-90.738365877, 42.4959032007]}, "type": "Feature", "properties": {"collection_times": [{"days": "Mon-Fri", "time": "12:30pm"}, {"days": "Sat", "time": "9:30am"}, {"days": "Sun", "time": "Closed"}], "id": "5200200001", "name": "USPS COLLECTION BOX - BLUE BOX", "address": {"city": "DUBUQUE", "state": "IA", "street": "1500 ASSOCIATES DR", "postcode": "52002"}}},
{"geometry": {"type": "Point", "coordinates": [-90.746365782, 42.4933472693]}, "type": "Feature", "properties": {"collection_times": [{"days": "Mon-Sat", "time": "5:00pm"}, {"days": "Sun", "time": "Closed"}], "id": "5200200002", "name": "USPS COLLECTION BOX - BLUE BOX", "address": {"city": "DUBUQUE", "state": "IA", "street": "4555 FUTURO CT", "postcode": "52002"}}},
{"geometry": {"type": "Point", "coordinates": [-90.746365782, 42.4933472693]}, "type": "Feature", "properties": {"collection_times": [{"days": "Mon-Sat", "time": "5:00pm"}, {"days": "Sun", "time": "Closed"}], "id": "5200200003", "name": "USPS COLLECTION BOX - BLUE BOX", "address": {"city": "DUBUQUE", "state": "IA", "street": "4555 FUTURO CT", "postcode": "52002"}}},
{"geometry": {"type": "Point", "coordinates": [-90.7221632424, 42.5055321844]}, "type": "Feature", "properties": {"collection_times": [{"days": "Mon-Sat", "time": "3:00pm"}, {"days": "Sun", "time": "Closed"}], "id": "5200200004", "name": "USPS COLLECTION BOX - BLUE BOX", "address": {"city": "DUBUQUE", "state": "IA", "street": "3355 KENNEDY CIR", "postcode": "52002"}}},
{"geometry": {"type": "Point", "coordinates": [-90.7221632424, 42.5055321844]}, "type": "Feature", "properties": {"collection_times": [{"days": "Mon-Sat", "time": "3:00pm"}, {"days": "Sun", "time": "Closed"}], "id": "5200200005", "name": "USPS COLLECTION BOX - BLUE BOX", "address": {"city": "DUBUQUE", "state": "IA", "street": "3355 KENNEDY CIR", "postcode": "52002"}}},
{"geometry": {"type": "Point", "coordinates": [-90.7200136456, 42.49579889]}, "type": "Feature", "properties": {"collection_times": [{"days": "Mon-Fri", "time": "4:30pm"}, {"days": "Sat", "time": "5:00pm"}, {"days": "Sun", "time": "Closed"}], "id": "5200200006", "name": "USPS COLLECTION BOX - BLUE BOX", "address": {"city": "DUBUQUE", "state": "IA", "street": "555 JOHN F KENNEDY RD", "postcode": "52002"}}},
{"geometry": {"type": "Point", "coordinates": [-90.7200136456, 42.49579889]}, "type": "Feature", "properties": {"collection_times": [{"days": "Mon-Fri", "time": "4:30pm"}, {"days": "Sat", "time": "5:00pm"}, {"days": "Sun", "time": "Closed"}], "id": "5200200007", "name": "USPS COLLECTION BOX - BLUE BOX", "address": {"city": "DUBUQUE", "state": "IA", "street": "555 JOHN F KENNEDY RD", "postcode": "52002"}}},
{"geometry": {"type": "Point", "coordinates": [-90.7205913639, 42.511450937]}, "type": "Feature", "properties": {"collection_times": [{"days": "Mon-Fri", "time": "5:00pm"}, {"days": "Sat", "time": "4:45pm"}, {"days": "Sun", "time": "Closed"}], "id": "5200200008", "name": "USPS COLLECTION BOX - BLUE BOX", "address": {"city": "DUBUQUE", "state": "IA", "street": "2255 JOHN F KENNEDY RD", "postcode": "52002"}}},
{"geometry": {"type": "Point", "coordinates": [-90.7346952731, 42.5012603407]}, "type": "Feature", "properties": {"collection_times": [{"days": "Mon-Sat", "time": "1:00pm"}, {"days": "Sun", "time": "Closed"}], "id": "5200200013", "name": "USPS COLLECTION BOX - BLUE BOX", "address": {"city": "DUBUQUE", "state": "IA", "street": "3700 PENNSYLVANIA AVE", "postcode": "52002"}}},
{"geometry": {"type": "Point", "coordinates": [-90.7454393749, 42.4995278897]}, "type": "Feature", "properties": {"collection_times": [{"days": "Mon-Fri", "time": "4:15pm"}, {"days": "Sat", "time": "10:00am"}, {"days": "Sun", "time": "Closed"}], "id": "5200200014", "name": "USPS COLLECTION BOX - BLUE BOX", "address": {"city": "DUBUQUE", "state": "IA", "street": "4110 WESTMARK DR", "postcode": "52002"}}},
{"geometry": {"type": "Point", "coordinates": [-90.751389674, 42.5144395397]}, "type": "Feature", "properties": {"collection_times": [{"days": "Mon-Fri", "time": "4:15pm"}, {"days": "Sat", "time": "10:30am"}, {"days": "Sun", "time": "Closed"}], "id": "5200200015", "name": "USPS COLLECTION BOX - BLUE BOX", "address": {"city": "DUBUQUE", "state": "IA", "street": "5080 ASBURY RD", "postcode": "52002"}}},
{"geometry": {"type": "Point", "coordinates": [-90.751389674, 42.5144395397]}, "type": "Feature", "properties": {"collection_times": [{"days": "Mon-Fri", "time": "4:15pm"}, {"days": "Sat", "time": "10:30am"}, {"days": "Sun", "time": "Closed"}], "id": "5200200018", "name": "USPS COLLECTION BOX - BLUE BOX", "address": {"city": "DUBUQUE", "state": "IA", "street": "5080 ASBURY RD", "postcode": "52002"}}},
{"geometry": {"type": "Point", "coordinates": [-90.706728749, 42.4772446002]}, "type": "Feature", "properties": {"collection_times": [{"days": "Mon-Sat", "time": "1:30pm"}, {"days": "Sun", "time": "Closed"}], "id": "5200300002", "name": "USPS COLLECTION BOX - BLUE BOX", "address": {"city": "DUBUQUE", "state": "IA", "street": "1200 CEDAR CROSS RD", "postcode": "52003"}}},
{"geometry": {"type": "Point", "coordinates": [-90.6989766126, 42.4910338403]}, "type": "Feature", "properties": {"collection_times": [{"days": "Mon-Sat", "time": "3:30pm"}, {"days": "Sun", "time": "Closed"}], "id": "5200300003", "name": "USPS COLLECTION BOX - BLUE BOX", "address": {"city": "DUBUQUE", "state": "IA", "street": "2600 DODGE ST", "postcode": "52003"}}},
{"geometry": {"type": "Point", "coordinates": [-90.6989766126, 42.4910338403]}, "type": "Feature", "properties": {"collection_times": [{"days": "Mon-Sat", "time": "3:30pm"}, {"days": "Sun", "time": "Closed"}], "id": "5200300004", "name": "USPS COLLECTION BOX - BLUE BOX", "address": {"city": "DUBUQUE", "state": "IA", "street": "2600 DODGE ST", "postcode": "52003"}}},
{"geometry": {"type": "Point", "coordinates": [-90.7184190661, 42.4919777841]}, "type": "Feature", "properties": {"collection_times": [{"days": "Mon-Sat", "time": "3:00pm"}, {"days": "Sun", "time": "Closed"}], "id": "5200300005", "name": "USPS COLLECTION BOX - BLUE BOX", "address": {"city": "DUBUQUE", "state": "IA", "street": "3430 DODGE ST", "postcode": "52003"}}},
{"geometry": {"type": "Point", "coordinates": [-90.72467, 42.49165]}, "type": "Feature", "properties": {"collection_times": [{"days": "Mon-Sat", "time": "2:30pm"}, {"days": "Sun", "time": "Closed"}], "id": "5200300007", "name": "USPS COLLECTION BOX - BLUE BOX", "address": {"city": "DUBUQUE", "state": "IA", "street": "3500 DODGE ST", "postcode": "52003"}}},
{"geometry": {"type": "Point", "coordinates": [-90.6740432574, 42.4571577396]}, "type": "Feature", "properties": {"collection_times": [{"days": "Mon-Fri", "time": "3:15pm"}, {"days": "Sat", "time": "1:00pm"}, {"days": "Sun", "time": "Closed"}], "id": "5200300008", "name": "USPS COLLECTION BOX - BLUE BOX", "address": {"city": "DUBUQUE", "state": "IA", "street": "2320 GATEWAY DR", "postcode": "52003"}}},
{"geometry": {"type": "Point", "coordinates": [-90.6740432574, 42.4571577396]}, "type": "Feature", "properties": {"collection_times": [{"days": "Mon-Fri", "time": "3:15pm"}, {"days": "Sat", "time": "1:00pm"}, {"days": "Sun", "time": "Closed"}], "id": "5200300009", "name": "USPS COLLECTION BOX - BLUE BOX", "address": {"city": "DUBUQUE", "state": "IA", "street": "2320 GATEWAY DR", "postcode": "52003"}}},
{"geometry": {"type": "Point", "coordinates": [-90.72467, 42.49165]}, "type": "Feature", "properties": {"collection_times": [{"days": "Mon-Sat", "time": "2:30pm"}, {"days": "Sun", "time": "Closed"}], "id": "5200300011", "name": "USPS COLLECTION BOX - BLUE BOX", "address": {"city": "DUBUQUE", "state": "IA", "street": "3500 DODGE ST", "postcode": "52003"}}},
{"geometry": {"type": "Point", "coordinates": [-90.6792585546, 42.4861231557]}, "type": "Feature", "properties": {"collection_times": [{"days": "Mon-Sat", "time": "12:30pm"}, {"days": "Sun", "time": "Closed"}], "id": "5200300013", "name": "USPS COLLECTION BOX - BLUE BOX", "address": {"city": "DUBUQUE", "state": "IA", "street": "560 S GRANDVIEW AVE", "postcode": "52003"}}},
{"geometry": {"type": "Point", "coordinates": [-90.6782049187, 42.4812479363]}, "type": "Feature", "properties": {"collection_times": [{"days": "Mon-Sat", "time": "12:00pm"}, {"days": "Sun", "time": "Closed"}], "id": "5200300014", "name": "USPS COLLECTION BOX - BLUE BOX", "address": {"city": "DUBUQUE", "state": "IA", "street": "925 S GRANDVIEW AVE", "postcode": "52003"}}},
{"geometry": {"type": "Point", "coordinates": [-90.6756327575, 42.4848759517]}, "type": "Feature", "properties": {"collection_times": [{"days": "Mon-Sat", "time": "2:00pm"}, {"days": "Sun", "time": "Closed"}], "id": "5200300017", "name": "USPS COLLECTION BOX - BLUE BOX", "address": {"city": "DUBUQUE", "state": "IA", "street": "1229 MOUNT LORETTA AVE", "postcode": "52003"}}},
{"geometry": {"type": "Point", "coordinates": [-90.6762546391, 42.4862828993]}, "type": "Feature", "properties": {"collection_times": [{"days": "Mon-Sat", "time": "9:00am"}, {"days": "Sun", "time": "Closed"}], "id": "5200300018", "name": "USPS COLLECTION BOX - BLUE BOX", "address": {"city": "DUBUQUE", "state": "IA", "street": "1220 RUSH ST", "postcode": "52003"}}},
{"geometry": {"type": "Point", "coordinates": [-90.6907789901, 42.4852099926]}, "type": "Feature", "properties": {"collection_times": [{"days": "Mon-Sat", "time": "12:00pm"}, {"days": "Sun", "time": "Closed"}], "id": "5200300019", "name": "USPS COLLECTION BOX - BLUE BOX", "address": {"city": "DUBUQUE", "state": "IA", "street": "333 WARTBURG PL", "postcode": "52003"}}},
{"geometry": {"type": "Point", "coordinates": [-90.6676264742, 42.4780754832]}, "type": "Feature", "properties": {"collection_times": [{"days": "Mon-Sat", "time": "1:30pm"}, {"days": "Sun", "time": "Closed"}], "id": "5200300021", "name": "USPS COLLECTION BOX - BLUE BOX", "address": {"city": "DUBUQUE", "state": "IA", "street": "1514 S GRANDVIEW AVE", "postcode": "52003"}}},
{"geometry": {"type": "Point", "coordinates": [-90.5925019262, 42.1544981298]}, "type": "Feature", "properties": {"collection_times": [{"days": "Mon-Fri", "time": "3:45pm"}, {"days": "Sat", "time": "4:00pm"}, {"days": "Sun", "time": "Closed"}], "id": "5203000000", "name": "USPS COLLECTION BOX - BLUE BOX", "address": {"city": "ANDREW", "state": "IA", "street": "13 W BENTON ST", "postcode": "52030"}}},
{"geometry": {"type": "Point", "coordinates": [-90.5925019262, 42.1544981298]}, "type": "Feature", "properties": {"collection_times": [{"days": "Mon-Fri", "time": "11:45am"}, {"days": "Sat-Sun", "time": "Closed"}], "id": "5203000001", "name": "USPS COLLECTION BOX - PO LOBBY", "address": {"city": "ANDREW", "state": "IA", "street": "13 W BENTON ST", "postcode": "52030"}}},
{"geometry": {"type": "Point", "coordinates": [-90.4252410158, 42.2612109192]}, "type": "Feature", "properties": {"collection_times": [{"days": "Mon-Fri", "time": "4:00pm"}, {"days": "Sat", "time": "3:00pm"}, {"days": "Sun", "time": "Closed"}], "id": "5203100000", "name": "USPS COLLECTION BOX - BLUE BOX", "address": {"city": "BELLEVUE", "state": "IA", "street": "401 N 2ND ST", "postcode": "52031"}}},
{"geometry": {"type": "Point", "coordinates": [-90.4252410158, 42.2612109192]}, "type": "Feature", "properties": {"collection_times": [{"days": "Mon-Fri", "time": "4:00pm"}, {"days": "Sat", "time": "3:00pm"}, {"days": "Sun", "time": "Closed"}], "id": "5203100001", "name": "USPS COLLECTION BOX - PO LOBBY", "address": {"city": "BELLEVUE", "state": "IA", "street": "401 N 2ND ST", "postcode": "52031"}}},
{"geometry": {"type": "Point", "coordinates": [-90.4243469495, 42.2583876773]}, "type": "Feature", "properties": {"collection_times": [{"days": "Mon-Sat", "time": "2:45pm"}, {"days": "Sun", "time": "Closed"}], "id": "5203100002", "name": "USPS COLLECTION BOX - BLUE BOX", "address": {"city": "BELLEVUE", "state": "IA", "street": "100 S 2ND ST", "postcode": "52031"}}},
{"geometry": {"type": "Point", "coordinates": [-90.8315938776, 42.3117112502]}, "type": "Feature", "properties": {"collection_times": [{"days": "Mon-Fri", "time": "4:00pm"}, {"days": "Sat", "time": "5:00pm"}, {"days": "Sun", "time": "Closed"}], "id": "5203200000", "name": "USPS COLLECTION BOX - BLUE BOX", "address": {"city": "BERNARD", "state": "IA", "street": "157 JESS ST", "postcode": "52032"}}},
{"geometry": {"type": "Point", "coordinates": [-90.8315938776, 42.3117112502]}, "type": "Feature", "properties": {"collection_times": [{"days": "Mon-Fri", "time": "3:15pm"}, {"days": "Sat-Sun", "time": "Closed"}], "id": "5203200001", "name": "USPS COLLECTION BOX - PO LOBBY", "address": {"city": "BERNARD", "state": "IA", "street": "157 JESS ST", "postcode": "52032"}}},
{"geometry": {"type": "Point", "coordinates": [-90.7693907249, 42.2348444349]}, "type": "Feature", "properties": {"collection_times": [{"days": "Mon-Sat", "time": "9:30am"}, {"days": "Sun", "time": "Closed"}], "id": "5203200002", "name": "USPS COLLECTION BOX - BLUE BOX", "address": {"city": "BERNARD", "state": "IA", "street": "21504 LAKE SHORE DR", "postcode": "52032"}}},
{"geometry": {"type": "Point", "coordinates": [-91.01554961, 42.29923209]}, "type": "Feature", "properties": {"collection_times": [{"days": "Mon-Fri", "time": "4:00pm"}, {"days": "Sat", "time": "4:45pm"}, {"days": "Sun", "time": "Closed"}], "id": "5203300001", "name": "USPS COLLECTION BOX - BLUE BOX", "address": {"city": "CASCADE", "state": "IA", "street": "305 2ND AVE NW", "postcode": "52033"}}},
{"geometry": {"type": "Point", "coordinates": [-91.01554961, 42.29923209]}, "type": "Feature", "properties": {"collection_times": [{"days": "Mon-Fri", "time": "4:00pm"}, {"days": "Sat", "time": "10:30am"}, {"days": "Sun", "time": "Closed"}], "id": "5203300002", "name": "USPS COLLECTION BOX - PO LOBBY", "address": {"city": "CASCADE", "state": "IA", "street": "305 2ND AVE NW", "postcode": "52033"}}},
{"geometry": {"type": "Point", "coordinates": [-91.202437789, 42.6360269947]}, "type": "Feature", "properties": {"collection_times": [{"days": "Mon-Fri", "time": "4:00pm"}, {"days": "Sat", "time": "4:15pm"}, {"days": "Sun", "time": "Closed"}], "id": "5203500000", "name": "USPS COLLECTION BOX - BLUE BOX", "address": {"city": "COLESBURG", "state": "IA", "street": "304 MAIN ST", "postcode": "52035"}}},
{"geometry": {"type": "Point", "coordinates": [-91.202437789, 42.6360269947]}, "type": "Feature", "properties": {"collection_times": [{"days": "Mon-Fri", "time": "4:00pm"}, {"days": "Sat-Sun", "time": "Closed"}], "id": "5203500001", "name": "USPS COLLECTION BOX - PO LOBBY", "address": {"city": "COLESBURG", "state": "IA", "street": "304 MAIN ST", "postcode": "52035"}}},
{"geometry": {"type": "Point", "coordinates": [-90.6057561236, 41.9991612842]}, "type": "Feature", "properties": {"collection_times": [{"days": "Mon-Sat", "time": "4:00pm"}, {"days": "Sun", "time": "Closed"}], "id": "5203700000", "name": "USPS COLLECTION BOX - BLUE BOX", "address": {"city": "DELMAR", "state": "IA", "street": "604 VANE ST", "postcode": "52037"}}},
{"geometry": {"type": "Point", "coordinates": [-90.6057561236, 41.9991612842]}, "type": "Feature", "properties": {"collection_times": [{"days": "Mon-Fri", "time": "11:15am"}, {"days": "Sat-Sun", "time": "Closed"}], "id": "5203700001", "name": "USPS COLLECTION BOX - PO LOBBY", "address": {"city": "DELMAR", "state": "IA", "street": "604 VANE ST", "postcode": "52037"}}},
{"geometry": {"type": "Point", "coordinates": [-91.5467032728, 42.5786188877]}, "type": "Feature", "properties": {"collection_times": [{"days": "Mon-Fri", "time": "3:45pm"}, {"days": "Sat", "time": "4:00pm"}, {"days": "Sun", "time": "Closed"}], "id": "5203800000", "name": "USPS COLLECTION BOX - BLUE BOX", "address": {"city": "DUNDEE", "state": "IA", "street": "106 N CENTER ST", "postcode": "52038"}}},
{"geometry": {"type": "Point", "coordinates": [-91.5467032728, 42.5786188877]}, "type": "Feature", "properties": {"collection_times": [{"days": "Mon-Fri", "time": "11:45am"}, {"days": "Sat-Sun", "time": "Closed"}], "id": "5203800001", "name": "USPS COLLECTION BOX - PO LOBBY", "address": {"city": "DUNDEE", "state": "IA", "street": "106 N CENTER ST", "postcode": "52038"}}},
{"geometry": {"type": "Point", "coordinates": [-91.1114147974, 42.4705365815]}, "type": "Feature", "properties": {"collection_times": [{"days": "Mon-Sat", "time": "2:30pm"}, {"days": "Sun", "time": "Closed"}], "id": "5204000000", "name": "USPS COLLECTION BOX - BLUE BOX", "address": {"city": "DYERSVILLE", "state": "IA", "street": "711 16TH AVE SE", "postcode": "52040"}}},
{"geometry": {"type": "Point", "coordinates": [-91.1213122736, 42.482841722]}, "type": "Feature", "properties": {"collection_times": [{"days": "Mon-Fri", "time": "4:45pm"}, {"days": "Sat", "time": "2:45pm"}, {"days": "Sun", "time": "Closed"}], "id": "5204000002", "name": "USPS COLLECTION BOX - BLUE BOX", "address": {"city": "DYERSVILLE", "state": "IA", "street": "315 3RD AVE SE", "postcode": "52040"}}},
{"geometry": {"type": "Point", "coordinates": [-91.1213122736, 42.482841722]}, "type": "Feature", "properties": {"collection_times": [{"days": "Mon-Fri", "time": "4:45pm"}, {"days": "Sat", "time": "2:45pm"}, {"days": "Sun", "time": "Closed"}], "id": "5204000004", "name": "USPS COLLECTION BOX - PO LOBBY", "address": {"city": "DYERSVILLE", "state": "IA", "street": "315 3RD AVE SE", "postcode": "52040"}}},
{"geometry": {"type": "Point", "coordinates": [-91.1179338649, 42.4750634769]}, "type": "Feature", "properties": {"collection_times": [{"days": "Mon-Sat", "time": "2:30pm"}, {"days": "Sun", "time": "Closed"}], "id": "5204000005", "name": "USPS COLLECTION BOX - BLUE BOX", "address": {"city": "DYERSVILLE", "state": "IA", "street": "1211 12TH AVE SE", "postcode": "52040"}}},
{"geometry": {"type": "Point", "coordinates": [-91.2724892863, 42.4815407312]}, "type": "Feature", "properties": {"collection_times": [{"days": "Mon-Sat", "time": "2:30pm"}, {"days": "Sun", "time": "Closed"}], "id": "5204100002", "name": "USPS COLLECTION BOX - BLUE BOX", "address": {"city": "EARLVILLE", "state": "IA", "street": "19 NORTHERN AVE", "postcode": "52041"}}},
{"geometry": {"type": "Point", "coordinates": [-91.3995214867, 42.6445063738]}, "type": "Feature", "properties": {"collection_times": [{"days": "Mon-Fri", "time": "3:45pm"}, {"days": "Sat", "time": "4:00pm"}, {"days": "Sun", "time": "Closed"}], "id": "5204200000", "name": "USPS COLLECTION BOX - BLUE BOX", "address": {"city": "EDGEWOOD", "state": "IA", "street": "200 E UNION ST", "postcode": "52042"}}},
{"geometry": {"type": "Point", "coordinates": [-91.3999319502, 42.644400009]}, "type": "Feature", "properties": {"collection_times": [{"days": "Mon-Fri", "time": "3:45pm"}, {"days": "Sat", "time": "10:30am"}, {"days": "Sun", "time": "Closed"}], "id": "5204200001", "name": "USPS COLLECTION BOX - PO LOBBY", "address": {"city": "EDGEWOOD", "state": "IA", "street": "200 E UNION ST", "postcode": "52042"}}},
{"geometry": {"type": "Point", "coordinates": [-91.4036946806, 42.8537538386]}, "type": "Feature", "properties": {"collection_times": [{"days": "Mon-Sat", "time": "4:00pm"}, {"days": "Sun", "time": "Closed"}], "id": "5204300000", "name": "USPS COLLECTION BOX - BLUE BOX", "address": {"city": "ELKADER", "state": "IA", "street": "105 MULBERRY ST", "postcode": "52043"}}},
{"geometry": {"type": "Point", "coordinates": [-91.4036946806, 42.8537538386]}, "type": "Feature", "properties": {"collection_times": [{"days": "Mon-Fri", "time": "4:00pm"}, {"days": "Sat", "time": "11:30am"}, {"days": "Sun", "time": "Closed"}], "id": "5204300002", "name": "USPS COLLECTION BOX - PO LOBBY", "address": {"city": "ELKADER", "state": "IA", "street": "105 MULBERRY ST", "postcode": "52043"}}},
{"geometry": {"type": "Point", "coordinates": [-91.4036946806, 42.8537538386]}, "type": "Feature", "properties": {"collection_times": [{"days": "Mon-Fri", "time": "4:00pm"}, {"days": "Sat", "time": "11:30am"}, {"days": "Sun", "time": "Closed"}], "id": "5204300003", "name": "USPS COLLECTION BOX - PO LOBBY", "address": {"city": "ELKADER", "state": "IA", "street": "105 MULBERRY ST", "postcode": "52043"}}},
{"geometry": {"type": "Point", "coordinates": [-90.9319734185, 42.4452068793]}, "type": "Feature", "properties": {"collection_times": [{"days": "Mon-Fri", "time": "3:30pm"}, {"days": "Sat", "time": "4:00pm"}, {"days": "Sun", "time": "Closed"}], "id": "5204500000", "name": "USPS COLLECTION BOX - BLUE BOX", "address": {"city": "EPWORTH", "state": "IA", "street": "103 N CENTER ST", "postcode": "52045"}}},
{"geometry": {"type": "Point", "coordinates": [-90.9319734185, 42.4452068793]}, "type": "Feature", "properties": {"collection_times": [{"days": "Mon-Fri", "time": "3:30pm"}, {"days": "Sat-Sun", "time": "Closed"}], "id": "5204500001", "name": "USPS COLLECTION BOX - PO LOBBY", "address": {"city": "EPWORTH", "state": "IA", "street": "103 N CENTER ST", "postcode": "52045"}}},
{"geometry": {"type": "Point", "coordinates": [-91.0061517042, 42.4428947828]}, "type": "Feature", "properties": {"collection_times": [{"days": "Mon-Fri", "time": "3:45pm"}, {"days": "Sat", "time": "4:00pm"}, {"days": "Sun", "time": "Closed"}], "id": "5204600000", "name": "USPS COLLECTION BOX - BLUE BOX", "address": {"city": "FARLEY", "state": "IA", "street": "107 1ST ST N", "postcode": "52046"}}},
{"geometry": {"type": "Point", "coordinates": [-91.0062281376, 42.4432699961]}, "type": "Feature", "properties": {"collection_times": [{"days": "Mon-Fri", "time": "3:00pm"}, {"days": "Sat-Sun", "time": "Closed"}], "id": "5204600001", "name": "USPS COLLECTION BOX - PO LOBBY", "address": {"city": "FARLEY", "state": "IA", "street": "108 1ST ST N", "postcode": "52046"}}},
{"geometry": {"type": "Point", "coordinates": [-91.3607590284, 42.9610500803]}, "type": "Feature", "properties": {"collection_times": [{"days": "Mon-Fri", "time": "11:00am"}, {"days": "Sat", "time": "10:00am"}, {"days": "Sun", "time": "Closed"}], "id": "5204700000", "name": "USPS COLLECTION BOX - BLUE BOX", "address": {"city": "FARMERSBURG", "state": "IA", "street": "207 S MAIN ST", "postcode": "52047"}}},
{"geometry": {"type": "Point", "coordinates": [-91.3679507635, 42.9591228967]}, "type": "Feature", "properties": {"collection_times": [{"days": "Mon-Fri", "time": "11:00am"}, {"days": "Sat-Sun", "time": "Closed"}], "id": "5204700001", "name": "USPS COLLECTION BOX - PO LOBBY", "address": {"city": "FARMERSBURG", "state": "IA", "street": "207 S MAIN ST", "postcode": "52047"}}},
{"geometry": {"type": "Point", "coordinates": [-91.2354775222, 42.8676541893]}, "type": "Feature", "properties": {"collection_times": [{"days": "Mon-Fri", "time": "4:00pm"}, {"days": "Sat", "time": "4:30pm"}, {"days": "Sun", "time": "Closed"}], "id": "5204900000", "name": "USPS COLLECTION BOX - BLUE BOX", "address": {"city": "GARNAVILLO", "state": "IA", "street": "102 S MAIN ST", "postcode": "52049"}}},
{"geometry": {"type": "Point", "coordinates": [-91.2354775222, 42.8676541893]}, "type": "Feature", "properties": {"collection_times": [{"days": "Mon-Fri", "time": "2:45pm"}, {"days": "Sat-Sun", "time": "Closed"}], "id": "5204900001", "name": "USPS COLLECTION BOX - PO LOBBY", "address": {"city": "GARNAVILLO", "state": "IA", "street": "102 S MAIN ST", "postcode": "52049"}}},
{"geometry": {"type": "Point", "coordinates": [-91.3417515341, 42.584769328]}, "type": "Feature", "properties": {"collection_times": [{"days": "Mon-Fri", "time": "3:45pm"}, {"days": "Sat", "time": "4:00pm"}, {"days": "Sun", "time": "Closed"}], "id": "5205000000", "name": "USPS COLLECTION BOX - BLUE BOX", "address": {"city": "GREELEY", "state": "IA", "street": "108 E 3RD ST", "postcode": "52050"}}},
{"geometry": {"type": "Point", "coordinates": [-91.3417515341, 42.584769328]}, "type": "Feature", "properties": {"collection_times": [{"days": "Mon-Fri", "time": "11:45am"}, {"days": "Sat-Sun", "time": "Closed"}], "id": "5205000001", "name": "USPS COLLECTION BOX - PO LOBBY", "address": {"city": "GREELEY", "state": "IA", "street": "108 E 3RD ST", "postcode": "52050"}}},
{"geometry": {"type": "Point", "coordinates": [-91.0963981173, 42.7813465458]}, "type": "Feature", "properties": {"collection_times": [{"days": "Mon-Fri", "time": "4:30pm"}, {"days": "Sat", "time": "4:45pm"}, {"days": "Sun", "time": "Closed"}], "id": "5205200000", "name": "USPS COLLECTION BOX - BLUE BOX", "address": {"city": "GUTTENBERG", "state": "IA", "street": "519 S 1ST ST", "postcode": "52052"}}},
{"geometry": {"type": "Point", "coordinates": [-91.0963981173, 42.7813465458]}, "type": "Feature", "properties": {"collection_times": [{"days": "Mon-Fri", "time": "4:30pm"}, {"days": "Sat", "time": "4:45pm"}, {"days": "Sun", "time": "Closed"}], "id": "5205200001", "name": "USPS COLLECTION BOX - BLUE BOX", "address": {"city": "GUTTENBERG", "state": "IA", "street": "519 S 1ST ST", "postcode": "52052"}}},
{"geometry": {"type": "Point", "coordinates": [-91.0963981173, 42.7813465458]}, "type": "Feature", "properties": {"collection_times": [{"days": "Mon-Fri", "time": "4:30pm"}, {"days": "Sat", "time": "11:30am"}, {"days": "Sun", "time": "Closed"}], "id": "5205200003", "name": "USPS COLLECTION BOX - PO LOBBY", "address": {"city": "GUTTENBERG", "state": "IA", "street": "519 S 1ST ST", "postcode": "52052"}}},
{"geometry": {"type": "Point", "coordinates": [-90.9956737722, 42.6006525161]}, "type": "Feature", "properties": {"collection_times": [{"days": "Mon-Fri", "time": "3:45pm"}, {"days": "Sat", "time": "5:00pm"}, {"days": "Sun", "time": "Closed"}], "id": "5205300000", "name": "USPS COLLECTION BOX - BLUE BOX", "address": {"city": "HOLY CROSS", "state": "IA", "street": "5952 MAPLE RD", "postcode": "52053"}}},
{"geometry": {"type": "Point", "coordinates": [-90.9956737722, 42.6006525161]}, "type": "Feature", "properties": {"collection_times": [{"days": "Mon-Fri", "time": "11:00am"}, {"days": "Sat-Sun", "time": "Closed"}], "id": "5205300001", "name": "USPS COLLECTION BOX - PO LOBBY", "address": {"city": "HOLY CROSS", "state": "IA", "street": "5952 MAPLE RD", "postcode": "52053"}}},
{"geometry": {"type": "Point", "coordinates": [-90.6208665651, 42.2945794091]}, "type": "Feature", "properties": {"collection_times": [{"days": "Mon-Fri", "time": "4:00pm"}, {"days": "Sat", "time": "5:15pm"}, {"days": "Sun", "time": "Closed"}], "id": "5205400000", "name": "USPS COLLECTION BOX - BLUE BOX", "address": {"city": "LAMOTTE", "state": "IA", "street": "800 PLEASANT ST", "postcode": "52054"}}},
{"geometry": {"type": "Point", "coordinates": [-90.6208665651, 42.2945794091]}, "type": "Feature", "properties": {"collection_times": [{"days": "Mon-Fri", "time": "11:15am"}, {"days": "Sat", "time": "9:00am"}, {"days": "Sun", "time": "Closed"}], "id": "5205400001", "name": "USPS COLLECTION BOX - PO LOBBY", "address": {"city": "LAMOTTE", "state": "IA", "street": "800 PLEASANT ST", "postcode": "52054"}}},
{"geometry": {"type": "Point", "coordinates": [-91.0741511917, 42.6024871253]}, "type": "Feature", "properties": {"collection_times": [{"days": "Mon-Fri", "time": "4:15pm"}, {"days": "Sat", "time": "4:45pm"}, {"days": "Sun", "time": "Closed"}], "id": "5205600000", "name": "USPS COLLECTION BOX - BLUE BOX", "address": {"city": "LUXEMBURG", "state": "IA", "street": "100 E MAIN ST", "postcode": "52056"}}},
{"geometry": {"type": "Point", "coordinates": [-91.0741511917, 42.6024871253]}, "type": "Feature", "properties": {"collection_times": [{"days": "Mon-Fri", "time": "4:15pm"}, {"days": "Sat-Sun", "time": "Closed"}], "id": "5205600001", "name": "USPS COLLECTION BOX - PO LOBBY", "address": {"city": "LUXEMBURG", "state": "IA", "street": "100 E MAIN ST", "postcode": "52056"}}},
{"geometry": {"type": "Point", "coordinates": [-91.4565932433, 42.4838949813]}, "type": "Feature", "properties": {"collection_times": [{"days": "Mon-Fri", "time": "4:15pm"}, {"days": "Sat", "time": "3:15pm"}, {"days": "Sun", "time": "Closed"}], "id": "5205700004", "name": "USPS COLLECTION BOX - BLUE BOX", "address": {"city": "MANCHESTER", "state": "IA", "street": "109 S MADISON ST", "postcode": "52057"}}},
{"geometry": {"type": "Point", "coordinates": [-91.4781981734, 42.4838882255]}, "type": "Feature", "properties": {"collection_times": [{"days": "Mon-Sat", "time": "10:00am"}, {"days": "Sun", "time": "Closed"}], "id": "5205700007", "name": "USPS COLLECTION BOX - BLUE BOX", "address": {"city": "MANCHESTER", "state": "IA", "street": "1210 W MAIN ST", "postcode": "52057"}}},
{"geometry": {"type": "Point", "coordinates": [-91.4565932433, 42.4838949813]}, "type": "Feature", "properties": {"collection_times": [{"days": "Mon-Fri", "time": "4:15pm"}, {"days": "Sat", "time": "3:15pm"}, {"days": "Sun", "time": "Closed"}], "id": "5205700009", "name": "USPS COLLECTION BOX - PO LOBBY", "address": {"city": "MANCHESTER", "state": "IA", "street": "109 S MADISON ST", "postcode": "52057"}}},
{"geometry": {"type": "Point", "coordinates": [-90.665606652, 42.0702250284]}, "type": "Feature", "properties": {"collection_times": [{"days": "Mon-Fri", "time": "4:30pm"}, {"days": "Sat", "time": "3:00pm"}, {"days": "Sun", "time": "Closed"}], "id": "5206000003", "name": "USPS COLLECTION BOX - BLUE BOX", "address": {"city": "MAQUOKETA", "state": "IA", "street": "105 W JAMES ST", "postcode": "52060"}}},
{"geometry": {"type": "Point", "coordinates": [-90.6796576438, 42.068890819]}, "type": "Feature", "properties": {"collection_times": [{"days": "Mon-Sat", "time": "11:00am"}, {"days": "Sun", "time": "Closed"}], "id": "5206000009", "name": "USPS COLLECTION BOX - BLUE BOX", "address": {"city": "MAQUOKETA", "state": "IA", "street": "1019 W PLATT ST", "postcode": "52060"}}},
{"geometry": {"type": "Point", "coordinates": [-90.6656020564, 42.0705596548]}, "type": "Feature", "properties": {"collection_times": [{"days": "Mon-Fri", "time": "4:30pm"}, {"days": "Sat", "time": "3:00pm"}, {"days": "Sun", "time": "Closed"}], "id": "5206000015", "name": "USPS COLLECTION BOX - PO LOBBY", "address": {"city": "MAQUOKETA", "state": "IA", "street": "208 N MAIN ST", "postcode": "52060"}}},
{"geometry": {"type": "Point", "coordinates": [-90.3156024706, 42.0452331704]}, "type": "Feature", "properties": {"collection_times": [{"days": "Mon-Fri", "time": "3:45pm"}, {"days": "Sat", "time": "4:00pm"}, {"days": "Sun", "time": "Closed"}], "id": "5206400000", "name": "USPS COLLECTION BOX - BLUE BOX", "address": {"city": "MILES", "state": "IA", "street": "323 FERRY RD", "postcode": "52064"}}},
{"geometry": {"type": "Point", "coordinates": [-90.3156024706, 42.0452331704]}, "type": "Feature", "properties": {"collection_times": [{"days": "Mon-Fri", "time": "11:45am"}, {"days": "Sat-Sun", "time": "Closed"}], "id": "5206400001", "name": "USPS COLLECTION BOX - PO LOBBY", "address": {"city": "MILES", "state": "IA", "street": "323 FERRY RD", "postcode": "52064"}}},
{"geometry": {"type": "Point", "coordinates": [-91.1163255594, 42.5481782314]}, "type": "Feature", "properties": {"collection_times": [{"days": "Mon-Fri", "time": "3:30pm"}, {"days": "Sat", "time": "4:30pm"}, {"days": "Sun", "time": "Closed"}], "id": "5206500000", "name": "USPS COLLECTION BOX - BLUE BOX", "address": {"city": "NEW VIENNA", "state": "IA", "street": "2177 MAIN ST", "postcode": "52065"}}},
{"geometry": {"type": "Point", "coordinates": [-91.1163255594, 42.5481782314]}, "type": "Feature", "properties": {"collection_times": [{"days": "Mon-Fri", "time": "11:45am"}, {"days": "Sat-Sun", "time": "Closed"}], "id": "5206500001", "name": "USPS COLLECTION BOX - PO LOBBY", "address": {"city": "NEW VIENNA", "state": "IA", "street": "2177 MAIN ST", "postcode": "52065"}}},
{"geometry": {"type": "Point", "coordinates": [-90.8506424041, 42.4456917239]}, "type": "Feature", "properties": {"collection_times": [{"days": "Mon-Fri", "time": "4:00pm"}, {"days": "Sat", "time": "5:00pm"}, {"days": "Sun", "time": "Closed"}], "id": "5206800000", "name": "USPS COLLECTION BOX - BLUE BOX", "address": {"city": "PEOSTA", "state": "IA", "street": "8554 KAPP DR", "postcode": "52068"}}},
{"geometry": {"type": "Point", "coordinates": [-90.8506424041, 42.4456917239]}, "type": "Feature", "properties": {"collection_times": [{"days": "Mon-Fri", "time": "4:00pm"}, {"days": "Sat", "time": "10:00am"}, {"days": "Sun", "time": "Closed"}], "id": "5206800001", "name": "USPS COLLECTION BOX - PO LOBBY", "address": {"city": "PEOSTA", "state": "IA", "street": "8554 KAPP DR", "postcode": "52068"}}},
{"geometry": {"type": "Point", "coordinates": [-90.8120891142, 42.4396407307]}, "type": "Feature", "properties": {"collection_times": [{"days": "Mon-Fri", "time": "9:30am"}, {"days": "Sat-Sun", "time": "Closed"}], "id": "5206800002", "name": "USPS COLLECTION BOX - BLUE BOX", "address": {"city": "PEOSTA", "state": "IA", "street": "8342 NICC DR", "postcode": "52068"}}},
{"geometry": {"type": "Point", "coordinates": [-90.3960513396, 42.0503357635]}, "type": "Feature", "properties": {"collection_times": [{"days": "Mon-Fri", "time": "4:00pm"}, {"days": "Sat", "time": "4:15pm"}, {"days": "Sun", "time": "Closed"}], "id": "5206900000", "name": "USPS COLLECTION BOX - BLUE BOX", "address": {"city": "PRESTON", "state": "IA", "street": "172 W GILLET ST", "postcode": "52069"}}},
{"geometry": {"type": "Point", "coordinates": [-90.3960513396, 42.0503357635]}, "type": "Feature", "properties": {"collection_times": [{"days": "Mon-Fri", "time": "4:00pm"}, {"days": "Sat-Sun", "time": "Closed"}], "id": "5206900001", "name": "USPS COLLECTION BOX - PO LOBBY", "address": {"city": "PRESTON", "state": "IA", "street": "172 W GILLET ST", "postcode": "52069"}}},
{"geometry": {"type": "Point", "coordinates": [-90.1741403486, 42.0722745025]}, "type": "Feature", "properties": {"collection_times": [{"days": "Mon-Sat", "time": "3:45pm"}, {"days": "Sun", "time": "Closed"}], "id": "5207000000", "name": "USPS COLLECTION BOX - BLUE BOX", "address": {"city": "SABULA", "state": "IA", "street": "411 BROAD ST", "postcode": "52070"}}},
{"geometry": {"type": "Point", "coordinates": [-90.1741403486, 42.0722745025]}, "type": "Feature", "properties": {"collection_times": [{"days": "Mon-Fri", "time": "3:30pm"}, {"days": "Sat-Sun", "time": "Closed"}], "id": "5207000001", "name": "USPS COLLECTION BOX - PO LOBBY", "address": {"city": "SABULA", "state": "IA", "street": "411 BROAD ST", "postcode": "52070"}}},
{"geometry": {"type": "Point", "coordinates": [-90.5367663049, 42.3607320048]}, "type": "Feature", "properties": {"collection_times": [{"days": "Mon-Sat", "time": "10:00am"}, {"days": "Sun", "time": "Closed"}], "id": "5207100000", "name": "USPS COLLECTION BOX - BLUE BOX", "address": {"city": "ST DONATUS", "state": "IA", "street": "114 E 2ND ST", "postcode": "52071"}}},
{"geometry": {"type": "Point", "coordinates": [-91.3861102074, 42.9282233049]}, "type": "Feature", "properties": {"collection_times": [{"days": "Mon-Fri", "time": "10:15am"}, {"days": "Sat", "time": "9:00am"}, {"days": "Sun", "time": "Closed"}], "id": "5207200000", "name": "USPS COLLECTION BOX - BLUE BOX", "address": {"city": "SAINT OLAF", "state": "IA", "street": "111 S MAIN ST", "postcode": "52072"}}},
{"geometry": {"type": "Point", "coordinates": [-91.3861102074, 42.9282233049]}, "type": "Feature", "properties": {"collection_times": [{"days": "Mon-Fri", "time": "10:15am"}, {"days": "Sat-Sun", "time": "Closed"}], "id": "5207200001", "name": "USPS COLLECTION BOX - PO LOBBY", "address": {"city": "SAINT OLAF", "state": "IA", "street": "111 S MAIN ST", "postcode": "52072"}}},
{"geometry": {"type": "Point", "coordinates": [-90.7752768622, 42.5977276665]}, "type": "Feature", "properties": {"collection_times": [{"days": "Mon-Sat", "time": "11:45am"}, {"days": "Sun", "time": "Closed"}], "id": "5207300001", "name": "USPS COLLECTION BOX - PO LOBBY", "address": {"city": "SHERRILL", "state": "IA", "street": "14857 SHERRILL RD", "postcode": "52073"}}},
{"geometry": {"type": "Point", "coordinates": [-90.7752768622, 42.5977276665]}, "type": "Feature", "properties": {"collection_times": [{"days": "Mon-Sat", "time": "2:00pm"}, {"days": "Sun", "time": "Closed"}], "id": "5207300002", "name": "USPS COLLECTION BOX - BLUE BOX", "address": {"city": "SHERRILL", "state": "IA", "street": "14857 SHERRILL RD", "postcode": "52073"}}},
{"geometry": {"type": "Point", "coordinates": [-90.4770176557, 42.1638880938]}, "type": "Feature", "properties": {"collection_times": [{"days": "Mon-Sat", "time": "10:30am"}, {"days": "Sun", "time": "Closed"}], "id": "5207500000", "name": "USPS COLLECTION BOX - BLUE BOX", "address": {"city": "SPRINGBROOK", "state": "IA", "street": "101 E MAIN ST", "postcode": "52075"}}},
{"geometry": {"type": "Point", "coordinates": [-90.4770176557, 42.1638880938]}, "type": "Feature", "properties": {"collection_times": [{"days": "Mon-Sat", "time": "10:30am"}, {"days": "Sun", "time": "Closed"}], "id": "5207500001", "name": "USPS COLLECTION BOX - PO LOBBY", "address": {"city": "SPRINGBROOK", "state": "IA", "street": "101 E MAIN ST", "postcode": "52075"}}},
{"geometry": {"type": "Point", "coordinates": [-91.5350234272, 42.6835477122]}, "type": "Feature", "properties": {"collection_times": [{"days": "Mon-Sat", "time": "3:45pm"}, {"days": "Sun", "time": "Closed"}], "id": "5207600000", "name": "USPS COLLECTION BOX - BLUE BOX", "address": {"city": "STRAWBERRY POINT", "state": "IA", "street": "132 W MISSION ST", "postcode": "52076"}}},
{"geometry": {"type": "Point", "coordinates": [-91.5350234272, 42.6835477122]}, "type": "Feature", "properties": {"collection_times": [{"days": "Mon-Fri", "time": "3:45pm"}, {"days": "Sat", "time": "10:00am"}, {"days": "Sun", "time": "Closed"}], "id": "5207600001", "name": "USPS COLLECTION BOX - PO LOBBY", "address": {"city": "STRAWBERRY POINT", "state": "IA", "street": "132 W MISSION ST", "postcode": "52076"}}},
{"geometry": {"type": "Point", "coordinates": [-91.1189778321, 42.396722784]}, "type": "Feature", "properties": {"collection_times": [{"days": "Mon-Fri", "time": "4:15pm"}, {"days": "Sat", "time": "4:30pm"}, {"days": "Sun", "time": "Closed"}], "id": "5207800000", "name": "USPS COLLECTION BOX - BLUE BOX", "address": {"city": "WORTHINGTON", "state": "IA", "street": "203 1ST ST S", "postcode": "52078"}}},
{"geometry": {"type": "Point", "coordinates": [-91.1189778321, 42.396722784]}, "type": "Feature", "properties": {"collection_times": [{"days": "Mon-Fri", "time": "11:45am"}, {"days": "Sat-Sun", "time": "Closed"}], "id": "5207800001", "name": "USPS COLLECTION BOX - PO LOBBY", "address": {"city": "WORTHINGTON", "state": "IA", "street": "203 1ST ST S", "postcode": "52078"}}},
{"geometry": {"type": "Point", "coordinates": [-90.7156347441, 42.289874]}, "type": "Feature", "properties": {"collection_times": [{"days": "Mon-Fri", "time": "4:15pm"}, {"days": "Sat", "time": "4:45pm"}, {"days": "Sun", "time": "Closed"}], "id": "5207900000", "name": "USPS COLLECTION BOX - BLUE BOX", "address": {"city": "ZWINGLE", "state": "IA", "street": "168 N MAIN ST", "postcode": "52079"}}},
{"geometry": {"type": "Point", "coordinates": [-90.7156347441, 42.289874]}, "type": "Feature", "properties": {"collection_times": [{"days": "Mon-Fri", "time": "10:45am"}, {"days": "Sat-Sun", "time": "Closed"}], "id": "5207900001", "name": "USPS COLLECTION BOX - PO LOBBY", "address": {"city": "ZWINGLE", "state": "IA", "street": "168 N MAIN ST", "postcode": "52079"}}}
]}
