{"type": "FeatureCollection", "features": [
{"geometry": {"type": "Point", "coordinates": [-91.7848653977, 43.3049661946]}, "type": "Feature", "properties": {"collection_times": [{"days": "Mon-Sat", "time": "6:00pm"}, {"days": "Sun", "time": "Closed"}], "id": "5210100000", "name": "USPS COLLECTION BOX - BLUE BOX", "address": {"city": "DECORAH", "state": "IA", "street": "401 HEIVLY ST", "postcode": "52101"}}},
{"geometry": {"type": "Point", "coordinates": [-91.7848653977, 43.3049661946]}, "type": "Feature", "properties": {"collection_times": [{"days": "Mon-Sat", "time": "6:00pm"}, {"days": "Sun", "time": "Closed"}], "id": "5210100001", "name": "USPS COLLECTION BOX - PO LOBBY", "address": {"city": "DECORAH", "state": "IA", "street": "401 HEIVLY ST", "postcode": "52101"}}},
{"geometry": {"type": "Point", "coordinates": [-91.7966084226, 43.307275661]}, "type": "Feature", "properties": {"collection_times": [{"days": "Mon-Sat", "time": "4:45pm"}, {"days": "Sun", "time": "Closed"}], "id": "5210100002", "name": "USPS COLLECTION BOX - BLUE BOX", "address": {"city": "DECORAH", "state": "IA", "street": "308 COLLEGE DR", "postcode": "52101"}}},
{"geometry": {"type": "Point", "coordinates": [-91.7979275362, 43.2910698133]}, "type": "Feature", "properties": {"collection_times": [{"days": "Mon-Sat", "time": "5:00pm"}, {"days": "Sun", "time": "Closed"}], "id": "5210100006", "name": "USPS COLLECTION BOX - BLUE BOX", "address": {"city": "DECORAH", "state": "IA", "street": "915 SHORT ST", "postcode": "52101"}}},
{"geometry": {"type": "Point", "coordinates": [-91.787128937, 43.3033521221]}, "type": "Feature", "properties": {"collection_times": [{"days": "Mon-Fri", "time": "5:00pm"}, {"days": "Sat-Sun", "time": "Closed"}], "id": "5210100007", "name": "USPS COLLECTION BOX - BLUE BOX", "address": {"city": "DECORAH", "state": "IA", "street": "201 W MAIN ST", "postcode": "52101"}}},
{"geometry": {"type": "Point", "coordinates": [-91.7870179653, 43.3032673475]}, "type": "Feature", "properties": {"collection_times": [{"days": "Mon-Sat", "time": "5:15pm"}, {"days": "Sun", "time": "Closed"}], "id": "5210100008", "name": "USPS COLLECTION BOX - BLUE BOX", "address": {"city": "DECORAH", "state": "IA", "street": "202 WINNEBAGO ST", "postcode": "52101"}}},
{"geometry": {"type": "Point", "coordinates": [-91.7857606131, 43.3042365325]}, "type": "Feature", "properties": {"collection_times": [{"days": "Mon-Sat", "time": "5:15pm"}, {"days": "Sun", "time": "Closed"}], "id": "5210100009", "name": "USPS COLLECTION BOX - BLUE BOX", "address": {"city": "DECORAH", "state": "IA", "street": "104 E WATER ST", "postcode": "52101"}}},
{"geometry": {"type": "Point", "coordinates": [-91.7868403013, 43.3042365325]}, "type": "Feature", "properties": {"collection_times": [{"days": "Mon-Sat", "time": "5:15pm"}, {"days": "Sun", "time": "Closed"}], "id": "5210100010", "name": "USPS COLLECTION BOX - BLUE BOX", "address": {"city": "DECORAH", "state": "IA", "street": "120 W WATER ST", "postcode": "52101"}}},
{"geometry": {"type": "Point", "coordinates": [-91.7884707794, 43.3042273135]}, "type": "Feature", "properties": {"collection_times": [{"days": "Mon-Sat", "time": "5:15pm"}, {"days": "Sun", "time": "Closed"}], "id": "5210100011", "name": "USPS COLLECTION BOX - BLUE BOX", "address": {"city": "DECORAH", "state": "IA", "street": "300 W WATER ST", "postcode": "52101"}}},
{"geometry": {"type": "Point", "coordinates": [-91.7848653977, 43.3049661946]}, "type": "Feature", "properties": {"collection_times": [{"days": "Mon-Sat", "time": "6:00pm"}, {"days": "Sun", "time": "Closed"}], "id": "5210100012", "name": "USPS COLLECTION BOX - BLUE BOX", "address": {"city": "DECORAH", "state": "IA", "street": "401 HEIVLY ST", "postcode": "52101"}}},
{"geometry": {"type": "Point", "coordinates": [-91.7848653977, 43.3049661946]}, "type": "Feature", "properties": {"collection_times": [{"days": "Mon-Sat", "time": "6:00pm"}, {"days": "Sun", "time": "Closed"}], "id": "5210100013", "name": "USPS COLLECTION BOX - BLUE BOX", "address": {"city": "DECORAH", "state": "IA", "street": "401 HEIVLY ST", "postcode": "52101"}}},
{"geometry": {"type": "Point", "coordinates": [-91.7870179653, 43.3032673475]}, "type": "Feature", "properties": {"collection_times": [{"days": "Mon-Sat", "time": "5:15pm"}, {"days": "Sun", "time": "Closed"}], "id": "5210100014", "name": "USPS COLLECTION BOX - BLUE BOX", "address": {"city": "DECORAH", "state": "IA", "street": "202 WINNEBAGO ST", "postcode": "52101"}}},
{"geometry": {"type": "Point", "coordinates": [-91.785841328, 43.303197643]}, "type": "Feature", "properties": {"collection_times": [{"days": "Mon-Sat", "time": "5:15pm"}, {"days": "Sun", "time": "Closed"}], "id": "5210100016", "name": "USPS COLLECTION BOX - BLUE BOX", "address": {"city": "DECORAH", "state": "IA", "street": "101 E MAIN ST", "postcode": "52101"}}},
{"geometry": {"type": "Point", "coordinates": [-91.7356210728, 43.2968777627]}, "type": "Feature", "properties": {"collection_times": [{"days": "Mon-Sat", "time": "1:00pm"}, {"days": "Sun", "time": "Closed"}], "id": "5210100018", "name": "USPS COLLECTION BOX - BLUE BOX", "address": {"city": "DECORAH", "state": "IA", "street": "1798 OLD STAGE RD", "postcode": "52101"}}},
{"geometry": {"type": "Point", "coordinates": [-91.8645449563, 43.182690625]}, "type": "Feature", "properties": {"collection_times": [{"days": "Mon-Fri", "time": "3:45pm"}, {"days": "Sat", "time": "4:45pm"}, {"days": "Sun", "time": "Closed"}], "id": "5213200000", "name": "USPS COLLECTION BOX - BLUE BOX", "address": {"city": "CALMAR", "state": "IA", "street": "107 S MARYVILLE ST", "postcode": "52132"}}},
{"geometry": {"type": "Point", "coordinates": [-91.8645449563, 43.182690625]}, "type": "Feature", "properties": {"collection_times": [{"days": "Mon-Fri", "time": "3:45pm"}, {"days": "Sat-Sun", "time": "Closed"}], "id": "5213200001", "name": "USPS COLLECTION BOX - PO LOBBY", "address": {"city": "CALMAR", "state": "IA", "street": "107 S MARYVILLE ST", "postcode": "52132"}}},
{"geometry": {"type": "Point", "coordinates": [-91.672732745, 43.1093333476]}, "type": "Feature", "properties": {"collection_times": [{"days": "Mon-Fri", "time": "4:00pm"}, {"days": "Sat", "time": "4:15pm"}, {"days": "Sun", "time": "Closed"}], "id": "5213300000", "name": "USPS COLLECTION BOX - BLUE BOX", "address": {"city": "CASTALIA", "state": "IA", "street": "206 E GREENE ST", "postcode": "52133"}}},
{"geometry": {"type": "Point", "coordinates": [-91.672732745, 43.1093333476]}, "type": "Feature", "properties": {"collection_times": [{"days": "Mon-Fri", "time": "1:45pm"}, {"days": "Sat-Sun", "time": "Closed"}], "id": "5213300001", "name": "USPS COLLECTION BOX - PO LOBBY", "address": {"city": "CASTALIA", "state": "IA", "street": "206 E GREENE ST", "postcode": "52133"}}},
{"geometry": {"type": "Point", "coordinates": [-92.3603998694, 43.4908601071]}, "type": "Feature", "properties": {"collection_times": [{"days": "Mon-Fri", "time": "4:00pm"}, {"days": "Sat", "time": "4:15pm"}, {"days": "Sun", "time": "Closed"}], "id": "5213400000", "name": "USPS COLLECTION BOX - BLUE BOX", "address": {"city": "CHESTER", "state": "IA", "street": "205 MAIN ST", "postcode": "52134"}}},
{"geometry": {"type": "Point", "coordinates": [-92.3603998694, 43.4908601071]}, "type": "Feature", "properties": {"collection_times": [{"days": "Mon-Fri", "time": "3:45pm"}, {"days": "Sat-Sun", "time": "Closed"}], "id": "5213400001", "name": "USPS COLLECTION BOX - PO LOBBY", "address": {"city": "CHESTER", "state": "IA", "street": "205 MAIN ST", "postcode": "52134"}}},
{"geometry": {"type": "Point", "coordinates": [-91.6559504903, 42.9999879757]}, "type": "Feature", "properties": {"collection_times": [{"days": "Mon-Sat", "time": "4:00pm"}, {"days": "Sun", "time": "Closed"}], "id": "5213500000", "name": "USPS COLLECTION BOX - BLUE BOX", "address": {"city": "CLERMONT", "state": "IA", "street": "319 MILL ST", "postcode": "52135"}}},
{"geometry": {"type": "Point", "coordinates": [-91.6559504903, 42.9999879757]}, "type": "Feature", "properties": {"collection_times": [{"days": "Mon-Fri", "time": "12:15pm"}, {"days": "Sat", "time": "10:00am"}, {"days": "Sun", "time": "Closed"}], "id": "5213500001", "name": "USPS COLLECTION BOX - PO LOBBY", "address": {"city": "CLERMONT", "state": "IA", "street": "319 MILL ST", "postcode": "52135"}}},
{"geometry": {"type": "Point", "coordinates": [-92.1162073227, 43.3740705773]}, "type": "Feature", "properties": {"collection_times": [{"days": "Mon-Sat", "time": "10:00am"}, {"days": "Sun", "time": "Closed"}], "id": "5213600000", "name": "USPS COLLECTION BOX - BLUE BOX", "address": {"city": "CRESCO", "state": "IA", "street": "320 N ELM ST", "postcode": "52136"}}},
{"geometry": {"type": "Point", "coordinates": [-92.1256380697, 43.3755419486]}, "type": "Feature", "properties": {"collection_times": [{"days": "Mon-Sat", "time": "9:00am"}, {"days": "Sun", "time": "Closed"}], "id": "5213600001", "name": "USPS COLLECTION BOX - BLUE BOX", "address": {"city": "CRESCO", "state": "IA", "street": "630 3RD AVE W", "postcode": "52136"}}},
{"geometry": {"type": "Point", "coordinates": [-92.1168875166, 43.373723271]}, "type": "Feature", "properties": {"collection_times": [{"days": "Mon-Sat", "time": "4:30pm"}, {"days": "Sun", "time": "Closed"}], "id": "5213600002", "name": "USPS COLLECTION BOX - BLUE BOX", "address": {"city": "CRESCO", "state": "IA", "street": "128 2ND AVE W", "postcode": "52136"}}},
{"geometry": {"type": "Point", "coordinates": [-92.1168875166, 43.373723271]}, "type": "Feature", "properties": {"collection_times": [{"days": "Mon-Sat", "time": "4:30pm"}, {"days": "Sun", "time": "Closed"}], "id": "5213600003", "name": "USPS COLLECTION BOX - BLUE BOX", "address": {"city": "CRESCO", "state": "IA", "street": "128 2ND AVE W", "postcode": "52136"}}},
{"geometry": {"type": "Point", "coordinates": [-92.1168875166, 43.373723271]}, "type": "Feature", "properties": {"collection_times": [{"days": "Mon-Fri", "time": "4:45pm"}, {"days": "Sat", "time": "10:00am"}, {"days": "Sun", "time": "Closed"}], "id": "5213600004", "name": "USPS COLLECTION BOX - PO LOBBY", "address": {"city": "CRESCO", "state": "IA", "street": "128 2ND AVE W", "postcode": "52136"}}},
{"geometry": {"type": "Point", "coordinates": [-91.6270399774, 42.9574083819]}, "type": "Feature", "properties": {"collection_times": [{"days": "Mon-Fri", "time": "4:00pm"}, {"days": "Sat", "time": "4:15pm"}, {"days": "Sun", "time": "Closed"}], "id": "5214100000", "name": "USPS COLLECTION BOX - BLUE BOX", "address": {"city": "ELGIN", "state": "IA", "street": "238 CENTER ST", "postcode": "52141"}}},
{"geometry": {"type": "Point", "coordinates": [-91.6270399774, 42.9574083819]}, "type": "Feature", "properties": {"collection_times": [{"days": "Mon-Fri", "time": "2:45pm"}, {"days": "Sat", "time": "10:00am"}, {"days": "Sun", "time": "Closed"}], "id": "5214100001", "name": "USPS COLLECTION BOX - PO LOBBY", "address": {"city": "ELGIN", "state": "IA", "street": "238 CENTER ST", "postcode": "52141"}}},
{"geometry": {"type": "Point", "coordinates": [-91.8008692573, 42.8446271006]}, "type": "Feature", "properties": {"collection_times": [{"days": "Mon-Fri", "time": "4:00pm"}, {"days": "Sat", "time": "4:30pm"}, {"days": "Sun", "time": "Closed"}], "id": "5214200000", "name": "USPS COLLECTION BOX - BLUE BOX", "address": {"city": "FAYETTE", "state": "IA", "street": "201 E WATER ST", "postcode": "52142"}}},
{"geometry": {"type": "Point", "coordinates": [-91.8008692573, 42.8446271006]}, "type": "Feature", "properties": {"collection_times": [{"days": "Mon-Fri", "time": "4:00pm"}, {"days": "Sat", "time": "10:30am"}, {"days": "Sun", "time": "Closed"}], "id": "5214200001", "name": "USPS COLLECTION BOX - PO LOBBY", "address": {"city": "FAYETTE", "state": "IA", "street": "201 E WATER ST", "postcode": "52142"}}},
{"geometry": {"type": "Point", "coordinates": [-91.9327226352, 43.1434474084]}, "type": "Feature", "properties": {"collection_times": [{"days": "Mon-Fri", "time": "4:00pm"}, {"days": "Sat", "time": "4:45pm"}, {"days": "Sun", "time": "Closed"}], "id": "5214400000", "name": "USPS COLLECTION BOX - BLUE BOX", "address": {"city": "FORT ATKINSON", "state": "IA", "street": "107 MAIN ST", "postcode": "52144"}}},
{"geometry": {"type": "Point", "coordinates": [-91.9327226352, 43.1434474084]}, "type": "Feature", "properties": {"collection_times": [{"days": "Mon-Fri", "time": "2:15pm"}, {"days": "Sat", "time": "9:15am"}, {"days": "Sun", "time": "Closed"}], "id": "5214400002", "name": "USPS COLLECTION BOX - PO LOBBY", "address": {"city": "FORT ATKINSON", "state": "IA", "street": "107 MAIN ST", "postcode": "52144"}}},
{"geometry": {"type": "Point", "coordinates": [-91.1528667638, 43.2013729023]}, "type": "Feature", "properties": {"collection_times": [{"days": "Mon-Sat", "time": "4:00pm"}, {"days": "Sun", "time": "Closed"}], "id": "5214600000", "name": "USPS COLLECTION BOX - BLUE BOX", "address": {"city": "HARPERS FERRY", "state": "IA", "street": "131 N GREELEY AVE", "postcode": "52146"}}},
{"geometry": {"type": "Point", "coordinates": [-91.1528667638, 43.2013729023]}, "type": "Feature", "properties": {"collection_times": [{"days": "Mon-Fri", "time": "11:45am"}, {"days": "Sat", "time": "9:45am"}, {"days": "Sun", "time": "Closed"}], "id": "5214600001", "name": "USPS COLLECTION BOX - PO LOBBY", "address": {"city": "HARPERS FERRY", "state": "IA", "street": "131 N GREELEY AVE", "postcode": "52146"}}},
{"geometry": {"type": "Point", "coordinates": [-91.9519569417, 42.9384691207]}, "type": "Feature", "properties": {"collection_times": [{"days": "Mon-Sat", "time": "4:00pm"}, {"days": "Sun", "time": "Closed"}], "id": "5214700000", "name": "USPS COLLECTION BOX - BLUE BOX", "address": {"city": "HAWKEYE", "state": "IA", "street": "101 W MAIN ST", "postcode": "52147"}}},
{"geometry": {"type": "Point", "coordinates": [-91.9519569417, 42.9384691207]}, "type": "Feature", "properties": {"collection_times": [{"days": "Mon-Fri", "time": "11:45am"}, {"days": "Sat-Sun", "time": "Closed"}], "id": "5214700001", "name": "USPS COLLECTION BOX - PO LOBBY", "address": {"city": "HAWKEYE", "state": "IA", "street": "101 W MAIN ST", "postcode": "52147"}}},
{"geometry": {"type": "Point", "coordinates": [-91.2185040014, 43.3617719866]}, "type": "Feature", "properties": {"collection_times": [{"days": "Mon-Sat", "time": "4:30pm"}, {"days": "Sun", "time": "Closed"}], "id": "5215100000", "name": "USPS COLLECTION BOX - BLUE BOX", "address": {"city": "LANSING", "state": "IA", "street": "383 MAIN ST", "postcode": "52151"}}},
{"geometry": {"type": "Point", "coordinates": [-91.2185040014, 43.3617719866]}, "type": "Feature", "properties": {"collection_times": [{"days": "Mon-Fri", "time": "4:30pm"}, {"days": "Sat", "time": "10:00am"}, {"days": "Sun", "time": "Closed"}], "id": "5215100001", "name": "USPS COLLECTION BOX - PO LOBBY", "address": {"city": "LANSING", "state": "IA", "street": "383 MAIN ST", "postcode": "52151"}}},
{"geometry": {"type": "Point", "coordinates": [-92.1518003487, 43.0693314287]}, "type": "Feature", "properties": {"collection_times": [{"days": "Mon-Fri", "time": "3:45pm"}, {"days": "Sat", "time": "4:00pm"}, {"days": "Sun", "time": "Closed"}], "id": "5215400000", "name": "USPS COLLECTION BOX - BLUE BOX", "address": {"city": "LAWLER", "state": "IA", "street": "316 E GROVE ST", "postcode": "52154"}}},
{"geometry": {"type": "Point", "coordinates": [-92.1518003487, 43.0693314287]}, "type": "Feature", "properties": {"collection_times": [{"days": "Mon-Fri", "time": "11:30am"}, {"days": "Sat", "time": "8:45am"}, {"days": "Sun", "time": "Closed"}], "id": "5215400001", "name": "USPS COLLECTION BOX - PO LOBBY", "address": {"city": "LAWLER", "state": "IA", "street": "316 E GROVE ST", "postcode": "52154"}}},
{"geometry": {"type": "Point", "coordinates": [-92.2802172149, 43.4485999167]}, "type": "Feature", "properties": {"collection_times": [{"days": "Mon-Fri", "time": "3:30pm"}, {"days": "Sat", "time": "4:00pm"}, {"days": "Sun", "time": "Closed"}], "id": "5215500000", "name": "USPS COLLECTION BOX - BLUE BOX", "address": {"city": "LIME SPRINGS", "state": "IA", "street": "108 W MAIN ST", "postcode": "52155"}}},
{"geometry": {"type": "Point", "coordinates": [-92.2802172149, 43.4485999167]}, "type": "Feature", "properties": {"collection_times": [{"days": "Mon-Fri", "time": "2:45pm"}, {"days": "Sat-Sun", "time": "Closed"}], "id": "5215500001", "name": "USPS COLLECTION BOX - PO LOBBY", "address": {"city": "LIME SPRINGS", "state": "IA", "street": "108 W MAIN ST", "postcode": "52155"}}},
{"geometry": {"type": "Point", "coordinates": [-91.4854245886, 43.0273679804]}, "type": "Feature", "properties": {"collection_times": [{"days": "Mon-Fri", "time": "4:15pm"}, {"days": "Sat", "time": "5:00pm"}, {"days": "Sun", "time": "Closed"}], "id": "5215600000", "name": "USPS COLLECTION BOX - BLUE BOX", "address": {"city": "LUANA", "state": "IA", "street": "105 BURGES ST", "postcode": "52156"}}},
{"geometry": {"type": "Point", "coordinates": [-91.4854245886, 43.0273679804]}, "type": "Feature", "properties": {"collection_times": [{"days": "Mon-Fri", "time": "11:45am"}, {"days": "Sat-Sun", "time": "Closed"}], "id": "5215600001", "name": "USPS COLLECTION BOX - PO LOBBY", "address": {"city": "LUANA", "state": "IA", "street": "105 BURGES ST", "postcode": "52156"}}},
{"geometry": {"type": "Point", "coordinates": [-91.1756119818, 43.0228521837]}, "type": "Feature", "properties": {"collection_times": [{"days": "Mon-Sat", "time": "4:15pm"}, {"days": "Sun", "time": "Closed"}], "id": "5215700000", "name": "USPS COLLECTION BOX - BLUE BOX", "address": {"city": "MC GREGOR", "state": "IA", "street": "107 2ND ST", "postcode": "52157"}}},
{"geometry": {"type": "Point", "coordinates": [-91.1756119818, 43.0228521837]}, "type": "Feature", "properties": {"collection_times": [{"days": "Mon-Fri", "time": "3:15pm"}, {"days": "Sat", "time": "8:45am"}, {"days": "Sun", "time": "Closed"}], "id": "5215700001", "name": "USPS COLLECTION BOX - PO LOBBY", "address": {"city": "MC GREGOR", "state": "IA", "street": "107 2ND ST", "postcode": "52157"}}},
{"geometry": {"type": "Point", "coordinates": [-91.1796191506, 43.045007721]}, "type": "Feature", "properties": {"collection_times": [{"days": "Mon-Sat", "time": "4:15pm"}, {"days": "Sun", "time": "Closed"}], "id": "5215800000", "name": "USPS COLLECTION BOX - BLUE BOX", "address": {"city": "MARQUETTE", "state": "IA", "street": "112 NORTH ST", "postcode": "52158"}}},
{"geometry": {"type": "Point", "coordinates": [-91.1796191506, 43.045007721]}, "type": "Feature", "properties": {"collection_times": [{"days": "Mon-Fri", "time": "12:45pm"}, {"days": "Sat-Sun", "time": "Closed"}], "id": "5215800001", "name": "USPS COLLECTION BOX - PO LOBBY", "address": {"city": "MARQUETTE", "state": "IA", "street": "112 NORTH ST", "postcode": "52158"}}},
{"geometry": {"type": "Point", "coordinates": [-91.3897961294, 43.0528658561]}, "type": "Feature", "properties": {"collection_times": [{"days": "Mon-Fri", "time": "4:00pm"}, {"days": "Sat", "time": "4:45pm"}, {"days": "Sun", "time": "Closed"}], "id": "5215900000", "name": "USPS COLLECTION BOX - BLUE BOX", "address": {"city": "MONONA", "state": "IA", "street": "109 S MAIN ST", "postcode": "52159"}}},
{"geometry": {"type": "Point", "coordinates": [-91.3897961294, 43.0528658561]}, "type": "Feature", "properties": {"collection_times": [{"days": "Mon-Fri", "time": "4:00pm"}, {"days": "Sat", "time": "10:30am"}, {"days": "Sun", "time": "Closed"}], "id": "5215900001", "name": "USPS COLLECTION BOX - PO LOBBY", "address": {"city": "MONONA", "state": "IA", "street": "109 S MAIN ST", "postcode": "52159"}}},
{"geometry": {"type": "Point", "coordinates": [-91.2898166701, 43.4958804513]}, "type": "Feature", "properties": {"collection_times": [{"days": "Mon-Sat", "time": "4:00pm"}, {"days": "Sun", "time": "Closed"}], "id": "5216000000", "name": "USPS COLLECTION BOX - BLUE BOX", "address": {"city": "NEW ALBIN", "state": "IA", "street": "190 MAIN ST NE", "postcode": "52160"}}},
{"geometry": {"type": "Point", "coordinates": [-91.2898166701, 43.4958804513]}, "type": "Feature", "properties": {"collection_times": [{"days": "Mon-Fri", "time": "2:45pm"}, {"days": "Sat", "time": "9:45am"}, {"days": "Sun", "time": "Closed"}], "id": "5216000001", "name": "USPS COLLECTION BOX - PO LOBBY", "address": {"city": "NEW ALBIN", "state": "IA", "street": "190 MAIN ST NE", "postcode": "52160"}}},
{"geometry": {"type": "Point", "coordinates": [-91.7630528095, 43.1450093124]}, "type": "Feature", "properties": {"collection_times": [{"days": "Mon-Fri", "time": "4:00pm"}, {"days": "Sat", "time": "4:30pm"}, {"days": "Sun", "time": "Closed"}], "id": "5216100000", "name": "USPS COLLECTION BOX - BLUE BOX", "address": {"city": "OSSIAN", "state": "IA", "street": "200 E MAIN ST", "postcode": "52161"}}},
{"geometry": {"type": "Point", "coordinates": [-91.7630528095, 43.1450093124]}, "type": "Feature", "properties": {"collection_times": [{"days": "Mon-Fri", "time": "2:45pm"}, {"days": "Sat", "time": "9:30am"}, {"days": "Sun", "time": "Closed"}], "id": "5216100001", "name": "USPS COLLECTION BOX - PO LOBBY", "address": {"city": "OSSIAN", "state": "IA", "street": "200 E MAIN ST", "postcode": "52161"}}},
{"geometry": {"type": "Point", "coordinates": [-91.569301598, 43.0844963857]}, "type": "Feature", "properties": {"collection_times": [{"days": "Mon-Fri", "time": "4:30pm"}, {"days": "Sat", "time": "5:00pm"}, {"days": "Sun", "time": "Closed"}], "id": "5216200000", "name": "USPS COLLECTION BOX - BLUE BOX", "address": {"city": "POSTVILLE", "state": "IA", "street": "146 W TILDEN ST", "postcode": "52162"}}},
{"geometry": {"type": "Point", "coordinates": [-91.569301598, 43.0844963857]}, "type": "Feature", "properties": {"collection_times": [{"days": "Mon-Fri", "time": "4:30pm"}, {"days": "Sat", "time": "10:00am"}, {"days": "Sun", "time": "Closed"}], "id": "5216200002", "name": "USPS COLLECTION BOX - PO LOBBY", "address": {"city": "POSTVILLE", "state": "IA", "street": "146 W TILDEN ST", "postcode": "52162"}}},
{"geometry": {"type": "Point", "coordinates": [-92.0908659788, 43.2156973567]}, "type": "Feature", "properties": {"collection_times": [{"days": "Mon-Sat", "time": "4:15pm"}, {"days": "Sun", "time": "Closed"}], "id": "5216300000", "name": "USPS COLLECTION BOX - BLUE BOX", "address": {"city": "PROTIVIN", "state": "IA", "street": "221 S MAIN ST", "postcode": "52163"}}},
{"geometry": {"type": "Point", "coordinates": [-92.0908659788, 43.2156973567]}, "type": "Feature", "properties": {"collection_times": [{"days": "Mon-Fri", "time": "12:45pm"}, {"days": "Sat-Sun", "time": "Closed"}], "id": "5216300001", "name": "USPS COLLECTION BOX - PO LOBBY", "address": {"city": "PROTIVIN", "state": "IA", "street": "221 S MAIN ST", "postcode": "52163"}}},
{"geometry": {"type": "Point", "coordinates": [-91.9910006923, 43.2975952802]}, "type": "Feature", "properties": {"collection_times": [{"days": "Mon-Fri", "time": "12:15pm"}, {"days": "Sat", "time": "10:00am"}, {"days": "Sun", "time": "Closed"}], "id": "5216500001", "name": "USPS COLLECTION BOX - PO LOBBY", "address": {"city": "RIDGEWAY", "state": "IA", "street": "635 RAILROAD ST", "postcode": "52165"}}},
{"geometry": {"type": "Point", "coordinates": [-91.9910006923, 43.2975952802]}, "type": "Feature", "properties": {"collection_times": [{"days": "Mon-Fri", "time": "3:45pm"}, {"days": "Sat", "time": "4:00pm"}, {"days": "Sun", "time": "Closed"}], "id": "5216500002", "name": "USPS COLLECTION BOX - BLUE BOX", "address": {"city": "RIDGEWAY", "state": "IA", "street": "635 RAILROAD ST", "postcode": "52165"}}},
{"geometry": {"type": "Point", "coordinates": [-91.9331866206, 43.0666903181]}, "type": "Feature", "properties": {"collection_times": [{"days": "Mon-Fri", "time": "4:15pm"}, {"days": "Sat", "time": "4:00pm"}, {"days": "Sun", "time": "Closed"}], "id": "5216600000", "name": "USPS COLLECTION BOX - BLUE BOX", "address": {"city": "ST LUCAS", "state": "IA", "street": "106 S MAIN ST", "postcode": "52166"}}},
{"geometry": {"type": "Point", "coordinates": [-91.9331866206, 43.0666903181]}, "type": "Feature", "properties": {"collection_times": [{"days": "Mon-Fri", "time": "4:15pm"}, {"days": "Sat-Sun", "time": "Closed"}], "id": "5216600001", "name": "USPS COLLECTION BOX - PO LOBBY", "address": {"city": "ST LUCAS", "state": "IA", "street": "106 S MAIN ST", "postcode": "52166"}}},
{"geometry": {"type": "Point", "coordinates": [-91.9510058917, 43.2004096494]}, "type": "Feature", "properties": {"collection_times": [{"days": "Mon-Fri", "time": "3:30pm"}, {"days": "Sat", "time": "5:00pm"}, {"days": "Sun", "time": "Closed"}], "id": "5216800000", "name": "USPS COLLECTION BOX - BLUE BOX", "address": {"city": "SPILLVILLE", "state": "IA", "street": "211 S MAIN ST", "postcode": "52168"}}},
{"geometry": {"type": "Point", "coordinates": [-91.9510058917, 43.2004096494]}, "type": "Feature", "properties": {"collection_times": [{"days": "Mon-Fri", "time": "11:15am"}, {"days": "Sat", "time": "8:15am"}, {"days": "Sun", "time": "Closed"}], "id": "5216800001", "name": "USPS COLLECTION BOX - PO LOBBY", "address": {"city": "SPILLVILLE", "state": "IA", "street": "211 S MAIN ST", "postcode": "52168"}}},
{"geometry": {"type": "Point", "coordinates": [-91.6566760164, 42.8397598862]}, "type": "Feature", "properties": {"collection_times": [{"days": "Mon-Sat", "time": "4:30pm"}, {"days": "Sun", "time": "Closed"}], "id": "5216900000", "name": "USPS COLLECTION BOX - BLUE BOX", "address": {"city": "WADENA", "state": "IA", "street": "124 E 2ND AVE", "postcode": "52169"}}},
{"geometry": {"type": "Point", "coordinates": [-91.6566760164, 42.8397598862]}, "type": "Feature", "properties": {"collection_times": [{"days": "Mon-Fri", "time": "12:45pm"}, {"days": "Sat-Sun", "time": "Closed"}], "id": "5216900001", "name": "USPS COLLECTION BOX - PO LOBBY", "address": {"city": "WADENA", "state": "IA", "street": "124 E 2ND AVE", "postcode": "52169"}}},
{"geometry": {"type": "Point", "coordinates": [-92.0326006682, 43.0559548826]}, "type": "Feature", "properties": {"collection_times": [{"days": "Mon-Sat", "time": "4:00pm"}, {"days": "Sun", "time": "Closed"}], "id": "5217100000", "name": "USPS COLLECTION BOX - BLUE BOX", "address": {"city": "WAUCOMA", "state": "IA", "street": "106 RIVERVIEW DR", "postcode": "52171"}}},
{"geometry": {"type": "Point", "coordinates": [-92.0326006682, 43.0559548826]}, "type": "Feature", "properties": {"collection_times": [{"days": "Mon-Fri", "time": "11:15am"}, {"days": "Sat-Sun", "time": "Closed"}], "id": "5217100001", "name": "USPS COLLECTION BOX - PO LOBBY", "address": {"city": "WAUCOMA", "state": "IA", "street": "106 RIVERVIEW DR", "postcode": "52171"}}},
{"geometry": {"type": "Point", "coordinates": [-91.476943395, 43.2693368636]}, "type": "Feature", "properties": {"collection_times": [{"days": "Mon-Fri", "time": "4:30pm"}, {"days": "Sat", "time": "10:00am"}, {"days": "Sun", "time": "Closed"}], "id": "5217200000", "name": "USPS COLLECTION BOX - PO LOBBY", "address": {"city": "WAUKON", "state": "IA", "street": "113 W MAIN ST", "postcode": "52172"}}},
{"geometry": {"type": "Point", "coordinates": [-91.4787211389, 43.2693689065]}, "type": "Feature", "properties": {"collection_times": [{"days": "Mon-Fri", "time": "4:30pm"}, {"days": "Sat", "time": "5:15pm"}, {"days": "Sun", "time": "Closed"}], "id": "5217200001", "name": "USPS COLLECTION BOX - BLUE BOX", "address": {"city": "WAUKON", "state": "IA", "street": "11 2ND ST NW", "postcode": "52172"}}},
{"geometry": {"type": "Point", "coordinates": [-91.4756716491, 43.2702619684]}, "type": "Feature", "properties": {"collection_times": [{"days": "Mon-Fri", "time": "2:00pm"}, {"days": "Sat-Sun", "time": "Closed"}], "id": "5217200002", "name": "USPS COLLECTION BOX - BLUE BOX", "address": {"city": "WAUKON", "state": "IA", "street": "110 ALLAMAKEE ST", "postcode": "52172"}}},
{"geometry": {"type": "Point", "coordinates": [-91.4787211389, 43.2693689065]}, "type": "Feature", "properties": {"collection_times": [{"days": "Mon-Fri", "time": "4:30pm"}, {"days": "Sat", "time": "5:15pm"}, {"days": "Sun", "time": "Closed"}], "id": "5217200004", "name": "USPS COLLECTION BOX - BLUE BOX", "address": {"city": "WAUKON", "state": "IA", "street": "11 2ND ST NW", "postcode": "52172"}}},
{"geometry": {"type": "Point", "coordinates": [-91.8144374507, 42.9650669886]}, "type": "Feature", "properties": {"collection_times": [{"days": "Mon-Sat", "time": "11:00am"}, {"days": "Sun", "time": "Closed"}], "id": "5217500001", "name": "USPS COLLECTION BOX - BLUE BOX", "address": {"city": "WEST UNION", "state": "IA", "street": "303 HIGHWAY 150 N", "postcode": "52175"}}},
{"geometry": {"type": "Point", "coordinates": [-91.8080449237, 42.9614941812]}, "type": "Feature", "properties": {"collection_times": [{"days": "Mon-Fri", "time": "2:00pm"}, {"days": "Sat-Sun", "time": "Closed"}], "id": "5217500002", "name": "USPS COLLECTION BOX - BLUE BOX", "address": {"city": "WEST UNION", "state": "IA", "street": "114 N VINE ST", "postcode": "52175"}}},
{"geometry": {"type": "Point", "coordinates": [-91.8082758346, 42.9641898307]}, "type": "Feature", "properties": {"collection_times": [{"days": "Mon-Sat", "time": "4:45pm"}, {"days": "Sun", "time": "Closed"}], "id": "5217500004", "name": "USPS COLLECTION BOX - BLUE BOX", "address": {"city": "WEST UNION", "state": "IA", "street": "211 N VINE ST", "postcode": "52175"}}},
{"geometry": {"type": "Point", "coordinates": [-91.8082758346, 42.9641898307]}, "type": "Feature", "properties": {"collection_times": [{"days": "Mon-Sat", "time": "4:45pm"}, {"days": "Sun", "time": "Closed"}], "id": "5217500005", "name": "USPS COLLECTION BOX - BLUE BOX", "address": {"city": "WEST UNION", "state": "IA", "street": "211 N VINE ST", "postcode": "52175"}}},
{"geometry": {"type": "Point", "coordinates": [-91.8082758346, 42.9641898307]}, "type": "Feature", "properties": {"collection_times": [{"days": "Mon-Fri", "time": "4:45pm"}, {"days": "Sat", "time": "10:30am"}, {"days": "Sun", "time": "Closed"}], "id": "5217500006", "name": "USPS COLLECTION BOX - PO LOBBY", "address": {"city": "WEST UNION", "state": "IA", "street": "211 N VINE ST", "postcode": "52175"}}}
]}
