{"type": "FeatureCollection", "features": [
{"geometry": {"type": "Point", "coordinates": [-91.5499291064, 41.2887305128]}, "type": "Feature", "properties": {"collection_times": [{"days": "Mon-Sat", "time": "4:00pm"}, {"days": "Sun", "time": "Closed"}], "id": "5220100000", "name": "USPS COLLECTION BOX - BLUE BOX", "address": {"city": "AINSWORTH", "state": "IA", "street": "150 N RAILROAD ST", "postcode": "52201"}}},
{"geometry": {"type": "Point", "coordinates": [-91.5499291064, 41.2887305128]}, "type": "Feature", "properties": {"collection_times": [{"days": "Mon-Fri", "time": "10:45am"}, {"days": "Sat-Sun", "time": "Closed"}], "id": "5220100001", "name": "USPS COLLECTION BOX - PO LOBBY", "address": {"city": "AINSWORTH", "state": "IA", "street": "150 N RAILROAD ST", "postcode": "52201"}}},
{"geometry": {"type": "Point", "coordinates": [-91.5401475442, 41.2897323782]}, "type": "Feature", "properties": {"collection_times": [{"days": "Mon-Sat", "time": "11:00am"}, {"days": "Sun", "time": "Closed"}], "id": "5220100002", "name": "USPS COLLECTION BOX - BLUE BOX", "address": {"city": "AINSWORTH", "state": "IA", "street": "3118 HIGHWAY 92", "postcode": "52201"}}},
{"geometry": {"type": "Point", "coordinates": [-91.618573482, 42.1495070418]}, "type": "Feature", "properties": {"collection_times": [{"days": "Mon-Sat", "time": "4:30pm"}, {"days": "Sun", "time": "Closed"}], "id": "5220200000", "name": "USPS COLLECTION BOX - BLUE BOX", "address": {"city": "ALBURNETT", "state": "IA", "street": "101 N MAIN AVE", "postcode": "52202"}}},
{"geometry": {"type": "Point", "coordinates": [-91.618573482, 42.1495070418]}, "type": "Feature", "properties": {"collection_times": [{"days": "Mon-Fri", "time": "3:45pm"}, {"days": "Sat-Sun", "time": "Closed"}], "id": "5220200001", "name": "USPS COLLECTION BOX - PO LOBBY", "address": {"city": "ALBURNETT", "state": "IA", "street": "101 N MAIN AVE", "postcode": "52202"}}},
{"geometry": {"type": "Point", "coordinates": [-91.8755233834, 41.8003847493]}, "type": "Feature", "properties": {"collection_times": [{"days": "Mon-Sat", "time": "4:00pm"}, {"days": "Sun", "time": "Closed"}], "id": "5220300000", "name": "USPS COLLECTION BOX - BLUE BOX", "address": {"city": "AMANA", "state": "IA", "street": "4015 G ST", "postcode": "52203"}}},
{"geometry": {"type": "Point", "coordinates": [-91.8755233834, 41.8003847493]}, "type": "Feature", "properties": {"collection_times": [{"days": "Mon-Fri", "time": "4:00pm"}, {"days": "Sat-Sun", "time": "Closed"}], "id": "5220300002", "name": "USPS COLLECTION BOX - PO LOBBY", "address": {"city": "AMANA", "state": "IA", "street": "4015 G ST", "postcode": "52203"}}},
{"geometry": {"type": "Point", "coordinates": [-91.2888699112, 42.1082370899]}, "type": "Feature", "properties": {"collection_times": [{"days": "Mon-Fri", "time": "2:45pm"}, {"days": "Sat-Sun", "time": "Closed"}], "id": "5220500000", "name": "USPS COLLECTION BOX - BLUE BOX", "address": {"city": "ANAMOSA", "state": "IA", "street": "500 W MAIN ST", "postcode": "52205"}}},
{"geometry": {"type": "Point", "coordinates": [-91.2856529846, 42.1080554917]}, "type": "Feature", "properties": {"collection_times": [{"days": "Mon-Fri", "time": "5:00pm"}, {"days": "Sat", "time": "3:00pm"}, {"days": "Sun", "time": "Closed"}], "id": "5220500016", "name": "USPS COLLECTION BOX - BLUE BOX", "address": {"city": "ANAMOSA", "state": "IA", "street": "116 S FORD ST", "postcode": "52205"}}},
{"geometry": {"type": "Point", "coordinates": [-91.2856529846, 42.1080554917]}, "type": "Feature", "properties": {"collection_times": [{"days": "Mon-Fri", "time": "5:00pm"}, {"days": "Sat", "time": "3:00pm"}, {"days": "Sun", "time": "Closed"}], "id": "5220500017", "name": "USPS COLLECTION BOX - BLUE BOX", "address": {"city": "ANAMOSA", "state": "IA", "street": "116 S FORD ST", "postcode": "52205"}}},
{"geometry": {"type": "Point", "coordinates": [-91.2888699112, 42.1082370899]}, "type": "Feature", "properties": {"collection_times": [{"days": "Mon-Fri", "time": "2:45pm"}, {"days": "Sat-Sun", "time": "Closed"}], "id": "5220500018", "name": "USPS COLLECTION BOX - BLUE BOX", "address": {"city": "ANAMOSA", "state": "IA", "street": "500 W MAIN ST", "postcode": "52205"}}},
{"geometry": {"type": "Point", "coordinates": [-91.2856529846, 42.1080554917]}, "type": "Feature", "properties": {"collection_times": [{"days": "Mon-Fri", "time": "5:00pm"}, {"days": "Sat", "time": "10:30am"}, {"days": "Sun", "time": "Closed"}], "id": "5220500020", "name": "USPS COLLECTION BOX - PO LOBBY", "address": {"city": "ANAMOSA", "state": "IA", "street": "116 S FORD ST", "postcode": "52205"}}},
{"geometry": {"type": "Point", "coordinates": [-91.8620273547, 41.9962658112]}, "type": "Feature", "properties": {"collection_times": [{"days": "Mon-Fri", "time": "4:45pm"}, {"days": "Sat", "time": "4:00pm"}, {"days": "Sun", "time": "Closed"}], "id": "5220600000", "name": "USPS COLLECTION BOX - BLUE BOX", "address": {"city": "ATKINS", "state": "IA", "street": "87 MAIN AVE", "postcode": "52206"}}},
{"geometry": {"type": "Point", "coordinates": [-91.8620273547, 41.9962658112]}, "type": "Feature", "properties": {"collection_times": [{"days": "Mon-Fri", "time": "4:45pm"}, {"days": "Sat-Sun", "time": "Closed"}], "id": "5220600002", "name": "USPS COLLECTION BOX - PO LOBBY", "address": {"city": "ATKINS", "state": "IA", "street": "87 MAIN AVE", "postcode": "52206"}}},
{"geometry": {"type": "Point", "coordinates": [-93.4999706561, 42.0746980829]}, "type": "Feature", "properties": {"collection_times": [{"days": "Mon-Fri", "time": "3:30pm"}, {"days": "Sat", "time": "3:45pm"}, {"days": "Sun", "time": "Closed"}], "id": "5220700000", "name": "USPS COLLECTION BOX - BLUE BOX", "address": {"city": "BALDWIN", "state": "IA", "street": "4932 HIGHWAY 64", "postcode": "52207"}}},
{"geometry": {"type": "Point", "coordinates": [-93.4999706561, 42.0746980829]}, "type": "Feature", "properties": {"collection_times": [{"days": "Mon-Fri", "time": "11:15am"}, {"days": "Sat-Sun", "time": "Closed"}], "id": "5220700001", "name": "USPS COLLECTION BOX - PO LOBBY", "address": {"city": "BALDWIN", "state": "IA", "street": "4932 HIGHWAY 64", "postcode": "52207"}}},
{"geometry": {"type": "Point", "coordinates": [-92.2780786996, 41.8963365152]}, "type": "Feature", "properties": {"collection_times": [{"days": "Mon-Sat", "time": "2:00pm"}, {"days": "Sun", "time": "Closed"}], "id": "5220800000", "name": "USPS COLLECTION BOX - BLUE BOX", "address": {"city": "BELLE PLAINE", "state": "IA", "street": "1206 7TH AVE", "postcode": "52208"}}},
{"geometry": {"type": "Point", "coordinates": [-92.2704776157, 41.8971415959]}, "type": "Feature", "properties": {"collection_times": [{"days": "Mon-Fri", "time": "4:00pm"}, {"days": "Sat", "time": "3:45pm"}, {"days": "Sun", "time": "Closed"}], "id": "5220800003", "name": "USPS COLLECTION BOX - BLUE BOX", "address": {"city": "BELLE PLAINE", "state": "IA", "street": "1008 13TH ST", "postcode": "52208"}}},
{"geometry": {"type": "Point", "coordinates": [-92.2704776157, 41.8971415959]}, "type": "Feature", "properties": {"collection_times": [{"days": "Mon-Fri", "time": "4:00pm"}, {"days": "Sat", "time": "10:30am"}, {"days": "Sun", "time": "Closed"}], "id": "5220800006", "name": "USPS COLLECTION BOX - PO LOBBY", "address": {"city": "BELLE PLAINE", "state": "IA", "street": "1008 13TH ST", "postcode": "52208"}}},
{"geometry": {"type": "Point", "coordinates": [-92.0844943225, 41.9087813059]}, "type": "Feature", "properties": {"collection_times": [{"days": "Mon-Fri", "time": "4:15pm"}, {"days": "Sat", "time": "5:15pm"}, {"days": "Sun", "time": "Closed"}], "id": "5220900000", "name": "USPS COLLECTION BOX - BLUE BOX", "address": {"city": "BLAIRSTOWN", "state": "IA", "street": "311 LOCUST ST NW", "postcode": "52209"}}},
{"geometry": {"type": "Point", "coordinates": [-92.0844943225, 41.9087813059]}, "type": "Feature", "properties": {"collection_times": [{"days": "Mon-Fri", "time": "2:45pm"}, {"days": "Sat-Sun", "time": "Closed"}], "id": "5220900001", "name": "USPS COLLECTION BOX - PO LOBBY", "address": {"city": "BLAIRSTOWN", "state": "IA", "street": "311 LOCUST ST NW", "postcode": "52209"}}},
{"geometry": {"type": "Point", "coordinates": [-92.0050581719, 42.3145372964]}, "type": "Feature", "properties": {"collection_times": [{"days": "Mon-Fri", "time": "3:30pm"}, {"days": "Sat", "time": "3:00pm"}, {"days": "Sun", "time": "Closed"}], "id": "5221000000", "name": "USPS COLLECTION BOX - BLUE BOX", "address": {"city": "BRANDON", "state": "IA", "street": "704 MAIN ST", "postcode": "52210"}}},
{"geometry": {"type": "Point", "coordinates": [-92.0050581719, 42.3145372964]}, "type": "Feature", "properties": {"collection_times": [{"days": "Mon-Fri", "time": "11:00am"}, {"days": "Sat-Sun", "time": "Closed"}], "id": "5221000001", "name": "USPS COLLECTION BOX - PO LOBBY", "address": {"city": "BRANDON", "state": "IA", "street": "704 MAIN ST", "postcode": "52210"}}},
{"geometry": {"type": "Point", "coordinates": [-92.4459539656, 41.7283882763]}, "type": "Feature", "properties": {"collection_times": [{"days": "Mon-Fri", "time": "4:00pm"}, {"days": "Sat", "time": "3:30pm"}, {"days": "Sun", "time": "Closed"}], "id": "5221100000", "name": "USPS COLLECTION BOX - BLUE BOX", "address": {"city": "BROOKLYN", "state": "IA", "street": "127 W FRONT ST", "postcode": "52211"}}},
{"geometry": {"type": "Point", "coordinates": [-92.4459539656, 41.7283882763]}, "type": "Feature", "properties": {"collection_times": [{"days": "Mon-Fri", "time": "4:00pm"}, {"days": "Sat-Sun", "time": "Closed"}], "id": "5221100001", "name": "USPS COLLECTION BOX - PO LOBBY", "address": {"city": "BROOKLYN", "state": "IA", "street": "127 W FRONT ST", "postcode": "52211"}}},
{"geometry": {"type": "Point", "coordinates": [-92.3578454837, 41.699948809]}, "type": "Feature", "properties": {"collection_times": [{"days": "Mon-Sat", "time": "10:30am"}, {"days": "Sun", "time": "Closed"}], "id": "5221100002", "name": "USPS COLLECTION BOX - BLUE BOX", "address": {"city": "BROOKLYN", "state": "IA", "street": "4126 HIGHWAY 21", "postcode": "52211"}}},
{"geometry": {"type": "Point", "coordinates": [-91.0859077798, 42.115966212]}, "type": "Feature", "properties": {"collection_times": [{"days": "Mon-Sat", "time": "4:00pm"}, {"days": "Sun", "time": "Closed"}], "id": "5221200000", "name": "USPS COLLECTION BOX - BLUE BOX", "address": {"city": "CENTER JUNCTION", "state": "IA", "street": "203 N MAIN ST", "postcode": "52212"}}},
{"geometry": {"type": "Point", "coordinates": [-91.0859077798, 42.115966212]}, "type": "Feature", "properties": {"collection_times": [{"days": "Mon-Fri", "time": "11:15am"}, {"days": "Sat-Sun", "time": "Closed"}], "id": "5221200001", "name": "USPS COLLECTION BOX - PO LOBBY", "address": {"city": "CENTER JUNCTION", "state": "IA", "street": "203 N MAIN ST", "postcode": "52212"}}},
{"geometry": {"type": "Point", "coordinates": [-91.778149666, 42.179246573]}, "type": "Feature", "properties": {"collection_times": [{"days": "Mon-Fri", "time": "4:15pm"}, {"days": "Sat", "time": "4:00pm"}, {"days": "Sun", "time": "Closed"}], "id": "5221300000", "name": "USPS COLLECTION BOX - BLUE BOX", "address": {"city": "CENTER POINT", "state": "IA", "street": "708 MAIN ST", "postcode": "52213"}}},
{"geometry": {"type": "Point", "coordinates": [-91.778149666, 42.179246573]}, "type": "Feature", "properties": {"collection_times": [{"days": "Mon-Fri", "time": "4:15pm"}, {"days": "Sat", "time": "10:00am"}, {"days": "Sun", "time": "Closed"}], "id": "5221300002", "name": "USPS COLLECTION BOX - PO LOBBY", "address": {"city": "CENTER POINT", "state": "IA", "street": "708 MAIN ST", "postcode": "52213"}}},
{"geometry": {"type": "Point", "coordinates": [-91.5246183071, 42.2034508311]}, "type": "Feature", "properties": {"collection_times": [{"days": "Mon-Fri", "time": "4:15pm"}, {"days": "Sat", "time": "4:00pm"}, {"days": "Sun", "time": "Closed"}], "id": "5221400000", "name": "USPS COLLECTION BOX - BLUE BOX", "address": {"city": "CENTRAL CITY", "state": "IA", "street": "55 4TH ST S", "postcode": "52214"}}},
{"geometry": {"type": "Point", "coordinates": [-91.5246183071, 42.2034508311]}, "type": "Feature", "properties": {"collection_times": [{"days": "Mon-Fri", "time": "4:15pm"}, {"days": "Sat-Sun", "time": "Closed"}], "id": "5221400002", "name": "USPS COLLECTION BOX - PO LOBBY", "address": {"city": "CENTRAL CITY", "state": "IA", "street": "55 4TH ST S", "postcode": "52214"}}},
{"geometry": {"type": "Point", "coordinates": [-92.3859550699, 41.9035597135]}, "type": "Feature", "properties": {"collection_times": [{"days": "Mon-Fri", "time": "4:30pm"}, {"days": "Sat", "time": "3:45pm"}, {"days": "Sun", "time": "Closed"}], "id": "5221500000", "name": "USPS COLLECTION BOX - BLUE BOX", "address": {"city": "CHELSEA", "state": "IA", "street": "2899 HIGHWAY E66", "postcode": "52215"}}},
{"geometry": {"type": "Point", "coordinates": [-92.3859550699, 41.9035597135]}, "type": "Feature", "properties": {"collection_times": [{"days": "Mon-Fri", "time": "11:45am"}, {"days": "Sat-Sun", "time": "Closed"}], "id": "5221500002", "name": "USPS COLLECTION BOX - PO LOBBY", "address": {"city": "CHELSEA", "state": "IA", "street": "2899 HIGHWAY E66", "postcode": "52215"}}},
{"geometry": {"type": "Point", "coordinates": [-91.0564546515, 41.8883917022]}, "type": "Feature", "properties": {"collection_times": [{"days": "Mon-Sat", "time": "4:30pm"}, {"days": "Sun", "time": "Closed"}], "id": "5221600000", "name": "USPS COLLECTION BOX - BLUE BOX", "address": {"city": "CLARENCE", "state": "IA", "street": "310 6TH AVE", "postcode": "52216"}}},
{"geometry": {"type": "Point", "coordinates": [-91.0564546515, 41.8883917022]}, "type": "Feature", "properties": {"collection_times": [{"days": "Mon-Fri", "time": "4:00pm"}, {"days": "Sat-Sun", "time": "Closed"}], "id": "5221600001", "name": "USPS COLLECTION BOX - PO LOBBY", "address": {"city": "CLARENCE", "state": "IA", "street": "310 6TH AVE", "postcode": "52216"}}},
{"geometry": {"type": "Point", "coordinates": [-91.5308250406, 42.2809902358]}, "type": "Feature", "properties": {"collection_times": [{"days": "Mon-Sat", "time": "4:00pm"}, {"days": "Sun", "time": "Closed"}], "id": "5221800000", "name": "USPS COLLECTION BOX - BLUE BOX", "address": {"city": "COGGON", "state": "IA", "street": "112 E MAIN ST", "postcode": "52218"}}},
{"geometry": {"type": "Point", "coordinates": [-91.5308250406, 42.2809902358]}, "type": "Feature", "properties": {"collection_times": [{"days": "Mon-Fri", "time": "11:00am"}, {"days": "Sat-Sun", "time": "Closed"}], "id": "5221800001", "name": "USPS COLLECTION BOX - PO LOBBY", "address": {"city": "COGGON", "state": "IA", "street": "112 E MAIN ST", "postcode": "52218"}}},
{"geometry": {"type": "Point", "coordinates": [-92.0068951867, 41.7309981621]}, "type": "Feature", "properties": {"collection_times": [{"days": "Mon-Fri", "time": "4:45pm"}, {"days": "Sat", "time": "4:15pm"}, {"days": "Sun", "time": "Closed"}], "id": "5222000000", "name": "USPS COLLECTION BOX - BLUE BOX", "address": {"city": "CONROY", "state": "IA", "street": "572 7TH AVE", "postcode": "52220"}}},
{"geometry": {"type": "Point", "coordinates": [-92.0068951867, 41.7309981621]}, "type": "Feature", "properties": {"collection_times": [{"days": "Mon-Fri", "time": "4:45pm"}, {"days": "Sat-Sun", "time": "Closed"}], "id": "5222000001", "name": "USPS COLLECTION BOX - PO LOBBY", "address": {"city": "CONROY", "state": "IA", "street": "572 7TH AVE", "postcode": "52220"}}},
{"geometry": {"type": "Point", "coordinates": [-92.3736742916, 41.5800040622]}, "type": "Feature", "properties": {"collection_times": [{"days": "Mon-Sat", "time": "3:45pm"}, {"days": "Sun", "time": "Closed"}], "id": "5222200000", "name": "USPS COLLECTION BOX - BLUE BOX", "address": {"city": "DEEP RIVER", "state": "IA", "street": "400 MAIN ST", "postcode": "52222"}}},
{"geometry": {"type": "Point", "coordinates": [-92.3736742916, 41.5800040622]}, "type": "Feature", "properties": {"collection_times": [{"days": "Mon-Fri", "time": "10:45am"}, {"days": "Sat-Sun", "time": "Closed"}], "id": "5222200001", "name": "USPS COLLECTION BOX - PO LOBBY", "address": {"city": "DEEP RIVER", "state": "IA", "street": "400 MAIN ST", "postcode": "52222"}}},
{"geometry": {"type": "Point", "coordinates": [-91.3308631857, 42.4297464122]}, "type": "Feature", "properties": {"collection_times": [{"days": "Mon-Sat", "time": "4:00pm"}, {"days": "Sun", "time": "Closed"}], "id": "5222300000", "name": "USPS COLLECTION BOX - BLUE BOX", "address": {"city": "DELHI", "state": "IA", "street": "300 FRANKLIN ST", "postcode": "52223"}}},
{"geometry": {"type": "Point", "coordinates": [-91.3308631857, 42.4297464122]}, "type": "Feature", "properties": {"collection_times": [{"days": "Mon-Fri", "time": "3:00pm"}, {"days": "Sat-Sun", "time": "Closed"}], "id": "5222300001", "name": "USPS COLLECTION BOX - PO LOBBY", "address": {"city": "DELHI", "state": "IA", "street": "300 FRANKLIN ST", "postcode": "52223"}}},
{"geometry": {"type": "Point", "coordinates": [-92.3048034309, 42.1717145006]}, "type": "Feature", "properties": {"collection_times": [{"days": "Mon-Fri", "time": "4:00pm"}, {"days": "Sat", "time": "3:00pm"}, {"days": "Sun", "time": "Closed"}], "id": "5222400000", "name": "USPS COLLECTION BOX - BLUE BOX", "address": {"city": "DYSART", "state": "IA", "street": "306 JEFFERSON ST", "postcode": "52224"}}},
{"geometry": {"type": "Point", "coordinates": [-92.3048034309, 42.1717145006]}, "type": "Feature", "properties": {"collection_times": [{"days": "Mon-Fri", "time": "4:00pm"}, {"days": "Sat-Sun", "time": "Closed"}], "id": "5222400001", "name": "USPS COLLECTION BOX - PO LOBBY", "address": {"city": "DYSART", "state": "IA", "street": "306 JEFFERSON ST", "postcode": "52224"}}},
{"geometry": {"type": "Point", "coordinates": [-92.3169013109, 42.0058560098]}, "type": "Feature", "properties": {"collection_times": [{"days": "Mon-Sat", "time": "3:45pm"}, {"days": "Sun", "time": "Closed"}], "id": "5222500000", "name": "USPS COLLECTION BOX - BLUE BOX", "address": {"city": "ELBERON", "state": "IA", "street": "112 MAIN ST", "postcode": "52225"}}},
{"geometry": {"type": "Point", "coordinates": [-92.3169013109, 42.0058560098]}, "type": "Feature", "properties": {"collection_times": [{"days": "Mon-Fri", "time": "11:15am"}, {"days": "Sat-Sun", "time": "Closed"}], "id": "5222500001", "name": "USPS COLLECTION BOX - PO LOBBY", "address": {"city": "ELBERON", "state": "IA", "street": "112 MAIN ST", "postcode": "52225"}}},
{"geometry": {"type": "Point", "coordinates": [-91.5850804918, 41.8736023615]}, "type": "Feature", "properties": {"collection_times": [{"days": "Mon-Fri", "time": "4:00pm"}, {"days": "Sat", "time": "4:45pm"}, {"days": "Sun", "time": "Closed"}], "id": "5222700000", "name": "USPS COLLECTION BOX - BLUE BOX", "address": {"city": "ELY", "state": "IA", "street": "1690 DOWS ST", "postcode": "52227"}}},
{"geometry": {"type": "Point", "coordinates": [-91.5850804918, 41.8736023615]}, "type": "Feature", "properties": {"collection_times": [{"days": "Mon-Fri", "time": "2:45pm"}, {"days": "Sat-Sun", "time": "Closed"}], "id": "5222700003", "name": "USPS COLLECTION BOX - PO LOBBY", "address": {"city": "ELY", "state": "IA", "street": "1690 DOWS ST", "postcode": "52227"}}},
{"geometry": {"type": "Point", "coordinates": [-91.7808836078, 41.9190302613]}, "type": "Feature", "properties": {"collection_times": [{"days": "Mon-Fri", "time": "4:45pm"}, {"days": "Sat", "time": "5:00pm"}, {"days": "Sun", "time": "Closed"}], "id": "5222800000", "name": "USPS COLLECTION BOX - BLUE BOX", "address": {"city": "FAIRFAX", "state": "IA", "street": "418 VANDERBILT ST", "postcode": "52228"}}},
{"geometry": {"type": "Point", "coordinates": [-91.7808836078, 41.9190302613]}, "type": "Feature", "properties": {"collection_times": [{"days": "Mon-Fri", "time": "4:45pm"}, {"days": "Sat-Sun", "time": "Closed"}], "id": "5222800001", "name": "USPS COLLECTION BOX - PO LOBBY", "address": {"city": "FAIRFAX", "state": "IA", "street": "418 VANDERBILT ST", "postcode": "52228"}}},
{"geometry": {"type": "Point", "coordinates": [-92.1437406884, 42.1423281876]}, "type": "Feature", "properties": {"collection_times": [{"days": "Mon-Fri", "time": "4:00pm"}, {"days": "Sat", "time": "3:00pm"}, {"days": "Sun", "time": "Closed"}], "id": "5222900000", "name": "USPS COLLECTION BOX - BLUE BOX", "address": {"city": "GARRISON", "state": "IA", "street": "102 PINE ST", "postcode": "52229"}}},
{"geometry": {"type": "Point", "coordinates": [-92.1437406884, 42.1423281876]}, "type": "Feature", "properties": {"collection_times": [{"days": "Mon-Fri", "time": "12:45pm"}, {"days": "Sat-Sun", "time": "Closed"}], "id": "5222900001", "name": "USPS COLLECTION BOX - PO LOBBY", "address": {"city": "GARRISON", "state": "IA", "street": "102 PINE ST", "postcode": "52229"}}},
{"geometry": {"type": "Point", "coordinates": [-92.3443588985, 41.7847685067]}, "type": "Feature", "properties": {"collection_times": [{"days": "Mon-Sat", "time": "4:15pm"}, {"days": "Sun", "time": "Closed"}], "id": "5223200000", "name": "USPS COLLECTION BOX - BLUE BOX", "address": {"city": "HARTWICK", "state": "IA", "street": "209 MAIN ST", "postcode": "52232"}}},
{"geometry": {"type": "Point", "coordinates": [-91.67085, 42.03719]}, "type": "Feature", "properties": {"collection_times": [{"days": "Mon-Sat", "time": "4:45pm"}, {"days": "Sun", "time": "Closed"}], "id": "5223300000", "name": "USPS COLLECTION BOX - BLUE BOX", "address": {"city": "HIAWATHA", "state": "IA", "street": "99 E WILLMAN ST", "postcode": "52233"}}},
{"geometry": {"type": "Point", "coordinates": [-91.6705016111, 42.0372556152]}, "type": "Feature", "properties": {"collection_times": [{"days": "Mon-Fri", "time": "4:45pm"}, {"days": "Sat", "time": "11:00am"}, {"days": "Sun", "time": "Closed"}], "id": "5223300001", "name": "USPS COLLECTION BOX - PO LOBBY", "address": {"city": "HIAWATHA", "state": "IA", "street": "99 E WILLMAN ST", "postcode": "52233"}}},
{"geometry": {"type": "Point", "coordinates": [-91.6743307329, 42.0387077963]}, "type": "Feature", "properties": {"collection_times": [{"days": "Mon-Sat", "time": "1:00pm"}, {"days": "Sun", "time": "Closed"}], "id": "5223300002", "name": "USPS COLLECTION BOX - BLUE BOX", "address": {"city": "HIAWATHA", "state": "IA", "street": "101 EMMONS ST", "postcode": "52233"}}},
{"geometry": {"type": "Point", "coordinates": [-91.6718164999, 42.0374739329]}, "type": "Feature", "properties": {"collection_times": [{"days": "Mon-Sat", "time": "12:00pm"}, {"days": "Sun", "time": "Closed"}], "id": "5223300003", "name": "USPS COLLECTION BOX - BLUE BOX", "address": {"city": "HIAWATHA", "state": "IA", "street": "1440 BLAIRS FERRY RD", "postcode": "52233"}}},
{"geometry": {"type": "Point", "coordinates": [-91.6914203049, 42.0451978779]}, "type": "Feature", "properties": {"collection_times": [{"days": "Mon-Fri", "time": "2:30pm"}, {"days": "Sat", "time": "11:30am"}, {"days": "Sun", "time": "Closed"}], "id": "5223300005", "name": "USPS COLLECTION BOX - BLUE BOX", "address": {"city": "HIAWATHA", "state": "IA", "street": "805 N COMPTON DR", "postcode": "52233"}}},
{"geometry": {"type": "Point", "coordinates": [-91.6973249631, 42.0434819179]}, "type": "Feature", "properties": {"collection_times": [{"days": "Mon-Fri", "time": "12:00pm"}, {"days": "Sat", "time": "10:30am"}, {"days": "Sun", "time": "Closed"}], "id": "5223300007", "name": "USPS COLLECTION BOX - BLUE BOX", "address": {"city": "HIAWATHA", "state": "IA", "street": "460 N 18TH AVE", "postcode": "52233"}}},
{"geometry": {"type": "Point", "coordinates": [-91.5341616114, 41.5539274089]}, "type": "Feature", "properties": {"collection_times": [{"days": "Mon-Fri", "time": "4:00pm"}, {"days": "Sat", "time": "4:45pm"}, {"days": "Sun", "time": "Closed"}], "id": "5223500000", "name": "USPS COLLECTION BOX - BLUE BOX", "address": {"city": "HILLS", "state": "IA", "street": "14 EAST AVE", "postcode": "52235"}}},
{"geometry": {"type": "Point", "coordinates": [-91.5341616114, 41.5539274089]}, "type": "Feature", "properties": {"collection_times": [{"days": "Mon-Fri", "time": "4:00pm"}, {"days": "Sat-Sun", "time": "Closed"}], "id": "5223500001", "name": "USPS COLLECTION BOX - PO LOBBY", "address": {"city": "HILLS", "state": "IA", "street": "14 EAST AVE", "postcode": "52235"}}},
{"geometry": {"type": "Point", "coordinates": [-91.2483237429, 42.3436765962]}, "type": "Feature", "properties": {"collection_times": [{"days": "Mon-Sat", "time": "4:00pm"}, {"days": "Sun", "time": "Closed"}], "id": "5223700000", "name": "USPS COLLECTION BOX - BLUE BOX", "address": {"city": "HOPKINTON", "state": "IA", "street": "104 1ST ST SW", "postcode": "52237"}}},
{"geometry": {"type": "Point", "coordinates": [-91.2483237429, 42.3436765962]}, "type": "Feature", "properties": {"collection_times": [{"days": "Mon-Fri", "time": "11:45am"}, {"days": "Sat-Sun", "time": "Closed"}], "id": "5223700001", "name": "USPS COLLECTION BOX - PO LOBBY", "address": {"city": "HOPKINTON", "state": "IA", "street": "104 1ST ST SW", "postcode": "52237"}}},
{"geometry": {"type": "Point", "coordinates": [-91.5211273622, 41.6548579564]}, "type": "Feature", "properties": {"collection_times": [{"days": "Mon-Sat", "time": "9:00am"}, {"days": "Sun", "time": "Closed"}], "id": "5224000003", "name": "USPS COLLECTION BOX - BLUE BOX", "address": {"city": "IOWA CITY", "state": "IA", "street": "540 S SUMMIT ST", "postcode": "52240"}}},
{"geometry": {"type": "Point", "coordinates": [-91.5006439988, 41.648990507]}, "type": "Feature", "properties": {"collection_times": [{"days": "Mon-Sat", "time": "3:00pm"}, {"days": "Sun", "time": "Closed"}], "id": "5224000004", "name": "USPS COLLECTION BOX - BLUE BOX", "address": {"city": "IOWA CITY", "state": "IA", "street": "1035 WADE ST", "postcode": "52240"}}},
{"geometry": {"type": "Point", "coordinates": [-91.4987142232, 41.6483184469]}, "type": "Feature", "properties": {"collection_times": [{"days": "Mon-Sat", "time": "3:00pm"}, {"days": "Sun", "time": "Closed"}], "id": "5224000005", "name": "USPS COLLECTION BOX - BLUE BOX", "address": {"city": "IOWA CITY", "state": "IA", "street": "1040 WILLIAM ST", "postcode": "52240"}}},
{"geometry": {"type": "Point", "coordinates": [-91.5298860278, 41.647766581]}, "type": "Feature", "properties": {"collection_times": [{"days": "Mon-Sat", "time": "9:30am"}, {"days": "Sun", "time": "Closed"}], "id": "5224000016", "name": "USPS COLLECTION BOX - BLUE BOX", "address": {"city": "IOWA CITY", "state": "IA", "street": "1105 GILBERT CT", "postcode": "52240"}}},
{"geometry": {"type": "Point", "coordinates": [-91.5155016521, 41.6566088062]}, "type": "Feature", "properties": {"collection_times": [{"days": "Mon-Sat", "time": "9:30am"}, {"days": "Sun", "time": "Closed"}], "id": "5224000021", "name": "USPS COLLECTION BOX - BLUE BOX", "address": {"city": "IOWA CITY", "state": "IA", "street": "409 GRANT ST", "postcode": "52240"}}},
{"geometry": {"type": "Point", "coordinates": [-91.5301747027, 41.6401254079]}, "type": "Feature", "properties": {"collection_times": [{"days": "Mon-Sat", "time": "12:00pm"}, {"days": "Sun", "time": "Closed"}], "id": "5224000039", "name": "USPS COLLECTION BOX - BLUE BOX", "address": {"city": "IOWA CITY", "state": "IA", "street": "2018 WATERFRONT DR", "postcode": "52240"}}},
{"geometry": {"type": "Point", "coordinates": [-91.4900366942, 41.631294759]}, "type": "Feature", "properties": {"collection_times": [{"days": "Mon-Sat", "time": "10:00am"}, {"days": "Sun", "time": "Closed"}], "id": "5224000044", "name": "USPS COLLECTION BOX - BLUE BOX", "address": {"city": "IOWA CITY", "state": "IA", "street": "2801 HIGHWAY 6 E", "postcode": "52240"}}},
{"geometry": {"type": "Point", "coordinates": [-91.5315851314, 41.6608382138]}, "type": "Feature", "properties": {"collection_times": [{"days": "Mon-Sat", "time": "3:00pm"}, {"days": "Sun", "time": "Closed"}], "id": "5224000081", "name": "USPS COLLECTION BOX - BLUE BOX", "address": {"city": "IOWA CITY", "state": "IA", "street": "28 S LINN ST", "postcode": "52240"}}},
{"geometry": {"type": "Point", "coordinates": [-91.5332633299, 41.6509108147]}, "type": "Feature", "properties": {"collection_times": [{"days": "Mon-Fri", "time": "3:00pm"}, {"days": "Sat-Sun", "time": "Closed"}], "id": "5224000082", "name": "USPS COLLECTION BOX - BLUE BOX", "address": {"city": "IOWA CITY", "state": "IA", "street": "913 S DUBUQUE ST", "postcode": "52240"}}},
{"geometry": {"type": "Point", "coordinates": [-91.5058649235, 41.6420522123]}, "type": "Feature", "properties": {"collection_times": [{"days": "Mon-Sat", "time": "2:30pm"}, {"days": "Sun", "time": "Closed"}], "id": "5224000086", "name": "USPS COLLECTION BOX - BLUE BOX", "address": {"city": "IOWA CITY", "state": "IA", "street": "1700 S 1ST AVE", "postcode": "52240"}}},
{"geometry": {"type": "Point", "coordinates": [-91.5345401795, 41.6565858902]}, "type": "Feature", "properties": {"collection_times": [{"days": "Mon-Sat", "time": "5:30pm"}, {"days": "Sun", "time": "Closed"}], "id": "5224000101", "name": "USPS COLLECTION BOX - BLUE BOX", "address": {"city": "IOWA CITY", "state": "IA", "street": "400 S CLINTON ST", "postcode": "52240"}}},
{"geometry": {"type": "Point", "coordinates": [-91.5058649235, 41.6420522123]}, "type": "Feature", "properties": {"collection_times": [{"days": "Mon-Sat", "time": "2:30pm"}, {"days": "Sun", "time": "Closed"}], "id": "5224000104", "name": "USPS COLLECTION BOX - BLUE BOX", "address": {"city": "IOWA CITY", "state": "IA", "street": "1700 S 1ST AVE", "postcode": "52240"}}},
{"geometry": {"type": "Point", "coordinates": [-91.5115494028, 41.6428064967]}, "type": "Feature", "properties": {"collection_times": [{"days": "Mon-Fri", "time": "2:00pm"}, {"days": "Sat", "time": "10:00am"}, {"days": "Sun", "time": "Closed"}], "id": "5224000105", "name": "USPS COLLECTION BOX - BLUE BOX", "address": {"city": "IOWA CITY", "state": "IA", "street": "1620 SYCAMORE ST", "postcode": "52240"}}},
{"geometry": {"type": "Point", "coordinates": [-91.5217030229, 41.6423226186]}, "type": "Feature", "properties": {"collection_times": [{"days": "Mon-Sat", "time": "5:30pm"}, {"days": "Sun", "time": "Closed"}], "id": "5224000114", "name": "USPS COLLECTION BOX - BLUE BOX", "address": {"city": "IOWA CITY", "state": "IA", "street": "925 HIGHWAY 6 E", "postcode": "52240"}}},
{"geometry": {"type": "Point", "coordinates": [-91.5217030229, 41.6423226186]}, "type": "Feature", "properties": {"collection_times": [{"days": "Mon-Sat", "time": "5:30pm"}, {"days": "Sun", "time": "Closed"}], "id": "5224000128", "name": "USPS COLLECTION BOX - PO LOBBY", "address": {"city": "IOWA CITY", "state": "IA", "street": "925 HIGHWAY 6 E", "postcode": "52240"}}},
{"geometry": {"type": "Point", "coordinates": [-91.5346988167, 41.6589464467]}, "type": "Feature", "properties": {"collection_times": [{"days": "Mon-Fri", "time": "2:00pm"}, {"days": "Sat", "time": "10:00am"}, {"days": "Sun", "time": "Closed"}], "id": "5224000129", "name": "USPS COLLECTION BOX - BLUE BOX", "address": {"city": "IOWA CITY", "state": "IA", "street": "201 S CLINTON ST", "postcode": "52240"}}},
{"geometry": {"type": "Point", "coordinates": [-91.511649283, 41.6521861257]}, "type": "Feature", "properties": {"collection_times": [{"days": "Mon-Sat", "time": "11:00am"}, {"days": "Sun", "time": "Closed"}], "id": "5224000131", "name": "USPS COLLECTION BOX - BLUE BOX", "address": {"city": "IOWA CITY", "state": "IA", "street": "801 S 7TH AVE", "postcode": "52240"}}},
{"geometry": {"type": "Point", "coordinates": [-91.5217030229, 41.6423226186]}, "type": "Feature", "properties": {"collection_times": [{"days": "Mon-Sat", "time": "5:30pm"}, {"days": "Sun", "time": "Closed"}], "id": "5224000132", "name": "USPS COLLECTION BOX - APC", "address": {"city": "IOWA CITY", "state": "IA", "street": "925 HIGHWAY 6 E", "postcode": "52240"}}},
{"geometry": {"type": "Point", "coordinates": [-91.5217030229, 41.6423226186]}, "type": "Feature", "properties": {"collection_times": [{"days": "Mon-Sat", "time": "5:30pm"}, {"days": "Sun", "time": "Closed"}], "id": "5224000133", "name": "USPS COLLECTION BOX - BLUE BOX", "address": {"city": "IOWA CITY", "state": "IA", "street": "925 HIGHWAY 6 E", "postcode": "52240"}}},
{"geometry": {"type": "Point", "coordinates": [-91.595606093, 41.679932366]}, "type": "Feature", "properties": {"collection_times": [{"days": "Mon-Fri", "time": "5:15pm"}, {"days": "Sat", "time": "4:00pm"}, {"days": "Sun", "time": "Closed"}], "id": "5224100000", "name": "USPS COLLECTION BOX - BLUE BOX", "address": {"city": "IOWA CITY", "state": "IA", "street": "2150 JAMES ST", "postcode": "52241"}}},
{"geometry": {"type": "Point", "coordinates": [-91.6175063236, 41.6928981579]}, "type": "Feature", "properties": {"collection_times": [{"days": "Mon-Sat", "time": "9:00am"}, {"days": "Sun", "time": "Closed"}], "id": "5224100002", "name": "USPS COLLECTION BOX - BLUE BOX", "address": {"city": "IOWA CITY", "state": "IA", "street": "3701 2ND ST", "postcode": "52241"}}},
{"geometry": {"type": "Point", "coordinates": [-91.6112002524, 41.6958191096]}, "type": "Feature", "properties": {"collection_times": [{"days": "Mon-Sat", "time": "9:30am"}, {"days": "Sun", "time": "Closed"}], "id": "5224100003", "name": "USPS COLLECTION BOX - BLUE BOX", "address": {"city": "IOWA CITY", "state": "IA", "street": "2801 COMMERCE DR", "postcode": "52241"}}},
{"geometry": {"type": "Point", "coordinates": [-91.6059302856, 41.700228425]}, "type": "Feature", "properties": {"collection_times": [{"days": "Mon-Sat", "time": "9:30am"}, {"days": "Sun", "time": "Closed"}], "id": "5224100008", "name": "USPS COLLECTION BOX - BLUE BOX", "address": {"city": "IOWA CITY", "state": "IA", "street": "2551 HOLIDAY RD", "postcode": "52241"}}},
{"geometry": {"type": "Point", "coordinates": [-91.5626938171, 41.7012773329]}, "type": "Feature", "properties": {"collection_times": [{"days": "Mon-Sat", "time": "11:00am"}, {"days": "Sun", "time": "Closed"}], "id": "5224100010", "name": "USPS COLLECTION BOX - BLUE BOX", "address": {"city": "IOWA CITY", "state": "IA", "street": "100 E OAKDALE BLVD", "postcode": "52241"}}},
{"geometry": {"type": "Point", "coordinates": [-91.595606093, 41.679932366]}, "type": "Feature", "properties": {"collection_times": [{"days": "Mon-Fri", "time": "5:15pm"}, {"days": "Sat", "time": "4:00pm"}, {"days": "Sun", "time": "Closed"}], "id": "5224100013", "name": "USPS COLLECTION BOX - PO LOBBY", "address": {"city": "IOWA CITY", "state": "IA", "street": "2150 JAMES ST", "postcode": "52241"}}},
{"geometry": {"type": "Point", "coordinates": [-91.5784283644, 41.67340816]}, "type": "Feature", "properties": {"collection_times": [{"days": "Mon-Sat", "time": "2:00pm"}, {"days": "Sun", "time": "Closed"}], "id": "5224100014", "name": "USPS COLLECTION BOX - BLUE BOX", "address": {"city": "IOWA CITY", "state": "IA", "street": "420 10TH AVE", "postcode": "52241"}}},
{"geometry": {"type": "Point", "coordinates": [-91.5349370209, 41.6616577604]}, "type": "Feature", "properties": {"collection_times": [{"days": "Mon-Sat", "time": "2:00pm"}, {"days": "Sun", "time": "Closed"}], "id": "5224200004", "name": "USPS COLLECTION BOX - BLUE BOX", "address": {"city": "IOWA CITY", "state": "IA", "street": "100 MACBRIDE HALL", "postcode": "52242"}}},
{"geometry": {"type": "Point", "coordinates": [-91.5455451064, 41.6607788122]}, "type": "Feature", "properties": {"collection_times": [{"days": "Mon-Sat", "time": "2:00pm"}, {"days": "Sun", "time": "Closed"}], "id": "5224200005", "name": "USPS COLLECTION BOX - BLUE BOX", "address": {"city": "IOWA CITY", "state": "IA", "street": "100 MAIN LIBRARY", "postcode": "52242"}}},
{"geometry": {"type": "Point", "coordinates": [-91.5019953758, 41.6651698316]}, "type": "Feature", "properties": {"collection_times": [{"days": "Mon-Sat", "time": "2:00pm"}, {"days": "Sun", "time": "Closed"}], "id": "5224500000", "name": "USPS COLLECTION BOX - BLUE BOX", "address": {"city": "IOWA CITY", "state": "IA", "street": "310 N 1ST AVE", "postcode": "52245"}}},
{"geometry": {"type": "Point", "coordinates": [-91.5266117485, 41.6701782449]}, "type": "Feature", "properties": {"collection_times": [{"days": "Mon-Sat", "time": "10:30am"}, {"days": "Sun", "time": "Closed"}], "id": "5224500002", "name": "USPS COLLECTION BOX - BLUE BOX", "address": {"city": "IOWA CITY", "state": "IA", "street": "632 BROWN ST", "postcode": "52245"}}},
{"geometry": {"type": "Point", "coordinates": [-91.5344576326, 41.6658165298]}, "type": "Feature", "properties": {"collection_times": [{"days": "Mon-Sat", "time": "1:00pm"}, {"days": "Sun", "time": "Closed"}], "id": "5224500003", "name": "USPS COLLECTION BOX - BLUE BOX", "address": {"city": "IOWA CITY", "state": "IA", "street": "400 N CLINTON ST", "postcode": "52245"}}},
{"geometry": {"type": "Point", "coordinates": [-91.5256865393, 41.6656800267]}, "type": "Feature", "properties": {"collection_times": [{"days": "Mon-Sat", "time": "11:30am"}, {"days": "Sun", "time": "Closed"}], "id": "5224500004", "name": "USPS COLLECTION BOX - BLUE BOX", "address": {"city": "IOWA CITY", "state": "IA", "street": "701 E DAVENPORT ST", "postcode": "52245"}}},
{"geometry": {"type": "Point", "coordinates": [-91.5329241792, 41.6680411944]}, "type": "Feature", "properties": {"collection_times": [{"days": "Mon-Sat", "time": "10:00am"}, {"days": "Sun", "time": "Closed"}], "id": "5224500006", "name": "USPS COLLECTION BOX - BLUE BOX", "address": {"city": "IOWA CITY", "state": "IA", "street": "602 N DUBUQUE ST", "postcode": "52245"}}},
{"geometry": {"type": "Point", "coordinates": [-91.528647992, 41.6613537605]}, "type": "Feature", "properties": {"collection_times": [{"days": "Mon-Sat", "time": "3:00pm"}, {"days": "Sun", "time": "Closed"}], "id": "5224500010", "name": "USPS COLLECTION BOX - BLUE BOX", "address": {"city": "IOWA CITY", "state": "IA", "street": "500 IOWA AVE", "postcode": "52245"}}},
{"geometry": {"type": "Point", "coordinates": [-91.5017060904, 41.6515487981]}, "type": "Feature", "properties": {"collection_times": [{"days": "Mon-Sat", "time": "2:30pm"}, {"days": "Sun", "time": "Closed"}], "id": "5224500018", "name": "USPS COLLECTION BOX - BLUE BOX", "address": {"city": "IOWA CITY", "state": "IA", "street": "812 S 1ST AVE", "postcode": "52245"}}},
{"geometry": {"type": "Point", "coordinates": [-91.5748525084, 41.6531853678]}, "type": "Feature", "properties": {"collection_times": [{"days": "Mon-Sat", "time": "10:00am"}, {"days": "Sun", "time": "Closed"}], "id": "5224600000", "name": "USPS COLLECTION BOX - BLUE BOX", "address": {"city": "IOWA CITY", "state": "IA", "street": "2626 BARTELT RD", "postcode": "52246"}}},
{"geometry": {"type": "Point", "coordinates": [-91.5546677802, 41.650381639]}, "type": "Feature", "properties": {"collection_times": [{"days": "Mon-Sat", "time": "9:00am"}, {"days": "Sun", "time": "Closed"}], "id": "5224600001", "name": "USPS COLLECTION BOX - BLUE BOX", "address": {"city": "IOWA CITY", "state": "IA", "street": "1101 W BENTON ST", "postcode": "52246"}}},
{"geometry": {"type": "Point", "coordinates": [-91.572334059, 41.6566629443]}, "type": "Feature", "properties": {"collection_times": [{"days": "Mon-Sat", "time": "9:30am"}, {"days": "Sun", "time": "Closed"}], "id": "5224600002", "name": "USPS COLLECTION BOX - BLUE BOX", "address": {"city": "IOWA CITY", "state": "IA", "street": "303 FINKBINE LN", "postcode": "52246"}}},
{"geometry": {"type": "Point", "coordinates": [-91.553143452, 41.6569100551]}, "type": "Feature", "properties": {"collection_times": [{"days": "Mon-Sat", "time": "10:00am"}, {"days": "Sun", "time": "Closed"}], "id": "5224600008", "name": "USPS COLLECTION BOX - BLUE BOX", "address": {"city": "IOWA CITY", "state": "IA", "street": "1006 MELROSE AVE", "postcode": "52246"}}},
{"geometry": {"type": "Point", "coordinates": [-91.5740604126, 41.6536447191]}, "type": "Feature", "properties": {"collection_times": [{"days": "Mon-Sat", "time": "2:00pm"}, {"days": "Sun", "time": "Closed"}], "id": "5224600009", "name": "USPS COLLECTION BOX - BLUE BOX", "address": {"city": "IOWA CITY", "state": "IA", "street": "701 MORMON TREK BLVD", "postcode": "52246"}}},
{"geometry": {"type": "Point", "coordinates": [-91.5544571911, 41.6521352202]}, "type": "Feature", "properties": {"collection_times": [{"days": "Mon-Sat", "time": "9:00am"}, {"days": "Sun", "time": "Closed"}], "id": "5224600011", "name": "USPS COLLECTION BOX - BLUE BOX", "address": {"city": "IOWA CITY", "state": "IA", "street": "1014 OAKCREST ST", "postcode": "52246"}}},
{"geometry": {"type": "Point", "coordinates": [-91.5436397092, 41.66753707]}, "type": "Feature", "properties": {"collection_times": [{"days": "Mon-Sat", "time": "10:00am"}, {"days": "Sun", "time": "Closed"}], "id": "5224600013", "name": "USPS COLLECTION BOX - BLUE BOX", "address": {"city": "IOWA CITY", "state": "IA", "street": "329 RIVER ST", "postcode": "52246"}}},
{"geometry": {"type": "Point", "coordinates": [-91.5409906569, 41.6472426539]}, "type": "Feature", "properties": {"collection_times": [{"days": "Mon-Sat", "time": "10:00am"}, {"days": "Sun", "time": "Closed"}], "id": "5224600015", "name": "USPS COLLECTION BOX - BLUE BOX", "address": {"city": "IOWA CITY", "state": "IA", "street": "31 HWY 1 S", "postcode": "52246"}}},
{"geometry": {"type": "Point", "coordinates": [-91.5395777833, 41.6304383629]}, "type": "Feature", "properties": {"collection_times": [{"days": "Mon-Sat", "time": "11:30am"}, {"days": "Sun", "time": "Closed"}], "id": "5224600019", "name": "USPS COLLECTION BOX - BLUE BOX", "address": {"city": "IOWA CITY", "state": "IA", "street": "2527 S RIVERSIDE DR", "postcode": "52246"}}},
{"geometry": {"type": "Point", "coordinates": [-91.5677255151, 41.6370580651]}, "type": "Feature", "properties": {"collection_times": [{"days": "Mon-Sat", "time": "10:00am"}, {"days": "Sun", "time": "Closed"}], "id": "5224600020", "name": "USPS COLLECTION BOX - BLUE BOX", "address": {"city": "IOWA CITY", "state": "IA", "street": "2312 MORMON TREK BLVD", "postcode": "52246"}}},
{"geometry": {"type": "Point", "coordinates": [-91.6481570415, 41.6382551074]}, "type": "Feature", "properties": {"collection_times": [{"days": "Mon-Fri", "time": "1:00pm"}, {"days": "Sat", "time": "9:00am"}, {"days": "Sun", "time": "Closed"}], "id": "5224600021", "name": "USPS COLLECTION BOX - BLUE BOX", "address": {"city": "IOWA CITY", "state": "IA", "street": "100 MEDICAL EDUCATION BLDG", "postcode": "52246"}}},
{"geometry": {"type": "Point", "coordinates": [-91.7062169533, 41.4839215563]}, "type": "Feature", "properties": {"collection_times": [{"days": "Mon-Sat", "time": "5:00pm"}, {"days": "Sun", "time": "Closed"}], "id": "5224700001", "name": "USPS COLLECTION BOX - BLUE BOX", "address": {"city": "KALONA", "state": "IA", "street": "302 5TH ST", "postcode": "52247"}}},
{"geometry": {"type": "Point", "coordinates": [-91.7062169533, 41.4839215563]}, "type": "Feature", "properties": {"collection_times": [{"days": "Mon-Fri", "time": "5:00pm"}, {"days": "Sat", "time": "11:00am"}, {"days": "Sun", "time": "Closed"}], "id": "5224700003", "name": "USPS COLLECTION BOX - PO LOBBY", "address": {"city": "KALONA", "state": "IA", "street": "302 5TH ST", "postcode": "52247"}}},
{"geometry": {"type": "Point", "coordinates": [-91.952051198, 41.3638955983]}, "type": "Feature", "properties": {"collection_times": [{"days": "Mon-Fri", "time": "4:00pm"}, {"days": "Sat", "time": "3:45pm"}, {"days": "Sun", "time": "Closed"}], "id": "5224800000", "name": "USPS COLLECTION BOX - BLUE BOX", "address": {"city": "KEOTA", "state": "IA", "street": "307 E BROADWAY AVE", "postcode": "52248"}}},
{"geometry": {"type": "Point", "coordinates": [-91.952051198, 41.3638955983]}, "type": "Feature", "properties": {"collection_times": [{"days": "Mon-Fri", "time": "4:00pm"}, {"days": "Sat", "time": "10:15am"}, {"days": "Sun", "time": "Closed"}], "id": "5224800001", "name": "USPS COLLECTION BOX - PO LOBBY", "address": {"city": "KEOTA", "state": "IA", "street": "307 E BROADWAY AVE", "postcode": "52248"}}},
{"geometry": {"type": "Point", "coordinates": [-91.9382756579, 41.3421976096]}, "type": "Feature", "properties": {"collection_times": [{"days": "Mon-Fri", "time": "4:15pm"}, {"days": "Sat", "time": "3:45pm"}, {"days": "Sun", "time": "Closed"}], "id": "5224800002", "name": "USPS COLLECTION BOX - BLUE BOX", "address": {"city": "KEOTA", "state": "IA", "street": "208 MAIN ST", "postcode": "52248"}}},
{"geometry": {"type": "Point", "coordinates": [-92.1980849512, 41.9990957301]}, "type": "Feature", "properties": {"collection_times": [{"days": "Mon-Fri", "time": "4:15pm"}, {"days": "Sat", "time": "3:45pm"}, {"days": "Sun", "time": "Closed"}], "id": "5224900000", "name": "USPS COLLECTION BOX - BLUE BOX", "address": {"city": "KEYSTONE", "state": "IA", "street": "87 MAIN ST", "postcode": "52249"}}},
{"geometry": {"type": "Point", "coordinates": [-92.1980849512, 41.9990957301]}, "type": "Feature", "properties": {"collection_times": [{"days": "Mon-Fri", "time": "3:45pm"}, {"days": "Sat-Sun", "time": "Closed"}], "id": "5224900001", "name": "USPS COLLECTION BOX - PO LOBBY", "address": {"city": "KEYSTONE", "state": "IA", "street": "87 MAIN ST", "postcode": "52249"}}},
{"geometry": {"type": "Point", "coordinates": [-92.1812938282, 41.7554261317]}, "type": "Feature", "properties": {"collection_times": [{"days": "Mon-Fri", "time": "4:30pm"}, {"days": "Sat", "time": "3:45pm"}, {"days": "Sun", "time": "Closed"}], "id": "5225100001", "name": "USPS COLLECTION BOX - BLUE BOX", "address": {"city": "LADORA", "state": "IA", "street": "605 PACIFIC ST", "postcode": "52251"}}},
{"geometry": {"type": "Point", "coordinates": [-92.1812938282, 41.7554261317]}, "type": "Feature", "properties": {"collection_times": [{"days": "Mon-Fri", "time": "1:45pm"}, {"days": "Sat-Sun", "time": "Closed"}], "id": "5225100002", "name": "USPS COLLECTION BOX - PO LOBBY", "address": {"city": "LADORA", "state": "IA", "street": "605 PACIFIC ST", "postcode": "52251"}}},
{"geometry": {"type": "Point", "coordinates": [-91.3858984169, 41.9212187379]}, "type": "Feature", "properties": {"collection_times": [{"days": "Mon-Fri", "time": "4:00pm"}, {"days": "Sat", "time": "4:30pm"}, {"days": "Sun", "time": "Closed"}], "id": "5225300000", "name": "USPS COLLECTION BOX - BLUE BOX", "address": {"city": "LISBON", "state": "IA", "street": "129 W MAIN ST", "postcode": "52253"}}},
{"geometry": {"type": "Point", "coordinates": [-91.3858984169, 41.9212187379]}, "type": "Feature", "properties": {"collection_times": [{"days": "Mon-Fri", "time": "4:00pm"}, {"days": "Sat", "time": "11:00am"}, {"days": "Sun", "time": "Closed"}], "id": "5225300001", "name": "USPS COLLECTION BOX - PO LOBBY", "address": {"city": "LISBON", "state": "IA", "street": "129 W MAIN ST", "postcode": "52253"}}},
{"geometry": {"type": "Point", "coordinates": [-90.8182713744, 41.9630635245]}, "type": "Feature", "properties": {"collection_times": [{"days": "Mon-Fri", "time": "3:45pm"}, {"days": "Sat", "time": "3:00pm"}, {"days": "Sun", "time": "Closed"}], "id": "5225400000", "name": "USPS COLLECTION BOX - BLUE BOX", "address": {"city": "LOST NATION", "state": "IA", "street": "415 MAIN ST", "postcode": "52254"}}},
{"geometry": {"type": "Point", "coordinates": [-90.8182713744, 41.9630635245]}, "type": "Feature", "properties": {"collection_times": [{"days": "Mon-Fri", "time": "11:00am"}, {"days": "Sat", "time": "8:15am"}, {"days": "Sun", "time": "Closed"}], "id": "5225400001", "name": "USPS COLLECTION BOX - PO LOBBY", "address": {"city": "LOST NATION", "state": "IA", "street": "415 MAIN ST", "postcode": "52254"}}},
{"geometry": {"type": "Point", "coordinates": [-90.9266516433, 41.8576108397]}, "type": "Feature", "properties": {"collection_times": [{"days": "Mon-Fri", "time": "4:00pm"}, {"days": "Sat", "time": "3:45pm"}, {"days": "Sun", "time": "Closed"}], "id": "5225500000", "name": "USPS COLLECTION BOX - BLUE BOX", "address": {"city": "LOWDEN", "state": "IA", "street": "308 WASHINGTON AVE", "postcode": "52255"}}},
{"geometry": {"type": "Point", "coordinates": [-90.9266516433, 41.8576108397]}, "type": "Feature", "properties": {"collection_times": [{"days": "Mon-Fri", "time": "3:15pm"}, {"days": "Sat-Sun", "time": "Closed"}], "id": "5225500001", "name": "USPS COLLECTION BOX - PO LOBBY", "address": {"city": "LOWDEN", "state": "IA", "street": "308 WASHINGTON AVE", "postcode": "52255"}}},
{"geometry": {"type": "Point", "coordinates": [-92.1806010138, 41.9060673381]}, "type": "Feature", "properties": {"collection_times": [{"days": "Mon-Sat", "time": "8:00am"}, {"days": "Sun", "time": "Closed"}], "id": "5225700000", "name": "USPS COLLECTION BOX - BLUE BOX", "address": {"city": "LUZERNE", "state": "IA", "street": "112 E IOWA ST", "postcode": "52257"}}}
]}
