{"type": "FeatureCollection", "features": [
{"geometry": {"type": "Point", "coordinates": [-92.0904190002, 41.7867257204]}, "type": "Feature", "properties": {"collection_times": [{"days": "Mon-Sat", "time": "12:30pm"}, {"days": "Sun", "time": "Closed"}], "id": "5230100002", "name": "USPS COLLECTION BOX - BLUE BOX", "address": {"city": "MARENGO", "state": "IA", "street": "310 W DILLON ST", "postcode": "52301"}}},
{"geometry": {"type": "Point", "coordinates": [-92.0714155338, 41.7996326232]}, "type": "Feature", "properties": {"collection_times": [{"days": "Mon-Sat", "time": "4:30pm"}, {"days": "Sun", "time": "Closed"}], "id": "5230100004", "name": "USPS COLLECTION BOX - BLUE BOX", "address": {"city": "MARENGO", "state": "IA", "street": "198 W WASHINGTON ST", "postcode": "52301"}}},
{"geometry": {"type": "Point", "coordinates": [-92.0714155338, 41.7996326232]}, "type": "Feature", "properties": {"collection_times": [{"days": "Mon-Fri", "time": "4:30pm"}, {"days": "Sat-Sun", "time": "Closed"}], "id": "5230100005", "name": "USPS COLLECTION BOX - PO LOBBY", "address": {"city": "MARENGO", "state": "IA", "street": "198 W WASHINGTON ST", "postcode": "52301"}}},
{"geometry": {"type": "Point", "coordinates": [-92.0702115753, 41.7976804406]}, "type": "Feature", "properties": {"collection_times": [{"days": "Mon-Fri", "time": "2:00pm"}, {"days": "Sat", "time": "12:00pm"}, {"days": "Sun", "time": "Closed"}], "id": "5230100006", "name": "USPS COLLECTION BOX - BLUE BOX", "address": {"city": "MARENGO", "state": "IA", "street": "901 COURT AVE", "postcode": "52301"}}},
{"geometry": {"type": "Point", "coordinates": [-91.5968396743, 42.0206206835]}, "type": "Feature", "properties": {"collection_times": [{"days": "Mon-Sat", "time": "1:00pm"}, {"days": "Sun", "time": "Closed"}], "id": "5230200002", "name": "USPS COLLECTION BOX - BLUE BOX", "address": {"city": "MARION", "state": "IA", "street": "1198 GRAND AVE", "postcode": "52302"}}},
{"geometry": {"type": "Point", "coordinates": [-91.5902594269, 42.0333278066]}, "type": "Feature", "properties": {"collection_times": [{"days": "Mon-Sat", "time": "10:00am"}, {"days": "Sun", "time": "Closed"}], "id": "5230200004", "name": "USPS COLLECTION BOX - BLUE BOX", "address": {"city": "MARION", "state": "IA", "street": "2020 7TH AVE", "postcode": "52302"}}},
{"geometry": {"type": "Point", "coordinates": [-91.5627798016, 42.0360981396]}, "type": "Feature", "properties": {"collection_times": [{"days": "Mon-Sat", "time": "12:30pm"}, {"days": "Sun", "time": "Closed"}], "id": "5230200006", "name": "USPS COLLECTION BOX - BLUE BOX", "address": {"city": "MARION", "state": "IA", "street": "1005 44TH ST", "postcode": "52302"}}},
{"geometry": {"type": "Point", "coordinates": [-91.5854581344, 42.0361410449]}, "type": "Feature", "properties": {"collection_times": [{"days": "Mon-Sat", "time": "12:30pm"}, {"days": "Sun", "time": "Closed"}], "id": "5230200010", "name": "USPS COLLECTION BOX - BLUE BOX", "address": {"city": "MARION", "state": "IA", "street": "2550 10TH AVE", "postcode": "52302"}}},
{"geometry": {"type": "Point", "coordinates": [-91.6228534253, 42.0279406462]}, "type": "Feature", "properties": {"collection_times": [{"days": "Mon-Sat", "time": "11:00am"}, {"days": "Sun", "time": "Closed"}], "id": "5230200015", "name": "USPS COLLECTION BOX - BLUE BOX", "address": {"city": "MARION", "state": "IA", "street": "1400 TWIXT TOWN RD", "postcode": "52302"}}},
{"geometry": {"type": "Point", "coordinates": [-91.6038842175, 42.0332488192]}, "type": "Feature", "properties": {"collection_times": [{"days": "Mon-Sat", "time": "9:00am"}, {"days": "Sun", "time": "Closed"}], "id": "5230200016", "name": "USPS COLLECTION BOX - BLUE BOX", "address": {"city": "MARION", "state": "IA", "street": "601 7TH AVE", "postcode": "52302"}}},
{"geometry": {"type": "Point", "coordinates": [-91.5980150247, 42.0342369396]}, "type": "Feature", "properties": {"collection_times": [{"days": "Mon-Fri", "time": "3:00pm"}, {"days": "Sat", "time": "1:00pm"}, {"days": "Sun", "time": "Closed"}], "id": "5230200017", "name": "USPS COLLECTION BOX - BLUE BOX", "address": {"city": "MARION", "state": "IA", "street": "1100 8TH AVE", "postcode": "52302"}}},
{"geometry": {"type": "Point", "coordinates": [-91.5872467853, 42.0405910341]}, "type": "Feature", "properties": {"collection_times": [{"days": "Mon-Fri", "time": "3:00pm"}, {"days": "Sat", "time": "1:00pm"}, {"days": "Sun", "time": "Closed"}], "id": "5230200018", "name": "USPS COLLECTION BOX - BLUE BOX", "address": {"city": "MARION", "state": "IA", "street": "1098 7TH AVE", "postcode": "52302"}}},
{"geometry": {"type": "Point", "coordinates": [-91.570206741, 42.0361179655]}, "type": "Feature", "properties": {"collection_times": [{"days": "Mon-Fri", "time": "5:00pm"}, {"days": "Sat", "time": "3:00pm"}, {"days": "Sun", "time": "Closed"}], "id": "5230200020", "name": "USPS COLLECTION BOX - BLUE BOX", "address": {"city": "MARION", "state": "IA", "street": "3800 HIGHWAY 151", "postcode": "52302"}}},
{"geometry": {"type": "Point", "coordinates": [-91.5981146733, 42.0324214737]}, "type": "Feature", "properties": {"collection_times": [{"days": "Mon-Fri", "time": "3:00pm"}, {"days": "Sat", "time": "1:00pm"}, {"days": "Sun", "time": "Closed"}], "id": "5230200023", "name": "USPS COLLECTION BOX - BLUE BOX", "address": {"city": "MARION", "state": "IA", "street": "1098 6TH AVE", "postcode": "52302"}}},
{"geometry": {"type": "Point", "coordinates": [-91.6013233469, 42.0506962619]}, "type": "Feature", "properties": {"collection_times": [{"days": "Mon-Sat", "time": "1:00pm"}, {"days": "Sun", "time": "Closed"}], "id": "5230200027", "name": "USPS COLLECTION BOX - BLUE BOX", "address": {"city": "MARION", "state": "IA", "street": "805 29TH AVE", "postcode": "52302"}}},
{"geometry": {"type": "Point", "coordinates": [-91.570206741, 42.0361179655]}, "type": "Feature", "properties": {"collection_times": [{"days": "Mon-Fri", "time": "5:15pm"}, {"days": "Sat", "time": "3:00pm"}, {"days": "Sun", "time": "Closed"}], "id": "5230200030", "name": "USPS COLLECTION BOX - PO LOBBY", "address": {"city": "MARION", "state": "IA", "street": "3800 HIGHWAY 151", "postcode": "52302"}}},
{"geometry": {"type": "Point", "coordinates": [-91.3601798371, 42.0210255269]}, "type": "Feature", "properties": {"collection_times": [{"days": "Mon-Sat", "time": "4:30pm"}, {"days": "Sun", "time": "Closed"}], "id": "5230500000", "name": "USPS COLLECTION BOX - BLUE BOX", "address": {"city": "MARTELLE", "state": "IA", "street": "204 S MILITARY ST", "postcode": "52305"}}},
{"geometry": {"type": "Point", "coordinates": [-91.3601798371, 42.0210255269]}, "type": "Feature", "properties": {"collection_times": [{"days": "Mon-Sat", "time": "11:45am"}, {"days": "Sun", "time": "Closed"}], "id": "5230500001", "name": "USPS COLLECTION BOX - PO LOBBY", "address": {"city": "MARTELLE", "state": "IA", "street": "204 S MILITARY ST", "postcode": "52305"}}},
{"geometry": {"type": "Point", "coordinates": [-91.2543275476, 41.9044539128]}, "type": "Feature", "properties": {"collection_times": [{"days": "Mon-Sat", "time": "4:00pm"}, {"days": "Sun", "time": "Closed"}], "id": "5230600000", "name": "USPS COLLECTION BOX - BLUE BOX", "address": {"city": "MECHANICSVILLE", "state": "IA", "street": "200 E 1ST ST", "postcode": "52306"}}},
{"geometry": {"type": "Point", "coordinates": [-91.2543275476, 41.9044539128]}, "type": "Feature", "properties": {"collection_times": [{"days": "Mon-Fri", "time": "2:45pm"}, {"days": "Sat-Sun", "time": "Closed"}], "id": "5230600001", "name": "USPS COLLECTION BOX - PO LOBBY", "address": {"city": "MECHANICSVILLE", "state": "IA", "street": "200 E 1ST ST", "postcode": "52306"}}},
{"geometry": {"type": "Point", "coordinates": [-91.8725398465, 41.8002340199]}, "type": "Feature", "properties": {"collection_times": [{"days": "Mon-Fri", "time": "4:45pm"}, {"days": "Sat", "time": "4:00pm"}, {"days": "Sun", "time": "Closed"}], "id": "5230700002", "name": "USPS COLLECTION BOX - BLUE BOX", "address": {"city": "MIDDLE AMANA", "state": "IA", "street": "2516 220TH TRL", "postcode": "52307"}}},
{"geometry": {"type": "Point", "coordinates": [-91.8725398465, 41.8002340199]}, "type": "Feature", "properties": {"collection_times": [{"days": "Mon-Fri", "time": "1:00pm"}, {"days": "Sat", "time": "10:15am"}, {"days": "Sun", "time": "Closed"}], "id": "5230700003", "name": "USPS COLLECTION BOX - PO LOBBY", "address": {"city": "MIDDLE AMANA", "state": "IA", "street": "2516 220TH TRL", "postcode": "52307"}}},
{"geometry": {"type": "Point", "coordinates": [-92.1600963832, 41.5726930787]}, "type": "Feature", "properties": {"collection_times": [{"days": "Mon-Fri", "time": "4:30pm"}, {"days": "Sat", "time": "3:30pm"}, {"days": "Sun", "time": "Closed"}], "id": "5230800000", "name": "USPS COLLECTION BOX - BLUE BOX", "address": {"city": "MILLERSBURG", "state": "IA", "street": "692 WASHINGTON ST", "postcode": "52308"}}},
{"geometry": {"type": "Point", "coordinates": [-92.1600963832, 41.5726930787]}, "type": "Feature", "properties": {"collection_times": [{"days": "Mon-Fri", "time": "12:45pm"}, {"days": "Sat-Sun", "time": "Closed"}], "id": "5230800001", "name": "USPS COLLECTION BOX - PO LOBBY", "address": {"city": "MILLERSBURG", "state": "IA", "street": "692 WASHINGTON ST", "postcode": "52308"}}},
{"geometry": {"type": "Point", "coordinates": [-90.8798637067, 42.0751609252]}, "type": "Feature", "properties": {"collection_times": [{"days": "Mon-Fri", "time": "3:45pm"}, {"days": "Sat", "time": "4:00pm"}, {"days": "Sun", "time": "Closed"}], "id": "5230900000", "name": "USPS COLLECTION BOX - BLUE BOX", "address": {"city": "MONMOUTH", "state": "IA", "street": "306 N DIVISION ST", "postcode": "52309"}}},
{"geometry": {"type": "Point", "coordinates": [-90.8798637067, 42.0751609252]}, "type": "Feature", "properties": {"collection_times": [{"days": "Mon-Fri", "time": "1:45pm"}, {"days": "Sat-Sun", "time": "Closed"}], "id": "5230900001", "name": "USPS COLLECTION BOX - PO LOBBY", "address": {"city": "MONMOUTH", "state": "IA", "street": "306 N DIVISION ST", "postcode": "52309"}}},
{"geometry": {"type": "Point", "coordinates": [-91.1881963076, 42.2380625151]}, "type": "Feature", "properties": {"collection_times": [{"days": "Mon-Sat", "time": "2:30pm"}, {"days": "Sun", "time": "Closed"}], "id": "5231000000", "name": "USPS COLLECTION BOX - BLUE BOX", "address": {"city": "MONTICELLO", "state": "IA", "street": "200 E 1ST ST", "postcode": "52310"}}},
{"geometry": {"type": "Point", "coordinates": [-91.1902282278, 42.2382598901]}, "type": "Feature", "properties": {"collection_times": [{"days": "Mon-Fri", "time": "5:00pm"}, {"days": "Sat", "time": "3:30pm"}, {"days": "Sun", "time": "Closed"}], "id": "5231000005", "name": "USPS COLLECTION BOX - BLUE BOX", "address": {"city": "MONTICELLO", "state": "IA", "street": "119 N FARLEY ST", "postcode": "52310"}}},
{"geometry": {"type": "Point", "coordinates": [-91.1896504178, 42.2383208063]}, "type": "Feature", "properties": {"collection_times": [{"days": "Mon-Fri", "time": "5:00pm"}, {"days": "Sat", "time": "3:30pm"}, {"days": "Sun", "time": "Closed"}], "id": "5231000009", "name": "USPS COLLECTION BOX - PO LOBBY", "address": {"city": "MONTICELLO", "state": "IA", "street": "119 N CEDAR ST", "postcode": "52310"}}},
{"geometry": {"type": "Point", "coordinates": [-92.0928680063, 42.2552130968]}, "type": "Feature", "properties": {"collection_times": [{"days": "Mon-Sat", "time": "4:00pm"}, {"days": "Sun", "time": "Closed"}], "id": "5231300000", "name": "USPS COLLECTION BOX - BLUE BOX", "address": {"city": "MOUNT AUBURN", "state": "IA", "street": "211 2ND ST", "postcode": "52313"}}},
{"geometry": {"type": "Point", "coordinates": [-92.0928680063, 42.2552130968]}, "type": "Feature", "properties": {"collection_times": [{"days": "Mon-Fri", "time": "10:45am"}, {"days": "Sat-Sun", "time": "Closed"}], "id": "5231300001", "name": "USPS COLLECTION BOX - PO LOBBY", "address": {"city": "MOUNT AUBURN", "state": "IA", "street": "211 2ND ST", "postcode": "52313"}}},
{"geometry": {"type": "Point", "coordinates": [-91.4157857455, 41.9216473641]}, "type": "Feature", "properties": {"collection_times": [{"days": "Mon-Fri", "time": "2:30pm"}, {"days": "Sat", "time": "1:30pm"}, {"days": "Sun", "time": "Closed"}], "id": "5231400000", "name": "USPS COLLECTION BOX - BLUE BOX", "address": {"city": "MOUNT VERNON", "state": "IA", "street": "213 1ST ST NW", "postcode": "52314"}}},
{"geometry": {"type": "Point", "coordinates": [-91.4170302458, 41.9221893835]}, "type": "Feature", "properties": {"collection_times": [{"days": "Mon-Fri", "time": "2:30pm"}, {"days": "Sat", "time": "1:30pm"}, {"days": "Sun", "time": "Closed"}], "id": "5231400001", "name": "USPS COLLECTION BOX - BLUE BOX", "address": {"city": "MOUNT VERNON", "state": "IA", "street": "100 1ST ST SW", "postcode": "52314"}}},
{"geometry": {"type": "Point", "coordinates": [-91.4179772146, 41.9216798167]}, "type": "Feature", "properties": {"collection_times": [{"days": "Mon-Fri", "time": "4:15pm"}, {"days": "Sat", "time": "4:45pm"}, {"days": "Sun", "time": "Closed"}], "id": "5231400002", "name": "USPS COLLECTION BOX - BLUE BOX", "address": {"city": "MOUNT VERNON", "state": "IA", "street": "124 2ND ST SW", "postcode": "52314"}}},
{"geometry": {"type": "Point", "coordinates": [-91.4181573641, 41.9210489643]}, "type": "Feature", "properties": {"collection_times": [{"days": "Mon-Fri", "time": "1:00pm"}, {"days": "Sat", "time": "12:00pm"}, {"days": "Sun", "time": "Closed"}], "id": "5231400003", "name": "USPS COLLECTION BOX - BLUE BOX", "address": {"city": "MOUNT VERNON", "state": "IA", "street": "222 1ST AVE SE", "postcode": "52314"}}},
{"geometry": {"type": "Point", "coordinates": [-91.4179772146, 41.9216798167]}, "type": "Feature", "properties": {"collection_times": [{"days": "Mon-Fri", "time": "4:15pm"}, {"days": "Sat", "time": "10:30am"}, {"days": "Sun", "time": "Closed"}], "id": "5231400004", "name": "USPS COLLECTION BOX - PO LOBBY", "address": {"city": "MOUNT VERNON", "state": "IA", "street": "124 2ND ST SW", "postcode": "52314"}}},
{"geometry": {"type": "Point", "coordinates": [-91.9674242749, 41.9953957637]}, "type": "Feature", "properties": {"collection_times": [{"days": "Mon-Sat", "time": "4:00pm"}, {"days": "Sun", "time": "Closed"}], "id": "5231500000", "name": "USPS COLLECTION BOX - BLUE BOX", "address": {"city": "NEWHALL", "state": "IA", "street": "11 MAIN ST", "postcode": "52315"}}},
{"geometry": {"type": "Point", "coordinates": [-91.9674242749, 41.9953957637]}, "type": "Feature", "properties": {"collection_times": [{"days": "Mon-Fri", "time": "3:45pm"}, {"days": "Sat", "time": "9:00am"}, {"days": "Sun", "time": "Closed"}], "id": "5231500002", "name": "USPS COLLECTION BOX - PO LOBBY", "address": {"city": "NEWHALL", "state": "IA", "street": "11 MAIN ST", "postcode": "52315"}}},
{"geometry": {"type": "Point", "coordinates": [-92.0765935686, 41.5150972688]}, "type": "Feature", "properties": {"collection_times": [{"days": "Mon-Sat", "time": "4:00pm"}, {"days": "Sun", "time": "Closed"}], "id": "5231600000", "name": "USPS COLLECTION BOX - BLUE BOX", "address": {"city": "NORTH ENGLISH", "state": "IA", "street": "108 W OAK ST", "postcode": "52316"}}},
{"geometry": {"type": "Point", "coordinates": [-92.0765935686, 41.5150972688]}, "type": "Feature", "properties": {"collection_times": [{"days": "Mon-Fri", "time": "4:00pm"}, {"days": "Sat-Sun", "time": "Closed"}], "id": "5231600001", "name": "USPS COLLECTION BOX - PO LOBBY", "address": {"city": "NORTH ENGLISH", "state": "IA", "street": "108 W OAK ST", "postcode": "52316"}}},
{"geometry": {"type": "Point", "coordinates": [-91.6296513167, 41.7639377496]}, "type": "Feature", "properties": {"collection_times": [{"days": "Mon-Sat", "time": "5:00pm"}, {"days": "Sun", "time": "Closed"}], "id": "5231700000", "name": "USPS COLLECTION BOX - BLUE BOX", "address": {"city": "NORTH LIBERTY", "state": "IA", "street": "75 COMMERCIAL DR", "postcode": "52317"}}},
{"geometry": {"type": "Point", "coordinates": [-91.6296513167, 41.7639377496]}, "type": "Feature", "properties": {"collection_times": [{"days": "Mon-Fri", "time": "5:00pm"}, {"days": "Sat-Sun", "time": "Closed"}], "id": "5231700008", "name": "USPS COLLECTION BOX - PO LOBBY", "address": {"city": "NORTH LIBERTY", "state": "IA", "street": "75 COMMERCIAL DR", "postcode": "52317"}}},
{"geometry": {"type": "Point", "coordinates": [-91.5917887784, 41.7440225209]}, "type": "Feature", "properties": {"collection_times": [{"days": "Mon-Sat", "time": "10:00am"}, {"days": "Sun", "time": "Closed"}], "id": "5231700009", "name": "USPS COLLECTION BOX - BLUE BOX", "address": {"city": "NORTH LIBERTY", "state": "IA", "street": "55 S DUBUQUE ST", "postcode": "52317"}}},
{"geometry": {"type": "Point", "coordinates": [-91.9225497687, 41.9023663426]}, "type": "Feature", "properties": {"collection_times": [{"days": "Mon-Fri", "time": "4:00pm"}, {"days": "Sat", "time": "4:30pm"}, {"days": "Sun", "time": "Closed"}], "id": "5231800000", "name": "USPS COLLECTION BOX - BLUE BOX", "address": {"city": "NORWAY", "state": "IA", "street": "202 W RAILROAD ST", "postcode": "52318"}}},
{"geometry": {"type": "Point", "coordinates": [-91.9225497687, 41.9023663426]}, "type": "Feature", "properties": {"collection_times": [{"days": "Mon-Fri", "time": "1:45pm"}, {"days": "Sat", "time": "8:00am"}, {"days": "Sun", "time": "Closed"}], "id": "5231800002", "name": "USPS COLLECTION BOX - PO LOBBY", "address": {"city": "NORWAY", "state": "IA", "street": "202 W RAILROAD ST", "postcode": "52318"}}},
{"geometry": {"type": "Point", "coordinates": [-91.1420252636, 41.9988742009]}, "type": "Feature", "properties": {"collection_times": [{"days": "Mon-Fri", "time": "4:00pm"}, {"days": "Sat", "time": "5:00pm"}, {"days": "Sun", "time": "Closed"}], "id": "5232000000", "name": "USPS COLLECTION BOX - BLUE BOX", "address": {"city": "OLIN", "state": "IA", "street": "106 W LOCUST ST", "postcode": "52320"}}},
{"geometry": {"type": "Point", "coordinates": [-91.1420252636, 41.9988742009]}, "type": "Feature", "properties": {"collection_times": [{"days": "Mon-Fri", "time": "11:15am"}, {"days": "Sat-Sun", "time": "Closed"}], "id": "5232000001", "name": "USPS COLLECTION BOX - PO LOBBY", "address": {"city": "OLIN", "state": "IA", "street": "106 W LOCUST ST", "postcode": "52320"}}},
{"geometry": {"type": "Point", "coordinates": [-90.9664686549, 42.1515563167]}, "type": "Feature", "properties": {"collection_times": [{"days": "Mon-Sat", "time": "4:00pm"}, {"days": "Sun", "time": "Closed"}], "id": "5232100000", "name": "USPS COLLECTION BOX - BLUE BOX", "address": {"city": "ONSLOW", "state": "IA", "street": "101 N MAIN ST", "postcode": "52321"}}},
{"geometry": {"type": "Point", "coordinates": [-90.9664686549, 42.1515563167]}, "type": "Feature", "properties": {"collection_times": [{"days": "Mon-Fri", "time": "12:45pm"}, {"days": "Sat-Sun", "time": "Closed"}], "id": "5232100001", "name": "USPS COLLECTION BOX - PO LOBBY", "address": {"city": "ONSLOW", "state": "IA", "street": "101 N MAIN ST", "postcode": "52321"}}},
{"geometry": {"type": "Point", "coordinates": [-91.7897388572, 41.7232564385]}, "type": "Feature", "properties": {"collection_times": [{"days": "Mon-Fri", "time": "3:45pm"}, {"days": "Sat", "time": "4:00pm"}, {"days": "Sun", "time": "Closed"}], "id": "5232200000", "name": "USPS COLLECTION BOX - BLUE BOX", "address": {"city": "OXFORD", "state": "IA", "street": "101 E MAIN ST", "postcode": "52322"}}},
{"geometry": {"type": "Point", "coordinates": [-91.7897388572, 41.7232564385]}, "type": "Feature", "properties": {"collection_times": [{"days": "Mon-Fri", "time": "3:45pm"}, {"days": "Sat-Sun", "time": "Closed"}], "id": "5232200002", "name": "USPS COLLECTION BOX - PO LOBBY", "address": {"city": "OXFORD", "state": "IA", "street": "101 E MAIN ST", "postcode": "52322"}}},
{"geometry": {"type": "Point", "coordinates": [-90.9549450756, 41.9837766989]}, "type": "Feature", "properties": {"collection_times": [{"days": "Mon-Fri", "time": "4:00pm"}, {"days": "Sat", "time": "3:30pm"}, {"days": "Sun", "time": "Closed"}], "id": "5232300000", "name": "USPS COLLECTION BOX - BLUE BOX", "address": {"city": "OXFORD JUNCTION", "state": "IA", "street": "214 BROADWAY ST", "postcode": "52323"}}},
{"geometry": {"type": "Point", "coordinates": [-90.9549450756, 41.9837766989]}, "type": "Feature", "properties": {"collection_times": [{"days": "Mon-Fri", "time": "11:15am"}, {"days": "Sat-Sun", "time": "Closed"}], "id": "5232300001", "name": "USPS COLLECTION BOX - PO LOBBY", "address": {"city": "OXFORD JUNCTION", "state": "IA", "street": "214 BROADWAY ST", "postcode": "52323"}}},
{"geometry": {"type": "Point", "coordinates": [-91.7957357606, 42.0652626656]}, "type": "Feature", "properties": {"collection_times": [{"days": "Mon-Sat", "time": "4:30pm"}, {"days": "Sun", "time": "Closed"}], "id": "5232400000", "name": "USPS COLLECTION BOX - BLUE BOX", "address": {"city": "PALO", "state": "IA", "street": "700 1ST ST", "postcode": "52324"}}},
{"geometry": {"type": "Point", "coordinates": [-91.7957357606, 42.0652626656]}, "type": "Feature", "properties": {"collection_times": [{"days": "Mon-Fri", "time": "3:15pm"}, {"days": "Sat-Sun", "time": "Closed"}], "id": "5232400001", "name": "USPS COLLECTION BOX - PO LOBBY", "address": {"city": "PALO", "state": "IA", "street": "700 1ST ST", "postcode": "52324"}}},
{"geometry": {"type": "Point", "coordinates": [-92.0034669725, 41.5830699996]}, "type": "Feature", "properties": {"collection_times": [{"days": "Mon-Fri", "time": "4:15pm"}, {"days": "Sat", "time": "3:30pm"}, {"days": "Sun", "time": "Closed"}], "id": "5232500000", "name": "USPS COLLECTION BOX - BLUE BOX", "address": {"city": "PARNELL", "state": "IA", "street": "691 CLEVELAND ST", "postcode": "52325"}}},
{"geometry": {"type": "Point", "coordinates": [-92.0034669725, 41.5830699996]}, "type": "Feature", "properties": {"collection_times": [{"days": "Mon-Fri", "time": "4:15pm"}, {"days": "Sat-Sun", "time": "Closed"}], "id": "5232500001", "name": "USPS COLLECTION BOX - PO LOBBY", "address": {"city": "PARNELL", "state": "IA", "street": "691 CLEVELAND ST", "postcode": "52325"}}},
{"geometry": {"type": "Point", "coordinates": [-91.7610185743, 42.3944925294]}, "type": "Feature", "properties": {"collection_times": [{"days": "Mon-Sat", "time": "4:00pm"}, {"days": "Sun", "time": "Closed"}], "id": "5232600000", "name": "USPS COLLECTION BOX - BLUE BOX", "address": {"city": "QUASQUETON", "state": "IA", "street": "113 E DUBUQUE ST", "postcode": "52326"}}},
{"geometry": {"type": "Point", "coordinates": [-91.7610185743, 42.3944925294]}, "type": "Feature", "properties": {"collection_times": [{"days": "Mon-Fri", "time": "11:45am"}, {"days": "Sat-Sun", "time": "Closed"}], "id": "5232600001", "name": "USPS COLLECTION BOX - PO LOBBY", "address": {"city": "QUASQUETON", "state": "IA", "street": "113 E DUBUQUE ST", "postcode": "52326"}}},
{"geometry": {"type": "Point", "coordinates": [-91.5777003128, 41.4809159543]}, "type": "Feature", "properties": {"collection_times": [{"days": "Mon-Fri", "time": "4:00pm"}, {"days": "Sat", "time": "4:30pm"}, {"days": "Sun", "time": "Closed"}], "id": "5232700000", "name": "USPS COLLECTION BOX - BLUE BOX", "address": {"city": "RIVERSIDE", "state": "IA", "street": "81 GREENE ST", "postcode": "52327"}}},
{"geometry": {"type": "Point", "coordinates": [-91.5777003128, 41.4809159543]}, "type": "Feature", "properties": {"collection_times": [{"days": "Mon-Fri", "time": "4:00pm"}, {"days": "Sat", "time": "10:30am"}, {"days": "Sun", "time": "Closed"}], "id": "5232700001", "name": "USPS COLLECTION BOX - PO LOBBY", "address": {"city": "RIVERSIDE", "state": "IA", "street": "81 GREENE ST", "postcode": "52327"}}},
{"geometry": {"type": "Point", "coordinates": [-91.8428112594, 42.3700244106]}, "type": "Feature", "properties": {"collection_times": [{"days": "Mon-Fri", "time": "3:45pm"}, {"days": "Sat", "time": "3:00pm"}, {"days": "Sun", "time": "Closed"}], "id": "5232900000", "name": "USPS COLLECTION BOX - BLUE BOX", "address": {"city": "ROWLEY", "state": "IA", "street": "111 ELY ST", "postcode": "52329"}}},
{"geometry": {"type": "Point", "coordinates": [-91.8428112594, 42.3700244106]}, "type": "Feature", "properties": {"collection_times": [{"days": "Mon-Fri", "time": "11:15am"}, {"days": "Sat-Sun", "time": "Closed"}], "id": "5232900001", "name": "USPS COLLECTION BOX - PO LOBBY", "address": {"city": "ROWLEY", "state": "IA", "street": "111 ELY ST", "postcode": "52329"}}},
{"geometry": {"type": "Point", "coordinates": [-91.48155199, 42.3512830251]}, "type": "Feature", "properties": {"collection_times": [{"days": "Mon-Sat", "time": "4:15pm"}, {"days": "Sun", "time": "Closed"}], "id": "5233000000", "name": "USPS COLLECTION BOX - BLUE BOX", "address": {"city": "RYAN", "state": "IA", "street": "202 MAIN ST", "postcode": "52330"}}},
{"geometry": {"type": "Point", "coordinates": [-91.48155199, 42.3512830251]}, "type": "Feature", "properties": {"collection_times": [{"days": "Mon-Fri", "time": "11:00am"}, {"days": "Sat-Sun", "time": "Closed"}], "id": "5233000001", "name": "USPS COLLECTION BOX - PO LOBBY", "address": {"city": "RYAN", "state": "IA", "street": "202 MAIN ST", "postcode": "52330"}}},
{"geometry": {"type": "Point", "coordinates": [-91.869142737, 42.09351739]}, "type": "Feature", "properties": {"collection_times": [{"days": "Mon-Sat", "time": "4:00pm"}, {"days": "Sun", "time": "Closed"}], "id": "5233200000", "name": "USPS COLLECTION BOX - BLUE BOX", "address": {"city": "SHELLSBURG", "state": "IA", "street": "103 PEARL ST SE", "postcode": "52332"}}},
{"geometry": {"type": "Point", "coordinates": [-91.8692501312, 42.0945148456]}, "type": "Feature", "properties": {"collection_times": [{"days": "Mon-Fri", "time": "4:00pm"}, {"days": "Sat-Sun", "time": "Closed"}], "id": "5233200002", "name": "USPS COLLECTION BOX - PO LOBBY", "address": {"city": "SHELLSBURG", "state": "IA", "street": "103 PEARL ST SE", "postcode": "52332"}}},
{"geometry": {"type": "Point", "coordinates": [-91.4936807703, 41.8046489233]}, "type": "Feature", "properties": {"collection_times": [{"days": "Mon-Fri", "time": "4:30pm"}, {"days": "Sat", "time": "4:45pm"}, {"days": "Sun", "time": "Closed"}], "id": "5233300000", "name": "USPS COLLECTION BOX - BLUE BOX", "address": {"city": "SOLON", "state": "IA", "street": "1100 S MARKET ST", "postcode": "52333"}}},
{"geometry": {"type": "Point", "coordinates": [-91.4936807703, 41.8046489233]}, "type": "Feature", "properties": {"collection_times": [{"days": "Mon-Fri", "time": "4:30pm"}, {"days": "Sat", "time": "10:30am"}, {"days": "Sun", "time": "Closed"}], "id": "5233300001", "name": "USPS COLLECTION BOX - PO LOBBY", "address": {"city": "SOLON", "state": "IA", "street": "1100 S MARKET ST", "postcode": "52333"}}},
{"geometry": {"type": "Point", "coordinates": [-91.4948899657, 41.8071520136]}, "type": "Feature", "properties": {"collection_times": [{"days": "Mon-Fri", "time": "12:00pm"}, {"days": "Sat-Sun", "time": "Closed"}], "id": "5233300004", "name": "USPS COLLECTION BOX - BLUE BOX", "address": {"city": "SOLON", "state": "IA", "street": "123 E MAIN ST", "postcode": "52333"}}},
{"geometry": {"type": "Point", "coordinates": [-91.9680119726, 41.7775382514]}, "type": "Feature", "properties": {"collection_times": [{"days": "Mon-Fri", "time": "3:45pm"}, {"days": "Sat", "time": "3:15pm"}, {"days": "Sun", "time": "Closed"}], "id": "5233400000", "name": "USPS COLLECTION BOX - BLUE BOX", "address": {"city": "SOUTH AMANA", "state": "IA", "street": "515 P ST", "postcode": "52334"}}},
{"geometry": {"type": "Point", "coordinates": [-91.9680119726, 41.7775382514]}, "type": "Feature", "properties": {"collection_times": [{"days": "Mon-Fri", "time": "3:45pm"}, {"days": "Sat-Sun", "time": "Closed"}], "id": "5233400001", "name": "USPS COLLECTION BOX - PO LOBBY", "address": {"city": "SOUTH AMANA", "state": "IA", "street": "515 P ST", "postcode": "52334"}}},
{"geometry": {"type": "Point", "coordinates": [-92.0915163119, 41.4519693817]}, "type": "Feature", "properties": {"collection_times": [{"days": "Mon-Sat", "time": "4:00pm"}, {"days": "Sun", "time": "Closed"}], "id": "5233500000", "name": "USPS COLLECTION BOX - BLUE BOX", "address": {"city": "SOUTH ENGLISH", "state": "IA", "street": "210 IVES ST", "postcode": "52335"}}},
{"geometry": {"type": "Point", "coordinates": [-92.0915163119, 41.4519693817]}, "type": "Feature", "properties": {"collection_times": [{"days": "Mon-Fri", "time": "10:45am"}, {"days": "Sat-Sun", "time": "Closed"}], "id": "5233500001", "name": "USPS COLLECTION BOX - PO LOBBY", "address": {"city": "SOUTH ENGLISH", "state": "IA", "street": "210 IVES ST", "postcode": "52335"}}},
{"geometry": {"type": "Point", "coordinates": [-91.4433781873, 42.0596527469]}, "type": "Feature", "properties": {"collection_times": [{"days": "Mon-Fri", "time": "5:15pm"}, {"days": "Sat", "time": "4:00pm"}, {"days": "Sun", "time": "Closed"}], "id": "5233600002", "name": "USPS COLLECTION BOX - BLUE BOX", "address": {"city": "SPRINGVILLE", "state": "IA", "street": "262 BROADWAY ST", "postcode": "52336"}}},
{"geometry": {"type": "Point", "coordinates": [-91.4433781873, 42.0596527469]}, "type": "Feature", "properties": {"collection_times": [{"days": "Mon-Fri", "time": "5:15pm"}, {"days": "Sat-Sun", "time": "Closed"}], "id": "5233600003", "name": "USPS COLLECTION BOX - PO LOBBY", "address": {"city": "SPRINGVILLE", "state": "IA", "street": "262 BROADWAY ST", "postcode": "52336"}}},
{"geometry": {"type": "Point", "coordinates": [-91.1507091983, 41.8928170379]}, "type": "Feature", "properties": {"collection_times": [{"days": "Mon-Sat", "time": "4:00pm"}, {"days": "Sun", "time": "Closed"}], "id": "5233700000", "name": "USPS COLLECTION BOX - BLUE BOX", "address": {"city": "STANWOOD", "state": "IA", "street": "206 E BROADWAY ST", "postcode": "52337"}}},
{"geometry": {"type": "Point", "coordinates": [-91.1507091983, 41.8928170379]}, "type": "Feature", "properties": {"collection_times": [{"days": "Mon-Fri", "time": "11:45am"}, {"days": "Sat-Sun", "time": "Closed"}], "id": "5233700001", "name": "USPS COLLECTION BOX - PO LOBBY", "address": {"city": "STANWOOD", "state": "IA", "street": "206 E BROADWAY ST", "postcode": "52337"}}},
{"geometry": {"type": "Point", "coordinates": [-91.7064035439, 41.8261510837]}, "type": "Feature", "properties": {"collection_times": [{"days": "Mon-Fri", "time": "4:00pm"}, {"days": "Sat", "time": "4:30pm"}, {"days": "Sun", "time": "Closed"}], "id": "5233800000", "name": "USPS COLLECTION BOX - BLUE BOX", "address": {"city": "SWISHER", "state": "IA", "street": "401 DIVISION ST SW", "postcode": "52338"}}},
{"geometry": {"type": "Point", "coordinates": [-91.7064035439, 41.8261510837]}, "type": "Feature", "properties": {"collection_times": [{"days": "Mon-Fri", "time": "4:00pm"}, {"days": "Sat", "time": "10:45am"}, {"days": "Sun", "time": "Closed"}], "id": "5233800001", "name": "USPS COLLECTION BOX - PO LOBBY", "address": {"city": "SWISHER", "state": "IA", "street": "401 DIVISION ST SW", "postcode": "52338"}}},
{"geometry": {"type": "Point", "coordinates": [-91.6631222934, 41.847818666]}, "type": "Feature", "properties": {"collection_times": [{"days": "Mon-Sat", "time": "11:00am"}, {"days": "Sun", "time": "Closed"}], "id": "5233800002", "name": "USPS COLLECTION BOX - BLUE BOX", "address": {"city": "SWISHER", "state": "IA", "street": "2721 120TH ST NE", "postcode": "52338"}}},
{"geometry": {"type": "Point", "coordinates": [-92.5767723485, 41.962605815]}, "type": "Feature", "properties": {"collection_times": [{"days": "Mon-Sat", "time": "4:30pm"}, {"days": "Sun", "time": "Closed"}], "id": "5233900004", "name": "USPS COLLECTION BOX - BLUE BOX", "address": {"city": "TAMA", "state": "IA", "street": "412 STATE ST", "postcode": "52339"}}},
{"geometry": {"type": "Point", "coordinates": [-92.5767723485, 41.962605815]}, "type": "Feature", "properties": {"collection_times": [{"days": "Mon-Fri", "time": "4:30pm"}, {"days": "Sat-Sun", "time": "Closed"}], "id": "5233900005", "name": "USPS COLLECTION BOX - PO LOBBY", "address": {"city": "TAMA", "state": "IA", "street": "412 STATE ST", "postcode": "52339"}}},
{"geometry": {"type": "Point", "coordinates": [-91.6882515946, 41.7127923307]}, "type": "Feature", "properties": {"collection_times": [{"days": "Mon-Sat", "time": "4:00pm"}, {"days": "Sun", "time": "Closed"}], "id": "5234000000", "name": "USPS COLLECTION BOX - BLUE BOX", "address": {"city": "TIFFIN", "state": "IA", "street": "484 STATE ST", "postcode": "52340"}}},
{"geometry": {"type": "Point", "coordinates": [-91.6882515946, 41.7127923307]}, "type": "Feature", "properties": {"collection_times": [{"days": "Mon-Fri", "time": "4:00pm"}, {"days": "Sat", "time": "9:30am"}, {"days": "Sun", "time": "Closed"}], "id": "5234000001", "name": "USPS COLLECTION BOX - PO LOBBY", "address": {"city": "TIFFIN", "state": "IA", "street": "484 STATE ST", "postcode": "52340"}}},
{"geometry": {"type": "Point", "coordinates": [-92.5796472051, 41.9955698311]}, "type": "Feature", "properties": {"collection_times": [{"days": "Mon-Sat", "time": "4:00pm"}, {"days": "Sun", "time": "Closed"}], "id": "5234200007", "name": "USPS COLLECTION BOX - BLUE BOX", "address": {"city": "TOLEDO", "state": "IA", "street": "200 W HIGH ST", "postcode": "52342"}}},
{"geometry": {"type": "Point", "coordinates": [-92.5796472051, 41.9955698311]}, "type": "Feature", "properties": {"collection_times": [{"days": "Mon-Fri", "time": "4:00pm"}, {"days": "Sat", "time": "9:30am"}, {"days": "Sun", "time": "Closed"}], "id": "5234200008", "name": "USPS COLLECTION BOX - PO LOBBY", "address": {"city": "TOLEDO", "state": "IA", "street": "200 W HIGH ST", "postcode": "52342"}}},
{"geometry": {"type": "Point", "coordinates": [-91.6822842975, 42.2901922558]}, "type": "Feature", "properties": {"collection_times": [{"days": "Mon-Fri", "time": "9:45am"}, {"days": "Sat", "time": "9:00am"}, {"days": "Sun", "time": "Closed"}], "id": "5234400000", "name": "USPS COLLECTION BOX - BLUE BOX", "address": {"city": "TROY MILLS", "state": "IA", "street": "5923 MAIN ST", "postcode": "52344"}}},
{"geometry": {"type": "Point", "coordinates": [-91.6822842975, 42.2901922558]}, "type": "Feature", "properties": {"collection_times": [{"days": "Mon-Fri", "time": "9:45am"}, {"days": "Sat-Sun", "time": "Closed"}], "id": "5234400001", "name": "USPS COLLECTION BOX - PO LOBBY", "address": {"city": "TROY MILLS", "state": "IA", "street": "5923 MAIN ST", "postcode": "52344"}}},
{"geometry": {"type": "Point", "coordinates": [-91.8724809498, 42.2240308617]}, "type": "Feature", "properties": {"collection_times": [{"days": "Mon-Fri", "time": "4:30pm"}, {"days": "Sat", "time": "3:00pm"}, {"days": "Sun", "time": "Closed"}], "id": "5234500000", "name": "USPS COLLECTION BOX - BLUE BOX", "address": {"city": "URBANA", "state": "IA", "street": "304 W WOOD ST", "postcode": "52345"}}},
{"geometry": {"type": "Point", "coordinates": [-91.8724809498, 42.2240308617]}, "type": "Feature", "properties": {"collection_times": [{"days": "Mon-Fri", "time": "4:00pm"}, {"days": "Sat-Sun", "time": "Closed"}], "id": "5234500001", "name": "USPS COLLECTION BOX - PO LOBBY", "address": {"city": "URBANA", "state": "IA", "street": "304 W WOOD ST", "postcode": "52345"}}},
{"geometry": {"type": "Point", "coordinates": [-92.091183055, 42.0067117217]}, "type": "Feature", "properties": {"collection_times": [{"days": "Mon-Fri", "time": "4:15pm"}, {"days": "Sat", "time": "4:00pm"}, {"days": "Sun", "time": "Closed"}], "id": "5234600000", "name": "USPS COLLECTION BOX - BLUE BOX", "address": {"city": "VAN HORNE", "state": "IA", "street": "118 MAIN ST", "postcode": "52346"}}},
{"geometry": {"type": "Point", "coordinates": [-92.091183055, 42.0067117217]}, "type": "Feature", "properties": {"collection_times": [{"days": "Mon-Fri", "time": "2:45pm"}, {"days": "Sat-Sun", "time": "Closed"}], "id": "5234600001", "name": "USPS COLLECTION BOX - PO LOBBY", "address": {"city": "VAN HORNE", "state": "IA", "street": "118 MAIN ST", "postcode": "52346"}}},
{"geometry": {"type": "Point", "coordinates": [-92.297947606, 41.7322544074]}, "type": "Feature", "properties": {"collection_times": [{"days": "Mon-Fri", "time": "4:30pm"}, {"days": "Sat", "time": "3:30pm"}, {"days": "Sun", "time": "Closed"}], "id": "5234700000", "name": "USPS COLLECTION BOX - BLUE BOX", "address": {"city": "VICTOR", "state": "IA", "street": "108 WASHINGTON ST", "postcode": "52347"}}},
{"geometry": {"type": "Point", "coordinates": [-92.297947606, 41.7322544074]}, "type": "Feature", "properties": {"collection_times": [{"days": "Mon-Fri", "time": "4:30pm"}, {"days": "Sat-Sun", "time": "Closed"}], "id": "5234700001", "name": "USPS COLLECTION BOX - PO LOBBY", "address": {"city": "VICTOR", "state": "IA", "street": "108 WASHINGTON ST", "postcode": "52347"}}},
{"geometry": {"type": "Point", "coordinates": [-92.3835113197, 41.9850502587]}, "type": "Feature", "properties": {"collection_times": [{"days": "Mon-Fri", "time": "3:15pm"}, {"days": "Sat", "time": "3:30pm"}, {"days": "Sun", "time": "Closed"}], "id": "5234800000", "name": "USPS COLLECTION BOX - BLUE BOX", "address": {"city": "VINING", "state": "IA", "street": "306 1ST ST", "postcode": "52348"}}},
{"geometry": {"type": "Point", "coordinates": [-92.3835113197, 41.9850502587]}, "type": "Feature", "properties": {"collection_times": [{"days": "Mon-Fri", "time": "9:45am"}, {"days": "Sat", "time": "9:15am"}, {"days": "Sun", "time": "Closed"}], "id": "5234800001", "name": "USPS COLLECTION BOX - PO LOBBY", "address": {"city": "VINING", "state": "IA", "street": "306 1ST ST", "postcode": "52348"}}},
{"geometry": {"type": "Point", "coordinates": [-92.0242438483, 42.1664960116]}, "type": "Feature", "properties": {"collection_times": [{"days": "Mon-Fri", "time": "5:00pm"}, {"days": "Sat", "time": "4:00pm"}, {"days": "Sun", "time": "Closed"}], "id": "5234900000", "name": "USPS COLLECTION BOX - BLUE BOX", "address": {"city": "VINTON", "state": "IA", "street": "516 1ST AVE", "postcode": "52349"}}},
{"geometry": {"type": "Point", "coordinates": [-92.0242438483, 42.1664960116]}, "type": "Feature", "properties": {"collection_times": [{"days": "Mon-Fri", "time": "5:00pm"}, {"days": "Sat", "time": "4:00pm"}, {"days": "Sun", "time": "Closed"}], "id": "5234900016", "name": "USPS COLLECTION BOX - BLUE BOX", "address": {"city": "VINTON", "state": "IA", "street": "516 1ST AVE", "postcode": "52349"}}},
{"geometry": {"type": "Point", "coordinates": [-92.0242438483, 42.1664960116]}, "type": "Feature", "properties": {"collection_times": [{"days": "Mon-Fri", "time": "5:00pm"}, {"days": "Sat", "time": "4:00pm"}, {"days": "Sun", "time": "Closed"}], "id": "5234900017", "name": "USPS COLLECTION BOX - BLUE BOX", "address": {"city": "VINTON", "state": "IA", "street": "516 1ST AVE", "postcode": "52349"}}},
{"geometry": {"type": "Point", "coordinates": [-92.0242438483, 42.1664960116]}, "type": "Feature", "properties": {"collection_times": [{"days": "Mon-Fri", "time": "5:00pm"}, {"days": "Sat", "time": "4:00pm"}, {"days": "Sun", "time": "Closed"}], "id": "5234900018", "name": "USPS COLLECTION BOX - PO LOBBY", "address": {"city": "VINTON", "state": "IA", "street": "516 1ST AVE", "postcode": "52349"}}},
{"geometry": {"type": "Point", "coordinates": [-91.831538253, 41.8796581059]}, "type": "Feature", "properties": {"collection_times": [{"days": "Mon-Sat", "time": "4:30pm"}, {"days": "Sun", "time": "Closed"}], "id": "5235100000", "name": "USPS COLLECTION BOX - BLUE BOX", "address": {"city": "WALFORD", "state": "IA", "street": "100 HIGHWAY 151 E", "postcode": "52351"}}},
{"geometry": {"type": "Point", "coordinates": [-91.831538253, 41.8796581059]}, "type": "Feature", "properties": {"collection_times": [{"days": "Mon-Fri", "time": "3:45pm"}, {"days": "Sat-Sun", "time": "Closed"}], "id": "5235100001", "name": "USPS COLLECTION BOX - PO LOBBY", "address": {"city": "WALFORD", "state": "IA", "street": "100 HIGHWAY 151 E", "postcode": "52351"}}},
{"geometry": {"type": "Point", "coordinates": [-91.7809289562, 42.2854927286]}, "type": "Feature", "properties": {"collection_times": [{"days": "Mon-Sat", "time": "4:00pm"}, {"days": "Sun", "time": "Closed"}], "id": "5235200000", "name": "USPS COLLECTION BOX - BLUE BOX", "address": {"city": "WALKER", "state": "IA", "street": "117 GREENE ST", "postcode": "52352"}}},
{"geometry": {"type": "Point", "coordinates": [-91.7809289562, 42.2854927286]}, "type": "Feature", "properties": {"collection_times": [{"days": "Mon-Fri", "time": "2:45pm"}, {"days": "Sat-Sun", "time": "Closed"}], "id": "5235200001", "name": "USPS COLLECTION BOX - PO LOBBY", "address": {"city": "WALKER", "state": "IA", "street": "117 GREENE ST", "postcode": "52352"}}},
{"geometry": {"type": "Point", "coordinates": [-91.7078982431, 41.2952266879]}, "type": "Feature", "properties": {"collection_times": [{"days": "Mon-Sat", "time": "12:00pm"}, {"days": "Sun", "time": "Closed"}], "id": "5235300002", "name": "USPS COLLECTION BOX - BLUE BOX", "address": {"city": "WASHINGTON", "state": "IA", "street": "528 HIGHWAY 1 S", "postcode": "52353"}}},
{"geometry": {"type": "Point", "coordinates": [-91.693412302, 41.299480174]}, "type": "Feature", "properties": {"collection_times": [{"days": "Mon-Sat", "time": "3:30pm"}, {"days": "Sun", "time": "Closed"}], "id": "5235300006", "name": "USPS COLLECTION BOX - BLUE BOX", "address": {"city": "WASHINGTON", "state": "IA", "street": "224 W MAIN ST", "postcode": "52353"}}},
{"geometry": {"type": "Point", "coordinates": [-91.6915728463, 41.2983914266]}, "type": "Feature", "properties": {"collection_times": [{"days": "Mon-Sat", "time": "3:30pm"}, {"days": "Sun", "time": "Closed"}], "id": "5235300008", "name": "USPS COLLECTION BOX - BLUE BOX", "address": {"city": "WASHINGTON", "state": "IA", "street": "200 S IOWA AVE", "postcode": "52353"}}},
{"geometry": {"type": "Point", "coordinates": [-91.6915763476, 41.2993292763]}, "type": "Feature", "properties": {"collection_times": [{"days": "Mon-Sat", "time": "3:30pm"}, {"days": "Sun", "time": "Closed"}], "id": "5235300009", "name": "USPS COLLECTION BOX - BLUE BOX", "address": {"city": "WASHINGTON", "state": "IA", "street": "102 E MAIN ST", "postcode": "52353"}}},
{"geometry": {"type": "Point", "coordinates": [-91.6930904121, 41.2995815376]}, "type": "Feature", "properties": {"collection_times": [{"days": "Mon-Fri", "time": "5:00pm"}, {"days": "Sat", "time": "4:00pm"}, {"days": "Sun", "time": "Closed"}], "id": "5235300018", "name": "USPS COLLECTION BOX - PO LOBBY", "address": {"city": "WASHINGTON", "state": "IA", "street": "115 N MARION AVE", "postcode": "52353"}}},
{"geometry": {"type": "Point", "coordinates": [-91.6930904121, 41.2995815376]}, "type": "Feature", "properties": {"collection_times": [{"days": "Mon-Fri", "time": "5:00pm"}, {"days": "Sat", "time": "4:00pm"}, {"days": "Sun", "time": "Closed"}], "id": "5235300019", "name": "USPS COLLECTION BOX - BLUE BOX", "address": {"city": "WASHINGTON", "state": "IA", "street": "115 N MARION AVE", "postcode": "52353"}}},
{"geometry": {"type": "Point", "coordinates": [-91.986241778, 41.8914445172]}, "type": "Feature", "properties": {"collection_times": [{"days": "Mon-Fri", "time": "3:45pm"}, {"days": "Sat", "time": "4:30pm"}, {"days": "Sun", "time": "Closed"}], "id": "5235400000", "name": "USPS COLLECTION BOX - BLUE BOX", "address": {"city": "WATKINS", "state": "IA", "street": "206 1ST ST", "postcode": "52354"}}},
{"geometry": {"type": "Point", "coordinates": [-91.986241778, 41.8914445172]}, "type": "Feature", "properties": {"collection_times": [{"days": "Mon-Fri", "time": "11:45am"}, {"days": "Sat-Sun", "time": "Closed"}], "id": "5235400001", "name": "USPS COLLECTION BOX - PO LOBBY", "address": {"city": "WATKINS", "state": "IA", "street": "206 1ST ST", "postcode": "52354"}}},
{"geometry": {"type": "Point", "coordinates": [-91.8390116193, 41.465263546]}, "type": "Feature", "properties": {"collection_times": [{"days": "Mon-Fri", "time": "4:00pm"}, {"days": "Sat", "time": "4:30pm"}, {"days": "Sun", "time": "Closed"}], "id": "5235600000", "name": "USPS COLLECTION BOX - BLUE BOX", "address": {"city": "WELLMAN", "state": "IA", "street": "310 9TH AVE", "postcode": "52356"}}},
{"geometry": {"type": "Point", "coordinates": [-91.8390116193, 41.465263546]}, "type": "Feature", "properties": {"collection_times": [{"days": "Mon-Fri", "time": "4:00pm"}, {"days": "Sat-Sun", "time": "Closed"}], "id": "5235600001", "name": "USPS COLLECTION BOX - PO LOBBY", "address": {"city": "WELLMAN", "state": "IA", "street": "310 9TH AVE", "postcode": "52356"}}},
{"geometry": {"type": "Point", "coordinates": [-91.3455070281, 41.6710787027]}, "type": "Feature", "properties": {"collection_times": [{"days": "Mon-Sat", "time": "4:30pm"}, {"days": "Sun", "time": "Closed"}], "id": "5235800000", "name": "USPS COLLECTION BOX - BLUE BOX", "address": {"city": "WEST BRANCH", "state": "IA", "street": "104 PARKSIDE DR", "postcode": "52358"}}},
{"geometry": {"type": "Point", "coordinates": [-91.3455070281, 41.6710787027]}, "type": "Feature", "properties": {"collection_times": [{"days": "Mon-Fri", "time": "4:30pm"}, {"days": "Sat-Sun", "time": "Closed"}], "id": "5235800002", "name": "USPS COLLECTION BOX - PO LOBBY", "address": {"city": "WEST BRANCH", "state": "IA", "street": "104 PARKSIDE DR", "postcode": "52358"}}},
{"geometry": {"type": "Point", "coordinates": [-91.3455145731, 41.6708674406]}, "type": "Feature", "properties": {"collection_times": [{"days": "Mon-Sat", "time": "11:00am"}, {"days": "Sun", "time": "Closed"}], "id": "5235800003", "name": "USPS COLLECTION BOX - BLUE BOX", "address": {"city": "WEST BRANCH", "state": "IA", "street": "104 PARKSIDE DR", "postcode": "52358"}}},
{"geometry": {"type": "Point", "coordinates": [-92.0087657938, 41.6607074793]}, "type": "Feature", "properties": {"collection_times": [{"days": "Mon-Fri", "time": "4:30pm"}, {"days": "Sat", "time": "5:00pm"}, {"days": "Sun", "time": "Closed"}], "id": "5236100000", "name": "USPS COLLECTION BOX - BLUE BOX", "address": {"city": "WILLIAMSBURG", "state": "IA", "street": "601 COURT ST", "postcode": "52361"}}},
{"geometry": {"type": "Point", "coordinates": [-92.013706555, 41.6434296064]}, "type": "Feature", "properties": {"collection_times": [{"days": "Mon-Sat", "time": "5:15pm"}, {"days": "Sun", "time": "Closed"}], "id": "5236100001", "name": "USPS COLLECTION BOX - BLUE BOX", "address": {"city": "WILLIAMSBURG", "state": "IA", "street": "150 TANGER DR", "postcode": "52361"}}},
{"geometry": {"type": "Point", "coordinates": [-92.0087657938, 41.6607074793]}, "type": "Feature", "properties": {"collection_times": [{"days": "Mon-Fri", "time": "4:30pm"}, {"days": "Sat-Sun", "time": "Closed"}], "id": "5236100003", "name": "USPS COLLECTION BOX - PO LOBBY", "address": {"city": "WILLIAMSBURG", "state": "IA", "street": "601 COURT ST", "postcode": "52361"}}},
{"geometry": {"type": "Point", "coordinates": [-91.0056136796, 42.0588136409]}, "type": "Feature", "properties": {"collection_times": [{"days": "Mon-Sat", "time": "4:00pm"}, {"days": "Sun", "time": "Closed"}], "id": "5236200000", "name": "USPS COLLECTION BOX - BLUE BOX", "address": {"city": "WYOMING", "state": "IA", "street": "101 E MAIN ST", "postcode": "52362"}}},
{"geometry": {"type": "Point", "coordinates": [-91.0056136796, 42.0588136409]}, "type": "Feature", "properties": {"collection_times": [{"days": "Mon-Fri", "time": "3:00pm"}, {"days": "Sat", "time": "8:15am"}, {"days": "Sun", "time": "Closed"}], "id": "5236200001", "name": "USPS COLLECTION BOX - PO LOBBY", "address": {"city": "WYOMING", "state": "IA", "street": "101 E MAIN ST", "postcode": "52362"}}}
]}
