{"type": "FeatureCollection", "features": [
{"geometry": {"type": "Point", "coordinates": [-91.6692770457, 41.9784303354]}, "type": "Feature", "properties": {"collection_times": [{"days": "Mon-Fri", "time": "5:00pm"}, {"days": "Sat", "time": "10:00am"}, {"days": "Sun", "time": "Closed"}], "id": "5240100001", "name": "USPS COLLECTION BOX - BLUE BOX", "address": {"city": "CEDAR RAPIDS", "state": "IA", "street": "150 1ST AVE NE", "postcode": "52401"}}},
{"geometry": {"type": "Point", "coordinates": [-91.6661094094, 41.9802493032]}, "type": "Feature", "properties": {"collection_times": [{"days": "Mon-Fri", "time": "5:00pm"}, {"days": "Sat", "time": "9:30am"}, {"days": "Sun", "time": "Closed"}], "id": "5240100004", "name": "USPS COLLECTION BOX - BLUE BOX", "address": {"city": "CEDAR RAPIDS", "state": "IA", "street": "424 1ST AVE NE", "postcode": "52401"}}},
{"geometry": {"type": "Point", "coordinates": [-91.6660994654, 41.9752971453]}, "type": "Feature", "properties": {"collection_times": [{"days": "Mon-Fri", "time": "5:00pm"}, {"days": "Sat", "time": "9:00am"}, {"days": "Sun", "time": "Closed"}], "id": "5240100005", "name": "USPS COLLECTION BOX - BLUE BOX", "address": {"city": "CEDAR RAPIDS", "state": "IA", "street": "145 TRANSIT WAY SE", "postcode": "52401"}}},
{"geometry": {"type": "Point", "coordinates": [-91.6613973736, 41.9802249209]}, "type": "Feature", "properties": {"collection_times": [{"days": "Mon-Fri", "time": "5:15pm"}, {"days": "Sat", "time": "9:00am"}, {"days": "Sun", "time": "Closed"}], "id": "5240100012", "name": "USPS COLLECTION BOX - BLUE BOX", "address": {"city": "CEDAR RAPIDS", "state": "IA", "street": "700 3RD AVE SE", "postcode": "52401"}}},
{"geometry": {"type": "Point", "coordinates": [-91.6700670893, 41.9753408434]}, "type": "Feature", "properties": {"collection_times": [{"days": "Mon-Fri", "time": "5:30pm"}, {"days": "Sat", "time": "10:00am"}, {"days": "Sun", "time": "Closed"}], "id": "5240100016", "name": "USPS COLLECTION BOX - BLUE BOX", "address": {"city": "CEDAR RAPIDS", "state": "IA", "street": "51 3RD AVENUE BRG", "postcode": "52401"}}},
{"geometry": {"type": "Point", "coordinates": [-91.668743161, 41.9786270978]}, "type": "Feature", "properties": {"collection_times": [{"days": "Mon-Fri", "time": "5:00pm"}, {"days": "Sat", "time": "9:00am"}, {"days": "Sun", "time": "Closed"}], "id": "5240100029", "name": "USPS COLLECTION BOX - BLUE BOX", "address": {"city": "CEDAR RAPIDS", "state": "IA", "street": "101 2ND ST SE", "postcode": "52401"}}},
{"geometry": {"type": "Point", "coordinates": [-91.6676241879, 41.9777492093]}, "type": "Feature", "properties": {"collection_times": [{"days": "Mon-Fri", "time": "4:45pm"}, {"days": "Sat", "time": "9:00am"}, {"days": "Sun", "time": "Closed"}], "id": "5240100032", "name": "USPS COLLECTION BOX - BLUE BOX", "address": {"city": "CEDAR RAPIDS", "state": "IA", "street": "210 2ND ST SE", "postcode": "52401"}}},
{"geometry": {"type": "Point", "coordinates": [-91.668743161, 41.9786270978]}, "type": "Feature", "properties": {"collection_times": [{"days": "Mon-Fri", "time": "5:00pm"}, {"days": "Sat", "time": "9:00am"}, {"days": "Sun", "time": "Closed"}], "id": "5240100033", "name": "USPS COLLECTION BOX - BLUE BOX", "address": {"city": "CEDAR RAPIDS", "state": "IA", "street": "101 2ND ST SE", "postcode": "52401"}}},
{"geometry": {"type": "Point", "coordinates": [-91.6676241879, 41.9777492093]}, "type": "Feature", "properties": {"collection_times": [{"days": "Mon-Fri", "time": "4:45pm"}, {"days": "Sat", "time": "9:00am"}, {"days": "Sun", "time": "Closed"}], "id": "5240100056", "name": "USPS COLLECTION BOX - BLUE BOX", "address": {"city": "CEDAR RAPIDS", "state": "IA", "street": "210 2ND ST SE", "postcode": "52401"}}},
{"geometry": {"type": "Point", "coordinates": [-91.6596845585, 41.9770845298]}, "type": "Feature", "properties": {"collection_times": [{"days": "Mon-Sat", "time": "8:00pm"}, {"days": "Sun", "time": "Closed"}], "id": "5240100058", "name": "USPS COLLECTION BOX - BLUE BOX", "address": {"city": "CEDAR RAPIDS", "state": "IA", "street": "615 6TH AVE SE", "postcode": "52401"}}},
{"geometry": {"type": "Point", "coordinates": [-91.6596845585, 41.9770845298]}, "type": "Feature", "properties": {"collection_times": [{"days": "Mon-Sat", "time": "8:00pm"}, {"days": "Sun", "time": "Closed"}], "id": "5240100059", "name": "USPS COLLECTION BOX - BLUE BOX", "address": {"city": "CEDAR RAPIDS", "state": "IA", "street": "615 6TH AVE SE", "postcode": "52401"}}},
{"geometry": {"type": "Point", "coordinates": [-91.6596845585, 41.9770845298]}, "type": "Feature", "properties": {"collection_times": [{"days": "Mon-Sat", "time": "8:00pm"}, {"days": "Sun", "time": "Closed"}], "id": "5240100062", "name": "USPS COLLECTION BOX - BLUE BOX", "address": {"city": "CEDAR RAPIDS", "state": "IA", "street": "615 6TH AVE SE", "postcode": "52401"}}},
{"geometry": {"type": "Point", "coordinates": [-91.6678594038, 41.9764824361]}, "type": "Feature", "properties": {"collection_times": [{"days": "Mon-Fri", "time": "12:00pm"}, {"days": "Sat", "time": "9:00am"}, {"days": "Sun", "time": "Closed"}], "id": "5240100065", "name": "USPS COLLECTION BOX - BLUE BOX", "address": {"city": "CEDAR RAPIDS", "state": "IA", "street": "116 3RD AVE SE", "postcode": "52401"}}},
{"geometry": {"type": "Point", "coordinates": [-91.6596845585, 41.9770845298]}, "type": "Feature", "properties": {"collection_times": [{"days": "Mon-Sat", "time": "8:00pm"}, {"days": "Sun", "time": "Closed"}], "id": "5240100066", "name": "USPS COLLECTION BOX - PO LOBBY", "address": {"city": "CEDAR RAPIDS", "state": "IA", "street": "615 6TH AVE SE", "postcode": "52401"}}},
{"geometry": {"type": "Point", "coordinates": [-91.6619591549, 41.9758113471]}, "type": "Feature", "properties": {"collection_times": [{"days": "Mon-Sat", "time": "7:45pm"}, {"days": "Sun", "time": "Closed"}], "id": "5240100069", "name": "USPS COLLECTION BOX - EXPRESS", "address": {"city": "CEDAR RAPIDS", "state": "IA", "street": "615 6TH AVE SE", "postcode": "52401"}}},
{"geometry": {"type": "Point", "coordinates": [-91.6642159922, 41.9799595129]}, "type": "Feature", "properties": {"collection_times": [{"days": "Mon-Fri", "time": "5:00pm"}, {"days": "Sat", "time": "10:00am"}, {"days": "Sun", "time": "Closed"}], "id": "5240100070", "name": "USPS COLLECTION BOX - BLUE BOX", "address": {"city": "CEDAR RAPIDS", "state": "IA", "street": "526 2ND AVE SE", "postcode": "52401"}}},
{"geometry": {"type": "Point", "coordinates": [-91.6656871539, 41.9777449521]}, "type": "Feature", "properties": {"collection_times": [{"days": "Mon-Fri", "time": "5:15pm"}, {"days": "Sat-Sun", "time": "Closed"}], "id": "5240100072", "name": "USPS COLLECTION BOX - BLUE BOX", "address": {"city": "CEDAR RAPIDS", "state": "IA", "street": "310 3RD AVE SE", "postcode": "52401"}}},
{"geometry": {"type": "Point", "coordinates": [-91.6652715368, 41.9735644076]}, "type": "Feature", "properties": {"collection_times": [{"days": "Mon-Fri", "time": "5:00pm"}, {"days": "Sat", "time": "10:00am"}, {"days": "Sun", "time": "Closed"}], "id": "5240100077", "name": "USPS COLLECTION BOX - BLUE BOX", "address": {"city": "CEDAR RAPIDS", "state": "IA", "street": "625 1ST ST SE", "postcode": "52401"}}},
{"geometry": {"type": "Point", "coordinates": [-91.6596845585, 41.9770845298]}, "type": "Feature", "properties": {"collection_times": [{"days": "Mon-Sat", "time": "8:00pm"}, {"days": "Sun", "time": "Closed"}], "id": "5240100080", "name": "USPS COLLECTION BOX - APC", "address": {"city": "CEDAR RAPIDS", "state": "IA", "street": "615 6TH AVE SE", "postcode": "52401"}}},
{"geometry": {"type": "Point", "coordinates": [-91.6700670893, 41.9753408434]}, "type": "Feature", "properties": {"collection_times": [{"days": "Mon-Fri", "time": "5:30pm"}, {"days": "Sat", "time": "10:00am"}, {"days": "Sun", "time": "Closed"}], "id": "5240100082", "name": "USPS COLLECTION BOX - BLUE BOX", "address": {"city": "CEDAR RAPIDS", "state": "IA", "street": "51 3RD AVENUE BRG", "postcode": "52401"}}},
{"geometry": {"type": "Point", "coordinates": [-91.6648879943, 41.9766319682]}, "type": "Feature", "properties": {"collection_times": [{"days": "Mon-Fri", "time": "4:30pm"}, {"days": "Sat", "time": "9:00am"}, {"days": "Sun", "time": "Closed"}], "id": "5240100083", "name": "USPS COLLECTION BOX - BLUE BOX", "address": {"city": "CEDAR RAPIDS", "state": "IA", "street": "411 3RD ST SE", "postcode": "52401"}}},
{"geometry": {"type": "Point", "coordinates": [-91.6656871539, 41.9777449521]}, "type": "Feature", "properties": {"collection_times": [{"days": "Mon-Fri", "time": "5:15pm"}, {"days": "Sat-Sun", "time": "Closed"}], "id": "5240100084", "name": "USPS COLLECTION BOX - BLUE BOX", "address": {"city": "CEDAR RAPIDS", "state": "IA", "street": "310 3RD AVE SE", "postcode": "52401"}}},
{"geometry": {"type": "Point", "coordinates": [-91.6681886847, 42.0346923891]}, "type": "Feature", "properties": {"collection_times": [{"days": "Mon-Sat", "time": "10:30am"}, {"days": "Sun", "time": "Closed"}], "id": "5240200005", "name": "USPS COLLECTION BOX - BLUE BOX", "address": {"city": "CEDAR RAPIDS", "state": "IA", "street": "2001 BLAIRS FERRY RD NE", "postcode": "52402"}}},
{"geometry": {"type": "Point", "coordinates": [-91.6808747595, 42.0346961383]}, "type": "Feature", "properties": {"collection_times": [{"days": "Mon-Sat", "time": "9:30am"}, {"days": "Sun", "time": "Closed"}], "id": "5240200006", "name": "USPS COLLECTION BOX - BLUE BOX", "address": {"city": "CEDAR RAPIDS", "state": "IA", "street": "2645 BLAIRS FERRY RD NE", "postcode": "52402"}}},
{"geometry": {"type": "Point", "coordinates": [-91.6387317133, 42.0466543381]}, "type": "Feature", "properties": {"collection_times": [{"days": "Mon-Sat", "time": "3:00pm"}, {"days": "Sun", "time": "Closed"}], "id": "5240200008", "name": "USPS COLLECTION BOX - BLUE BOX", "address": {"city": "CEDAR RAPIDS", "state": "IA", "street": "505 BOYSON RD NE", "postcode": "52402"}}},
{"geometry": {"type": "Point", "coordinates": [-91.6651109532, 42.0208699125]}, "type": "Feature", "properties": {"collection_times": [{"days": "Mon-Fri", "time": "5:15pm"}, {"days": "Sat", "time": "2:00pm"}, {"days": "Sun", "time": "Closed"}], "id": "5240200010", "name": "USPS COLLECTION BOX - BLUE BOX", "address": {"city": "CEDAR RAPIDS", "state": "IA", "street": "4116 CENTER POINT RD NE", "postcode": "52402"}}},
{"geometry": {"type": "Point", "coordinates": [-91.625756845, 42.0275998247]}, "type": "Feature", "properties": {"collection_times": [{"days": "Mon-Fri", "time": "4:30pm"}, {"days": "Sat", "time": "12:30pm"}, {"days": "Sun", "time": "Closed"}], "id": "5240200016", "name": "USPS COLLECTION BOX - BLUE BOX", "address": {"city": "CEDAR RAPIDS", "state": "IA", "street": "208 COLLINS RD NE", "postcode": "52402"}}},
{"geometry": {"type": "Point", "coordinates": [-91.6297981686, 42.0277241388]}, "type": "Feature", "properties": {"collection_times": [{"days": "Mon-Fri", "time": "4:30pm"}, {"days": "Sat", "time": "10:00am"}, {"days": "Sun", "time": "Closed"}], "id": "5240200017", "name": "USPS COLLECTION BOX - BLUE BOX", "address": {"city": "CEDAR RAPIDS", "state": "IA", "street": "385 COLLINS RD NE", "postcode": "52402"}}},
{"geometry": {"type": "Point", "coordinates": [-91.6567557141, 42.038170355]}, "type": "Feature", "properties": {"collection_times": [{"days": "Mon-Fri", "time": "5:30pm"}, {"days": "Sat", "time": "3:00pm"}, {"days": "Sun", "time": "Closed"}], "id": "5240200019", "name": "USPS COLLECTION BOX - BLUE BOX", "address": {"city": "CEDAR RAPIDS", "state": "IA", "street": "1380 60TH ST NE", "postcode": "52402"}}},
{"geometry": {"type": "Point", "coordinates": [-91.6567557141, 42.038170355]}, "type": "Feature", "properties": {"collection_times": [{"days": "Mon-Fri", "time": "5:30pm"}, {"days": "Sat", "time": "3:00pm"}, {"days": "Sun", "time": "Closed"}], "id": "5240200020", "name": "USPS COLLECTION BOX - BLUE BOX", "address": {"city": "CEDAR RAPIDS", "state": "IA", "street": "1380 60TH ST NE", "postcode": "52402"}}},
{"geometry": {"type": "Point", "coordinates": [-91.6399393711, 42.0134987562]}, "type": "Feature", "properties": {"collection_times": [{"days": "Mon-Sat", "time": "9:30am"}, {"days": "Sun", "time": "Closed"}], "id": "5240200030", "name": "USPS COLLECTION BOX - BLUE BOX", "address": {"city": "CEDAR RAPIDS", "state": "IA", "street": "521 35TH ST NE", "postcode": "52402"}}},
{"geometry": {"type": "Point", "coordinates": [-91.642976523, 42.0036094243]}, "type": "Feature", "properties": {"collection_times": [{"days": "Mon-Sat", "time": "9:30am"}, {"days": "Sun", "time": "Closed"}], "id": "5240200033", "name": "USPS COLLECTION BOX - BLUE BOX", "address": {"city": "CEDAR RAPIDS", "state": "IA", "street": "2500 FRANKLIN AVE NE", "postcode": "52402"}}},
{"geometry": {"type": "Point", "coordinates": [-91.6597492758, 41.9957194696]}, "type": "Feature", "properties": {"collection_times": [{"days": "Mon-Fri", "time": "4:00pm"}, {"days": "Sat", "time": "10:00am"}, {"days": "Sun", "time": "Closed"}], "id": "5240200036", "name": "USPS COLLECTION BOX - BLUE BOX", "address": {"city": "CEDAR RAPIDS", "state": "IA", "street": "901 OAKLAND RD NE", "postcode": "52402"}}},
{"geometry": {"type": "Point", "coordinates": [-91.6748761313, 42.0249134226]}, "type": "Feature", "properties": {"collection_times": [{"days": "Mon-Sat", "time": "12:00pm"}, {"days": "Sun", "time": "Closed"}], "id": "5240200041", "name": "USPS COLLECTION BOX - BLUE BOX", "address": {"city": "CEDAR RAPIDS", "state": "IA", "street": "4600 NORTHWOOD DR NE", "postcode": "52402"}}},
{"geometry": {"type": "Point", "coordinates": [-91.6582094152, 42.0217728153]}, "type": "Feature", "properties": {"collection_times": [{"days": "Mon-Sat", "time": "1:00pm"}, {"days": "Sun", "time": "Closed"}], "id": "5240200045", "name": "USPS COLLECTION BOX - BLUE BOX", "address": {"city": "CEDAR RAPIDS", "state": "IA", "street": "1150 42ND ST NE", "postcode": "52402"}}},
{"geometry": {"type": "Point", "coordinates": [-91.6528405116, 42.0301130576]}, "type": "Feature", "properties": {"collection_times": [{"days": "Mon-Fri", "time": "5:30pm"}, {"days": "Sat", "time": "10:30am"}, {"days": "Sun", "time": "Closed"}], "id": "5240200046", "name": "USPS COLLECTION BOX - BLUE BOX", "address": {"city": "CEDAR RAPIDS", "state": "IA", "street": "1241 PARK PL NE", "postcode": "52402"}}},
{"geometry": {"type": "Point", "coordinates": [-91.6998779758, 42.0197269509]}, "type": "Feature", "properties": {"collection_times": [{"days": "Mon-Fri", "time": "5:15pm"}, {"days": "Sat", "time": "9:30am"}, {"days": "Sun", "time": "Closed"}], "id": "5240200050", "name": "USPS COLLECTION BOX - BLUE BOX", "address": {"city": "CEDAR RAPIDS", "state": "IA", "street": "4050 RIVER RIDGE DR NE", "postcode": "52402"}}},
{"geometry": {"type": "Point", "coordinates": [-91.652055278, 41.9883111794]}, "type": "Feature", "properties": {"collection_times": [{"days": "Mon-Sat", "time": "11:00am"}, {"days": "Sun", "time": "Closed"}], "id": "5240200062", "name": "USPS COLLECTION BOX - BLUE BOX", "address": {"city": "CEDAR RAPIDS", "state": "IA", "street": "1500 1ST AVE NE", "postcode": "52402"}}},
{"geometry": {"type": "Point", "coordinates": [-91.6363185217, 42.0037561843]}, "type": "Feature", "properties": {"collection_times": [{"days": "Mon-Fri", "time": "5:00pm"}, {"days": "Sat", "time": "12:00pm"}, {"days": "Sun", "time": "Closed"}], "id": "5240200067", "name": "USPS COLLECTION BOX - BLUE BOX", "address": {"city": "CEDAR RAPIDS", "state": "IA", "street": "2720 1ST AVE NE", "postcode": "52402"}}},
{"geometry": {"type": "Point", "coordinates": [-91.6349762184, 42.0152314007]}, "type": "Feature", "properties": {"collection_times": [{"days": "Mon-Fri", "time": "4:30pm"}, {"days": "Sat", "time": "10:00am"}, {"days": "Sun", "time": "Closed"}], "id": "5240200071", "name": "USPS COLLECTION BOX - BLUE BOX", "address": {"city": "CEDAR RAPIDS", "state": "IA", "street": "3649 1ST AVE SE", "postcode": "52402"}}},
{"geometry": {"type": "Point", "coordinates": [-91.6277068789, 42.022763444]}, "type": "Feature", "properties": {"collection_times": [{"days": "Mon-Fri", "time": "4:30pm"}, {"days": "Sat", "time": "11:00am"}, {"days": "Sun", "time": "Closed"}], "id": "5240200072", "name": "USPS COLLECTION BOX - BLUE BOX", "address": {"city": "CEDAR RAPIDS", "state": "IA", "street": "4403 1ST AVE SE", "postcode": "52402"}}},
{"geometry": {"type": "Point", "coordinates": [-91.6271179078, 42.0231554308]}, "type": "Feature", "properties": {"collection_times": [{"days": "Mon-Fri", "time": "4:30pm"}, {"days": "Sat", "time": "11:00am"}, {"days": "Sun", "time": "Closed"}], "id": "5240200085", "name": "USPS COLLECTION BOX - BLUE BOX", "address": {"city": "CEDAR RAPIDS", "state": "IA", "street": "4444 1ST AVE NE", "postcode": "52402"}}},
{"geometry": {"type": "Point", "coordinates": [-91.6567557141, 42.038170355]}, "type": "Feature", "properties": {"collection_times": [{"days": "Mon-Fri", "time": "5:30pm"}, {"days": "Sat", "time": "4:00pm"}, {"days": "Sun", "time": "Closed"}], "id": "5240200089", "name": "USPS COLLECTION BOX - PO LOBBY", "address": {"city": "CEDAR RAPIDS", "state": "IA", "street": "1380 60TH ST NE", "postcode": "52402"}}},
{"geometry": {"type": "Point", "coordinates": [-91.6273902793, 42.0276509811]}, "type": "Feature", "properties": {"collection_times": [{"days": "Mon-Fri", "time": "3:15pm"}, {"days": "Sat", "time": "11:00am"}, {"days": "Sun", "time": "Closed"}], "id": "5240200092", "name": "USPS COLLECTION BOX - BLUE BOX", "address": {"city": "CEDAR RAPIDS", "state": "IA", "street": "279 COLLINS RD NE", "postcode": "52402"}}},
{"geometry": {"type": "Point", "coordinates": [-91.6576499204, 42.0103980485]}, "type": "Feature", "properties": {"collection_times": [{"days": "Mon-Fri", "time": "4:30pm"}, {"days": "Sat", "time": "2:00pm"}, {"days": "Sun", "time": "Closed"}], "id": "5240200097", "name": "USPS COLLECTION BOX - BLUE BOX", "address": {"city": "CEDAR RAPIDS", "state": "IA", "street": "1440 32ND ST NE", "postcode": "52402"}}},
{"geometry": {"type": "Point", "coordinates": [-91.6456903745, 41.9919434728]}, "type": "Feature", "properties": {"collection_times": [{"days": "Mon-Fri", "time": "5:00pm"}, {"days": "Sat", "time": "10:30am"}, {"days": "Sun", "time": "Closed"}], "id": "5240200099", "name": "USPS COLLECTION BOX - BLUE BOX", "address": {"city": "CEDAR RAPIDS", "state": "IA", "street": "1840 1ST AVE NE", "postcode": "52402"}}},
{"geometry": {"type": "Point", "coordinates": [-91.6347428035, 42.005368583]}, "type": "Feature", "properties": {"collection_times": [{"days": "Mon-Fri", "time": "3:00pm"}, {"days": "Sat", "time": "10:00am"}, {"days": "Sun", "time": "Closed"}], "id": "5240200100", "name": "USPS COLLECTION BOX - BLUE BOX", "address": {"city": "CEDAR RAPIDS", "state": "IA", "street": "2821 1ST AVE SE", "postcode": "52402"}}},
{"geometry": {"type": "Point", "coordinates": [-91.6613632382, 42.0174981468]}, "type": "Feature", "properties": {"collection_times": [{"days": "Mon-Sat", "time": "12:00pm"}, {"days": "Sun", "time": "Closed"}], "id": "5240200108", "name": "USPS COLLECTION BOX - BLUE BOX", "address": {"city": "CEDAR RAPIDS", "state": "IA", "street": "101 ROBINS SQ", "postcode": "52402"}}},
{"geometry": {"type": "Point", "coordinates": [-91.6603946468, 41.9849033096]}, "type": "Feature", "properties": {"collection_times": [{"days": "Mon-Sat", "time": "9:15am"}, {"days": "Sun", "time": "Closed"}], "id": "5240200109", "name": "USPS COLLECTION BOX - BLUE BOX", "address": {"city": "CEDAR RAPIDS", "state": "IA", "street": "1026 A AVE NE", "postcode": "52402"}}},
{"geometry": {"type": "Point", "coordinates": [-91.6567557141, 42.038170355]}, "type": "Feature", "properties": {"collection_times": [{"days": "Mon-Fri", "time": "5:30pm"}, {"days": "Sat", "time": "4:00pm"}, {"days": "Sun", "time": "Closed"}], "id": "5240200112", "name": "USPS COLLECTION BOX - APC", "address": {"city": "CEDAR RAPIDS", "state": "IA", "street": "1380 60TH ST NE", "postcode": "52402"}}},
{"geometry": {"type": "Point", "coordinates": [-91.6254102278, 41.9842078354]}, "type": "Feature", "properties": {"collection_times": [{"days": "Mon-Sat", "time": "2:00pm"}, {"days": "Sun", "time": "Closed"}], "id": "5240300001", "name": "USPS COLLECTION BOX - BLUE BOX", "address": {"city": "CEDAR RAPIDS", "state": "IA", "street": "2750 BEVER AVE SE", "postcode": "52403"}}},
{"geometry": {"type": "Point", "coordinates": [-91.6069502713, 41.9862104431]}, "type": "Feature", "properties": {"collection_times": [{"days": "Mon-Sat", "time": "1:00pm"}, {"days": "Sun", "time": "Closed"}], "id": "5240300002", "name": "USPS COLLECTION BOX - BLUE BOX", "address": {"city": "CEDAR RAPIDS", "state": "IA", "street": "4230 TRAILRIDGE RD SE", "postcode": "52403"}}},
{"geometry": {"type": "Point", "coordinates": [-91.6292143248, 41.9710438769]}, "type": "Feature", "properties": {"collection_times": [{"days": "Mon-Sat", "time": "1:00pm"}, {"days": "Sun", "time": "Closed"}], "id": "5240300008", "name": "USPS COLLECTION BOX - BLUE BOX", "address": {"city": "CEDAR RAPIDS", "state": "IA", "street": "1449 MEMORIAL DR SE", "postcode": "52403"}}},
{"geometry": {"type": "Point", "coordinates": [-91.6332307647, 41.9769426982]}, "type": "Feature", "properties": {"collection_times": [{"days": "Mon-Sat", "time": "1:00pm"}, {"days": "Sun", "time": "Closed"}], "id": "5240300009", "name": "USPS COLLECTION BOX - BLUE BOX", "address": {"city": "CEDAR RAPIDS", "state": "IA", "street": "2325 MOUNT VERNON RD SE", "postcode": "52403"}}},
{"geometry": {"type": "Point", "coordinates": [-91.6183417959, 41.9767724156]}, "type": "Feature", "properties": {"collection_times": [{"days": "Mon-Fri", "time": "4:45pm"}, {"days": "Sat", "time": "2:30pm"}, {"days": "Sun", "time": "Closed"}], "id": "5240300010", "name": "USPS COLLECTION BOX - BLUE BOX", "address": {"city": "CEDAR RAPIDS", "state": "IA", "street": "900 34TH STREET SE", "postcode": "52403"}}},
{"geometry": {"type": "Point", "coordinates": [-91.6003976149, 41.9767990082]}, "type": "Feature", "properties": {"collection_times": [{"days": "Mon-Sat", "time": "3:15pm"}, {"days": "Sun", "time": "Closed"}], "id": "5240300012", "name": "USPS COLLECTION BOX - BLUE BOX", "address": {"city": "CEDAR RAPIDS", "state": "IA", "street": "4035 MOUNT VERNON RD SE", "postcode": "52403"}}},
{"geometry": {"type": "Point", "coordinates": [-91.6521944884, 41.9854386433]}, "type": "Feature", "properties": {"collection_times": [{"days": "Mon-Fri", "time": "12:30pm"}, {"days": "Sat", "time": "2:00pm"}, {"days": "Sun", "time": "Closed"}], "id": "5240300020", "name": "USPS COLLECTION BOX - BLUE BOX", "address": {"city": "CEDAR RAPIDS", "state": "IA", "street": "1400 3RD AVE SE", "postcode": "52403"}}},
{"geometry": {"type": "Point", "coordinates": [-91.6574509121, 41.9798044477]}, "type": "Feature", "properties": {"collection_times": [{"days": "Mon-Fri", "time": "4:45pm"}, {"days": "Sat", "time": "12:00pm"}, {"days": "Sun", "time": "Closed"}], "id": "5240300027", "name": "USPS COLLECTION BOX - BLUE BOX", "address": {"city": "CEDAR RAPIDS", "state": "IA", "street": "900 5TH AVE SE", "postcode": "52403"}}},
{"geometry": {"type": "Point", "coordinates": [-91.6609968442, 41.9816636829]}, "type": "Feature", "properties": {"collection_times": [{"days": "Mon-Fri", "time": "5:00pm"}, {"days": "Sat", "time": "10:00am"}, {"days": "Sun", "time": "Closed"}], "id": "5240300042", "name": "USPS COLLECTION BOX - BLUE BOX", "address": {"city": "CEDAR RAPIDS", "state": "IA", "street": "803 2ND AVE SE", "postcode": "52403"}}},
{"geometry": {"type": "Point", "coordinates": [-91.6585940687, 41.9559163587]}, "type": "Feature", "properties": {"collection_times": [{"days": "Mon-Fri", "time": "4:30pm"}, {"days": "Sat", "time": "3:15pm"}, {"days": "Sun", "time": "Closed"}], "id": "5240400017", "name": "USPS COLLECTION BOX - BLUE BOX", "address": {"city": "CEDAR RAPIDS", "state": "IA", "street": "20 WILSON AVE SW", "postcode": "52404"}}},
{"geometry": {"type": "Point", "coordinates": [-91.6738479365, 41.9451879735]}, "type": "Feature", "properties": {"collection_times": [{"days": "Mon-Fri", "time": "4:30pm"}, {"days": "Sat", "time": "10:00am"}, {"days": "Sun", "time": "Closed"}], "id": "5240400040", "name": "USPS COLLECTION BOX - BLUE BOX", "address": {"city": "CEDAR RAPIDS", "state": "IA", "street": "3260 SOUTHGATE PL SW", "postcode": "52404"}}},
{"geometry": {"type": "Point", "coordinates": [-91.6766240721, 41.9480396476]}, "type": "Feature", "properties": {"collection_times": [{"days": "Mon-Sat", "time": "12:00pm"}, {"days": "Sun", "time": "Closed"}], "id": "5240400047", "name": "USPS COLLECTION BOX - BLUE BOX", "address": {"city": "CEDAR RAPIDS", "state": "IA", "street": "2981 6TH ST SW", "postcode": "52404"}}},
{"geometry": {"type": "Point", "coordinates": [-91.7258208377, 41.9605209644]}, "type": "Feature", "properties": {"collection_times": [{"days": "Mon-Fri", "time": "5:30pm"}, {"days": "Sat", "time": "3:00pm"}, {"days": "Sun", "time": "Closed"}], "id": "5240400060", "name": "USPS COLLECTION BOX - BLUE BOX", "address": {"city": "CEDAR RAPIDS", "state": "IA", "street": "1930 WILEY BLVD SW", "postcode": "52404"}}},
{"geometry": {"type": "Point", "coordinates": [-91.7258208377, 41.9605209644]}, "type": "Feature", "properties": {"collection_times": [{"days": "Mon-Fri", "time": "5:30pm"}, {"days": "Sat", "time": "3:00pm"}, {"days": "Sun", "time": "Closed"}], "id": "5240400061", "name": "USPS COLLECTION BOX - BLUE BOX", "address": {"city": "CEDAR RAPIDS", "state": "IA", "street": "1930 WILEY BLVD SW", "postcode": "52404"}}},
{"geometry": {"type": "Point", "coordinates": [-91.7258208377, 41.9605209644]}, "type": "Feature", "properties": {"collection_times": [{"days": "Mon-Fri", "time": "5:30pm"}, {"days": "Sat", "time": "3:15pm"}, {"days": "Sun", "time": "Closed"}], "id": "5240400066", "name": "USPS COLLECTION BOX - PO LOBBY", "address": {"city": "CEDAR RAPIDS", "state": "IA", "street": "1930 WILEY BLVD SW", "postcode": "52404"}}},
{"geometry": {"type": "Point", "coordinates": [-91.663638864, 41.9596002288]}, "type": "Feature", "properties": {"collection_times": [{"days": "Mon-Fri", "time": "3:00pm"}, {"days": "Sat", "time": "9:00am"}, {"days": "Sun", "time": "Closed"}], "id": "5240400069", "name": "USPS COLLECTION BOX - BLUE BOX", "address": {"city": "CEDAR RAPIDS", "state": "IA", "street": "1899 1ST AVE SW", "postcode": "52404"}}},
{"geometry": {"type": "Point", "coordinates": [-91.6763652804, 41.9139914298]}, "type": "Feature", "properties": {"collection_times": [{"days": "Mon-Fri", "time": "4:30pm"}, {"days": "Sat-Sun", "time": "Closed"}], "id": "5240400070", "name": "USPS COLLECTION BOX - BLUE BOX", "address": {"city": "CEDAR RAPIDS", "state": "IA", "street": "6622 6TH ST SW", "postcode": "52404"}}},
{"geometry": {"type": "Point", "coordinates": [-91.7002607109, 41.889362925]}, "type": "Feature", "properties": {"collection_times": [{"days": "Mon-Sat", "time": "11:00am"}, {"days": "Sun", "time": "Closed"}], "id": "5240400072", "name": "USPS COLLECTION BOX - BLUE BOX", "address": {"city": "CEDAR RAPIDS", "state": "IA", "street": "2121 ARTHUR COLLINS PKWY SW", "postcode": "52404"}}},
{"geometry": {"type": "Point", "coordinates": [-91.7196073959, 41.9491649645]}, "type": "Feature", "properties": {"collection_times": [{"days": "Mon-Sat", "time": "10:00am"}, {"days": "Sun", "time": "Closed"}], "id": "5240400075", "name": "USPS COLLECTION BOX - BLUE BOX", "address": {"city": "CEDAR RAPIDS", "state": "IA", "street": "3601 29TH AVE SW", "postcode": "52404"}}},
{"geometry": {"type": "Point", "coordinates": [-91.6771256729, 41.9625955786]}, "type": "Feature", "properties": {"collection_times": [{"days": "Mon-Sat", "time": "3:15pm"}, {"days": "Sun", "time": "Closed"}], "id": "5240400077", "name": "USPS COLLECTION BOX - BLUE BOX", "address": {"city": "CEDAR RAPIDS", "state": "IA", "street": "1520 6TH ST SW", "postcode": "52404"}}},
{"geometry": {"type": "Point", "coordinates": [-91.7006663011, 42.0045898208]}, "type": "Feature", "properties": {"collection_times": [{"days": "Mon-Sat", "time": "10:30am"}, {"days": "Sun", "time": "Closed"}], "id": "5240500003", "name": "USPS COLLECTION BOX - BLUE BOX", "address": {"city": "CEDAR RAPIDS", "state": "IA", "street": "2200 BUCKINGHAM DR NW", "postcode": "52405"}}},
{"geometry": {"type": "Point", "coordinates": [-91.715999842, 41.9745366196]}, "type": "Feature", "properties": {"collection_times": [{"days": "Mon-Sat", "time": "1:00pm"}, {"days": "Sun", "time": "Closed"}], "id": "5240500006", "name": "USPS COLLECTION BOX - BLUE BOX", "address": {"city": "CEDAR RAPIDS", "state": "IA", "street": "300 EDGEWOOD RD NW", "postcode": "52405"}}},
{"geometry": {"type": "Point", "coordinates": [-91.6976783838, 41.9744165669]}, "type": "Feature", "properties": {"collection_times": [{"days": "Mon-Fri", "time": "5:15pm"}, {"days": "Sat", "time": "3:00pm"}, {"days": "Sun", "time": "Closed"}], "id": "5240500023", "name": "USPS COLLECTION BOX - BLUE BOX", "address": {"city": "CEDAR RAPIDS", "state": "IA", "street": "1843 JOHNSON AVE NW", "postcode": "52405"}}},
{"geometry": {"type": "Point", "coordinates": [-91.7330709767, 41.9683956928]}, "type": "Feature", "properties": {"collection_times": [{"days": "Mon-Fri", "time": "5:15pm"}, {"days": "Sat", "time": "3:00pm"}, {"days": "Sun", "time": "Closed"}], "id": "5240500025", "name": "USPS COLLECTION BOX - BLUE BOX", "address": {"city": "CEDAR RAPIDS", "state": "IA", "street": "4825 JOHNSON AVE NW", "postcode": "52405"}}},
{"geometry": {"type": "Point", "coordinates": [-91.7330709767, 41.9683956928]}, "type": "Feature", "properties": {"collection_times": [{"days": "Mon-Fri", "time": "5:15pm"}, {"days": "Sat", "time": "3:00pm"}, {"days": "Sun", "time": "Closed"}], "id": "5240500041", "name": "USPS COLLECTION BOX - BLUE BOX", "address": {"city": "CEDAR RAPIDS", "state": "IA", "street": "4825 JOHNSON AVE NW", "postcode": "52405"}}},
{"geometry": {"type": "Point", "coordinates": [-91.6976783838, 41.9744165669]}, "type": "Feature", "properties": {"collection_times": [{"days": "Mon-Fri", "time": "5:15pm"}, {"days": "Sat", "time": "3:00pm"}, {"days": "Sun", "time": "Closed"}], "id": "5240500042", "name": "USPS COLLECTION BOX - BLUE BOX", "address": {"city": "CEDAR RAPIDS", "state": "IA", "street": "1843 JOHNSON AVE NW", "postcode": "52405"}}},
{"geometry": {"type": "Point", "coordinates": [-91.7015007794, 42.031415269]}, "type": "Feature", "properties": {"collection_times": [{"days": "Mon-Sat", "time": "3:00pm"}, {"days": "Sun", "time": "Closed"}], "id": "5241100001", "name": "USPS COLLECTION BOX - BLUE BOX", "address": {"city": "CEDAR RAPIDS", "state": "IA", "street": "5050 EDGEWOOD RD NE", "postcode": "52411"}}}
]}
