{"type": "FeatureCollection", "features": [
{"geometry": {"type": "Point", "coordinates": [-92.4117284532, 41.0186175501]}, "type": "Feature", "properties": {"collection_times": [{"days": "Mon-Fri", "time": "4:30pm"}, {"days": "Sat", "time": "2:30pm"}, {"days": "Sun", "time": "Closed"}], "id": "5250100000", "name": "USPS COLLECTION BOX - BLUE BOX", "address": {"city": "OTTUMWA", "state": "IA", "street": "107 E 2ND ST", "postcode": "52501"}}},
{"geometry": {"type": "Point", "coordinates": [-92.4105124395, 41.0177174936]}, "type": "Feature", "properties": {"collection_times": [{"days": "Mon-Fri", "time": "4:30pm"}, {"days": "Sat", "time": "2:30pm"}, {"days": "Sun", "time": "Closed"}], "id": "5250100001", "name": "USPS COLLECTION BOX - BLUE BOX", "address": {"city": "OTTUMWA", "state": "IA", "street": "213 E 2ND ST", "postcode": "52501"}}},
{"geometry": {"type": "Point", "coordinates": [-92.4112274861, 41.0190448423]}, "type": "Feature", "properties": {"collection_times": [{"days": "Mon-Fri", "time": "4:30pm"}, {"days": "Sat", "time": "9:00am"}, {"days": "Sun", "time": "Closed"}], "id": "5250100002", "name": "USPS COLLECTION BOX - BLUE BOX", "address": {"city": "OTTUMWA", "state": "IA", "street": "105 E 3RD ST", "postcode": "52501"}}},
{"geometry": {"type": "Point", "coordinates": [-92.410637642, 41.0196620522]}, "type": "Feature", "properties": {"collection_times": [{"days": "Mon-Fri", "time": "4:30pm"}, {"days": "Sat", "time": "9:00am"}, {"days": "Sun", "time": "Closed"}], "id": "5250100004", "name": "USPS COLLECTION BOX - BLUE BOX", "address": {"city": "OTTUMWA", "state": "IA", "street": "101 W 4TH ST", "postcode": "52501"}}},
{"geometry": {"type": "Point", "coordinates": [-92.4174563371, 41.0104038381]}, "type": "Feature", "properties": {"collection_times": [{"days": "Mon-Sat", "time": "2:30pm"}, {"days": "Sun", "time": "Closed"}], "id": "5250100007", "name": "USPS COLLECTION BOX - BLUE BOX", "address": {"city": "OTTUMWA", "state": "IA", "street": "337 CHURCH ST", "postcode": "52501"}}},
{"geometry": {"type": "Point", "coordinates": [-92.4202174274, 41.0082866857]}, "type": "Feature", "properties": {"collection_times": [{"days": "Mon-Sat", "time": "2:30pm"}, {"days": "Sun", "time": "Closed"}], "id": "5250100008", "name": "USPS COLLECTION BOX - BLUE BOX", "address": {"city": "OTTUMWA", "state": "IA", "street": "619 CHURCH ST", "postcode": "52501"}}},
{"geometry": {"type": "Point", "coordinates": [-92.4081357091, 41.0493585345]}, "type": "Feature", "properties": {"collection_times": [{"days": "Mon-Fri", "time": "4:00pm"}, {"days": "Sat", "time": "2:45pm"}, {"days": "Sun", "time": "Closed"}], "id": "5250100011", "name": "USPS COLLECTION BOX - BLUE BOX", "address": {"city": "OTTUMWA", "state": "IA", "street": "2453 N COURT ST", "postcode": "52501"}}},
{"geometry": {"type": "Point", "coordinates": [-92.4235662843, 41.0020881796]}, "type": "Feature", "properties": {"collection_times": [{"days": "Mon-Sat", "time": "9:00am"}, {"days": "Sun", "time": "Closed"}], "id": "5250100013", "name": "USPS COLLECTION BOX - BLUE BOX", "address": {"city": "OTTUMWA", "state": "IA", "street": "102 W FINLEY AVE", "postcode": "52501"}}},
{"geometry": {"type": "Point", "coordinates": [-92.4014686701, 41.0263774443]}, "type": "Feature", "properties": {"collection_times": [{"days": "Mon-Fri", "time": "4:00pm"}, {"days": "Sat", "time": "2:30pm"}, {"days": "Sun", "time": "Closed"}], "id": "5250100015", "name": "USPS COLLECTION BOX - BLUE BOX", "address": {"city": "OTTUMWA", "state": "IA", "street": "1140 N JEFFERSON ST", "postcode": "52501"}}},
{"geometry": {"type": "Point", "coordinates": [-92.4105833, 40.9991609424]}, "type": "Feature", "properties": {"collection_times": [{"days": "Mon-Sat", "time": "8:15am"}, {"days": "Sun", "time": "Closed"}], "id": "5250100016", "name": "USPS COLLECTION BOX - BLUE BOX", "address": {"city": "OTTUMWA", "state": "IA", "street": "405 S MADISON AVE", "postcode": "52501"}}},
{"geometry": {"type": "Point", "coordinates": [-92.4125449679, 41.0177184239]}, "type": "Feature", "properties": {"collection_times": [{"days": "Mon-Fri", "time": "4:30pm"}, {"days": "Sat-Sun", "time": "Closed"}], "id": "5250100017", "name": "USPS COLLECTION BOX - BLUE BOX", "address": {"city": "OTTUMWA", "state": "IA", "street": "120 E MAIN ST", "postcode": "52501"}}},
{"geometry": {"type": "Point", "coordinates": [-92.4065269676, 40.9947777935]}, "type": "Feature", "properties": {"collection_times": [{"days": "Mon-Sat", "time": "11:00am"}, {"days": "Sun", "time": "Closed"}], "id": "5250100023", "name": "USPS COLLECTION BOX - BLUE BOX", "address": {"city": "OTTUMWA", "state": "IA", "street": "1316 E MARY ST", "postcode": "52501"}}},
{"geometry": {"type": "Point", "coordinates": [-92.3999050817, 41.0275360097]}, "type": "Feature", "properties": {"collection_times": [{"days": "Mon-Fri", "time": "4:00pm"}, {"days": "Sat", "time": "2:30pm"}, {"days": "Sun", "time": "Closed"}], "id": "5250100025", "name": "USPS COLLECTION BOX - BLUE BOX", "address": {"city": "OTTUMWA", "state": "IA", "street": "641 PENNSYLVANIA AVE", "postcode": "52501"}}},
{"geometry": {"type": "Point", "coordinates": [-92.3898311737, 41.0275466731]}, "type": "Feature", "properties": {"collection_times": [{"days": "Mon-Fri", "time": "4:15pm"}, {"days": "Sat", "time": "2:30pm"}, {"days": "Sun", "time": "Closed"}], "id": "5250100026", "name": "USPS COLLECTION BOX - BLUE BOX", "address": {"city": "OTTUMWA", "state": "IA", "street": "1001 PENNSYLVANIA AVE", "postcode": "52501"}}},
{"geometry": {"type": "Point", "coordinates": [-92.3897045853, 41.0275472535]}, "type": "Feature", "properties": {"collection_times": [{"days": "Mon-Fri", "time": "4:15pm"}, {"days": "Sat-Sun", "time": "Closed"}], "id": "5250100027", "name": "USPS COLLECTION BOX - BLUE BOX", "address": {"city": "OTTUMWA", "state": "IA", "street": "1005 PENNSYLVANIA AVE", "postcode": "52501"}}},
{"geometry": {"type": "Point", "coordinates": [-92.43851986, 41.0148163141]}, "type": "Feature", "properties": {"collection_times": [{"days": "Mon-Sat", "time": "2:30pm"}, {"days": "Sun", "time": "Closed"}], "id": "5250100028", "name": "USPS COLLECTION BOX - BLUE BOX", "address": {"city": "OTTUMWA", "state": "IA", "street": "1025 N QUINCY AVE", "postcode": "52501"}}},
{"geometry": {"type": "Point", "coordinates": [-92.4059937125, 41.0140926566]}, "type": "Feature", "properties": {"collection_times": [{"days": "Mon-Sat", "time": "11:00am"}, {"days": "Sun", "time": "Closed"}], "id": "5250100030", "name": "USPS COLLECTION BOX - BLUE BOX", "address": {"city": "OTTUMWA", "state": "IA", "street": "118 S UNION ST", "postcode": "52501"}}},
{"geometry": {"type": "Point", "coordinates": [-92.3854458314, 40.9855051732]}, "type": "Feature", "properties": {"collection_times": [{"days": "Mon-Sat", "time": "11:00am"}, {"days": "Sun", "time": "Closed"}], "id": "5250100031", "name": "USPS COLLECTION BOX - BLUE BOX", "address": {"city": "OTTUMWA", "state": "IA", "street": "11620 RABBIT RUN RD", "postcode": "52501"}}},
{"geometry": {"type": "Point", "coordinates": [-92.4145267417, 41.0048307239]}, "type": "Feature", "properties": {"collection_times": [{"days": "Mon-Sat", "time": "2:30pm"}, {"days": "Sun", "time": "Closed"}], "id": "5250100032", "name": "USPS COLLECTION BOX - BLUE BOX", "address": {"city": "OTTUMWA", "state": "IA", "street": "928 E VINE ST", "postcode": "52501"}}},
{"geometry": {"type": "Point", "coordinates": [-92.4150678032, 41.0195970071]}, "type": "Feature", "properties": {"collection_times": [{"days": "Mon-Fri", "time": "4:30pm"}, {"days": "Sat-Sun", "time": "Closed"}], "id": "5250100034", "name": "USPS COLLECTION BOX - BLUE BOX", "address": {"city": "OTTUMWA", "state": "IA", "street": "226 W MAIN ST", "postcode": "52501"}}},
{"geometry": {"type": "Point", "coordinates": [-92.4385326906, 41.0161164638]}, "type": "Feature", "properties": {"collection_times": [{"days": "Mon-Sat", "time": "2:30pm"}, {"days": "Sun", "time": "Closed"}], "id": "5250100036", "name": "USPS COLLECTION BOX - BLUE BOX", "address": {"city": "OTTUMWA", "state": "IA", "street": "1111 N QUINCY AVE", "postcode": "52501"}}},
{"geometry": {"type": "Point", "coordinates": [-92.4125449679, 41.0177184239]}, "type": "Feature", "properties": {"collection_times": [{"days": "Mon-Fri", "time": "4:30pm"}, {"days": "Sat-Sun", "time": "Closed"}], "id": "5250100037", "name": "USPS COLLECTION BOX - BLUE BOX", "address": {"city": "OTTUMWA", "state": "IA", "street": "120 E MAIN ST", "postcode": "52501"}}},
{"geometry": {"type": "Point", "coordinates": [-92.3999050817, 41.0275360097]}, "type": "Feature", "properties": {"collection_times": [{"days": "Mon-Fri", "time": "4:00pm"}, {"days": "Sat", "time": "2:30pm"}, {"days": "Sun", "time": "Closed"}], "id": "5250100038", "name": "USPS COLLECTION BOX - BLUE BOX", "address": {"city": "OTTUMWA", "state": "IA", "street": "641 PENNSYLVANIA AVE", "postcode": "52501"}}},
{"geometry": {"type": "Point", "coordinates": [-92.4250681259, 41.0148916557]}, "type": "Feature", "properties": {"collection_times": [{"days": "Mon-Sat", "time": "5:00pm"}, {"days": "Sun", "time": "Closed"}], "id": "5250100043", "name": "USPS COLLECTION BOX - BLUE BOX", "address": {"city": "OTTUMWA", "state": "IA", "street": "616 W 2ND ST", "postcode": "52501"}}},
{"geometry": {"type": "Point", "coordinates": [-92.410637642, 41.0196620522]}, "type": "Feature", "properties": {"collection_times": [{"days": "Mon-Fri", "time": "4:30pm"}, {"days": "Sat", "time": "9:00am"}, {"days": "Sun", "time": "Closed"}], "id": "5250100044", "name": "USPS COLLECTION BOX - BLUE BOX", "address": {"city": "OTTUMWA", "state": "IA", "street": "101 W 4TH ST", "postcode": "52501"}}},
{"geometry": {"type": "Point", "coordinates": [-92.3982703841, 41.0438301569]}, "type": "Feature", "properties": {"collection_times": [{"days": "Mon-Sat", "time": "9:30am"}, {"days": "Sun", "time": "Closed"}], "id": "5250100045", "name": "USPS COLLECTION BOX - BLUE BOX", "address": {"city": "OTTUMWA", "state": "IA", "street": "525 GRANDVIEW AVE", "postcode": "52501"}}},
{"geometry": {"type": "Point", "coordinates": [-92.4250681259, 41.0148916557]}, "type": "Feature", "properties": {"collection_times": [{"days": "Mon-Sat", "time": "5:00pm"}, {"days": "Sun", "time": "Closed"}], "id": "5250100046", "name": "USPS COLLECTION BOX - BLUE BOX", "address": {"city": "OTTUMWA", "state": "IA", "street": "616 W 2ND ST", "postcode": "52501"}}},
{"geometry": {"type": "Point", "coordinates": [-92.4202174274, 41.0082866857]}, "type": "Feature", "properties": {"collection_times": [{"days": "Mon-Sat", "time": "2:30pm"}, {"days": "Sun", "time": "Closed"}], "id": "5250100047", "name": "USPS COLLECTION BOX - BLUE BOX", "address": {"city": "OTTUMWA", "state": "IA", "street": "619 CHURCH ST", "postcode": "52501"}}},
{"geometry": {"type": "Point", "coordinates": [-92.4180988457, 41.0231125442]}, "type": "Feature", "properties": {"collection_times": [{"days": "Mon-Sat", "time": "5:00pm"}, {"days": "Sun", "time": "Closed"}], "id": "5250100048", "name": "USPS COLLECTION BOX - PO LOBBY", "address": {"city": "OTTUMWA", "state": "IA", "street": "616 W 2ND ST", "postcode": "52501"}}},
{"geometry": {"type": "Point", "coordinates": [-92.4158454175, 41.03747561]}, "type": "Feature", "properties": {"collection_times": [{"days": "Mon-Sat", "time": "11:00am"}, {"days": "Sun", "time": "Closed"}], "id": "5250100050", "name": "USPS COLLECTION BOX - BLUE BOX", "address": {"city": "OTTUMWA", "state": "IA", "street": "700 W ALTA VISTA AVE", "postcode": "52501"}}},
{"geometry": {"type": "Point", "coordinates": [-92.4081796283, 41.0506762483]}, "type": "Feature", "properties": {"collection_times": [{"days": "Mon-Sat", "time": "2:45pm"}, {"days": "Sun", "time": "Closed"}], "id": "5250100051", "name": "USPS COLLECTION BOX - BLUE BOX", "address": {"city": "OTTUMWA", "state": "IA", "street": "2504 N COURT ST", "postcode": "52501"}}},
{"geometry": {"type": "Point", "coordinates": [-92.4016297953, 41.010723742]}, "type": "Feature", "properties": {"collection_times": [{"days": "Mon-Sat", "time": "2:30pm"}, {"days": "Sun", "time": "Closed"}], "id": "5250100052", "name": "USPS COLLECTION BOX - BLUE BOX", "address": {"city": "OTTUMWA", "state": "IA", "street": "1001 E MAIN ST", "postcode": "52501"}}},
{"geometry": {"type": "Point", "coordinates": [-92.4298644307, 41.0331598199]}, "type": "Feature", "properties": {"collection_times": [{"days": "Mon-Sat", "time": "12:30pm"}, {"days": "Sun", "time": "Closed"}], "id": "5250100053", "name": "USPS COLLECTION BOX - BLUE BOX", "address": {"city": "OTTUMWA", "state": "IA", "street": "1940 VENTURE DR", "postcode": "52501"}}},
{"geometry": {"type": "Point", "coordinates": [-92.3898311737, 41.0275466731]}, "type": "Feature", "properties": {"collection_times": [{"days": "Mon-Fri", "time": "4:15pm"}, {"days": "Sat", "time": "2:30pm"}, {"days": "Sun", "time": "Closed"}], "id": "5250100054", "name": "USPS COLLECTION BOX - BLUE BOX", "address": {"city": "OTTUMWA", "state": "IA", "street": "1001 PENNSYLVANIA AVE", "postcode": "52501"}}},
{"geometry": {"type": "Point", "coordinates": [-92.3049099539, 40.9948575171]}, "type": "Feature", "properties": {"collection_times": [{"days": "Mon-Fri", "time": "4:45pm"}, {"days": "Sat", "time": "1:45pm"}, {"days": "Sun", "time": "Closed"}], "id": "5253000000", "name": "USPS COLLECTION BOX - BLUE BOX", "address": {"city": "AGENCY", "state": "IA", "street": "102 E MAIN ST", "postcode": "52530"}}},
{"geometry": {"type": "Point", "coordinates": [-92.3049099539, 40.9948575171]}, "type": "Feature", "properties": {"collection_times": [{"days": "Mon-Fri", "time": "4:45pm"}, {"days": "Sat", "time": "1:45pm"}, {"days": "Sun", "time": "Closed"}], "id": "5253000001", "name": "USPS COLLECTION BOX - PO LOBBY", "address": {"city": "AGENCY", "state": "IA", "street": "102 E MAIN ST", "postcode": "52530"}}},
{"geometry": {"type": "Point", "coordinates": [-92.8070155119, 41.0271012264]}, "type": "Feature", "properties": {"collection_times": [{"days": "Mon-Sat", "time": "2:00pm"}, {"days": "Sun", "time": "Closed"}], "id": "5253100004", "name": "USPS COLLECTION BOX - BLUE BOX", "address": {"city": "ALBIA", "state": "IA", "street": "13 BENTON AVE E", "postcode": "52531"}}},
{"geometry": {"type": "Point", "coordinates": [-92.80816889, 41.026150474]}, "type": "Feature", "properties": {"collection_times": [{"days": "Mon-Sat", "time": "2:00pm"}, {"days": "Sun", "time": "Closed"}], "id": "5253100005", "name": "USPS COLLECTION BOX - BLUE BOX", "address": {"city": "ALBIA", "state": "IA", "street": "14 WASHINGTON AVE E", "postcode": "52531"}}},
{"geometry": {"type": "Point", "coordinates": [-92.8096954632, 41.0269862406]}, "type": "Feature", "properties": {"collection_times": [{"days": "Mon-Sat", "time": "5:00pm"}, {"days": "Sun", "time": "Closed"}], "id": "5253100006", "name": "USPS COLLECTION BOX - BLUE BOX", "address": {"city": "ALBIA", "state": "IA", "street": "15 S A ST", "postcode": "52531"}}},
{"geometry": {"type": "Point", "coordinates": [-92.8095501226, 41.0269835834]}, "type": "Feature", "properties": {"collection_times": [{"days": "Mon-Sat", "time": "5:00pm"}, {"days": "Sun", "time": "Closed"}], "id": "5253100007", "name": "USPS COLLECTION BOX - BLUE BOX", "address": {"city": "ALBIA", "state": "IA", "street": "16 S A ST", "postcode": "52531"}}},
{"geometry": {"type": "Point", "coordinates": [-92.8097080458, 41.0270871366]}, "type": "Feature", "properties": {"collection_times": [{"days": "Mon-Fri", "time": "5:15pm"}, {"days": "Sat", "time": "3:15pm"}, {"days": "Sun", "time": "Closed"}], "id": "5253100011", "name": "USPS COLLECTION BOX - PO LOBBY", "address": {"city": "ALBIA", "state": "IA", "street": "104 BENTON AVE W", "postcode": "52531"}}},
{"geometry": {"type": "Point", "coordinates": [-92.1673082982, 40.9958613793]}, "type": "Feature", "properties": {"collection_times": [{"days": "Mon-Sat", "time": "3:00pm"}, {"days": "Sun", "time": "Closed"}], "id": "5253300000", "name": "USPS COLLECTION BOX - BLUE BOX", "address": {"city": "BATAVIA", "state": "IA", "street": "1009 3RD ST", "postcode": "52533"}}},
{"geometry": {"type": "Point", "coordinates": [-92.1672038091, 40.9990891262]}, "type": "Feature", "properties": {"collection_times": [{"days": "Mon-Fri", "time": "10:45am"}, {"days": "Sat", "time": "8:30am"}, {"days": "Sun", "time": "Closed"}], "id": "5253300001", "name": "USPS COLLECTION BOX - PO LOBBY", "address": {"city": "BATAVIA", "state": "IA", "street": "1009 3RD ST", "postcode": "52533"}}},
{"geometry": {"type": "Point", "coordinates": [-92.6826883238, 41.2759367489]}, "type": "Feature", "properties": {"collection_times": [{"days": "Mon-Fri", "time": "4:30pm"}, {"days": "Sat", "time": "1:15pm"}, {"days": "Sun", "time": "Closed"}], "id": "5253400000", "name": "USPS COLLECTION BOX - BLUE BOX", "address": {"city": "BEACON", "state": "IA", "street": "320 KILBOURN ST", "postcode": "52534"}}},
{"geometry": {"type": "Point", "coordinates": [-92.6826883238, 41.2759367489]}, "type": "Feature", "properties": {"collection_times": [{"days": "Mon-Fri", "time": "4:30pm"}, {"days": "Sat", "time": "1:15pm"}, {"days": "Sun", "time": "Closed"}], "id": "5253400001", "name": "USPS COLLECTION BOX - PO LOBBY", "address": {"city": "BEACON", "state": "IA", "street": "320 KILBOURN ST", "postcode": "52534"}}},
{"geometry": {"type": "Point", "coordinates": [-91.9477552969, 40.878927558]}, "type": "Feature", "properties": {"collection_times": [{"days": "Mon-Sat", "time": "4:15pm"}, {"days": "Sun", "time": "Closed"}], "id": "5253500000", "name": "USPS COLLECTION BOX - BLUE BOX", "address": {"city": "BIRMINGHAM", "state": "IA", "street": "221 E CEDAR ST", "postcode": "52535"}}},
{"geometry": {"type": "Point", "coordinates": [-91.9477552969, 40.878927558]}, "type": "Feature", "properties": {"collection_times": [{"days": "Mon-Fri", "time": "12:45pm"}, {"days": "Sat-Sun", "time": "Closed"}], "id": "5253500001", "name": "USPS COLLECTION BOX - PO LOBBY", "address": {"city": "BIRMINGHAM", "state": "IA", "street": "221 E CEDAR ST", "postcode": "52535"}}},
{"geometry": {"type": "Point", "coordinates": [-92.6009340501, 40.9315424343]}, "type": "Feature", "properties": {"collection_times": [{"days": "Mon-Sat", "time": "3:30pm"}, {"days": "Sun", "time": "Closed"}], "id": "5253600000", "name": "USPS COLLECTION BOX - BLUE BOX", "address": {"city": "BLAKESBURG", "state": "IA", "street": "PO BOX 9998", "postcode": "52536"}}},
{"geometry": {"type": "Point", "coordinates": [-92.6009340501, 40.9315424343]}, "type": "Feature", "properties": {"collection_times": [{"days": "Mon-Fri", "time": "10:45am"}, {"days": "Sat-Sun", "time": "Closed"}], "id": "5253600001", "name": "USPS COLLECTION BOX - PO LOBBY", "address": {"city": "BLAKESBURG", "state": "IA", "street": "PO BOX 9998", "postcode": "52536"}}},
{"geometry": {"type": "Point", "coordinates": [-92.4164490121, 40.7517468644]}, "type": "Feature", "properties": {"collection_times": [{"days": "Mon-Sat", "time": "5:00pm"}, {"days": "Sun", "time": "Closed"}], "id": "5253700000", "name": "USPS COLLECTION BOX - BLUE BOX", "address": {"city": "BLOOMFIELD", "state": "IA", "street": "202 W JEFFERSON ST", "postcode": "52537"}}},
{"geometry": {"type": "Point", "coordinates": [-92.4164490121, 40.7517468644]}, "type": "Feature", "properties": {"collection_times": [{"days": "Mon-Fri", "time": "5:00pm"}, {"days": "Sat", "time": "12:15pm"}, {"days": "Sun", "time": "Closed"}], "id": "5253700012", "name": "USPS COLLECTION BOX - PO LOBBY", "address": {"city": "BLOOMFIELD", "state": "IA", "street": "202 W JEFFERSON ST", "postcode": "52537"}}},
{"geometry": {"type": "Point", "coordinates": [-92.4151261877, 40.7506083917]}, "type": "Feature", "properties": {"collection_times": [{"days": "Mon-Fri", "time": "3:00pm"}, {"days": "Sat", "time": "1:30pm"}, {"days": "Sun", "time": "Closed"}], "id": "5253700013", "name": "USPS COLLECTION BOX - BLUE BOX", "address": {"city": "BLOOMFIELD", "state": "IA", "street": "202 S MADISON ST", "postcode": "52537"}}},
{"geometry": {"type": "Point", "coordinates": [-91.821480026, 41.1572199257]}, "type": "Feature", "properties": {"collection_times": [{"days": "Mon-Fri", "time": "1:45pm"}, {"days": "Sat-Sun", "time": "Closed"}], "id": "5254000001", "name": "USPS COLLECTION BOX - PO LOBBY", "address": {"city": "BRIGHTON", "state": "IA", "street": "102 N VAN BUREN ST", "postcode": "52540"}}},
{"geometry": {"type": "Point", "coordinates": [-91.820637608, 41.176091711]}, "type": "Feature", "properties": {"collection_times": [{"days": "Mon-Sat", "time": "4:15pm"}, {"days": "Sun", "time": "Closed"}], "id": "5254000002", "name": "USPS COLLECTION BOX - BLUE BOX", "address": {"city": "BRIGHTON", "state": "IA", "street": "102 N VAN BUREN ST", "postcode": "52540"}}},
{"geometry": {"type": "Point", "coordinates": [-92.0696747225, 40.6450200607]}, "type": "Feature", "properties": {"collection_times": [{"days": "Mon-Sat", "time": "3:30pm"}, {"days": "Sun", "time": "Closed"}], "id": "5254200000", "name": "USPS COLLECTION BOX - BLUE BOX", "address": {"city": "CANTRIL", "state": "IA", "street": "124 DIVISION ST", "postcode": "52542"}}},
{"geometry": {"type": "Point", "coordinates": [-92.0696747225, 40.6450200607]}, "type": "Feature", "properties": {"collection_times": [{"days": "Mon-Fri", "time": "1:45pm"}, {"days": "Sat-Sun", "time": "Closed"}], "id": "5254200002", "name": "USPS COLLECTION BOX - PO LOBBY", "address": {"city": "CANTRIL", "state": "IA", "street": "124 DIVISION ST", "postcode": "52542"}}},
{"geometry": {"type": "Point", "coordinates": [-92.5246826884, 41.2132002331]}, "type": "Feature", "properties": {"collection_times": [{"days": "Mon-Fri", "time": "4:00pm"}, {"days": "Sat", "time": "3:00pm"}, {"days": "Sun", "time": "Closed"}], "id": "5254300000", "name": "USPS COLLECTION BOX - BLUE BOX", "address": {"city": "CEDAR", "state": "IA", "street": "2804 HIGHWAY 23", "postcode": "52543"}}},
{"geometry": {"type": "Point", "coordinates": [-92.5246826884, 41.2132002331]}, "type": "Feature", "properties": {"collection_times": [{"days": "Mon-Fri", "time": "3:30pm"}, {"days": "Sat", "time": "3:00pm"}, {"days": "Sun", "time": "Closed"}], "id": "5254300001", "name": "USPS COLLECTION BOX - PO LOBBY", "address": {"city": "CEDAR", "state": "IA", "street": "2804 HIGHWAY 23", "postcode": "52543"}}},
{"geometry": {"type": "Point", "coordinates": [-92.8678914541, 40.7370191206]}, "type": "Feature", "properties": {"collection_times": [{"days": "Mon-Sat", "time": "12:00pm"}, {"days": "Sun", "time": "Closed"}], "id": "5254400006", "name": "USPS COLLECTION BOX - BLUE BOX", "address": {"city": "CENTERVILLE", "state": "IA", "street": "609 N 18TH ST", "postcode": "52544"}}},
{"geometry": {"type": "Point", "coordinates": [-92.8764950366, 40.7342651111]}, "type": "Feature", "properties": {"collection_times": [{"days": "Mon-Fri", "time": "4:45pm"}, {"days": "Sat", "time": "4:00pm"}, {"days": "Sun", "time": "Closed"}], "id": "5254400008", "name": "USPS COLLECTION BOX - BLUE BOX", "address": {"city": "CENTERVILLE", "state": "IA", "street": "300 N 10TH ST", "postcode": "52544"}}},
{"geometry": {"type": "Point", "coordinates": [-92.8764950366, 40.7342651111]}, "type": "Feature", "properties": {"collection_times": [{"days": "Mon-Fri", "time": "4:45pm"}, {"days": "Sat", "time": "4:00pm"}, {"days": "Sun", "time": "Closed"}], "id": "5254400014", "name": "USPS COLLECTION BOX - BLUE BOX", "address": {"city": "CENTERVILLE", "state": "IA", "street": "300 N 10TH ST", "postcode": "52544"}}},
{"geometry": {"type": "Point", "coordinates": [-92.8764950366, 40.7342651111]}, "type": "Feature", "properties": {"collection_times": [{"days": "Mon-Fri", "time": "4:45pm"}, {"days": "Sat", "time": "4:00pm"}, {"days": "Sun", "time": "Closed"}], "id": "5254400016", "name": "USPS COLLECTION BOX - PO LOBBY", "address": {"city": "CENTERVILLE", "state": "IA", "street": "300 N 10TH ST", "postcode": "52544"}}},
{"geometry": {"type": "Point", "coordinates": [-92.8764950366, 40.7342651111]}, "type": "Feature", "properties": {"collection_times": [{"days": "Mon-Fri", "time": "4:45pm"}, {"days": "Sat", "time": "4:00pm"}, {"days": "Sun", "time": "Closed"}], "id": "5254400018", "name": "USPS COLLECTION BOX - BLUE BOX", "address": {"city": "CENTERVILLE", "state": "IA", "street": "300 N 10TH ST", "postcode": "52544"}}},
{"geometry": {"type": "Point", "coordinates": [-92.5289271926, 41.086375526]}, "type": "Feature", "properties": {"collection_times": [{"days": "Mon-Sat", "time": "2:15pm"}, {"days": "Sun", "time": "Closed"}], "id": "5254800000", "name": "USPS COLLECTION BOX - BLUE BOX", "address": {"city": "CHILLICOTHE", "state": "IA", "street": "318 MARKET ST", "postcode": "52548"}}},
{"geometry": {"type": "Point", "coordinates": [-92.5289271926, 41.086375526]}, "type": "Feature", "properties": {"collection_times": [{"days": "Mon-Fri", "time": "2:15pm"}, {"days": "Sat-Sun", "time": "Closed"}], "id": "5254800001", "name": "USPS COLLECTION BOX - PO LOBBY", "address": {"city": "CHILLICOTHE", "state": "IA", "street": "318 MARKET ST", "postcode": "52548"}}},
{"geometry": {"type": "Point", "coordinates": [-92.924712226, 40.6310614524]}, "type": "Feature", "properties": {"collection_times": [{"days": "Mon-Sat", "time": "3:15pm"}, {"days": "Sun", "time": "Closed"}], "id": "5254900000", "name": "USPS COLLECTION BOX - BLUE BOX", "address": {"city": "CINCINNATI", "state": "IA", "street": "107 S LIBERTY", "postcode": "52549"}}},
{"geometry": {"type": "Point", "coordinates": [-92.924712226, 40.6310614524]}, "type": "Feature", "properties": {"collection_times": [{"days": "Mon-Fri", "time": "3:15pm"}, {"days": "Sat-Sun", "time": "Closed"}], "id": "5254900001", "name": "USPS COLLECTION BOX - PO LOBBY", "address": {"city": "CINCINNATI", "state": "IA", "street": "107 S LIBERTY", "postcode": "52549"}}},
{"geometry": {"type": "Point", "coordinates": [-92.0831915614, 40.849923593]}, "type": "Feature", "properties": {"collection_times": [{"days": "Mon-Sat", "time": "3:30pm"}, {"days": "Sun", "time": "Closed"}], "id": "5255100000", "name": "USPS COLLECTION BOX - BLUE BOX", "address": {"city": "DOUDS", "state": "IA", "street": "14173 HIGHWAY 98", "postcode": "52551"}}},
{"geometry": {"type": "Point", "coordinates": [-92.0887777354, 40.8301029632]}, "type": "Feature", "properties": {"collection_times": [{"days": "Mon-Fri", "time": "1:45pm"}, {"days": "Sat-Sun", "time": "Closed"}], "id": "5255100001", "name": "USPS COLLECTION BOX - PO LOBBY", "address": {"city": "DOUDS", "state": "IA", "street": "14173 HIGHWAY 98", "postcode": "52551"}}},
{"geometry": {"type": "Point", "coordinates": [-92.4818823412, 40.7987898283]}, "type": "Feature", "properties": {"collection_times": [{"days": "Mon-Sat", "time": "3:45pm"}, {"days": "Sun", "time": "Closed"}], "id": "5255200000", "name": "USPS COLLECTION BOX - BLUE BOX", "address": {"city": "DRAKESVILLE", "state": "IA", "street": "108 W MAIN ST", "postcode": "52552"}}},
{"geometry": {"type": "Point", "coordinates": [-92.4818823412, 40.7987898283]}, "type": "Feature", "properties": {"collection_times": [{"days": "Mon-Fri", "time": "3:45pm"}, {"days": "Sat-Sun", "time": "Closed"}], "id": "5255200001", "name": "USPS COLLECTION BOX - PO LOBBY", "address": {"city": "DRAKESVILLE", "state": "IA", "street": "108 W MAIN ST", "postcode": "52552"}}},
{"geometry": {"type": "Point", "coordinates": [-92.6386343036, 41.1562871474]}, "type": "Feature", "properties": {"collection_times": [{"days": "Mon-Sat", "time": "3:45pm"}, {"days": "Sun", "time": "Closed"}], "id": "5255300000", "name": "USPS COLLECTION BOX - BLUE BOX", "address": {"city": "EDDYVILLE", "state": "IA", "street": "102 WALNUT ST", "postcode": "52553"}}},
{"geometry": {"type": "Point", "coordinates": [-92.6386343036, 41.1562871474]}, "type": "Feature", "properties": {"collection_times": [{"days": "Mon-Fri", "time": "4:00pm"}, {"days": "Sat", "time": "10:00am"}, {"days": "Sun", "time": "Closed"}], "id": "5255300001", "name": "USPS COLLECTION BOX - PO LOBBY", "address": {"city": "EDDYVILLE", "state": "IA", "street": "102 WALNUT ST", "postcode": "52553"}}},
{"geometry": {"type": "Point", "coordinates": [-92.2222331112, 40.9180416004]}, "type": "Feature", "properties": {"collection_times": [{"days": "Mon-Sat", "time": "4:30pm"}, {"days": "Sun", "time": "Closed"}], "id": "5255400000", "name": "USPS COLLECTION BOX - BLUE BOX", "address": {"city": "ELDON", "state": "IA", "street": "402 ELM ST", "postcode": "52554"}}},
{"geometry": {"type": "Point", "coordinates": [-92.2222331112, 40.9180416004]}, "type": "Feature", "properties": {"collection_times": [{"days": "Mon-Fri", "time": "1:15pm"}, {"days": "Sat", "time": "9:15am"}, {"days": "Sun", "time": "Closed"}], "id": "5255400001", "name": "USPS COLLECTION BOX - PO LOBBY", "address": {"city": "ELDON", "state": "IA", "street": "402 ELM ST", "postcode": "52554"}}},
{"geometry": {"type": "Point", "coordinates": [-92.8407350291, 40.6481571232]}, "type": "Feature", "properties": {"collection_times": [{"days": "Mon-Sat", "time": "3:00pm"}, {"days": "Sun", "time": "Closed"}], "id": "5255500000", "name": "USPS COLLECTION BOX - BLUE BOX", "address": {"city": "EXLINE", "state": "IA", "street": "101 W MAIN ST", "postcode": "52555"}}},
{"geometry": {"type": "Point", "coordinates": [-92.8407350291, 40.6481571232]}, "type": "Feature", "properties": {"collection_times": [{"days": "Mon-Fri", "time": "2:45pm"}, {"days": "Sat", "time": "3:00pm"}, {"days": "Sun", "time": "Closed"}], "id": "5255500001", "name": "USPS COLLECTION BOX - PO LOBBY", "address": {"city": "EXLINE", "state": "IA", "street": "101 W MAIN ST", "postcode": "52555"}}},
{"geometry": {"type": "Point", "coordinates": [-91.9786675153, 41.0064056615]}, "type": "Feature", "properties": {"collection_times": [{"days": "Mon-Sat", "time": "3:00pm"}, {"days": "Sun", "time": "Closed"}], "id": "5255600003", "name": "USPS COLLECTION BOX - BLUE BOX", "address": {"city": "FAIRFIELD", "state": "IA", "street": "1300 W BURLINGTON AVE", "postcode": "52556"}}},
{"geometry": {"type": "Point", "coordinates": [-91.9826963302, 41.0063933995]}, "type": "Feature", "properties": {"collection_times": [{"days": "Mon-Sat", "time": "9:00am"}, {"days": "Sun", "time": "Closed"}], "id": "5255600004", "name": "USPS COLLECTION BOX - BLUE BOX", "address": {"city": "FAIRFIELD", "state": "IA", "street": "2701 W BURLINGTON AVE", "postcode": "52556"}}},
{"geometry": {"type": "Point", "coordinates": [-91.9259887092, 41.0187971043]}, "type": "Feature", "properties": {"collection_times": [{"days": "Mon-Sat", "time": "9:00am"}, {"days": "Sun", "time": "Closed"}], "id": "5255600008", "name": "USPS COLLECTION BOX - BLUE BOX", "address": {"city": "FAIRFIELD", "state": "IA", "street": "2000 N COURT ST", "postcode": "52556"}}},
{"geometry": {"type": "Point", "coordinates": [-91.9641026673, 41.0086436001]}, "type": "Feature", "properties": {"collection_times": [{"days": "Mon-Fri", "time": "11:00am"}, {"days": "Sat-Sun", "time": "Closed"}], "id": "5255600021", "name": "USPS COLLECTION BOX - BLUE BOX", "address": {"city": "FAIRFIELD", "state": "IA", "street": "51 W BRIGGS AVE", "postcode": "52556"}}},
{"geometry": {"type": "Point", "coordinates": [-91.9650985267, 41.0075737251]}, "type": "Feature", "properties": {"collection_times": [{"days": "Mon-Fri", "time": "5:00pm"}, {"days": "Sat", "time": "3:00pm"}, {"days": "Sun", "time": "Closed"}], "id": "5255600027", "name": "USPS COLLECTION BOX - BLUE BOX", "address": {"city": "FAIRFIELD", "state": "IA", "street": "200 W BROADWAY AVE", "postcode": "52556"}}},
{"geometry": {"type": "Point", "coordinates": [-91.9650985267, 41.0075737251]}, "type": "Feature", "properties": {"collection_times": [{"days": "Mon-Fri", "time": "5:00pm"}, {"days": "Sat", "time": "3:00pm"}, {"days": "Sun", "time": "Closed"}], "id": "5255600030", "name": "USPS COLLECTION BOX - BLUE BOX", "address": {"city": "FAIRFIELD", "state": "IA", "street": "200 W BROADWAY AVE", "postcode": "52556"}}},
{"geometry": {"type": "Point", "coordinates": [-91.9629923612, 41.0065844516]}, "type": "Feature", "properties": {"collection_times": [{"days": "Mon-Sat", "time": "2:15pm"}, {"days": "Sun", "time": "Closed"}], "id": "5255600033", "name": "USPS COLLECTION BOX - BLUE BOX", "address": {"city": "FAIRFIELD", "state": "IA", "street": "58 E BURLINGTON AVE", "postcode": "52556"}}},
{"geometry": {"type": "Point", "coordinates": [-91.987922971, 41.0045414632]}, "type": "Feature", "properties": {"collection_times": [{"days": "Mon-Sat", "time": "5:00pm"}, {"days": "Sun", "time": "Closed"}], "id": "5255600036", "name": "USPS COLLECTION BOX - BLUE BOX", "address": {"city": "FAIRFIELD", "state": "IA", "street": "203 S 23RD ST", "postcode": "52556"}}},
{"geometry": {"type": "Point", "coordinates": [-91.9665164108, 41.0067096704]}, "type": "Feature", "properties": {"collection_times": [{"days": "Mon-Sat", "time": "11:00am"}, {"days": "Sun", "time": "Closed"}], "id": "5255600038", "name": "USPS COLLECTION BOX - BLUE BOX", "address": {"city": "FAIRFIELD", "state": "IA", "street": "311 W BURLINGTON AVE", "postcode": "52556"}}},
{"geometry": {"type": "Point", "coordinates": [-91.9650985267, 41.0075737251]}, "type": "Feature", "properties": {"collection_times": [{"days": "Mon-Fri", "time": "5:00pm"}, {"days": "Sat", "time": "11:00am"}, {"days": "Sun", "time": "Closed"}], "id": "5255600041", "name": "USPS COLLECTION BOX - PO LOBBY", "address": {"city": "FAIRFIELD", "state": "IA", "street": "200 W BROADWAY AVE", "postcode": "52556"}}},
{"geometry": {"type": "Point", "coordinates": [-92.3375521552, 40.8634802159]}, "type": "Feature", "properties": {"collection_times": [{"days": "Mon-Sat", "time": "3:30pm"}, {"days": "Sun", "time": "Closed"}], "id": "5256000000", "name": "USPS COLLECTION BOX - BLUE BOX", "address": {"city": "FLORIS", "state": "IA", "street": "101 W MAIN ST", "postcode": "52560"}}},
{"geometry": {"type": "Point", "coordinates": [-92.3375521552, 40.8634802159]}, "type": "Feature", "properties": {"collection_times": [{"days": "Mon-Fri", "time": "1:45pm"}, {"days": "Sat-Sun", "time": "Closed"}], "id": "5256000001", "name": "USPS COLLECTION BOX - PO LOBBY", "address": {"city": "FLORIS", "state": "IA", "street": "101 W MAIN ST", "postcode": "52560"}}},
{"geometry": {"type": "Point", "coordinates": [-92.4369558517, 41.2125309355]}, "type": "Feature", "properties": {"collection_times": [{"days": "Mon-Fri", "time": "3:30pm"}, {"days": "Sat", "time": "3:45pm"}, {"days": "Sun", "time": "Closed"}], "id": "5256100000", "name": "USPS COLLECTION BOX - BLUE BOX", "address": {"city": "FREMONT", "state": "IA", "street": "110 W MAIN ST", "postcode": "52561"}}},
{"geometry": {"type": "Point", "coordinates": [-92.4369558517, 41.2125309355]}, "type": "Feature", "properties": {"collection_times": [{"days": "Mon-Fri", "time": "10:45am"}, {"days": "Sat", "time": "8:30am"}, {"days": "Sun", "time": "Closed"}], "id": "5256100001", "name": "USPS COLLECTION BOX - PO LOBBY", "address": {"city": "FREMONT", "state": "IA", "street": "110 W MAIN ST", "postcode": "52561"}}},
{"geometry": {"type": "Point", "coordinates": [-92.3089029552, 41.1715419496]}, "type": "Feature", "properties": {"collection_times": [{"days": "Mon-Sat", "time": "2:30pm"}, {"days": "Sun", "time": "Closed"}], "id": "5256300000", "name": "USPS COLLECTION BOX - BLUE BOX", "address": {"city": "HEDRICK", "state": "IA", "street": "102 S MAIN ST", "postcode": "52563"}}},
{"geometry": {"type": "Point", "coordinates": [-92.3089029552, 41.1715419496]}, "type": "Feature", "properties": {"collection_times": [{"days": "Mon-Fri", "time": "1:45pm"}, {"days": "Sat-Sun", "time": "Closed"}], "id": "5256300001", "name": "USPS COLLECTION BOX - PO LOBBY", "address": {"city": "HEDRICK", "state": "IA", "street": "102 S MAIN ST", "postcode": "52563"}}},
{"geometry": {"type": "Point", "coordinates": [-91.9690026454, 40.734171736]}, "type": "Feature", "properties": {"collection_times": [{"days": "Mon-Sat", "time": "8:30am"}, {"days": "Sun", "time": "Closed"}], "id": "5256500000", "name": "USPS COLLECTION BOX - BLUE BOX", "address": {"city": "KEOSAUQUA", "state": "IA", "street": "916 COUNTRY LANE DR", "postcode": "52565"}}},
{"geometry": {"type": "Point", "coordinates": [-91.9753425181, 40.759110282]}, "type": "Feature", "properties": {"collection_times": [{"days": "Mon-Sat", "time": "3:30pm"}, {"days": "Sun", "time": "Closed"}], "id": "5256500001", "name": "USPS COLLECTION BOX - BLUE BOX", "address": {"city": "KEOSAUQUA", "state": "IA", "street": "807 2ND ST", "postcode": "52565"}}},
{"geometry": {"type": "Point", "coordinates": [-91.9753425181, 40.759110282]}, "type": "Feature", "properties": {"collection_times": [{"days": "Mon-Fri", "time": "3:30pm"}, {"days": "Sat", "time": "10:00am"}, {"days": "Sun", "time": "Closed"}], "id": "5256500003", "name": "USPS COLLECTION BOX - PO LOBBY", "address": {"city": "KEOSAUQUA", "state": "IA", "street": "807 2ND ST", "postcode": "52565"}}},
{"geometry": {"type": "Point", "coordinates": [-92.5037131362, 41.1455145815]}, "type": "Feature", "properties": {"collection_times": [{"days": "Mon-Sat", "time": "2:45pm"}, {"days": "Sun", "time": "Closed"}], "id": "5256600000", "name": "USPS COLLECTION BOX - BLUE BOX", "address": {"city": "KIRKVILLE", "state": "IA", "street": "100 S CEDAR ST", "postcode": "52566"}}},
{"geometry": {"type": "Point", "coordinates": [-92.5037131362, 41.1455145815]}, "type": "Feature", "properties": {"collection_times": [{"days": "Mon-Fri", "time": "2:45pm"}, {"days": "Sat-Sun", "time": "Closed"}], "id": "5256600001", "name": "USPS COLLECTION BOX - PO LOBBY", "address": {"city": "KIRKVILLE", "state": "IA", "street": "100 S CEDAR ST", "postcode": "52566"}}},
{"geometry": {"type": "Point", "coordinates": [-92.0781064773, 40.9289239275]}, "type": "Feature", "properties": {"collection_times": [{"days": "Mon-Sat", "time": "3:00pm"}, {"days": "Sun", "time": "Closed"}], "id": "5256700000", "name": "USPS COLLECTION BOX - BLUE BOX", "address": {"city": "LIBERTYVILLE", "state": "IA", "street": "106 N MAIN ST", "postcode": "52567"}}},
{"geometry": {"type": "Point", "coordinates": [-92.0781064773, 40.9289239275]}, "type": "Feature", "properties": {"collection_times": [{"days": "Mon-Fri", "time": "11:45am"}, {"days": "Sat-Sun", "time": "Closed"}], "id": "5256700001", "name": "USPS COLLECTION BOX - PO LOBBY", "address": {"city": "LIBERTYVILLE", "state": "IA", "street": "106 N MAIN ST", "postcode": "52567"}}},
{"geometry": {"type": "Point", "coordinates": [-93.04813021, 40.9750138511]}, "type": "Feature", "properties": {"collection_times": [{"days": "Mon-Sat", "time": "3:30pm"}, {"days": "Sun", "time": "Closed"}], "id": "5256900000", "name": "USPS COLLECTION BOX - BLUE BOX", "address": {"city": "MELROSE", "state": "IA", "street": "103 ERIN AVE", "postcode": "52569"}}},
{"geometry": {"type": "Point", "coordinates": [-93.04813021, 40.9750138511]}, "type": "Feature", "properties": {"collection_times": [{"days": "Mon-Fri", "time": "11:15am"}, {"days": "Sat-Sun", "time": "Closed"}], "id": "5256900001", "name": "USPS COLLECTION BOX - PO LOBBY", "address": {"city": "MELROSE", "state": "IA", "street": "103 ERIN AVE", "postcode": "52569"}}},
{"geometry": {"type": "Point", "coordinates": [-92.1620146557, 40.6735015313]}, "type": "Feature", "properties": {"collection_times": [{"days": "Mon-Sat", "time": "3:30pm"}, {"days": "Sun", "time": "Closed"}], "id": "5257000000", "name": "USPS COLLECTION BOX - BLUE BOX", "address": {"city": "MILTON", "state": "IA", "street": "401 N MAIN ST", "postcode": "52570"}}},
{"geometry": {"type": "Point", "coordinates": [-92.1620146557, 40.6735015313]}, "type": "Feature", "properties": {"collection_times": [{"days": "Mon-Fri", "time": "2:45pm"}, {"days": "Sat-Sun", "time": "Closed"}], "id": "5257000001", "name": "USPS COLLECTION BOX - PO LOBBY", "address": {"city": "MILTON", "state": "IA", "street": "401 N MAIN ST", "postcode": "52570"}}},
{"geometry": {"type": "Point", "coordinates": [-92.8145178904, 40.8912141916]}, "type": "Feature", "properties": {"collection_times": [{"days": "Mon-Sat", "time": "4:00pm"}, {"days": "Sun", "time": "Closed"}], "id": "5257100000", "name": "USPS COLLECTION BOX - BLUE BOX", "address": {"city": "MORAVIA", "state": "IA", "street": "107 N WILLIAM ST", "postcode": "52571"}}},
{"geometry": {"type": "Point", "coordinates": [-92.8145178904, 40.8912141916]}, "type": "Feature", "properties": {"collection_times": [{"days": "Mon-Fri", "time": "1:15pm"}, {"days": "Sat", "time": "8:15am"}, {"days": "Sun", "time": "Closed"}], "id": "5257100001", "name": "USPS COLLECTION BOX - PO LOBBY", "address": {"city": "MORAVIA", "state": "IA", "street": "107 N WILLIAM ST", "postcode": "52571"}}},
{"geometry": {"type": "Point", "coordinates": [-92.6770720715, 40.6848434803]}, "type": "Feature", "properties": {"collection_times": [{"days": "Mon-Sat", "time": "3:30pm"}, {"days": "Sun", "time": "Closed"}], "id": "5257200000", "name": "USPS COLLECTION BOX - BLUE BOX", "address": {"city": "MOULTON", "state": "IA", "street": "103 E 4TH ST", "postcode": "52572"}}},
{"geometry": {"type": "Point", "coordinates": [-92.6770720715, 40.6848434803]}, "type": "Feature", "properties": {"collection_times": [{"days": "Mon-Fri", "time": "1:45pm"}, {"days": "Sat", "time": "9:45am"}, {"days": "Sun", "time": "Closed"}], "id": "5257200002", "name": "USPS COLLECTION BOX - PO LOBBY", "address": {"city": "MOULTON", "state": "IA", "street": "103 E 4TH ST", "postcode": "52572"}}},
{"geometry": {"type": "Point", "coordinates": [-92.9455493625, 40.7777166337]}, "type": "Feature", "properties": {"collection_times": [{"days": "Mon-Sat", "time": "4:15pm"}, {"days": "Sun", "time": "Closed"}], "id": "5257400000", "name": "USPS COLLECTION BOX - BLUE BOX", "address": {"city": "MYSTIC", "state": "IA", "street": "312 W MAIN ST", "postcode": "52574"}}},
{"geometry": {"type": "Point", "coordinates": [-92.9455493625, 40.7777166337]}, "type": "Feature", "properties": {"collection_times": [{"days": "Mon-Fri", "time": "3:45pm"}, {"days": "Sat", "time": "1:30pm"}, {"days": "Sun", "time": "Closed"}], "id": "5257400001", "name": "USPS COLLECTION BOX - PO LOBBY", "address": {"city": "MYSTIC", "state": "IA", "street": "312 W MAIN ST", "postcode": "52574"}}},
{"geometry": {"type": "Point", "coordinates": [-92.1145780286, 41.2095488585]}, "type": "Feature", "properties": {"collection_times": [{"days": "Mon-Sat", "time": "3:30pm"}, {"days": "Sun", "time": "Closed"}], "id": "5257600000", "name": "USPS COLLECTION BOX - BLUE BOX", "address": {"city": "OLLIE", "state": "IA", "street": "204 N 4TH ST", "postcode": "52576"}}},
{"geometry": {"type": "Point", "coordinates": [-92.6305776066, 41.2986142516]}, "type": "Feature", "properties": {"collection_times": [{"days": "Mon-Sat", "time": "10:30am"}, {"days": "Sun", "time": "Closed"}], "id": "5257700004", "name": "USPS COLLECTION BOX - BLUE BOX", "address": {"city": "OSKALOOSA", "state": "IA", "street": "1229 C AVE E", "postcode": "52577"}}},
{"geometry": {"type": "Point", "coordinates": [-92.6318169885, 41.2850047857]}, "type": "Feature", "properties": {"collection_times": [{"days": "Mon-Sat", "time": "10:30am"}, {"days": "Sun", "time": "Closed"}], "id": "5257700005", "name": "USPS COLLECTION BOX - BLUE BOX", "address": {"city": "OSKALOOSA", "state": "IA", "street": "1102 S 11TH ST", "postcode": "52577"}}},
{"geometry": {"type": "Point", "coordinates": [-92.6437804884, 41.2943581232]}, "type": "Feature", "properties": {"collection_times": [{"days": "Mon-Sat", "time": "4:30pm"}, {"days": "Sun", "time": "Closed"}], "id": "5257700007", "name": "USPS COLLECTION BOX - BLUE BOX", "address": {"city": "OSKALOOSA", "state": "IA", "street": "202 S 1ST ST", "postcode": "52577"}}},
{"geometry": {"type": "Point", "coordinates": [-92.6437675833, 41.2952954396]}, "type": "Feature", "properties": {"collection_times": [{"days": "Mon-Sat", "time": "4:30pm"}, {"days": "Sun", "time": "Closed"}], "id": "5257700008", "name": "USPS COLLECTION BOX - BLUE BOX", "address": {"city": "OSKALOOSA", "state": "IA", "street": "102 S 1ST ST", "postcode": "52577"}}},
{"geometry": {"type": "Point", "coordinates": [-92.6714247661, 41.2962512011]}, "type": "Feature", "properties": {"collection_times": [{"days": "Mon-Sat", "time": "9:30am"}, {"days": "Sun", "time": "Closed"}], "id": "5257700012", "name": "USPS COLLECTION BOX - BLUE BOX", "address": {"city": "OSKALOOSA", "state": "IA", "street": "2203 A AVE W", "postcode": "52577"}}},
{"geometry": {"type": "Point", "coordinates": [-92.6437804884, 41.2943581232]}, "type": "Feature", "properties": {"collection_times": [{"days": "Mon-Sat", "time": "4:30pm"}, {"days": "Sun", "time": "Closed"}], "id": "5257700014", "name": "USPS COLLECTION BOX - BLUE BOX", "address": {"city": "OSKALOOSA", "state": "IA", "street": "202 S 1ST ST", "postcode": "52577"}}},
{"geometry": {"type": "Point", "coordinates": [-92.6437675833, 41.2952954396]}, "type": "Feature", "properties": {"collection_times": [{"days": "Mon-Sat", "time": "4:30pm"}, {"days": "Sun", "time": "Closed"}], "id": "5257700015", "name": "USPS COLLECTION BOX - BLUE BOX", "address": {"city": "OSKALOOSA", "state": "IA", "street": "102 S 1ST ST", "postcode": "52577"}}},
{"geometry": {"type": "Point", "coordinates": [-92.6437675833, 41.2952954396]}, "type": "Feature", "properties": {"collection_times": [{"days": "Mon-Sat", "time": "4:30pm"}, {"days": "Sun", "time": "Closed"}], "id": "5257700016", "name": "USPS COLLECTION BOX - BLUE BOX", "address": {"city": "OSKALOOSA", "state": "IA", "street": "102 S 1ST ST", "postcode": "52577"}}},
{"geometry": {"type": "Point", "coordinates": [-92.6462683137, 41.2952580141]}, "type": "Feature", "properties": {"collection_times": [{"days": "Mon-Sat", "time": "4:30pm"}, {"days": "Sun", "time": "Closed"}], "id": "5257700019", "name": "USPS COLLECTION BOX - BLUE BOX", "address": {"city": "OSKALOOSA", "state": "IA", "street": "200 HIGH AVE W", "postcode": "52577"}}},
{"geometry": {"type": "Point", "coordinates": [-92.6448607293, 41.2900254222]}, "type": "Feature", "properties": {"collection_times": [{"days": "Mon-Sat", "time": "5:00pm"}, {"days": "Sun", "time": "Closed"}], "id": "5257700020", "name": "USPS COLLECTION BOX - BLUE BOX", "address": {"city": "OSKALOOSA", "state": "IA", "street": "113 6TH AVE E", "postcode": "52577"}}},
{"geometry": {"type": "Point", "coordinates": [-92.6448607293, 41.2900254222]}, "type": "Feature", "properties": {"collection_times": [{"days": "Mon-Sat", "time": "5:00pm"}, {"days": "Sun", "time": "Closed"}], "id": "5257700021", "name": "USPS COLLECTION BOX - BLUE BOX", "address": {"city": "OSKALOOSA", "state": "IA", "street": "113 6TH AVE E", "postcode": "52577"}}},
{"geometry": {"type": "Point", "coordinates": [-92.6448607293, 41.2900254222]}, "type": "Feature", "properties": {"collection_times": [{"days": "Mon-Sat", "time": "5:00pm"}, {"days": "Sun", "time": "Closed"}], "id": "5257700023", "name": "USPS COLLECTION BOX - BLUE BOX", "address": {"city": "OSKALOOSA", "state": "IA", "street": "113 6TH AVE E", "postcode": "52577"}}},
{"geometry": {"type": "Point", "coordinates": [-92.6448607293, 41.2900254222]}, "type": "Feature", "properties": {"collection_times": [{"days": "Mon-Sat", "time": "5:00pm"}, {"days": "Sun", "time": "Closed"}], "id": "5257700025", "name": "USPS COLLECTION BOX - PO LOBBY", "address": {"city": "OSKALOOSA", "state": "IA", "street": "113 6TH AVE E", "postcode": "52577"}}},
{"geometry": {"type": "Point", "coordinates": [-92.649687498, 41.2952014342]}, "type": "Feature", "properties": {"collection_times": [{"days": "Mon-Sat", "time": "9:15am"}, {"days": "Sun", "time": "Closed"}], "id": "5257700028", "name": "USPS COLLECTION BOX - BLUE BOX", "address": {"city": "OSKALOOSA", "state": "IA", "street": "110 S D ST", "postcode": "52577"}}},
{"geometry": {"type": "Point", "coordinates": [-92.0838471524, 41.1330201813]}, "type": "Feature", "properties": {"collection_times": [{"days": "Mon-Sat", "time": "3:30pm"}, {"days": "Sun", "time": "Closed"}], "id": "5258000000", "name": "USPS COLLECTION BOX - BLUE BOX", "address": {"city": "PACKWOOD", "state": "IA", "street": "204 W 2ND ST", "postcode": "52580"}}},
{"geometry": {"type": "Point", "coordinates": [-92.0838471524, 41.1330201813]}, "type": "Feature", "properties": {"collection_times": [{"days": "Mon-Fri", "time": "11:45am"}, {"days": "Sat", "time": "8:45am"}, {"days": "Sun", "time": "Closed"}], "id": "5258000001", "name": "USPS COLLECTION BOX - PO LOBBY", "address": {"city": "PACKWOOD", "state": "IA", "street": "204 W 2ND ST", "postcode": "52580"}}},
{"geometry": {"type": "Point", "coordinates": [-93.0466831035, 40.7564021075]}, "type": "Feature", "properties": {"collection_times": [{"days": "Mon-Fri", "time": "12:30pm"}, {"days": "Sat", "time": "12:15pm"}, {"days": "Sun", "time": "Closed"}], "id": "5258100000", "name": "USPS COLLECTION BOX - BLUE BOX", "address": {"city": "PLANO", "state": "IA", "street": "401 FRONT ST", "postcode": "52581"}}},
{"geometry": {"type": "Point", "coordinates": [-93.1498655797, 40.7474540492]}, "type": "Feature", "properties": {"collection_times": [{"days": "Mon-Fri", "time": "3:45pm"}, {"days": "Sat", "time": "1:45pm"}, {"days": "Sun", "time": "Closed"}], "id": "5258300000", "name": "USPS COLLECTION BOX - BLUE BOX", "address": {"city": "PROMISE CITY", "state": "IA", "street": "105 CENTER ST", "postcode": "52583"}}},
{"geometry": {"type": "Point", "coordinates": [-93.1498655797, 40.7474540492]}, "type": "Feature", "properties": {"collection_times": [{"days": "Mon-Fri", "time": "3:45pm"}, {"days": "Sat-Sun", "time": "Closed"}], "id": "5258300001", "name": "USPS COLLECTION BOX - PO LOBBY", "address": {"city": "PROMISE CITY", "state": "IA", "street": "105 CENTER ST", "postcode": "52583"}}},
{"geometry": {"type": "Point", "coordinates": [-92.2732794721, 40.6969286452]}, "type": "Feature", "properties": {"collection_times": [{"days": "Mon-Sat", "time": "3:15pm"}, {"days": "Sun", "time": "Closed"}], "id": "5258400000", "name": "USPS COLLECTION BOX - BLUE BOX", "address": {"city": "PULASKI", "state": "IA", "street": "111 W MAIN ST", "postcode": "52584"}}},
{"geometry": {"type": "Point", "coordinates": [-92.2732794721, 40.6969286452]}, "type": "Feature", "properties": {"collection_times": [{"days": "Mon-Fri", "time": "2:45pm"}, {"days": "Sat-Sun", "time": "Closed"}], "id": "5258400001", "name": "USPS COLLECTION BOX - PO LOBBY", "address": {"city": "PULASKI", "state": "IA", "street": "111 W MAIN ST", "postcode": "52584"}}},
{"geometry": {"type": "Point", "coordinates": [-91.9945852569, 41.1846454594]}, "type": "Feature", "properties": {"collection_times": [{"days": "Mon-Sat", "time": "4:00pm"}, {"days": "Sun", "time": "Closed"}], "id": "5258500000", "name": "USPS COLLECTION BOX - BLUE BOX", "address": {"city": "RICHLAND", "state": "IA", "street": "111 N RICHLAND ST", "postcode": "52585"}}},
{"geometry": {"type": "Point", "coordinates": [-91.9945852569, 41.1846454594]}, "type": "Feature", "properties": {"collection_times": [{"days": "Mon-Fri", "time": "11:45am"}, {"days": "Sat-Sun", "time": "Closed"}], "id": "5258500001", "name": "USPS COLLECTION BOX - PO LOBBY", "address": {"city": "RICHLAND", "state": "IA", "street": "111 N RICHLAND ST", "postcode": "52585"}}},
{"geometry": {"type": "Point", "coordinates": [-92.4649364667, 41.3210151138]}, "type": "Feature", "properties": {"collection_times": [{"days": "Mon-Sat", "time": "4:15pm"}, {"days": "Sun", "time": "Closed"}], "id": "5258600000", "name": "USPS COLLECTION BOX - BLUE BOX", "address": {"city": "ROSE HILL", "state": "IA", "street": "339 MAIN ST", "postcode": "52586"}}},
{"geometry": {"type": "Point", "coordinates": [-92.4649364667, 41.3210151138]}, "type": "Feature", "properties": {"collection_times": [{"days": "Mon-Fri", "time": "2:45pm"}, {"days": "Sat-Sun", "time": "Closed"}], "id": "5258600001", "name": "USPS COLLECTION BOX - PO LOBBY", "address": {"city": "ROSE HILL", "state": "IA", "street": "339 MAIN ST", "postcode": "52586"}}},
{"geometry": {"type": "Point", "coordinates": [-93.1197750534, 40.6828038476]}, "type": "Feature", "properties": {"collection_times": [{"days": "Mon-Sat", "time": "3:30pm"}, {"days": "Sun", "time": "Closed"}], "id": "5259000000", "name": "USPS COLLECTION BOX - BLUE BOX", "address": {"city": "SEYMOUR", "state": "IA", "street": "230 N 4TH ST", "postcode": "52590"}}},
{"geometry": {"type": "Point", "coordinates": [-93.1197750534, 40.6828038476]}, "type": "Feature", "properties": {"collection_times": [{"days": "Mon-Fri", "time": "2:45pm"}, {"days": "Sat", "time": "9:45am"}, {"days": "Sun", "time": "Closed"}], "id": "5259000002", "name": "USPS COLLECTION BOX - PO LOBBY", "address": {"city": "SEYMOUR", "state": "IA", "street": "230 N 4TH ST", "postcode": "52590"}}},
{"geometry": {"type": "Point", "coordinates": [-92.2053189586, 41.3336602758]}, "type": "Feature", "properties": {"collection_times": [{"days": "Mon-Sat", "time": "4:30pm"}, {"days": "Sun", "time": "Closed"}], "id": "5259100002", "name": "USPS COLLECTION BOX - BLUE BOX", "address": {"city": "SIGOURNEY", "state": "IA", "street": "115 W WASHINGTON ST", "postcode": "52591"}}},
{"geometry": {"type": "Point", "coordinates": [-92.2053189586, 41.3336602758]}, "type": "Feature", "properties": {"collection_times": [{"days": "Mon-Sat", "time": "4:30pm"}, {"days": "Sun", "time": "Closed"}], "id": "5259100005", "name": "USPS COLLECTION BOX - PO LOBBY", "address": {"city": "SIGOURNEY", "state": "IA", "street": "115 W WASHINGTON ST", "postcode": "52591"}}},
{"geometry": {"type": "Point", "coordinates": [-92.6960188788, 40.8194253879]}, "type": "Feature", "properties": {"collection_times": [{"days": "Mon-Fri", "time": "1:30pm"}, {"days": "Sat", "time": "1:00pm"}, {"days": "Sun", "time": "Closed"}], "id": "5259400000", "name": "USPS COLLECTION BOX - BLUE BOX", "address": {"city": "UNIONVILLE", "state": "IA", "street": "105 W UNION ST", "postcode": "52594"}}},
{"geometry": {"type": "Point", "coordinates": [-92.6960188788, 40.8194253879]}, "type": "Feature", "properties": {"collection_times": [{"days": "Mon-Fri", "time": "1:30pm"}, {"days": "Sat-Sun", "time": "Closed"}], "id": "5259400001", "name": "USPS COLLECTION BOX - PO LOBBY", "address": {"city": "UNIONVILLE", "state": "IA", "street": "105 W UNION ST", "postcode": "52594"}}},
{"geometry": {"type": "Point", "coordinates": [-92.6189256306, 41.2867711058]}, "type": "Feature", "properties": {"collection_times": [{"days": "Mon-Sat", "time": "4:30pm"}, {"days": "Sun", "time": "Closed"}], "id": "5259500000", "name": "USPS COLLECTION BOX - BLUE BOX", "address": {"city": "UNIVERSITY PARK", "state": "IA", "street": "2204 9TH AVE E", "postcode": "52595"}}},
{"geometry": {"type": "Point", "coordinates": [-92.6189256306, 41.2867711058]}, "type": "Feature", "properties": {"collection_times": [{"days": "Mon-Fri", "time": "11:45am"}, {"days": "Sat", "time": "10:15am"}, {"days": "Sun", "time": "Closed"}], "id": "5259500001", "name": "USPS COLLECTION BOX - PO LOBBY", "address": {"city": "UNIVERSITY PARK", "state": "IA", "street": "2204 9TH AVE E", "postcode": "52595"}}}
]}
