{"type": "FeatureCollection", "features": [
{"geometry": {"type": "Point", "coordinates": [-91.1412818084, 40.8185341389]}, "type": "Feature", "properties": {"collection_times": [{"days": "Mon-Sat", "time": "9:30am"}, {"days": "Sun", "time": "Closed"}], "id": "5260100002", "name": "USPS COLLECTION BOX - BLUE BOX", "address": {"city": "BURLINGTON", "state": "IA", "street": "1000 N ROOSEVELT AVE", "postcode": "52601"}}},
{"geometry": {"type": "Point", "coordinates": [-91.102871542, 40.8128470231]}, "type": "Feature", "properties": {"collection_times": [{"days": "Mon-Fri", "time": "12:00pm"}, {"days": "Sat-Sun", "time": "Closed"}], "id": "5260100003", "name": "USPS COLLECTION BOX - BLUE BOX", "address": {"city": "BURLINGTON", "state": "IA", "street": "610 N 4TH ST", "postcode": "52601"}}},
{"geometry": {"type": "Point", "coordinates": [-91.1408880439, 40.8076114514]}, "type": "Feature", "properties": {"collection_times": [{"days": "Mon-Sat", "time": "2:30pm"}, {"days": "Sun", "time": "Closed"}], "id": "5260100005", "name": "USPS COLLECTION BOX - BLUE BOX", "address": {"city": "BURLINGTON", "state": "IA", "street": "3225 DIVISION ST", "postcode": "52601"}}},
{"geometry": {"type": "Point", "coordinates": [-91.139281429, 40.8222395932]}, "type": "Feature", "properties": {"collection_times": [{"days": "Mon-Sat", "time": "10:30am"}, {"days": "Sun", "time": "Closed"}], "id": "5260100010", "name": "USPS COLLECTION BOX - BLUE BOX", "address": {"city": "BURLINGTON", "state": "IA", "street": "2830 WINEGARD DR", "postcode": "52601"}}},
{"geometry": {"type": "Point", "coordinates": [-91.1009600135, 40.8116463697]}, "type": "Feature", "properties": {"collection_times": [{"days": "Mon-Sat", "time": "2:30pm"}, {"days": "Sun", "time": "Closed"}], "id": "5260100011", "name": "USPS COLLECTION BOX - BLUE BOX", "address": {"city": "BURLINGTON", "state": "IA", "street": "513 N MAIN ST", "postcode": "52601"}}},
{"geometry": {"type": "Point", "coordinates": [-91.1009600135, 40.8116463697]}, "type": "Feature", "properties": {"collection_times": [{"days": "Mon-Sat", "time": "2:30pm"}, {"days": "Sun", "time": "Closed"}], "id": "5260100012", "name": "USPS COLLECTION BOX - BLUE BOX", "address": {"city": "BURLINGTON", "state": "IA", "street": "513 N MAIN ST", "postcode": "52601"}}},
{"geometry": {"type": "Point", "coordinates": [-91.1379175623, 40.8257780919]}, "type": "Feature", "properties": {"collection_times": [{"days": "Mon-Sat", "time": "9:30am"}, {"days": "Sun", "time": "Closed"}], "id": "5260100015", "name": "USPS COLLECTION BOX - BLUE BOX", "address": {"city": "BURLINGTON", "state": "IA", "street": "2712 MOUNT PLEASANT ST", "postcode": "52601"}}},
{"geometry": {"type": "Point", "coordinates": [-91.1379175623, 40.8257780919]}, "type": "Feature", "properties": {"collection_times": [{"days": "Mon-Sat", "time": "9:30am"}, {"days": "Sun", "time": "Closed"}], "id": "5260100016", "name": "USPS COLLECTION BOX - BLUE BOX", "address": {"city": "BURLINGTON", "state": "IA", "street": "2712 MOUNT PLEASANT ST", "postcode": "52601"}}},
{"geometry": {"type": "Point", "coordinates": [-91.1416385989, 40.8070186999]}, "type": "Feature", "properties": {"collection_times": [{"days": "Mon-Sat", "time": "1:00pm"}, {"days": "Sun", "time": "Closed"}], "id": "5260100018", "name": "USPS COLLECTION BOX - BLUE BOX", "address": {"city": "BURLINGTON", "state": "IA", "street": "909 S ROOSEVELT AVE", "postcode": "52601"}}},
{"geometry": {"type": "Point", "coordinates": [-91.1399788801, 40.8004477705]}, "type": "Feature", "properties": {"collection_times": [{"days": "Mon-Sat", "time": "2:00pm"}, {"days": "Sun", "time": "Closed"}], "id": "5260100019", "name": "USPS COLLECTION BOX - BLUE BOX", "address": {"city": "BURLINGTON", "state": "IA", "street": "3104 WEST AVE", "postcode": "52601"}}},
{"geometry": {"type": "Point", "coordinates": [-91.103574885, 40.8111105963]}, "type": "Feature", "properties": {"collection_times": [{"days": "Mon-Sat", "time": "2:30pm"}, {"days": "Sun", "time": "Closed"}], "id": "5260100021", "name": "USPS COLLECTION BOX - BLUE BOX", "address": {"city": "BURLINGTON", "state": "IA", "street": "400 WASHINGTON ST", "postcode": "52601"}}},
{"geometry": {"type": "Point", "coordinates": [-91.103574885, 40.8111105963]}, "type": "Feature", "properties": {"collection_times": [{"days": "Mon-Sat", "time": "2:30pm"}, {"days": "Sun", "time": "Closed"}], "id": "5260100022", "name": "USPS COLLECTION BOX - BLUE BOX", "address": {"city": "BURLINGTON", "state": "IA", "street": "400 WASHINGTON ST", "postcode": "52601"}}},
{"geometry": {"type": "Point", "coordinates": [-91.1043529266, 40.8164084103]}, "type": "Feature", "properties": {"collection_times": [{"days": "Mon-Sat", "time": "2:30pm"}, {"days": "Sun", "time": "Closed"}], "id": "5260100025", "name": "USPS COLLECTION BOX - BLUE BOX", "address": {"city": "BURLINGTON", "state": "IA", "street": "611 SPRING ST", "postcode": "52601"}}},
{"geometry": {"type": "Point", "coordinates": [-91.1050895318, 40.8134946921]}, "type": "Feature", "properties": {"collection_times": [{"days": "Mon-Sat", "time": "1:30pm"}, {"days": "Sun", "time": "Closed"}], "id": "5260100028", "name": "USPS COLLECTION BOX - BLUE BOX", "address": {"city": "BURLINGTON", "state": "IA", "street": "630 N 6TH ST", "postcode": "52601"}}},
{"geometry": {"type": "Point", "coordinates": [-91.0987479319, 40.7891339869]}, "type": "Feature", "properties": {"collection_times": [{"days": "Mon-Sat", "time": "2:30pm"}, {"days": "Sun", "time": "Closed"}], "id": "5260100035", "name": "USPS COLLECTION BOX - BLUE BOX", "address": {"city": "BURLINGTON", "state": "IA", "street": "208 HARRISON AVE", "postcode": "52601"}}},
{"geometry": {"type": "Point", "coordinates": [-91.1012752462, 40.8142504982]}, "type": "Feature", "properties": {"collection_times": [{"days": "Mon-Sat", "time": "2:30pm"}, {"days": "Sun", "time": "Closed"}], "id": "5260100036", "name": "USPS COLLECTION BOX - BLUE BOX", "address": {"city": "BURLINGTON", "state": "IA", "street": "725 N 3RD ST", "postcode": "52601"}}},
{"geometry": {"type": "Point", "coordinates": [-91.1378011121, 40.8147625843]}, "type": "Feature", "properties": {"collection_times": [{"days": "Mon-Sat", "time": "10:30am"}, {"days": "Sun", "time": "Closed"}], "id": "5260100040", "name": "USPS COLLECTION BOX - BLUE BOX", "address": {"city": "BURLINGTON", "state": "IA", "street": "3140 AGENCY ST", "postcode": "52601"}}},
{"geometry": {"type": "Point", "coordinates": [-91.1027244448, 40.8101833106]}, "type": "Feature", "properties": {"collection_times": [{"days": "Mon-Sat", "time": "2:30pm"}, {"days": "Sun", "time": "Closed"}], "id": "5260100044", "name": "USPS COLLECTION BOX - BLUE BOX", "address": {"city": "BURLINGTON", "state": "IA", "street": "321 N 3RD ST", "postcode": "52601"}}},
{"geometry": {"type": "Point", "coordinates": [-91.108471768, 40.8110456631]}, "type": "Feature", "properties": {"collection_times": [{"days": "Mon-Sat", "time": "2:30pm"}, {"days": "Sun", "time": "Closed"}], "id": "5260100046", "name": "USPS COLLECTION BOX - BLUE BOX", "address": {"city": "BURLINGTON", "state": "IA", "street": "801 JEFFERSON ST", "postcode": "52601"}}},
{"geometry": {"type": "Point", "coordinates": [-93.4999706561, 42.0746980829]}, "type": "Feature", "properties": {"collection_times": [{"days": "Mon-Fri", "time": "2:30pm"}, {"days": "Sat", "time": "10:30am"}, {"days": "Sun", "time": "Closed"}], "id": "5260100048", "name": "USPS COLLECTION BOX - BLUE BOX", "address": {"city": "BURLINGTON", "state": "IA", "street": "218 N 3RD ST", "postcode": "52601"}}},
{"geometry": {"type": "Point", "coordinates": [-91.1416108911, 40.8134159784]}, "type": "Feature", "properties": {"collection_times": [{"days": "Mon-Sat", "time": "12:30pm"}, {"days": "Sun", "time": "Closed"}], "id": "5260100051", "name": "USPS COLLECTION BOX - BLUE BOX", "address": {"city": "BURLINGTON", "state": "IA", "street": "321 N ROOSEVELT AVE", "postcode": "52601"}}},
{"geometry": {"type": "Point", "coordinates": [-91.1392786889, 40.8148411788]}, "type": "Feature", "properties": {"collection_times": [{"days": "Mon-Sat", "time": "10:30am"}, {"days": "Sun", "time": "Closed"}], "id": "5260100052", "name": "USPS COLLECTION BOX - BLUE BOX", "address": {"city": "BURLINGTON", "state": "IA", "street": "3245 AGENCY ST", "postcode": "52601"}}},
{"geometry": {"type": "Point", "coordinates": [-91.1002743233, 40.8096020871]}, "type": "Feature", "properties": {"collection_times": [{"days": "Mon-Sat", "time": "5:00pm"}, {"days": "Sun", "time": "Closed"}], "id": "5260100056", "name": "USPS COLLECTION BOX - BLUE BOX", "address": {"city": "BURLINGTON", "state": "IA", "street": "300 N FRONT ST", "postcode": "52601"}}},
{"geometry": {"type": "Point", "coordinates": [-91.1014330237, 40.8097541148]}, "type": "Feature", "properties": {"collection_times": [{"days": "Mon-Sat", "time": "5:00pm"}, {"days": "Sun", "time": "Closed"}], "id": "5260100060", "name": "USPS COLLECTION BOX - BLUE BOX", "address": {"city": "BURLINGTON", "state": "IA", "street": "300 N MAIN ST", "postcode": "52601"}}},
{"geometry": {"type": "Point", "coordinates": [-91.1190594077, 40.8146042822]}, "type": "Feature", "properties": {"collection_times": [{"days": "Mon-Sat", "time": "5:00pm"}, {"days": "Sun", "time": "Closed"}], "id": "5260100061", "name": "USPS COLLECTION BOX - EXPRESS", "address": {"city": "BURLINGTON", "state": "IA", "street": "300 N MAIN ST", "postcode": "52601"}}},
{"geometry": {"type": "Point", "coordinates": [-91.101431878, 40.809813439]}, "type": "Feature", "properties": {"collection_times": [{"days": "Mon-Sat", "time": "5:00pm"}, {"days": "Sun", "time": "Closed"}], "id": "5260100062", "name": "USPS COLLECTION BOX - BLUE BOX", "address": {"city": "BURLINGTON", "state": "IA", "street": "300 N MAIN ST", "postcode": "52601"}}},
{"geometry": {"type": "Point", "coordinates": [-91.101431878, 40.809813439]}, "type": "Feature", "properties": {"collection_times": [{"days": "Mon-Fri", "time": "5:00pm"}, {"days": "Sat", "time": "12:00pm"}, {"days": "Sun", "time": "Closed"}], "id": "5260100068", "name": "USPS COLLECTION BOX - PO LOBBY", "address": {"city": "BURLINGTON", "state": "IA", "street": "300 N MAIN ST", "postcode": "52601"}}},
{"geometry": {"type": "Point", "coordinates": [-91.1190594072, 40.8146043285]}, "type": "Feature", "properties": {"collection_times": [{"days": "Mon-Sat", "time": "9:30am"}, {"days": "Sun", "time": "Closed"}], "id": "5260100069", "name": "USPS COLLECTION BOX - BLUE BOX", "address": {"city": "BURLINGTON", "state": "IA", "street": "11912 DMC HIGHWAY 99", "postcode": "52601"}}},
{"geometry": {"type": "Point", "coordinates": [-91.1106137383, 40.8018565843]}, "type": "Feature", "properties": {"collection_times": [{"days": "Mon-Sat", "time": "10:30am"}, {"days": "Sun", "time": "Closed"}], "id": "5260100071", "name": "USPS COLLECTION BOX - BLUE BOX", "address": {"city": "BURLINGTON", "state": "IA", "street": "939 ANGULAR ST", "postcode": "52601"}}},
{"geometry": {"type": "Point", "coordinates": [-91.1038323092, 40.810143875]}, "type": "Feature", "properties": {"collection_times": [{"days": "Mon-Sat", "time": "2:30pm"}, {"days": "Sun", "time": "Closed"}], "id": "5260100072", "name": "USPS COLLECTION BOX - BLUE BOX", "address": {"city": "BURLINGTON", "state": "IA", "street": "323 JEFFERSON ST", "postcode": "52601"}}},
{"geometry": {"type": "Point", "coordinates": [-91.1173374442, 40.7804765812]}, "type": "Feature", "properties": {"collection_times": [{"days": "Mon-Sat", "time": "12:00pm"}, {"days": "Sun", "time": "Closed"}], "id": "5260100073", "name": "USPS COLLECTION BOX - BLUE BOX", "address": {"city": "BURLINGTON", "state": "IA", "street": "2630 SUMMER ST", "postcode": "52601"}}},
{"geometry": {"type": "Point", "coordinates": [-91.1066759118, 40.8073448276]}, "type": "Feature", "properties": {"collection_times": [{"days": "Mon-Fri", "time": "2:30pm"}, {"days": "Sat", "time": "1:30pm"}, {"days": "Sun", "time": "Closed"}], "id": "5260100074", "name": "USPS COLLECTION BOX - BLUE BOX", "address": {"city": "BURLINGTON", "state": "IA", "street": "550 DIVISION ST", "postcode": "52601"}}},
{"geometry": {"type": "Point", "coordinates": [-91.1404148977, 40.8331376499]}, "type": "Feature", "properties": {"collection_times": [{"days": "Mon-Sat", "time": "9:30am"}, {"days": "Sun", "time": "Closed"}], "id": "5260100075", "name": "USPS COLLECTION BOX - BLUE BOX", "address": {"city": "BURLINGTON", "state": "IA", "street": "3131 SUNNYSIDE AVE", "postcode": "52601"}}},
{"geometry": {"type": "Point", "coordinates": [-91.1129723871, 40.807607132]}, "type": "Feature", "properties": {"collection_times": [{"days": "Mon-Sat", "time": "9:30am"}, {"days": "Sun", "time": "Closed"}], "id": "5260100076", "name": "USPS COLLECTION BOX - BLUE BOX", "address": {"city": "BURLINGTON", "state": "IA", "street": "201 S CENTRAL AVE", "postcode": "52601"}}},
{"geometry": {"type": "Point", "coordinates": [-91.1372966251, 40.8198268866]}, "type": "Feature", "properties": {"collection_times": [{"days": "Mon-Sat", "time": "10:30am"}, {"days": "Sun", "time": "Closed"}], "id": "5260100077", "name": "USPS COLLECTION BOX - BLUE BOX", "address": {"city": "BURLINGTON", "state": "IA", "street": "910 COTTONWOOD CT", "postcode": "52601"}}},
{"geometry": {"type": "Point", "coordinates": [-91.1070993762, 40.8566656433]}, "type": "Feature", "properties": {"collection_times": [{"days": "Mon-Sat", "time": "11:00am"}, {"days": "Sun", "time": "Closed"}], "id": "5260100078", "name": "USPS COLLECTION BOX - BLUE BOX", "address": {"city": "BURLINGTON", "state": "IA", "street": "701 E PENNINGTON ST", "postcode": "52601"}}},
{"geometry": {"type": "Point", "coordinates": [-91.5662740148, 40.5319276097]}, "type": "Feature", "properties": {"collection_times": [{"days": "Mon-Sat", "time": "12:30pm"}, {"days": "Sun", "time": "Closed"}], "id": "5261900000", "name": "USPS COLLECTION BOX - BLUE BOX", "address": {"city": "ARGYLE", "state": "IA", "street": "2951 180TH AVE", "postcode": "52619"}}},
{"geometry": {"type": "Point", "coordinates": [-91.5662740148, 40.5319276097]}, "type": "Feature", "properties": {"collection_times": [{"days": "Mon-Sat", "time": "12:30pm"}, {"days": "Sun", "time": "Closed"}], "id": "5261900001", "name": "USPS COLLECTION BOX - PO LOBBY", "address": {"city": "ARGYLE", "state": "IA", "street": "2951 180TH AVE", "postcode": "52619"}}},
{"geometry": {"type": "Point", "coordinates": [-91.8022216828, 40.6979968418]}, "type": "Feature", "properties": {"collection_times": [{"days": "Mon-Sat", "time": "4:15pm"}, {"days": "Sun", "time": "Closed"}], "id": "5262000000", "name": "USPS COLLECTION BOX - BLUE BOX", "address": {"city": "BONAPARTE", "state": "IA", "street": "626 1ST ST", "postcode": "52620"}}},
{"geometry": {"type": "Point", "coordinates": [-91.8022216828, 40.6979968418]}, "type": "Feature", "properties": {"collection_times": [{"days": "Mon-Fri", "time": "11:45am"}, {"days": "Sat-Sun", "time": "Closed"}], "id": "5262000001", "name": "USPS COLLECTION BOX - PO LOBBY", "address": {"city": "BONAPARTE", "state": "IA", "street": "626 1ST ST", "postcode": "52620"}}},
{"geometry": {"type": "Point", "coordinates": [-91.5386163583, 41.2148754039]}, "type": "Feature", "properties": {"collection_times": [{"days": "Mon-Sat", "time": "4:00pm"}, {"days": "Sun", "time": "Closed"}], "id": "5262100000", "name": "USPS COLLECTION BOX - BLUE BOX", "address": {"city": "CRAWFORDSVILLE", "state": "IA", "street": "111 E VINE ST", "postcode": "52621"}}},
{"geometry": {"type": "Point", "coordinates": [-91.5386163583, 41.2148754039]}, "type": "Feature", "properties": {"collection_times": [{"days": "Mon-Fri", "time": "11:45am"}, {"days": "Sat", "time": "9:30am"}, {"days": "Sun", "time": "Closed"}], "id": "5262100001", "name": "USPS COLLECTION BOX - PO LOBBY", "address": {"city": "CRAWFORDSVILLE", "state": "IA", "street": "111 E VINE ST", "postcode": "52621"}}},
{"geometry": {"type": "Point", "coordinates": [-91.3158927771, 40.865348486]}, "type": "Feature", "properties": {"collection_times": [{"days": "Mon-Fri", "time": "4:15pm"}, {"days": "Sat", "time": "4:00pm"}, {"days": "Sun", "time": "Closed"}], "id": "5262300000", "name": "USPS COLLECTION BOX - BLUE BOX", "address": {"city": "DANVILLE", "state": "IA", "street": "104 N ELM ST", "postcode": "52623"}}},
{"geometry": {"type": "Point", "coordinates": [-91.3158927771, 40.865348486]}, "type": "Feature", "properties": {"collection_times": [{"days": "Mon-Fri", "time": "2:15pm"}, {"days": "Sat-Sun", "time": "Closed"}], "id": "5262300001", "name": "USPS COLLECTION BOX - PO LOBBY", "address": {"city": "DANVILLE", "state": "IA", "street": "104 N ELM ST", "postcode": "52623"}}},
{"geometry": {"type": "Point", "coordinates": [-91.3370488795, 40.7417122563]}, "type": "Feature", "properties": {"collection_times": [{"days": "Mon-Sat", "time": "4:30pm"}, {"days": "Sun", "time": "Closed"}], "id": "5262400000", "name": "USPS COLLECTION BOX - BLUE BOX", "address": {"city": "DENMARK", "state": "IA", "street": "104 ACADEMY AVE", "postcode": "52624"}}},
{"geometry": {"type": "Point", "coordinates": [-91.3370488795, 40.7417122563]}, "type": "Feature", "properties": {"collection_times": [{"days": "Mon-Fri", "time": "11:45am"}, {"days": "Sat", "time": "9:00am"}, {"days": "Sun", "time": "Closed"}], "id": "5262400001", "name": "USPS COLLECTION BOX - PO LOBBY", "address": {"city": "DENMARK", "state": "IA", "street": "104 ACADEMY AVE", "postcode": "52624"}}},
{"geometry": {"type": "Point", "coordinates": [-91.5645229927, 40.6415395769]}, "type": "Feature", "properties": {"collection_times": [{"days": "Mon-Sat", "time": "4:00pm"}, {"days": "Sun", "time": "Closed"}], "id": "5262500000", "name": "USPS COLLECTION BOX - BLUE BOX", "address": {"city": "DONNELLSON", "state": "IA", "street": "516 CHESTNUT ST", "postcode": "52625"}}},
{"geometry": {"type": "Point", "coordinates": [-91.5645229927, 40.6415395769]}, "type": "Feature", "properties": {"collection_times": [{"days": "Mon-Fri", "time": "4:00pm"}, {"days": "Sat", "time": "10:15am"}, {"days": "Sun", "time": "Closed"}], "id": "5262500001", "name": "USPS COLLECTION BOX - PO LOBBY", "address": {"city": "DONNELLSON", "state": "IA", "street": "516 CHESTNUT ST", "postcode": "52625"}}},
{"geometry": {"type": "Point", "coordinates": [-91.7440058091, 40.6399465588]}, "type": "Feature", "properties": {"collection_times": [{"days": "Mon-Sat", "time": "4:15pm"}, {"days": "Sun", "time": "Closed"}], "id": "5262600000", "name": "USPS COLLECTION BOX - BLUE BOX", "address": {"city": "FARMINGTON", "state": "IA", "street": "101 S FRONT ST", "postcode": "52626"}}},
{"geometry": {"type": "Point", "coordinates": [-91.7440058091, 40.6399465588]}, "type": "Feature", "properties": {"collection_times": [{"days": "Mon-Fri", "time": "2:15pm"}, {"days": "Sat-Sun", "time": "Closed"}], "id": "5262600001", "name": "USPS COLLECTION BOX - PO LOBBY", "address": {"city": "FARMINGTON", "state": "IA", "street": "101 S FRONT ST", "postcode": "52626"}}},
{"geometry": {"type": "Point", "coordinates": [-91.3307536504, 40.6301652105]}, "type": "Feature", "properties": {"collection_times": [{"days": "Mon-Sat", "time": "11:00am"}, {"days": "Sun", "time": "Closed"}], "id": "5262700002", "name": "USPS COLLECTION BOX - BLUE BOX", "address": {"city": "FORT MADISON", "state": "IA", "street": "1830 AVENUE H", "postcode": "52627"}}},
{"geometry": {"type": "Point", "coordinates": [-91.311798039, 40.6330517787]}, "type": "Feature", "properties": {"collection_times": [{"days": "Mon-Sat", "time": "1:00pm"}, {"days": "Sun", "time": "Closed"}], "id": "5262700006", "name": "USPS COLLECTION BOX - BLUE BOX", "address": {"city": "FORT MADISON", "state": "IA", "street": "811 AVENUE E", "postcode": "52627"}}},
{"geometry": {"type": "Point", "coordinates": [-91.3098776945, 40.6309567017]}, "type": "Feature", "properties": {"collection_times": [{"days": "Mon-Sat", "time": "2:00pm"}, {"days": "Sun", "time": "Closed"}], "id": "5262700009", "name": "USPS COLLECTION BOX - BLUE BOX", "address": {"city": "FORT MADISON", "state": "IA", "street": "701 AVENUE G", "postcode": "52627"}}},
{"geometry": {"type": "Point", "coordinates": [-91.3137171747, 40.631015562]}, "type": "Feature", "properties": {"collection_times": [{"days": "Mon-Sat", "time": "2:00pm"}, {"days": "Sun", "time": "Closed"}], "id": "5262700011", "name": "USPS COLLECTION BOX - BLUE BOX", "address": {"city": "FORT MADISON", "state": "IA", "street": "911 AVENUE G", "postcode": "52627"}}},
{"geometry": {"type": "Point", "coordinates": [-91.3429240234, 40.6269493938]}, "type": "Feature", "properties": {"collection_times": [{"days": "Mon-Sat", "time": "1:30pm"}, {"days": "Sun", "time": "Closed"}], "id": "5262700013", "name": "USPS COLLECTION BOX - BLUE BOX", "address": {"city": "FORT MADISON", "state": "IA", "street": "2606 AVENUE L", "postcode": "52627"}}},
{"geometry": {"type": "Point", "coordinates": [-91.3835329462, 40.6242147118]}, "type": "Feature", "properties": {"collection_times": [{"days": "Mon-Sat", "time": "10:00am"}, {"days": "Sun", "time": "Closed"}], "id": "5262700015", "name": "USPS COLLECTION BOX - BLUE BOX", "address": {"city": "FORT MADISON", "state": "IA", "street": "5445 AVENUE O", "postcode": "52627"}}},
{"geometry": {"type": "Point", "coordinates": [-91.3732072675, 40.6262069034]}, "type": "Feature", "properties": {"collection_times": [{"days": "Mon-Sat", "time": "10:00am"}, {"days": "Sun", "time": "Closed"}], "id": "5262700016", "name": "USPS COLLECTION BOX - BLUE BOX", "address": {"city": "FORT MADISON", "state": "IA", "street": "1301 48TH ST", "postcode": "52627"}}},
{"geometry": {"type": "Point", "coordinates": [-91.3156968422, 40.6301254031]}, "type": "Feature", "properties": {"collection_times": [{"days": "Mon-Fri", "time": "5:00pm"}, {"days": "Sat", "time": "4:00pm"}, {"days": "Sun", "time": "Closed"}], "id": "5262700019", "name": "USPS COLLECTION BOX - BLUE BOX", "address": {"city": "FORT MADISON", "state": "IA", "street": "1019 AVENUE H", "postcode": "52627"}}},
{"geometry": {"type": "Point", "coordinates": [-91.3732072675, 40.6262069034]}, "type": "Feature", "properties": {"collection_times": [{"days": "Mon-Sat", "time": "10:00am"}, {"days": "Sun", "time": "Closed"}], "id": "5262700024", "name": "USPS COLLECTION BOX - BLUE BOX", "address": {"city": "FORT MADISON", "state": "IA", "street": "1301 48TH ST", "postcode": "52627"}}},
{"geometry": {"type": "Point", "coordinates": [-91.3156968422, 40.6301254031]}, "type": "Feature", "properties": {"collection_times": [{"days": "Mon-Fri", "time": "5:00pm"}, {"days": "Sat", "time": "4:00pm"}, {"days": "Sun", "time": "Closed"}], "id": "5262700026", "name": "USPS COLLECTION BOX - PO LOBBY", "address": {"city": "FORT MADISON", "state": "IA", "street": "1019 AVENUE H", "postcode": "52627"}}},
{"geometry": {"type": "Point", "coordinates": [-91.7142243881, 40.8353493377]}, "type": "Feature", "properties": {"collection_times": [{"days": "Mon-Sat", "time": "4:15pm"}, {"days": "Sun", "time": "Closed"}], "id": "5263000000", "name": "USPS COLLECTION BOX - BLUE BOX", "address": {"city": "HILLSBORO", "state": "IA", "street": "101 W COMMERCIAL ST", "postcode": "52630"}}},
{"geometry": {"type": "Point", "coordinates": [-91.7142243881, 40.8353493377]}, "type": "Feature", "properties": {"collection_times": [{"days": "Mon-Fri", "time": "12:45pm"}, {"days": "Sat-Sun", "time": "Closed"}], "id": "5263000001", "name": "USPS COLLECTION BOX - PO LOBBY", "address": {"city": "HILLSBORO", "state": "IA", "street": "101 W COMMERCIAL ST", "postcode": "52630"}}},
{"geometry": {"type": "Point", "coordinates": [-91.6108030274, 40.7846691734]}, "type": "Feature", "properties": {"collection_times": [{"days": "Mon-Fri", "time": "4:00pm"}, {"days": "Sat", "time": "4:15pm"}, {"days": "Sun", "time": "Closed"}], "id": "5263100000", "name": "USPS COLLECTION BOX - BLUE BOX", "address": {"city": "HOUGTON", "state": "IA", "street": "525 MAIN ST", "postcode": "52631"}}},
{"geometry": {"type": "Point", "coordinates": [-91.6108030274, 40.7846691734]}, "type": "Feature", "properties": {"collection_times": [{"days": "Mon-Fri", "time": "11:45am"}, {"days": "Sat-Sun", "time": "Closed"}], "id": "5263100001", "name": "USPS COLLECTION BOX - PO LOBBY", "address": {"city": "HOUGTON", "state": "IA", "street": "525 MAIN ST", "postcode": "52631"}}},
{"geometry": {"type": "Point", "coordinates": [-91.4011463354, 40.416049066]}, "type": "Feature", "properties": {"collection_times": [{"days": "Mon-Sat", "time": "12:00pm"}, {"days": "Sun", "time": "Closed"}], "id": "5263200001", "name": "USPS COLLECTION BOX - BLUE BOX", "address": {"city": "KEOKUK", "state": "IA", "street": "201 BOULEVARD RD", "postcode": "52632"}}},
{"geometry": {"type": "Point", "coordinates": [-91.4011463354, 40.416049066]}, "type": "Feature", "properties": {"collection_times": [{"days": "Mon-Sat", "time": "12:00pm"}, {"days": "Sun", "time": "Closed"}], "id": "5263200005", "name": "USPS COLLECTION BOX - BLUE BOX", "address": {"city": "KEOKUK", "state": "IA", "street": "201 BOULEVARD RD", "postcode": "52632"}}},
{"geometry": {"type": "Point", "coordinates": [-91.3832175914, 40.3972655052]}, "type": "Feature", "properties": {"collection_times": [{"days": "Mon-Fri", "time": "2:00pm"}, {"days": "Sat", "time": "12:00pm"}, {"days": "Sun", "time": "Closed"}], "id": "5263200007", "name": "USPS COLLECTION BOX - BLUE BOX", "address": {"city": "KEOKUK", "state": "IA", "street": "610 BLONDEAU ST", "postcode": "52632"}}},
{"geometry": {"type": "Point", "coordinates": [-91.3832168335, 40.3920081219]}, "type": "Feature", "properties": {"collection_times": [{"days": "Mon-Fri", "time": "4:45pm"}, {"days": "Sat", "time": "4:15pm"}, {"days": "Sun", "time": "Closed"}], "id": "5263200016", "name": "USPS COLLECTION BOX - BLUE BOX", "address": {"city": "KEOKUK", "state": "IA", "street": "214 S 2ND ST", "postcode": "52632"}}},
{"geometry": {"type": "Point", "coordinates": [-91.4076916036, 40.4190535373]}, "type": "Feature", "properties": {"collection_times": [{"days": "Mon-Sat", "time": "10:00am"}, {"days": "Sun", "time": "Closed"}], "id": "5263200020", "name": "USPS COLLECTION BOX - BLUE BOX", "address": {"city": "KEOKUK", "state": "IA", "street": "3360 MAIN ST", "postcode": "52632"}}},
{"geometry": {"type": "Point", "coordinates": [-91.3832168335, 40.3920081219]}, "type": "Feature", "properties": {"collection_times": [{"days": "Mon-Fri", "time": "4:45pm"}, {"days": "Sat", "time": "4:15pm"}, {"days": "Sun", "time": "Closed"}], "id": "5263200022", "name": "USPS COLLECTION BOX - PO LOBBY", "address": {"city": "KEOKUK", "state": "IA", "street": "214 S 2ND ST", "postcode": "52632"}}},
{"geometry": {"type": "Point", "coordinates": [-91.3832168335, 40.3920081219]}, "type": "Feature", "properties": {"collection_times": [{"days": "Mon-Fri", "time": "4:45pm"}, {"days": "Sat", "time": "4:15pm"}, {"days": "Sun", "time": "Closed"}], "id": "5263200023", "name": "USPS COLLECTION BOX - PO LOBBY", "address": {"city": "KEOKUK", "state": "IA", "street": "214 S 2ND ST", "postcode": "52632"}}},
{"geometry": {"type": "Point", "coordinates": [-91.3891417695, 40.401424427]}, "type": "Feature", "properties": {"collection_times": [{"days": "Mon-Fri", "time": "2:00pm"}, {"days": "Sat", "time": "12:00pm"}, {"days": "Sun", "time": "Closed"}], "id": "5263200028", "name": "USPS COLLECTION BOX - BLUE BOX", "address": {"city": "KEOKUK", "state": "IA", "street": "1215 MAIN ST", "postcode": "52632"}}},
{"geometry": {"type": "Point", "coordinates": [-91.7469793965, 40.99452902]}, "type": "Feature", "properties": {"collection_times": [{"days": "Mon-Sat", "time": "4:15pm"}, {"days": "Sun", "time": "Closed"}], "id": "5263500000", "name": "USPS COLLECTION BOX - BLUE BOX", "address": {"city": "LOCKRIDGE", "state": "IA", "street": "103 S CENTER ST", "postcode": "52635"}}},
{"geometry": {"type": "Point", "coordinates": [-91.7469793965, 40.99452902]}, "type": "Feature", "properties": {"collection_times": [{"days": "Mon-Fri", "time": "12:45pm"}, {"days": "Sat", "time": "10:30am"}, {"days": "Sun", "time": "Closed"}], "id": "5263500001", "name": "USPS COLLECTION BOX - PO LOBBY", "address": {"city": "LOCKRIDGE", "state": "IA", "street": "103 S CENTER ST", "postcode": "52635"}}},
{"geometry": {"type": "Point", "coordinates": [-91.1556737229, 41.0078867071]}, "type": "Feature", "properties": {"collection_times": [{"days": "Mon-Sat", "time": "5:00pm"}, {"days": "Sun", "time": "Closed"}], "id": "5263700000", "name": "USPS COLLECTION BOX - BLUE BOX", "address": {"city": "MEDIAPOLIS", "state": "IA", "street": "706 MAIN ST", "postcode": "52637"}}},
{"geometry": {"type": "Point", "coordinates": [-91.1556737229, 41.0078867071]}, "type": "Feature", "properties": {"collection_times": [{"days": "Mon-Fri", "time": "5:15pm"}, {"days": "Sat-Sun", "time": "Closed"}], "id": "5263700001", "name": "USPS COLLECTION BOX - PO LOBBY", "address": {"city": "MEDIAPOLIS", "state": "IA", "street": "706 MAIN ST", "postcode": "52637"}}},
{"geometry": {"type": "Point", "coordinates": [-91.1362851419, 41.0186749167]}, "type": "Feature", "properties": {"collection_times": [{"days": "Mon-Sat", "time": "1:00pm"}, {"days": "Sun", "time": "Closed"}], "id": "5263700002", "name": "USPS COLLECTION BOX - BLUE BOX", "address": {"city": "MEDIAPOLIS", "state": "IA", "street": "11745 SPERRY (SPERRY IA) RD", "postcode": "52637"}}},
{"geometry": {"type": "Point", "coordinates": [-91.2593184672, 40.8271610882]}, "type": "Feature", "properties": {"collection_times": [{"days": "Mon-Sat", "time": "4:30pm"}, {"days": "Sun", "time": "Closed"}], "id": "5263800000", "name": "USPS COLLECTION BOX - BLUE BOX", "address": {"city": "MIDDLETOWN", "state": "IA", "street": "250 MAIN ST", "postcode": "52638"}}},
{"geometry": {"type": "Point", "coordinates": [-91.2593184672, 40.8271610882]}, "type": "Feature", "properties": {"collection_times": [{"days": "Mon-Fri", "time": "3:45pm"}, {"days": "Sat-Sun", "time": "Closed"}], "id": "5263800001", "name": "USPS COLLECTION BOX - PO LOBBY", "address": {"city": "MIDDLETOWN", "state": "IA", "street": "250 MAIN ST", "postcode": "52638"}}},
{"geometry": {"type": "Point", "coordinates": [-91.4179334188, 40.5305422623]}, "type": "Feature", "properties": {"collection_times": [{"days": "Mon-Sat", "time": "5:00pm"}, {"days": "Sun", "time": "Closed"}], "id": "5263900000", "name": "USPS COLLECTION BOX - BLUE BOX", "address": {"city": "MONTROSE", "state": "IA", "street": "400 MAIN ST", "postcode": "52639"}}},
{"geometry": {"type": "Point", "coordinates": [-91.4179334188, 40.5305422623]}, "type": "Feature", "properties": {"collection_times": [{"days": "Mon-Fri", "time": "2:15pm"}, {"days": "Sat-Sun", "time": "Closed"}], "id": "5263900001", "name": "USPS COLLECTION BOX - PO LOBBY", "address": {"city": "MONTROSE", "state": "IA", "street": "400 MAIN ST", "postcode": "52639"}}},
{"geometry": {"type": "Point", "coordinates": [-91.2555236282, 41.0960883632]}, "type": "Feature", "properties": {"collection_times": [{"days": "Mon-Sat", "time": "4:30pm"}, {"days": "Sun", "time": "Closed"}], "id": "5264000000", "name": "USPS COLLECTION BOX - BLUE BOX", "address": {"city": "MORNING SUN", "state": "IA", "street": "19 N MAIN ST", "postcode": "52640"}}},
{"geometry": {"type": "Point", "coordinates": [-91.2555236282, 41.0960883632]}, "type": "Feature", "properties": {"collection_times": [{"days": "Mon-Fri", "time": "3:15pm"}, {"days": "Sat-Sun", "time": "Closed"}], "id": "5264000002", "name": "USPS COLLECTION BOX - PO LOBBY", "address": {"city": "MORNING SUN", "state": "IA", "street": "19 N MAIN ST", "postcode": "52640"}}},
{"geometry": {"type": "Point", "coordinates": [-91.5287395452, 40.9622744438]}, "type": "Feature", "properties": {"collection_times": [{"days": "Mon-Sat", "time": "9:00am"}, {"days": "Sun", "time": "Closed"}], "id": "5264100000", "name": "USPS COLLECTION BOX - BLUE BOX", "address": {"city": "MOUNT PLEASANT", "state": "IA", "street": "1700 E WASHINGTON ST", "postcode": "52641"}}},
{"geometry": {"type": "Point", "coordinates": [-91.5391682842, 40.9785175672]}, "type": "Feature", "properties": {"collection_times": [{"days": "Mon-Sat", "time": "8:30am"}, {"days": "Sun", "time": "Closed"}], "id": "5264100008", "name": "USPS COLLECTION BOX - BLUE BOX", "address": {"city": "MOUNT PLEASANT", "state": "IA", "street": "1045 N GRAND AVE", "postcode": "52641"}}},
{"geometry": {"type": "Point", "coordinates": [-91.5543741818, 40.9677637205]}, "type": "Feature", "properties": {"collection_times": [{"days": "Mon-Fri", "time": "4:45pm"}, {"days": "Sat", "time": "4:00pm"}, {"days": "Sun", "time": "Closed"}], "id": "5264100009", "name": "USPS COLLECTION BOX - BLUE BOX", "address": {"city": "MOUNT PLEASANT", "state": "IA", "street": "200 N JEFFERSON ST", "postcode": "52641"}}},
{"geometry": {"type": "Point", "coordinates": [-91.5543741818, 40.9677637205]}, "type": "Feature", "properties": {"collection_times": [{"days": "Mon-Fri", "time": "4:45pm"}, {"days": "Sat", "time": "4:00pm"}, {"days": "Sun", "time": "Closed"}], "id": "5264100010", "name": "USPS COLLECTION BOX - BLUE BOX", "address": {"city": "MOUNT PLEASANT", "state": "IA", "street": "200 N JEFFERSON ST", "postcode": "52641"}}},
{"geometry": {"type": "Point", "coordinates": [-91.5543741818, 40.9677637205]}, "type": "Feature", "properties": {"collection_times": [{"days": "Mon-Fri", "time": "4:45pm"}, {"days": "Sat", "time": "4:00pm"}, {"days": "Sun", "time": "Closed"}], "id": "5264100014", "name": "USPS COLLECTION BOX - PO LOBBY", "address": {"city": "MOUNT PLEASANT", "state": "IA", "street": "200 N JEFFERSON ST", "postcode": "52641"}}},
{"geometry": {"type": "Point", "coordinates": [-91.3913371168, 41.0570790172]}, "type": "Feature", "properties": {"collection_times": [{"days": "Mon-Sat", "time": "4:30pm"}, {"days": "Sun", "time": "Closed"}], "id": "5264400000", "name": "USPS COLLECTION BOX - BLUE BOX", "address": {"city": "MOUNT UNION", "state": "IA", "street": "206 W RAILROAD ST", "postcode": "52644"}}},
{"geometry": {"type": "Point", "coordinates": [-91.3913371168, 41.0570790172]}, "type": "Feature", "properties": {"collection_times": [{"days": "Mon-Fri", "time": "11:15am"}, {"days": "Sat", "time": "8:30am"}, {"days": "Sun", "time": "Closed"}], "id": "5264400001", "name": "USPS COLLECTION BOX - PO LOBBY", "address": {"city": "MOUNT UNION", "state": "IA", "street": "206 W RAILROAD ST", "postcode": "52644"}}},
{"geometry": {"type": "Point", "coordinates": [-91.403184776, 40.9257926682]}, "type": "Feature", "properties": {"collection_times": [{"days": "Mon-Sat", "time": "4:45pm"}, {"days": "Sun", "time": "Closed"}], "id": "5264500000", "name": "USPS COLLECTION BOX - BLUE BOX", "address": {"city": "NEW LONDON", "state": "IA", "street": "107 S WALNUT ST", "postcode": "52645"}}},
{"geometry": {"type": "Point", "coordinates": [-91.403184776, 40.9257926682]}, "type": "Feature", "properties": {"collection_times": [{"days": "Mon-Fri", "time": "1:45pm"}, {"days": "Sat-Sun", "time": "Closed"}], "id": "5264500004", "name": "USPS COLLECTION BOX - PO LOBBY", "address": {"city": "NEW LONDON", "state": "IA", "street": "107 S WALNUT ST", "postcode": "52645"}}},
{"geometry": {"type": "Point", "coordinates": [-91.0444225648, 41.0986582757]}, "type": "Feature", "properties": {"collection_times": [{"days": "Mon-Sat", "time": "4:15pm"}, {"days": "Sun", "time": "Closed"}], "id": "5264600000", "name": "USPS COLLECTION BOX - BLUE BOX", "address": {"city": "OAKVILLE", "state": "IA", "street": "505 RUSSELL ST", "postcode": "52646"}}},
{"geometry": {"type": "Point", "coordinates": [-91.0444225648, 41.0986582757]}, "type": "Feature", "properties": {"collection_times": [{"days": "Mon-Fri", "time": "1:15pm"}, {"days": "Sat-Sun", "time": "Closed"}], "id": "5264600001", "name": "USPS COLLECTION BOX - PO LOBBY", "address": {"city": "OAKVILLE", "state": "IA", "street": "505 RUSSELL ST", "postcode": "52646"}}},
{"geometry": {"type": "Point", "coordinates": [-91.5448072601, 41.1343989153]}, "type": "Feature", "properties": {"collection_times": [{"days": "Mon-Sat", "time": "3:30pm"}, {"days": "Sun", "time": "Closed"}], "id": "5264700000", "name": "USPS COLLECTION BOX - BLUE BOX", "address": {"city": "OLDS", "state": "IA", "street": "110 S MAIN ST", "postcode": "52647"}}},
{"geometry": {"type": "Point", "coordinates": [-91.5448072601, 41.1343989153]}, "type": "Feature", "properties": {"collection_times": [{"days": "Mon-Fri", "time": "1:45pm"}, {"days": "Sat", "time": "11:30am"}, {"days": "Sun", "time": "Closed"}], "id": "5264700001", "name": "USPS COLLECTION BOX - PO LOBBY", "address": {"city": "OLDS", "state": "IA", "street": "110 S MAIN ST", "postcode": "52647"}}},
{"geometry": {"type": "Point", "coordinates": [-91.5353283146, 40.7640327632]}, "type": "Feature", "properties": {"collection_times": [{"days": "Mon-Sat", "time": "4:45pm"}, {"days": "Sun", "time": "Closed"}], "id": "5264800000", "name": "USPS COLLECTION BOX - BLUE BOX", "address": {"city": "PILOT GROVE", "state": "IA", "street": "1341 PILOT GROVE RD", "postcode": "52648"}}},
{"geometry": {"type": "Point", "coordinates": [-91.6215010083, 40.8546631443]}, "type": "Feature", "properties": {"collection_times": [{"days": "Mon-Sat", "time": "4:00pm"}, {"days": "Sun", "time": "Closed"}], "id": "5264900000", "name": "USPS COLLECTION BOX - BLUE BOX", "address": {"city": "SALEM", "state": "IA", "street": "103 S MAIN ST", "postcode": "52649"}}},
{"geometry": {"type": "Point", "coordinates": [-91.6215010083, 40.8546631443]}, "type": "Feature", "properties": {"collection_times": [{"days": "Mon-Fri", "time": "11:45am"}, {"days": "Sat-Sun", "time": "Closed"}], "id": "5264900001", "name": "USPS COLLECTION BOX - PO LOBBY", "address": {"city": "SALEM", "state": "IA", "street": "103 S MAIN ST", "postcode": "52649"}}},
{"geometry": {"type": "Point", "coordinates": [-91.8336208228, 40.8571462913]}, "type": "Feature", "properties": {"collection_times": [{"days": "Mon-Sat", "time": "4:00pm"}, {"days": "Sun", "time": "Closed"}], "id": "5265100000", "name": "USPS COLLECTION BOX - BLUE BOX", "address": {"city": "STOCKPORT", "state": "IA", "street": "121 S MAIN ST", "postcode": "52651"}}},
{"geometry": {"type": "Point", "coordinates": [-91.8336208228, 40.8571462913]}, "type": "Feature", "properties": {"collection_times": [{"days": "Mon-Fri", "time": "12:45pm"}, {"days": "Sat-Sun", "time": "Closed"}], "id": "5265100001", "name": "USPS COLLECTION BOX - PO LOBBY", "address": {"city": "STOCKPORT", "state": "IA", "street": "121 S MAIN ST", "postcode": "52651"}}},
{"geometry": {"type": "Point", "coordinates": [-91.54497253, 41.1052021448]}, "type": "Feature", "properties": {"collection_times": [{"days": "Mon-Fri", "time": "2:45pm"}, {"days": "Sat", "time": "3:45pm"}, {"days": "Sun", "time": "Closed"}], "id": "5265200000", "name": "USPS COLLECTION BOX - BLUE BOX", "address": {"city": "SWEDESBURG", "state": "IA", "street": "101 JAMES AVE", "postcode": "52652"}}},
{"geometry": {"type": "Point", "coordinates": [-91.5448091166, 41.10516349]}, "type": "Feature", "properties": {"collection_times": [{"days": "Mon-Fri", "time": "2:45pm"}, {"days": "Sat", "time": "9:15am"}, {"days": "Sun", "time": "Closed"}], "id": "5265200001", "name": "USPS COLLECTION BOX - PO LOBBY", "address": {"city": "SWEDESBURG", "state": "IA", "street": "101 JAMES AVE", "postcode": "52652"}}},
{"geometry": {"type": "Point", "coordinates": [-91.1905505766, 41.1750656892]}, "type": "Feature", "properties": {"collection_times": [{"days": "Mon-Sat", "time": "11:00am"}, {"days": "Sun", "time": "Closed"}], "id": "5265300000", "name": "USPS COLLECTION BOX - BLUE BOX", "address": {"city": "WAPELLO", "state": "IA", "street": "503 HIGHWAY 61 S", "postcode": "52653"}}},
{"geometry": {"type": "Point", "coordinates": [-91.1861591018, 41.1804899657]}, "type": "Feature", "properties": {"collection_times": [{"days": "Mon-Sat", "time": "4:30pm"}, {"days": "Sun", "time": "Closed"}], "id": "5265300003", "name": "USPS COLLECTION BOX - BLUE BOX", "address": {"city": "WAPELLO", "state": "IA", "street": "206 N MAIN ST", "postcode": "52653"}}},
{"geometry": {"type": "Point", "coordinates": [-91.1861591018, 41.1804899657]}, "type": "Feature", "properties": {"collection_times": [{"days": "Mon-Fri", "time": "4:45pm"}, {"days": "Sat", "time": "11:00am"}, {"days": "Sun", "time": "Closed"}], "id": "5265300005", "name": "USPS COLLECTION BOX - PO LOBBY", "address": {"city": "WAPELLO", "state": "IA", "street": "206 N MAIN ST", "postcode": "52653"}}},
{"geometry": {"type": "Point", "coordinates": [-91.1764482403, 41.1735625666]}, "type": "Feature", "properties": {"collection_times": [{"days": "Mon-Sat", "time": "11:00am"}, {"days": "Sun", "time": "Closed"}], "id": "5265300006", "name": "USPS COLLECTION BOX - BLUE BOX", "address": {"city": "WAPELLO", "state": "IA", "street": "13410 HIGHWAY 78", "postcode": "52653"}}},
{"geometry": {"type": "Point", "coordinates": [-91.6612600194, 41.1470635738]}, "type": "Feature", "properties": {"collection_times": [{"days": "Mon-Sat", "time": "4:15pm"}, {"days": "Sun", "time": "Closed"}], "id": "5265400000", "name": "USPS COLLECTION BOX - BLUE BOX", "address": {"city": "WAYLAND", "state": "IA", "street": "209 W MAIN ST", "postcode": "52654"}}},
{"geometry": {"type": "Point", "coordinates": [-91.6628516229, 41.1470437227]}, "type": "Feature", "properties": {"collection_times": [{"days": "Mon-Fri", "time": "1:45pm"}, {"days": "Sat-Sun", "time": "Closed"}], "id": "5265400001", "name": "USPS COLLECTION BOX - PO LOBBY", "address": {"city": "WAYLAND", "state": "IA", "street": "209 W MAIN ST", "postcode": "52654"}}},
{"geometry": {"type": "Point", "coordinates": [-91.206277426, 40.8264935655]}, "type": "Feature", "properties": {"collection_times": [{"days": "Mon-Sat", "time": "9:45am"}, {"days": "Sun", "time": "Closed"}], "id": "5265500001", "name": "USPS COLLECTION BOX - BLUE BOX", "address": {"city": "WEST BURLINGTON", "state": "IA", "street": "4305 W MOUNT PLEASANT ST", "postcode": "52655"}}},
{"geometry": {"type": "Point", "coordinates": [-91.2117330294, 40.8397973146]}, "type": "Feature", "properties": {"collection_times": [{"days": "Mon-Sat", "time": "12:00pm"}, {"days": "Sun", "time": "Closed"}], "id": "5265500003", "name": "USPS COLLECTION BOX - BLUE BOX", "address": {"city": "WEST BURLINGTON", "state": "IA", "street": "10964 WASHINGTON RD", "postcode": "52655"}}},
{"geometry": {"type": "Point", "coordinates": [-91.1698846525, 40.8213692844]}, "type": "Feature", "properties": {"collection_times": [{"days": "Mon-Sat", "time": "10:00am"}, {"days": "Sun", "time": "Closed"}], "id": "5265500005", "name": "USPS COLLECTION BOX - BLUE BOX", "address": {"city": "WEST BURLINGTON", "state": "IA", "street": "550 S GEAR AVE", "postcode": "52655"}}},
{"geometry": {"type": "Point", "coordinates": [-91.1566911546, 40.8249832956]}, "type": "Feature", "properties": {"collection_times": [{"days": "Mon-Sat", "time": "5:00pm"}, {"days": "Sun", "time": "Closed"}], "id": "5265500007", "name": "USPS COLLECTION BOX - BLUE BOX", "address": {"city": "WEST BURLINGTON", "state": "IA", "street": "201 BROADWAY ST", "postcode": "52655"}}},
{"geometry": {"type": "Point", "coordinates": [-91.1566911546, 40.8249832956]}, "type": "Feature", "properties": {"collection_times": [{"days": "Mon-Fri", "time": "5:00pm"}, {"days": "Sat", "time": "11:00am"}, {"days": "Sun", "time": "Closed"}], "id": "5265500008", "name": "USPS COLLECTION BOX - PO LOBBY", "address": {"city": "WEST BURLINGTON", "state": "IA", "street": "201 BROADWAY ST", "postcode": "52655"}}},
{"geometry": {"type": "Point", "coordinates": [-91.1583387134, 40.813196025]}, "type": "Feature", "properties": {"collection_times": [{"days": "Mon-Sat", "time": "9:30am"}, {"days": "Sun", "time": "Closed"}], "id": "5265500009", "name": "USPS COLLECTION BOX - BLUE BOX", "address": {"city": "WEST BURLINGTON", "state": "IA", "street": "104 W AGENCY RD", "postcode": "52655"}}},
{"geometry": {"type": "Point", "coordinates": [-91.1719917923, 40.8117217588]}, "type": "Feature", "properties": {"collection_times": [{"days": "Mon-Sat", "time": "9:30am"}, {"days": "Sun", "time": "Closed"}], "id": "5265500010", "name": "USPS COLLECTION BOX - BLUE BOX", "address": {"city": "WEST BURLINGTON", "state": "IA", "street": "1108 W AGENCY RD", "postcode": "52655"}}},
{"geometry": {"type": "Point", "coordinates": [-91.173222742, 40.8116134585]}, "type": "Feature", "properties": {"collection_times": [{"days": "Mon-Sat", "time": "9:30am"}, {"days": "Sun", "time": "Closed"}], "id": "5265500012", "name": "USPS COLLECTION BOX - BLUE BOX", "address": {"city": "WEST BURLINGTON", "state": "IA", "street": "1201 W AGENCY RD", "postcode": "52655"}}},
{"geometry": {"type": "Point", "coordinates": [-91.4539052456, 40.7170291403]}, "type": "Feature", "properties": {"collection_times": [{"days": "Mon-Sat", "time": "4:30pm"}, {"days": "Sun", "time": "Closed"}], "id": "5265600000", "name": "USPS COLLECTION BOX - BLUE BOX", "address": {"city": "WEST POINT", "state": "IA", "street": "326 4TH ST", "postcode": "52656"}}},
{"geometry": {"type": "Point", "coordinates": [-91.4539052456, 40.7170291403]}, "type": "Feature", "properties": {"collection_times": [{"days": "Mon-Fri", "time": "1:45pm"}, {"days": "Sat", "time": "9:15am"}, {"days": "Sun", "time": "Closed"}], "id": "5265600003", "name": "USPS COLLECTION BOX - PO LOBBY", "address": {"city": "WEST POINT", "state": "IA", "street": "326 4TH ST", "postcode": "52656"}}},
{"geometry": {"type": "Point", "coordinates": [-91.2332496257, 40.707669352]}, "type": "Feature", "properties": {"collection_times": [{"days": "Mon-Sat", "time": "4:30pm"}, {"days": "Sun", "time": "Closed"}], "id": "5265800000", "name": "USPS COLLECTION BOX - BLUE BOX", "address": {"city": "WEVER", "state": "IA", "street": "1694 354TH AVE", "postcode": "52658"}}},
{"geometry": {"type": "Point", "coordinates": [-91.2332496257, 40.707669352]}, "type": "Feature", "properties": {"collection_times": [{"days": "Mon-Fri", "time": "11:45am"}, {"days": "Sat", "time": "8:45am"}, {"days": "Sun", "time": "Closed"}], "id": "5265800001", "name": "USPS COLLECTION BOX - PO LOBBY", "address": {"city": "WEVER", "state": "IA", "street": "1694 354TH AVE", "postcode": "52658"}}},
{"geometry": {"type": "Point", "coordinates": [-91.4393871645, 41.1275837258]}, "type": "Feature", "properties": {"collection_times": [{"days": "Mon-Sat", "time": "4:30pm"}, {"days": "Sun", "time": "Closed"}], "id": "5265900000", "name": "USPS COLLECTION BOX - BLUE BOX", "address": {"city": "WINFIELD", "state": "IA", "street": "107 W PINE ST", "postcode": "52659"}}},
{"geometry": {"type": "Point", "coordinates": [-91.4393871645, 41.1275837258]}, "type": "Feature", "properties": {"collection_times": [{"days": "Mon-Fri", "time": "2:15pm"}, {"days": "Sat", "time": "9:45am"}, {"days": "Sun", "time": "Closed"}], "id": "5265900001", "name": "USPS COLLECTION BOX - PO LOBBY", "address": {"city": "WINFIELD", "state": "IA", "street": "107 W PINE ST", "postcode": "52659"}}}
]}
