{"type": "FeatureCollection", "features": [
{"geometry": {"type": "Point", "coordinates": [-90.2522065498, 41.9791776779]}, "type": "Feature", "properties": {"collection_times": [{"days": "Mon-Fri", "time": "3:45pm"}, {"days": "Sat", "time": "3:00pm"}, {"days": "Sun", "time": "Closed"}], "id": "5270100000", "name": "USPS COLLECTION BOX - BLUE BOX", "address": {"city": "ANDOVER", "state": "IA", "street": "4326 MAIN ST", "postcode": "52701"}}},
{"geometry": {"type": "Point", "coordinates": [-90.2522065498, 41.9791776779]}, "type": "Feature", "properties": {"collection_times": [{"days": "Mon-Fri", "time": "2:45pm"}, {"days": "Sat", "time": "3:00pm"}, {"days": "Sun", "time": "Closed"}], "id": "5270100001", "name": "USPS COLLECTION BOX - PO LOBBY", "address": {"city": "ANDOVER", "state": "IA", "street": "4326 MAIN ST", "postcode": "52701"}}},
{"geometry": {"type": "Point", "coordinates": [-91.1658380625, 41.5708812836]}, "type": "Feature", "properties": {"collection_times": [{"days": "Mon-Sat", "time": "4:00pm"}, {"days": "Sun", "time": "Closed"}], "id": "5272000000", "name": "USPS COLLECTION BOX - BLUE BOX", "address": {"city": "ATALISSA", "state": "IA", "street": "212 CHERRY ST", "postcode": "52720"}}},
{"geometry": {"type": "Point", "coordinates": [-91.1658380625, 41.5708812836]}, "type": "Feature", "properties": {"collection_times": [{"days": "Mon-Fri", "time": "10:45am"}, {"days": "Sat-Sun", "time": "Closed"}], "id": "5272000001", "name": "USPS COLLECTION BOX - PO LOBBY", "address": {"city": "ATALISSA", "state": "IA", "street": "212 CHERRY ST", "postcode": "52720"}}},
{"geometry": {"type": "Point", "coordinates": [-91.1518172113, 41.642041878]}, "type": "Feature", "properties": {"collection_times": [{"days": "Mon-Sat", "time": "12:00pm"}, {"days": "Sun", "time": "Closed"}], "id": "5272000002", "name": "USPS COLLECTION BOX - BLUE BOX", "address": {"city": "ATALISSA", "state": "IA", "street": "2086 ATALISSA RD", "postcode": "52720"}}},
{"geometry": {"type": "Point", "coordinates": [-90.9737926969, 41.7405432344]}, "type": "Feature", "properties": {"collection_times": [{"days": "Mon-Sat", "time": "4:00pm"}, {"days": "Sun", "time": "Closed"}], "id": "5272100000", "name": "USPS COLLECTION BOX - BLUE BOX", "address": {"city": "BENNETT", "state": "IA", "street": "341 MAIN ST", "postcode": "52721"}}},
{"geometry": {"type": "Point", "coordinates": [-90.9737926969, 41.7405432344]}, "type": "Feature", "properties": {"collection_times": [{"days": "Mon-Fri", "time": "10:45am"}, {"days": "Sat", "time": "9:15am"}, {"days": "Sun", "time": "Closed"}], "id": "5272100001", "name": "USPS COLLECTION BOX - PO LOBBY", "address": {"city": "BENNETT", "state": "IA", "street": "341 MAIN ST", "postcode": "52721"}}},
{"geometry": {"type": "Point", "coordinates": [-90.5099751179, 41.5251598702]}, "type": "Feature", "properties": {"collection_times": [{"days": "Mon-Fri", "time": "4:45pm"}, {"days": "Sat-Sun", "time": "Closed"}], "id": "5272200000", "name": "USPS COLLECTION BOX - BLUE BOX", "address": {"city": "BETTENDORF", "state": "IA", "street": "1609 STATE ST", "postcode": "52722"}}},
{"geometry": {"type": "Point", "coordinates": [-90.4837502529, 41.5524795002]}, "type": "Feature", "properties": {"collection_times": [{"days": "Mon-Sat", "time": "5:00pm"}, {"days": "Sun", "time": "Closed"}], "id": "5272200001", "name": "USPS COLLECTION BOX - BLUE BOX", "address": {"city": "BETTENDORF", "state": "IA", "street": "2900 DEVILS GLEN RD", "postcode": "52722"}}},
{"geometry": {"type": "Point", "coordinates": [-90.4837502529, 41.5524795002]}, "type": "Feature", "properties": {"collection_times": [{"days": "Mon-Sat", "time": "5:00pm"}, {"days": "Sun", "time": "Closed"}], "id": "5272200002", "name": "USPS COLLECTION BOX - BLUE BOX", "address": {"city": "BETTENDORF", "state": "IA", "street": "2900 DEVILS GLEN RD", "postcode": "52722"}}},
{"geometry": {"type": "Point", "coordinates": [-90.4965792031, 41.5315818621]}, "type": "Feature", "properties": {"collection_times": [{"days": "Mon-Sat", "time": "4:30pm"}, {"days": "Sun", "time": "Closed"}], "id": "5272200004", "name": "USPS COLLECTION BOX - BLUE BOX", "address": {"city": "BETTENDORF", "state": "IA", "street": "2620 CENTRAL AVE", "postcode": "52722"}}},
{"geometry": {"type": "Point", "coordinates": [-90.5205390567, 41.5391016433]}, "type": "Feature", "properties": {"collection_times": [{"days": "Mon-Sat", "time": "5:00pm"}, {"days": "Sun", "time": "Closed"}], "id": "5272200006", "name": "USPS COLLECTION BOX - BLUE BOX", "address": {"city": "BETTENDORF", "state": "IA", "street": "852 MIDDLE RD", "postcode": "52722"}}},
{"geometry": {"type": "Point", "coordinates": [-90.5223533921, 41.5444210124]}, "type": "Feature", "properties": {"collection_times": [{"days": "Mon-Fri", "time": "5:00pm"}, {"days": "Sat", "time": "9:30am"}, {"days": "Sun", "time": "Closed"}], "id": "5272200008", "name": "USPS COLLECTION BOX - BLUE BOX", "address": {"city": "BETTENDORF", "state": "IA", "street": "2435 KIMBERLY RD", "postcode": "52722"}}},
{"geometry": {"type": "Point", "coordinates": [-90.4998868273, 41.5487736837]}, "type": "Feature", "properties": {"collection_times": [{"days": "Mon-Sat", "time": "5:00pm"}, {"days": "Sun", "time": "Closed"}], "id": "5272200016", "name": "USPS COLLECTION BOX - BLUE BOX", "address": {"city": "BETTENDORF", "state": "IA", "street": "2334 SPRUCE HILLS DR", "postcode": "52722"}}},
{"geometry": {"type": "Point", "coordinates": [-90.4998868273, 41.5487736837]}, "type": "Feature", "properties": {"collection_times": [{"days": "Mon-Sat", "time": "5:00pm"}, {"days": "Sun", "time": "Closed"}], "id": "5272200017", "name": "USPS COLLECTION BOX - BLUE BOX", "address": {"city": "BETTENDORF", "state": "IA", "street": "2334 SPRUCE HILLS DR", "postcode": "52722"}}},
{"geometry": {"type": "Point", "coordinates": [-90.4998868273, 41.5487736837]}, "type": "Feature", "properties": {"collection_times": [{"days": "Mon-Sat", "time": "5:00pm"}, {"days": "Sun", "time": "Closed"}], "id": "5272200018", "name": "USPS COLLECTION BOX - BLUE BOX", "address": {"city": "BETTENDORF", "state": "IA", "street": "2334 SPRUCE HILLS DR", "postcode": "52722"}}},
{"geometry": {"type": "Point", "coordinates": [-90.4998868273, 41.5487736837]}, "type": "Feature", "properties": {"collection_times": [{"days": "Mon-Sat", "time": "5:00pm"}, {"days": "Sun", "time": "Closed"}], "id": "5272200019", "name": "USPS COLLECTION BOX - BLUE BOX", "address": {"city": "BETTENDORF", "state": "IA", "street": "2334 SPRUCE HILLS DR", "postcode": "52722"}}},
{"geometry": {"type": "Point", "coordinates": [-90.4970876919, 41.5473986087]}, "type": "Feature", "properties": {"collection_times": [{"days": "Mon-Fri", "time": "5:00pm"}, {"days": "Sat-Sun", "time": "Closed"}], "id": "5272200021", "name": "USPS COLLECTION BOX - BLUE BOX", "address": {"city": "BETTENDORF", "state": "IA", "street": "2550 MIDDLE RD", "postcode": "52722"}}},
{"geometry": {"type": "Point", "coordinates": [-90.5224305349, 41.5414250337]}, "type": "Feature", "properties": {"collection_times": [{"days": "Mon-Sat", "time": "5:00pm"}, {"days": "Sun", "time": "Closed"}], "id": "5272200023", "name": "USPS COLLECTION BOX - BLUE BOX", "address": {"city": "BETTENDORF", "state": "IA", "street": "2121 KIMBERLY RD", "postcode": "52722"}}},
{"geometry": {"type": "Point", "coordinates": [-90.5224305349, 41.5414250337]}, "type": "Feature", "properties": {"collection_times": [{"days": "Mon-Sat", "time": "5:00pm"}, {"days": "Sun", "time": "Closed"}], "id": "5272200024", "name": "USPS COLLECTION BOX - BLUE BOX", "address": {"city": "BETTENDORF", "state": "IA", "street": "2121 KIMBERLY RD", "postcode": "52722"}}},
{"geometry": {"type": "Point", "coordinates": [-90.4964858694, 41.5522208833]}, "type": "Feature", "properties": {"collection_times": [{"days": "Mon-Fri", "time": "5:00pm"}, {"days": "Sat", "time": "11:00am"}, {"days": "Sun", "time": "Closed"}], "id": "5272200027", "name": "USPS COLLECTION BOX - BLUE BOX", "address": {"city": "BETTENDORF", "state": "IA", "street": "2535 TECH DR", "postcode": "52722"}}},
{"geometry": {"type": "Point", "coordinates": [-90.4833539327, 41.5650240948]}, "type": "Feature", "properties": {"collection_times": [{"days": "Mon-Sat", "time": "5:30pm"}, {"days": "Sun", "time": "Closed"}], "id": "5272200030", "name": "USPS COLLECTION BOX - BLUE BOX", "address": {"city": "BETTENDORF", "state": "IA", "street": "4439 DEVILS GLEN RD", "postcode": "52722"}}},
{"geometry": {"type": "Point", "coordinates": [-90.4833539327, 41.5650240948]}, "type": "Feature", "properties": {"collection_times": [{"days": "Mon-Sat", "time": "5:30pm"}, {"days": "Sun", "time": "Closed"}], "id": "5272200031", "name": "USPS COLLECTION BOX - BLUE BOX", "address": {"city": "BETTENDORF", "state": "IA", "street": "4439 DEVILS GLEN RD", "postcode": "52722"}}},
{"geometry": {"type": "Point", "coordinates": [-90.4833539327, 41.5650240948]}, "type": "Feature", "properties": {"collection_times": [{"days": "Mon-Sat", "time": "5:30pm"}, {"days": "Sun", "time": "Closed"}], "id": "5272200037", "name": "USPS COLLECTION BOX - PO LOBBY", "address": {"city": "BETTENDORF", "state": "IA", "street": "4439 DEVILS GLEN RD", "postcode": "52722"}}},
{"geometry": {"type": "Point", "coordinates": [-90.5046581013, 41.5253953448]}, "type": "Feature", "properties": {"collection_times": [{"days": "Mon-Sat", "time": "5:00pm"}, {"days": "Sun", "time": "Closed"}], "id": "5272200038", "name": "USPS COLLECTION BOX - BLUE BOX", "address": {"city": "BETTENDORF", "state": "IA", "street": "2000 STATE ST", "postcode": "52722"}}},
{"geometry": {"type": "Point", "coordinates": [-90.5046581013, 41.5253953448]}, "type": "Feature", "properties": {"collection_times": [{"days": "Mon-Sat", "time": "5:00pm"}, {"days": "Sun", "time": "Closed"}], "id": "5272200039", "name": "USPS COLLECTION BOX - BLUE BOX", "address": {"city": "BETTENDORF", "state": "IA", "street": "2000 STATE ST", "postcode": "52722"}}},
{"geometry": {"type": "Point", "coordinates": [-90.5224305349, 41.5414250337]}, "type": "Feature", "properties": {"collection_times": [{"days": "Mon-Sat", "time": "5:00pm"}, {"days": "Sun", "time": "Closed"}], "id": "5272200044", "name": "USPS COLLECTION BOX - BLUE BOX", "address": {"city": "BETTENDORF", "state": "IA", "street": "2121 KIMBERLY RD", "postcode": "52722"}}},
{"geometry": {"type": "Point", "coordinates": [-90.5174330749, 41.5668817141]}, "type": "Feature", "properties": {"collection_times": [{"days": "Mon-Sat", "time": "5:00pm"}, {"days": "Sun", "time": "Closed"}], "id": "5272200047", "name": "USPS COLLECTION BOX - BLUE BOX", "address": {"city": "BETTENDORF", "state": "IA", "street": "4500 UTICA RIDGE RD", "postcode": "52722"}}},
{"geometry": {"type": "Point", "coordinates": [-90.4833539327, 41.5650240948]}, "type": "Feature", "properties": {"collection_times": [{"days": "Mon-Sat", "time": "5:30pm"}, {"days": "Sun", "time": "Closed"}], "id": "5272200048", "name": "USPS COLLECTION BOX - APC", "address": {"city": "BETTENDORF", "state": "IA", "street": "4439 DEVILS GLEN RD", "postcode": "52722"}}},
{"geometry": {"type": "Point", "coordinates": [-90.7772925513, 41.5026497026]}, "type": "Feature", "properties": {"collection_times": [{"days": "Mon-Fri", "time": "4:00pm"}, {"days": "Sat", "time": "4:30pm"}, {"days": "Sun", "time": "Closed"}], "id": "5272600000", "name": "USPS COLLECTION BOX - BLUE BOX", "address": {"city": "BLUE GRASS", "state": "IA", "street": "102 TERRACE DR", "postcode": "52726"}}},
{"geometry": {"type": "Point", "coordinates": [-90.7772925513, 41.5026497026]}, "type": "Feature", "properties": {"collection_times": [{"days": "Mon-Fri", "time": "4:15pm"}, {"days": "Sat", "time": "10:45am"}, {"days": "Sun", "time": "Closed"}], "id": "5272600002", "name": "USPS COLLECTION BOX - PO LOBBY", "address": {"city": "BLUE GRASS", "state": "IA", "street": "102 TERRACE DR", "postcode": "52726"}}},
{"geometry": {"type": "Point", "coordinates": [-90.7309124453, 41.4593569625]}, "type": "Feature", "properties": {"collection_times": [{"days": "Mon-Fri", "time": "4:15pm"}, {"days": "Sat", "time": "3:45pm"}, {"days": "Sun", "time": "Closed"}], "id": "5272800000", "name": "USPS COLLECTION BOX - BLUE BOX", "address": {"city": "BUFFALO", "state": "IA", "street": "326 FRONT ST", "postcode": "52728"}}},
{"geometry": {"type": "Point", "coordinates": [-90.7309124453, 41.4593569625]}, "type": "Feature", "properties": {"collection_times": [{"days": "Mon-Fri", "time": "4:15pm"}, {"days": "Sat-Sun", "time": "Closed"}], "id": "5272800001", "name": "USPS COLLECTION BOX - PO LOBBY", "address": {"city": "BUFFALO", "state": "IA", "street": "326 FRONT ST", "postcode": "52728"}}},
{"geometry": {"type": "Point", "coordinates": [-90.7587026677, 41.8256134977]}, "type": "Feature", "properties": {"collection_times": [{"days": "Mon-Sat", "time": "4:00pm"}, {"days": "Sun", "time": "Closed"}], "id": "5272900000", "name": "USPS COLLECTION BOX - BLUE BOX", "address": {"city": "CALAMUS", "state": "IA", "street": "200 2ND ST", "postcode": "52729"}}},
{"geometry": {"type": "Point", "coordinates": [-90.7587026677, 41.8256134977]}, "type": "Feature", "properties": {"collection_times": [{"days": "Mon-Fri", "time": "2:45pm"}, {"days": "Sat-Sun", "time": "Closed"}], "id": "5272900001", "name": "USPS COLLECTION BOX - PO LOBBY", "address": {"city": "CALAMUS", "state": "IA", "street": "200 2ND ST", "postcode": "52729"}}},
{"geometry": {"type": "Point", "coordinates": [-90.2579939607, 41.78697796]}, "type": "Feature", "properties": {"collection_times": [{"days": "Mon-Sat", "time": "4:30pm"}, {"days": "Sun", "time": "Closed"}], "id": "5273000003", "name": "USPS COLLECTION BOX - BLUE BOX", "address": {"city": "CAMANCHE", "state": "IA", "street": "820 S WASHINGTON BLVD", "postcode": "52730"}}},
{"geometry": {"type": "Point", "coordinates": [-90.2579939607, 41.78697796]}, "type": "Feature", "properties": {"collection_times": [{"days": "Mon-Fri", "time": "4:30pm"}, {"days": "Sat-Sun", "time": "Closed"}], "id": "5273000005", "name": "USPS COLLECTION BOX - PO LOBBY", "address": {"city": "CAMANCHE", "state": "IA", "street": "820 S WASHINGTON BLVD", "postcode": "52730"}}},
{"geometry": {"type": "Point", "coordinates": [-90.468781392, 41.9637211596]}, "type": "Feature", "properties": {"collection_times": [{"days": "Mon-Sat", "time": "4:00pm"}, {"days": "Sun", "time": "Closed"}], "id": "5273100000", "name": "USPS COLLECTION BOX - BLUE BOX", "address": {"city": "CHARLOTTE", "state": "IA", "street": "125 BROADWAY ST", "postcode": "52731"}}},
{"geometry": {"type": "Point", "coordinates": [-90.468781392, 41.9637211596]}, "type": "Feature", "properties": {"collection_times": [{"days": "Mon-Fri", "time": "10:45am"}, {"days": "Sat", "time": "9:30am"}, {"days": "Sun", "time": "Closed"}], "id": "5273100001", "name": "USPS COLLECTION BOX - PO LOBBY", "address": {"city": "CHARLOTTE", "state": "IA", "street": "125 BROADWAY ST", "postcode": "52731"}}},
{"geometry": {"type": "Point", "coordinates": [-90.1908205074, 41.8423116373]}, "type": "Feature", "properties": {"collection_times": [{"days": "Mon-Fri", "time": "4:45pm"}, {"days": "Sat", "time": "9:00am"}, {"days": "Sun", "time": "Closed"}], "id": "5273200004", "name": "USPS COLLECTION BOX - BLUE BOX", "address": {"city": "CLINTON", "state": "IA", "street": "398 S 3RD ST", "postcode": "52732"}}},
{"geometry": {"type": "Point", "coordinates": [-90.2236146873, 41.8168699147]}, "type": "Feature", "properties": {"collection_times": [{"days": "Mon-Fri", "time": "5:00pm"}, {"days": "Sat", "time": "9:00am"}, {"days": "Sun", "time": "Closed"}], "id": "5273200006", "name": "USPS COLLECTION BOX - BLUE BOX", "address": {"city": "CLINTON", "state": "IA", "street": "1600 LINCOLN WAY", "postcode": "52732"}}},
{"geometry": {"type": "Point", "coordinates": [-90.1855772734, 41.8562679086]}, "type": "Feature", "properties": {"collection_times": [{"days": "Mon-Fri", "time": "5:00pm"}, {"days": "Sat", "time": "9:00am"}, {"days": "Sun", "time": "Closed"}], "id": "5273200010", "name": "USPS COLLECTION BOX - BLUE BOX", "address": {"city": "CLINTON", "state": "IA", "street": "1121 N 2ND ST", "postcode": "52732"}}},
{"geometry": {"type": "Point", "coordinates": [-90.1875922755, 41.8501431047]}, "type": "Feature", "properties": {"collection_times": [{"days": "Mon-Fri", "time": "5:00pm"}, {"days": "Sat", "time": "9:00am"}, {"days": "Sun", "time": "Closed"}], "id": "5273200012", "name": "USPS COLLECTION BOX - BLUE BOX", "address": {"city": "CLINTON", "state": "IA", "street": "612 N 2ND ST", "postcode": "52732"}}},
{"geometry": {"type": "Point", "coordinates": [-90.187964391, 41.86084212]}, "type": "Feature", "properties": {"collection_times": [{"days": "Mon-Fri", "time": "5:00pm"}, {"days": "Sat", "time": "9:00am"}, {"days": "Sun", "time": "Closed"}], "id": "5273200016", "name": "USPS COLLECTION BOX - BLUE BOX", "address": {"city": "CLINTON", "state": "IA", "street": "1423 N 4TH ST", "postcode": "52732"}}},
{"geometry": {"type": "Point", "coordinates": [-90.1812383244, 41.8799640361]}, "type": "Feature", "properties": {"collection_times": [{"days": "Mon-Sat", "time": "12:00pm"}, {"days": "Sun", "time": "Closed"}], "id": "5273200017", "name": "USPS COLLECTION BOX - BLUE BOX", "address": {"city": "CLINTON", "state": "IA", "street": "2928 N 3RD ST", "postcode": "52732"}}},
{"geometry": {"type": "Point", "coordinates": [-90.2074197814, 41.8431348679]}, "type": "Feature", "properties": {"collection_times": [{"days": "Mon-Sat", "time": "8:30am"}, {"days": "Sun", "time": "Closed"}], "id": "5273200020", "name": "USPS COLLECTION BOX - BLUE BOX", "address": {"city": "CLINTON", "state": "IA", "street": "308 S BLUFF BLVD", "postcode": "52732"}}},
{"geometry": {"type": "Point", "coordinates": [-90.1783844091, 41.872300893]}, "type": "Feature", "properties": {"collection_times": [{"days": "Mon-Fri", "time": "5:00pm"}, {"days": "Sat", "time": "9:00am"}, {"days": "Sun", "time": "Closed"}], "id": "5273200024", "name": "USPS COLLECTION BOX - BLUE BOX", "address": {"city": "CLINTON", "state": "IA", "street": "1423 N 4TH ST", "postcode": "52732"}}},
{"geometry": {"type": "Point", "coordinates": [-90.1858463681, 41.8433716078]}, "type": "Feature", "properties": {"collection_times": [{"days": "Mon-Fri", "time": "5:30pm"}, {"days": "Sat", "time": "5:00pm"}, {"days": "Sun", "time": "Closed"}], "id": "5273200037", "name": "USPS COLLECTION BOX - BLUE BOX", "address": {"city": "CLINTON", "state": "IA", "street": "300 S 1ST ST", "postcode": "52732"}}},
{"geometry": {"type": "Point", "coordinates": [-90.2186745504, 41.8335218554]}, "type": "Feature", "properties": {"collection_times": [{"days": "Mon-Fri", "time": "5:00pm"}, {"days": "Sat", "time": "9:00am"}, {"days": "Sun", "time": "Closed"}], "id": "5273200040", "name": "USPS COLLECTION BOX - BLUE BOX", "address": {"city": "CLINTON", "state": "IA", "street": "1104 S 14TH ST", "postcode": "52732"}}},
{"geometry": {"type": "Point", "coordinates": [-90.2404744343, 41.8155484646]}, "type": "Feature", "properties": {"collection_times": [{"days": "Mon-Fri", "time": "5:00pm"}, {"days": "Sat", "time": "9:00am"}, {"days": "Sun", "time": "Closed"}], "id": "5273200041", "name": "USPS COLLECTION BOX - BLUE BOX", "address": {"city": "CLINTON", "state": "IA", "street": "2321 LINCOLN WAY", "postcode": "52732"}}},
{"geometry": {"type": "Point", "coordinates": [-90.1858463681, 41.8433716078]}, "type": "Feature", "properties": {"collection_times": [{"days": "Mon-Fri", "time": "5:30pm"}, {"days": "Sat", "time": "5:00pm"}, {"days": "Sun", "time": "Closed"}], "id": "5273200043", "name": "USPS COLLECTION BOX - PO LOBBY", "address": {"city": "CLINTON", "state": "IA", "street": "300 S 1ST ST", "postcode": "52732"}}},
{"geometry": {"type": "Point", "coordinates": [-90.208384021, 41.859297615]}, "type": "Feature", "properties": {"collection_times": [{"days": "Mon-Sat", "time": "12:00pm"}, {"days": "Sun", "time": "Closed"}], "id": "5273200045", "name": "USPS COLLECTION BOX - BLUE BOX", "address": {"city": "CLINTON", "state": "IA", "street": "1015 13TH AVE N", "postcode": "52732"}}},
{"geometry": {"type": "Point", "coordinates": [-90.1881866175, 41.8421343426]}, "type": "Feature", "properties": {"collection_times": [{"days": "Mon-Fri", "time": "5:00pm"}, {"days": "Sat", "time": "9:00am"}, {"days": "Sun", "time": "Closed"}], "id": "5273200046", "name": "USPS COLLECTION BOX - BLUE BOX", "address": {"city": "CLINTON", "state": "IA", "street": "419 S 2ND ST", "postcode": "52732"}}},
{"geometry": {"type": "Point", "coordinates": [-90.191779135, 41.841205898]}, "type": "Feature", "properties": {"collection_times": [{"days": "Mon-Fri", "time": "4:45pm"}, {"days": "Sat", "time": "9:00am"}, {"days": "Sun", "time": "Closed"}], "id": "5273200047", "name": "USPS COLLECTION BOX - BLUE BOX", "address": {"city": "CLINTON", "state": "IA", "street": "340 5TH AVE S", "postcode": "52732"}}},
{"geometry": {"type": "Point", "coordinates": [-90.1892640509, 41.8400059008]}, "type": "Feature", "properties": {"collection_times": [{"days": "Mon-Fri", "time": "4:45pm"}, {"days": "Sat", "time": "9:00am"}, {"days": "Sun", "time": "Closed"}], "id": "5273200048", "name": "USPS COLLECTION BOX - BLUE BOX", "address": {"city": "CLINTON", "state": "IA", "street": "235 6TH AVE S", "postcode": "52732"}}},
{"geometry": {"type": "Point", "coordinates": [-90.1783051232, 41.8723270261]}, "type": "Feature", "properties": {"collection_times": [{"days": "Mon-Fri", "time": "5:00pm"}, {"days": "Sat", "time": "1:00pm"}, {"days": "Sun", "time": "Closed"}], "id": "5273200050", "name": "USPS COLLECTION BOX - BLUE BOX", "address": {"city": "CLINTON", "state": "IA", "street": "97 MAIN AVE", "postcode": "52732"}}},
{"geometry": {"type": "Point", "coordinates": [-91.3617186932, 41.2814820849]}, "type": "Feature", "properties": {"collection_times": [{"days": "Mon-Fri", "time": "4:15pm"}, {"days": "Sat", "time": "11:00am"}, {"days": "Sun", "time": "Closed"}], "id": "5273800000", "name": "USPS COLLECTION BOX - PO LOBBY", "address": {"city": "COLUMBUS JCT", "state": "IA", "street": "204 2ND ST", "postcode": "52738"}}},
{"geometry": {"type": "Point", "coordinates": [-91.3617186932, 41.2814820849]}, "type": "Feature", "properties": {"collection_times": [{"days": "Mon-Fri", "time": "4:15pm"}, {"days": "Sat", "time": "11:00am"}, {"days": "Sun", "time": "Closed"}], "id": "5273800002", "name": "USPS COLLECTION BOX - BLUE BOX", "address": {"city": "COLUMBUS JCT", "state": "IA", "street": "204 2ND ST", "postcode": "52738"}}},
{"geometry": {"type": "Point", "coordinates": [-91.3617186932, 41.2814820849]}, "type": "Feature", "properties": {"collection_times": [{"days": "Mon-Fri", "time": "4:15pm"}, {"days": "Sat", "time": "11:00am"}, {"days": "Sun", "time": "Closed"}], "id": "5273800003", "name": "USPS COLLECTION BOX - BLUE BOX", "address": {"city": "COLUMBUS JCT", "state": "IA", "street": "204 2ND ST", "postcode": "52738"}}},
{"geometry": {"type": "Point", "coordinates": [-91.4138923255, 41.2773671895]}, "type": "Feature", "properties": {"collection_times": [{"days": "Mon-Sat", "time": "11:00am"}, {"days": "Sun", "time": "Closed"}], "id": "5273800004", "name": "USPS COLLECTION BOX - BLUE BOX", "address": {"city": "COLUMBUS JCT", "state": "IA", "street": "22939 COUNTY ROAD X37", "postcode": "52738"}}},
{"geometry": {"type": "Point", "coordinates": [-91.3500309195, 41.3808763841]}, "type": "Feature", "properties": {"collection_times": [{"days": "Mon-Sat", "time": "4:00pm"}, {"days": "Sun", "time": "Closed"}], "id": "5273900000", "name": "USPS COLLECTION BOX - BLUE BOX", "address": {"city": "CONESVILLE", "state": "IA", "street": "205 N TODDS FERRY RD", "postcode": "52739"}}},
{"geometry": {"type": "Point", "coordinates": [-91.3500309195, 41.3808763841]}, "type": "Feature", "properties": {"collection_times": [{"days": "Mon-Fri", "time": "11:45am"}, {"days": "Sat-Sun", "time": "Closed"}], "id": "5273900001", "name": "USPS COLLECTION BOX - PO LOBBY", "address": {"city": "CONESVILLE", "state": "IA", "street": "205 N TODDS FERRY RD", "postcode": "52739"}}},
{"geometry": {"type": "Point", "coordinates": [-90.5392744614, 41.8242332432]}, "type": "Feature", "properties": {"collection_times": [{"days": "Mon-Sat", "time": "5:00pm"}, {"days": "Sun", "time": "Closed"}], "id": "5274200007", "name": "USPS COLLECTION BOX - BLUE BOX", "address": {"city": "DE WITT", "state": "IA", "street": "618 9TH ST", "postcode": "52742"}}},
{"geometry": {"type": "Point", "coordinates": [-90.5392744614, 41.8242332432]}, "type": "Feature", "properties": {"collection_times": [{"days": "Mon-Fri", "time": "5:00pm"}, {"days": "Sat", "time": "11:30am"}, {"days": "Sun", "time": "Closed"}], "id": "5274200012", "name": "USPS COLLECTION BOX - PO LOBBY", "address": {"city": "DE WITT", "state": "IA", "street": "618 9TH ST", "postcode": "52742"}}},
{"geometry": {"type": "Point", "coordinates": [-90.7799028041, 41.7424041371]}, "type": "Feature", "properties": {"collection_times": [{"days": "Mon-Sat", "time": "4:30pm"}, {"days": "Sun", "time": "Closed"}], "id": "5274500000", "name": "USPS COLLECTION BOX - BLUE BOX", "address": {"city": "DIXON", "state": "IA", "street": "502 RAILROAD ST", "postcode": "52745"}}},
{"geometry": {"type": "Point", "coordinates": [-90.7799028041, 41.7424041371]}, "type": "Feature", "properties": {"collection_times": [{"days": "Mon-Fri", "time": "12:45pm"}, {"days": "Sat", "time": "11:30am"}, {"days": "Sun", "time": "Closed"}], "id": "5274500001", "name": "USPS COLLECTION BOX - PO LOBBY", "address": {"city": "DIXON", "state": "IA", "street": "502 RAILROAD ST", "postcode": "52745"}}},
{"geometry": {"type": "Point", "coordinates": [-90.6753701866, 41.6966832371]}, "type": "Feature", "properties": {"collection_times": [{"days": "Mon-Sat", "time": "3:45pm"}, {"days": "Sun", "time": "Closed"}], "id": "5274600000", "name": "USPS COLLECTION BOX - BLUE BOX", "address": {"city": "DONAHUE", "state": "IA", "street": "303 N MAIN ST", "postcode": "52746"}}},
{"geometry": {"type": "Point", "coordinates": [-90.6753701866, 41.6966832371]}, "type": "Feature", "properties": {"collection_times": [{"days": "Mon-Fri", "time": "10:45am"}, {"days": "Sat", "time": "8:45am"}, {"days": "Sun", "time": "Closed"}], "id": "5274600001", "name": "USPS COLLECTION BOX - PO LOBBY", "address": {"city": "DONAHUE", "state": "IA", "street": "303 N MAIN ST", "postcode": "52746"}}},
{"geometry": {"type": "Point", "coordinates": [-90.908170805, 41.6003051801]}, "type": "Feature", "properties": {"collection_times": [{"days": "Mon-Fri", "time": "3:45pm"}, {"days": "Sat", "time": "4:00pm"}, {"days": "Sun", "time": "Closed"}], "id": "5274700000", "name": "USPS COLLECTION BOX - BLUE BOX", "address": {"city": "DURANT", "state": "IA", "street": "822 5TH ST", "postcode": "52747"}}},
{"geometry": {"type": "Point", "coordinates": [-90.908170805, 41.6003051801]}, "type": "Feature", "properties": {"collection_times": [{"days": "Mon-Fri", "time": "3:45pm"}, {"days": "Sat-Sun", "time": "Closed"}], "id": "5274700001", "name": "USPS COLLECTION BOX - PO LOBBY", "address": {"city": "DURANT", "state": "IA", "street": "822 5TH ST", "postcode": "52747"}}},
{"geometry": {"type": "Point", "coordinates": [-90.5465872983, 41.6938632796]}, "type": "Feature", "properties": {"collection_times": [{"days": "Mon-Fri", "time": "1:30pm"}, {"days": "Sat-Sun", "time": "Closed"}], "id": "5274800000", "name": "USPS COLLECTION BOX - BLUE BOX", "address": {"city": "ELDRIDGE", "state": "IA", "street": "7 GROVE RD", "postcode": "52748"}}},
{"geometry": {"type": "Point", "coordinates": [-90.5834310187, 41.6547241632]}, "type": "Feature", "properties": {"collection_times": [{"days": "Mon-Sat", "time": "5:00pm"}, {"days": "Sun", "time": "Closed"}], "id": "5274800003", "name": "USPS COLLECTION BOX - BLUE BOX", "address": {"city": "ELDRIDGE", "state": "IA", "street": "120 W LE CLAIRE RD", "postcode": "52748"}}},
{"geometry": {"type": "Point", "coordinates": [-90.5834310187, 41.6547241632]}, "type": "Feature", "properties": {"collection_times": [{"days": "Mon-Fri", "time": "5:00pm"}, {"days": "Sat", "time": "10:45am"}, {"days": "Sun", "time": "Closed"}], "id": "5274800005", "name": "USPS COLLECTION BOX - PO LOBBY", "address": {"city": "ELDRIDGE", "state": "IA", "street": "120 W LE CLAIRE RD", "postcode": "52748"}}},
{"geometry": {"type": "Point", "coordinates": [-91.133292716, 41.3561911528]}, "type": "Feature", "properties": {"collection_times": [{"days": "Mon-Fri", "time": "3:30pm"}, {"days": "Sat", "time": "3:00pm"}, {"days": "Sun", "time": "Closed"}], "id": "5274900002", "name": "USPS COLLECTION BOX - BLUE BOX", "address": {"city": "FRUITLAND", "state": "IA", "street": "136 NORTH ST", "postcode": "52749"}}},
{"geometry": {"type": "Point", "coordinates": [-91.133292716, 41.3561911528]}, "type": "Feature", "properties": {"collection_times": [{"days": "Mon-Fri", "time": "3:30pm"}, {"days": "Sat-Sun", "time": "Closed"}], "id": "5274900003", "name": "USPS COLLECTION BOX - PO LOBBY", "address": {"city": "FRUITLAND", "state": "IA", "street": "136 NORTH ST", "postcode": "52749"}}},
{"geometry": {"type": "Point", "coordinates": [-90.3833361421, 41.9700331278]}, "type": "Feature", "properties": {"collection_times": [{"days": "Mon-Sat", "time": "4:00pm"}, {"days": "Sun", "time": "Closed"}], "id": "5275000000", "name": "USPS COLLECTION BOX - BLUE BOX", "address": {"city": "GOOSE LAKE", "state": "IA", "street": "228 MAIN ST", "postcode": "52750"}}},
{"geometry": {"type": "Point", "coordinates": [-90.3833361421, 41.9700331278]}, "type": "Feature", "properties": {"collection_times": [{"days": "Mon-Fri", "time": "1:45pm"}, {"days": "Sat-Sun", "time": "Closed"}], "id": "5275000001", "name": "USPS COLLECTION BOX - PO LOBBY", "address": {"city": "GOOSE LAKE", "state": "IA", "street": "228 MAIN ST", "postcode": "52750"}}},
{"geometry": {"type": "Point", "coordinates": [-90.6458025291, 41.8230439807]}, "type": "Feature", "properties": {"collection_times": [{"days": "Mon-Sat", "time": "4:00pm"}, {"days": "Sun", "time": "Closed"}], "id": "5275100000", "name": "USPS COLLECTION BOX - BLUE BOX", "address": {"city": "GRAND MOUND", "state": "IA", "street": "501 EAST ST", "postcode": "52751"}}},
{"geometry": {"type": "Point", "coordinates": [-90.6458025291, 41.8230439807]}, "type": "Feature", "properties": {"collection_times": [{"days": "Mon-Fri", "time": "11:15am"}, {"days": "Sat-Sun", "time": "Closed"}], "id": "5275100001", "name": "USPS COLLECTION BOX - PO LOBBY", "address": {"city": "GRAND MOUND", "state": "IA", "street": "501 EAST ST", "postcode": "52751"}}},
{"geometry": {"type": "Point", "coordinates": [-91.1883242346, 41.2767249946]}, "type": "Feature", "properties": {"collection_times": [{"days": "Mon-Sat", "time": "3:45pm"}, {"days": "Sun", "time": "Closed"}], "id": "5275200000", "name": "USPS COLLECTION BOX - BLUE BOX", "address": {"city": "GRANDVIEW", "state": "IA", "street": "112 S MAIN ST", "postcode": "52752"}}},
{"geometry": {"type": "Point", "coordinates": [-91.1883242346, 41.2767249946]}, "type": "Feature", "properties": {"collection_times": [{"days": "Mon-Fri", "time": "12:45pm"}, {"days": "Sat-Sun", "time": "Closed"}], "id": "5275200001", "name": "USPS COLLECTION BOX - PO LOBBY", "address": {"city": "GRANDVIEW", "state": "IA", "street": "112 S MAIN ST", "postcode": "52752"}}},
{"geometry": {"type": "Point", "coordinates": [-90.3465555733, 41.5985483626]}, "type": "Feature", "properties": {"collection_times": [{"days": "Mon-Sat", "time": "4:30pm"}, {"days": "Sun", "time": "Closed"}], "id": "5275300000", "name": "USPS COLLECTION BOX - BLUE BOX", "address": {"city": "LECLAIRE", "state": "IA", "street": "310 JONES ST", "postcode": "52753"}}},
{"geometry": {"type": "Point", "coordinates": [-93.4999706561, 42.0746980829]}, "type": "Feature", "properties": {"collection_times": [{"days": "Mon-Fri", "time": "4:45pm"}, {"days": "Sat-Sun", "time": "Closed"}], "id": "5275300001", "name": "USPS COLLECTION BOX - PO LOBBY", "address": {"city": "LECLAIRE", "state": "IA", "street": "310 JONES ST", "postcode": "52753"}}},
{"geometry": {"type": "Point", "coordinates": [-91.2370947071, 41.3281640892]}, "type": "Feature", "properties": {"collection_times": [{"days": "Mon-Sat", "time": "3:30pm"}, {"days": "Sun", "time": "Closed"}], "id": "5275400000", "name": "USPS COLLECTION BOX - BLUE BOX", "address": {"city": "LETTS", "state": "IA", "street": "105 S CHERRY ST", "postcode": "52754"}}},
{"geometry": {"type": "Point", "coordinates": [-91.2370947071, 41.3281640892]}, "type": "Feature", "properties": {"collection_times": [{"days": "Mon-Fri", "time": "10:45am"}, {"days": "Sat", "time": "8:00am"}, {"days": "Sun", "time": "Closed"}], "id": "5275400001", "name": "USPS COLLECTION BOX - PO LOBBY", "address": {"city": "LETTS", "state": "IA", "street": "105 S CHERRY ST", "postcode": "52754"}}},
{"geometry": {"type": "Point", "coordinates": [-91.4256110107, 41.4871301169]}, "type": "Feature", "properties": {"collection_times": [{"days": "Mon-Sat", "time": "4:30pm"}, {"days": "Sun", "time": "Closed"}], "id": "5275500000", "name": "USPS COLLECTION BOX - BLUE BOX", "address": {"city": "LONE TREE", "state": "IA", "street": "104 N DEVOE ST", "postcode": "52755"}}},
{"geometry": {"type": "Point", "coordinates": [-91.4256110107, 41.4871301169]}, "type": "Feature", "properties": {"collection_times": [{"days": "Mon-Fri", "time": "4:30pm"}, {"days": "Sat", "time": "10:30am"}, {"days": "Sun", "time": "Closed"}], "id": "5275500001", "name": "USPS COLLECTION BOX - PO LOBBY", "address": {"city": "LONE TREE", "state": "IA", "street": "104 N DEVOE ST", "postcode": "52755"}}},
{"geometry": {"type": "Point", "coordinates": [-90.5827916069, 41.6971478778]}, "type": "Feature", "properties": {"collection_times": [{"days": "Mon-Fri", "time": "3:30pm"}, {"days": "Sat", "time": "4:00pm"}, {"days": "Sun", "time": "Closed"}], "id": "5275600000", "name": "USPS COLLECTION BOX - BLUE BOX", "address": {"city": "LONG GROVE", "state": "IA", "street": "123 S 1ST ST", "postcode": "52756"}}},
{"geometry": {"type": "Point", "coordinates": [-90.5828635007, 41.6966107929]}, "type": "Feature", "properties": {"collection_times": [{"days": "Mon-Fri", "time": "1:45pm"}, {"days": "Sat-Sun", "time": "Closed"}], "id": "5275600001", "name": "USPS COLLECTION BOX - PO LOBBY", "address": {"city": "LONG GROVE", "state": "IA", "street": "123 S 1ST ST", "postcode": "52756"}}},
{"geometry": {"type": "Point", "coordinates": [-90.5377354111, 41.8242102914]}, "type": "Feature", "properties": {"collection_times": [{"days": "Mon-Sat", "time": "4:30pm"}, {"days": "Sun", "time": "Closed"}], "id": "5275700000", "name": "USPS COLLECTION BOX - BLUE BOX", "address": {"city": "LOW MOOR", "state": "IA", "street": "207 3RD ST", "postcode": "52757"}}},
{"geometry": {"type": "Point", "coordinates": [-90.5377354111, 41.8242102914]}, "type": "Feature", "properties": {"collection_times": [{"days": "Mon-Fri", "time": "12:45pm"}, {"days": "Sat-Sun", "time": "Closed"}], "id": "5275700001", "name": "USPS COLLECTION BOX - PO LOBBY", "address": {"city": "LOW MOOR", "state": "IA", "street": "207 3RD ST", "postcode": "52757"}}},
{"geometry": {"type": "Point", "coordinates": [-90.4449047876, 41.7451701902]}, "type": "Feature", "properties": {"collection_times": [{"days": "Mon-Sat", "time": "4:00pm"}, {"days": "Sun", "time": "Closed"}], "id": "5275800000", "name": "USPS COLLECTION BOX - BLUE BOX", "address": {"city": "MCCAUSLAND", "state": "IA", "street": "304 N SALINA ST", "postcode": "52758"}}},
{"geometry": {"type": "Point", "coordinates": [-90.4449047876, 41.7451701902]}, "type": "Feature", "properties": {"collection_times": [{"days": "Mon-Fri", "time": "11:45am"}, {"days": "Sat", "time": "9:45am"}, {"days": "Sun", "time": "Closed"}], "id": "5275800002", "name": "USPS COLLECTION BOX - PO LOBBY", "address": {"city": "MCCAUSLAND", "state": "IA", "street": "304 N SALINA ST", "postcode": "52758"}}},
{"geometry": {"type": "Point", "coordinates": [-91.0725872001, 41.5740277584]}, "type": "Feature", "properties": {"collection_times": [{"days": "Mon-Sat", "time": "4:15pm"}, {"days": "Sun", "time": "Closed"}], "id": "5276000000", "name": "USPS COLLECTION BOX - BLUE BOX", "address": {"city": "MOSCOW", "state": "IA", "street": "2476 112TH ST", "postcode": "52760"}}},
{"geometry": {"type": "Point", "coordinates": [-91.0725872001, 41.5740277584]}, "type": "Feature", "properties": {"collection_times": [{"days": "Mon-Fri", "time": "10:45am"}, {"days": "Sat-Sun", "time": "Closed"}], "id": "5276000001", "name": "USPS COLLECTION BOX - PO LOBBY", "address": {"city": "MOSCOW", "state": "IA", "street": "2476 112TH ST", "postcode": "52760"}}},
{"geometry": {"type": "Point", "coordinates": [-91.0302364854, 41.4461529249]}, "type": "Feature", "properties": {"collection_times": [{"days": "Mon-Fri", "time": "4:00pm"}, {"days": "Sat", "time": "2:00pm"}, {"days": "Sun", "time": "Closed"}], "id": "5276100000", "name": "USPS COLLECTION BOX - BLUE BOX", "address": {"city": "MUSCATINE", "state": "IA", "street": "1903 PARK AVE", "postcode": "52761"}}},
{"geometry": {"type": "Point", "coordinates": [-91.0302364854, 41.4461529249]}, "type": "Feature", "properties": {"collection_times": [{"days": "Mon-Fri", "time": "4:00pm"}, {"days": "Sat", "time": "2:00pm"}, {"days": "Sun", "time": "Closed"}], "id": "5276100001", "name": "USPS COLLECTION BOX - BLUE BOX", "address": {"city": "MUSCATINE", "state": "IA", "street": "1903 PARK AVE", "postcode": "52761"}}},
{"geometry": {"type": "Point", "coordinates": [-91.0354787835, 41.4505120699]}, "type": "Feature", "properties": {"collection_times": [{"days": "Mon-Fri", "time": "4:45pm"}, {"days": "Sat", "time": "3:00pm"}, {"days": "Sun", "time": "Closed"}], "id": "5276100002", "name": "USPS COLLECTION BOX - BLUE BOX", "address": {"city": "MUSCATINE", "state": "IA", "street": "2400 2ND AVE", "postcode": "52761"}}},
{"geometry": {"type": "Point", "coordinates": [-91.0425855436, 41.4408733416]}, "type": "Feature", "properties": {"collection_times": [{"days": "Mon-Fri", "time": "4:00pm"}, {"days": "Sat", "time": "2:30pm"}, {"days": "Sun", "time": "Closed"}], "id": "5276100006", "name": "USPS COLLECTION BOX - BLUE BOX", "address": {"city": "MUSCATINE", "state": "IA", "street": "1514 ISETT AVE", "postcode": "52761"}}},
{"geometry": {"type": "Point", "coordinates": [-91.0638886975, 41.4087047591]}, "type": "Feature", "properties": {"collection_times": [{"days": "Mon-Sat", "time": "10:00am"}, {"days": "Sun", "time": "Closed"}], "id": "5276100013", "name": "USPS COLLECTION BOX - BLUE BOX", "address": {"city": "MUSCATINE", "state": "IA", "street": "807 GRANDVIEW AVE", "postcode": "52761"}}},
{"geometry": {"type": "Point", "coordinates": [-91.0524161864, 41.4338826855]}, "type": "Feature", "properties": {"collection_times": [{"days": "Mon-Fri", "time": "4:00pm"}, {"days": "Sat", "time": "2:00pm"}, {"days": "Sun", "time": "Closed"}], "id": "5276100018", "name": "USPS COLLECTION BOX - BLUE BOX", "address": {"city": "MUSCATINE", "state": "IA", "street": "1518 MULBERRY AVE", "postcode": "52761"}}},
{"geometry": {"type": "Point", "coordinates": [-91.0430688712, 41.4239316772]}, "type": "Feature", "properties": {"collection_times": [{"days": "Mon-Fri", "time": "4:45pm"}, {"days": "Sat-Sun", "time": "Closed"}], "id": "5276100023", "name": "USPS COLLECTION BOX - BLUE BOX", "address": {"city": "MUSCATINE", "state": "IA", "street": "414 E 3RD ST", "postcode": "52761"}}},
{"geometry": {"type": "Point", "coordinates": [-91.0446965897, 41.4220593401]}, "type": "Feature", "properties": {"collection_times": [{"days": "Mon-Fri", "time": "4:45pm"}, {"days": "Sat-Sun", "time": "Closed"}], "id": "5276100024", "name": "USPS COLLECTION BOX - BLUE BOX", "address": {"city": "MUSCATINE", "state": "IA", "street": "215 SYCAMORE ST", "postcode": "52761"}}},
{"geometry": {"type": "Point", "coordinates": [-91.0442862326, 41.4220159596]}, "type": "Feature", "properties": {"collection_times": [{"days": "Mon-Fri", "time": "4:45pm"}, {"days": "Sat", "time": "10:00am"}, {"days": "Sun", "time": "Closed"}], "id": "5276100030", "name": "USPS COLLECTION BOX - BLUE BOX", "address": {"city": "MUSCATINE", "state": "IA", "street": "226 E 2ND ST", "postcode": "52761"}}},
{"geometry": {"type": "Point", "coordinates": [-91.0443672966, 41.4233606649]}, "type": "Feature", "properties": {"collection_times": [{"days": "Mon-Fri", "time": "4:45pm"}, {"days": "Sat", "time": "10:00am"}, {"days": "Sun", "time": "Closed"}], "id": "5276100035", "name": "USPS COLLECTION BOX - BLUE BOX", "address": {"city": "MUSCATINE", "state": "IA", "street": "301 E 3RD ST", "postcode": "52761"}}},
{"geometry": {"type": "Point", "coordinates": [-91.0824363835, 41.4359795855]}, "type": "Feature", "properties": {"collection_times": [{"days": "Mon-Fri", "time": "5:15pm"}, {"days": "Sat", "time": "4:00pm"}, {"days": "Sun", "time": "Closed"}], "id": "5276100036", "name": "USPS COLLECTION BOX - BLUE BOX", "address": {"city": "MUSCATINE", "state": "IA", "street": "3100 CEDAR ST", "postcode": "52761"}}},
{"geometry": {"type": "Point", "coordinates": [-91.129034606, 41.3712264372]}, "type": "Feature", "properties": {"collection_times": [{"days": "Mon-Sat", "time": "10:00am"}, {"days": "Sun", "time": "Closed"}], "id": "5276100045", "name": "USPS COLLECTION BOX - BLUE BOX", "address": {"city": "MUSCATINE", "state": "IA", "street": "4804 S HIGHWAY 61", "postcode": "52761"}}},
{"geometry": {"type": "Point", "coordinates": [-91.0824363835, 41.4359795855]}, "type": "Feature", "properties": {"collection_times": [{"days": "Mon-Fri", "time": "5:00pm"}, {"days": "Sat", "time": "4:00pm"}, {"days": "Sun", "time": "Closed"}], "id": "5276100046", "name": "USPS COLLECTION BOX - PO LOBBY", "address": {"city": "MUSCATINE", "state": "IA", "street": "3100 CEDAR ST", "postcode": "52761"}}},
{"geometry": {"type": "Point", "coordinates": [-90.9283816029, 41.5064860726]}, "type": "Feature", "properties": {"collection_times": [{"days": "Mon-Sat", "time": "9:45am"}, {"days": "Sun", "time": "Closed"}], "id": "5276100049", "name": "USPS COLLECTION BOX - BLUE BOX", "address": {"city": "MUSCATINE", "state": "IA", "street": "3003 N HIGHWAY 61", "postcode": "52761"}}},
{"geometry": {"type": "Point", "coordinates": [-91.0430688712, 41.4239316772]}, "type": "Feature", "properties": {"collection_times": [{"days": "Mon-Fri", "time": "4:45pm"}, {"days": "Sat-Sun", "time": "Closed"}], "id": "5276100050", "name": "USPS COLLECTION BOX - BLUE BOX", "address": {"city": "MUSCATINE", "state": "IA", "street": "414 E 3RD ST", "postcode": "52761"}}},
{"geometry": {"type": "Point", "coordinates": [-91.0737613283, 41.3897783064]}, "type": "Feature", "properties": {"collection_times": [{"days": "Mon-Sat", "time": "9:30am"}, {"days": "Sun", "time": "Closed"}], "id": "5276100051", "name": "USPS COLLECTION BOX - BLUE BOX", "address": {"city": "MUSCATINE", "state": "IA", "street": "2418 STEWART RD", "postcode": "52761"}}},
{"geometry": {"type": "Point", "coordinates": [-91.0446965897, 41.4220593401]}, "type": "Feature", "properties": {"collection_times": [{"days": "Mon-Fri", "time": "4:45pm"}, {"days": "Sat-Sun", "time": "Closed"}], "id": "5276100053", "name": "USPS COLLECTION BOX - BLUE BOX", "address": {"city": "MUSCATINE", "state": "IA", "street": "215 SYCAMORE ST", "postcode": "52761"}}},
{"geometry": {"type": "Point", "coordinates": [-90.856453009, 41.7333724016]}, "type": "Feature", "properties": {"collection_times": [{"days": "Mon-Sat", "time": "3:45pm"}, {"days": "Sun", "time": "Closed"}], "id": "5276500000", "name": "USPS COLLECTION BOX - BLUE BOX", "address": {"city": "NEW LIBERTY", "state": "IA", "street": "542 HENDRICKS ST", "postcode": "52765"}}},
{"geometry": {"type": "Point", "coordinates": [-91.2948447493, 41.46937918]}, "type": "Feature", "properties": {"collection_times": [{"days": "Mon-Sat", "time": "4:00pm"}, {"days": "Sun", "time": "Closed"}], "id": "5276600000", "name": "USPS COLLECTION BOX - BLUE BOX", "address": {"city": "NICHOLS", "state": "IA", "street": "410 IJEM AVE", "postcode": "52766"}}},
{"geometry": {"type": "Point", "coordinates": [-91.2948447493, 41.46937918]}, "type": "Feature", "properties": {"collection_times": [{"days": "Mon-Fri", "time": "12:45pm"}, {"days": "Sat", "time": "10:00am"}, {"days": "Sun", "time": "Closed"}], "id": "5276600001", "name": "USPS COLLECTION BOX - PO LOBBY", "address": {"city": "NICHOLS", "state": "IA", "street": "410 IJEM AVE", "postcode": "52766"}}},
{"geometry": {"type": "Point", "coordinates": [-90.5100940387, 41.5264819504]}, "type": "Feature", "properties": {"collection_times": [{"days": "Mon-Sat", "time": "4:00pm"}, {"days": "Sun", "time": "Closed"}], "id": "5276700000", "name": "USPS COLLECTION BOX - BLUE BOX", "address": {"city": "PLEASANT VALLEY", "state": "IA", "street": "24641 VALLEY DR", "postcode": "52767"}}},
{"geometry": {"type": "Point", "coordinates": [-90.5100940387, 41.5264819504]}, "type": "Feature", "properties": {"collection_times": [{"days": "Mon-Fri", "time": "1:45pm"}, {"days": "Sat-Sun", "time": "Closed"}], "id": "5276700001", "name": "USPS COLLECTION BOX - PO LOBBY", "address": {"city": "PLEASANT VALLEY", "state": "IA", "street": "24641 VALLEY DR", "postcode": "52767"}}},
{"geometry": {"type": "Point", "coordinates": [-90.3410050889, 41.672203036]}, "type": "Feature", "properties": {"collection_times": [{"days": "Mon-Sat", "time": "4:15pm"}, {"days": "Sun", "time": "Closed"}], "id": "5276800000", "name": "USPS COLLECTION BOX - BLUE BOX", "address": {"city": "PRINCETON", "state": "IA", "street": "634 HIGHWAY 67", "postcode": "52768"}}},
{"geometry": {"type": "Point", "coordinates": [-90.3822716942, 41.708137839]}, "type": "Feature", "properties": {"collection_times": [{"days": "Mon-Fri", "time": "2:45pm"}, {"days": "Sat-Sun", "time": "Closed"}], "id": "5276800001", "name": "USPS COLLECTION BOX - PO LOBBY", "address": {"city": "PRINCETON", "state": "IA", "street": "634 HIGHWAY 67", "postcode": "52768"}}},
{"geometry": {"type": "Point", "coordinates": [-90.8562895838, 41.5910674698]}, "type": "Feature", "properties": {"collection_times": [{"days": "Mon-Sat", "time": "3:45pm"}, {"days": "Sun", "time": "Closed"}], "id": "5276900000", "name": "USPS COLLECTION BOX - BLUE BOX", "address": {"city": "STOCKTON", "state": "IA", "street": "318 COMMERCE ST", "postcode": "52769"}}},
{"geometry": {"type": "Point", "coordinates": [-90.8562895838, 41.5910674698]}, "type": "Feature", "properties": {"collection_times": [{"days": "Mon-Fri", "time": "11:15am"}, {"days": "Sat-Sun", "time": "Closed"}], "id": "5276900001", "name": "USPS COLLECTION BOX - PO LOBBY", "address": {"city": "STOCKTON", "state": "IA", "street": "318 COMMERCE ST", "postcode": "52769"}}},
{"geometry": {"type": "Point", "coordinates": [-91.1283454549, 41.7741077999]}, "type": "Feature", "properties": {"collection_times": [{"days": "Mon-Sat", "time": "2:30pm"}, {"days": "Sun", "time": "Closed"}], "id": "5277200000", "name": "USPS COLLECTION BOX - BLUE BOX", "address": {"city": "TIPTON", "state": "IA", "street": "100 E 9TH ST", "postcode": "52772"}}},
{"geometry": {"type": "Point", "coordinates": [-91.1283243119, 41.7677482758]}, "type": "Feature", "properties": {"collection_times": [{"days": "Mon-Sat", "time": "2:30pm"}, {"days": "Sun", "time": "Closed"}], "id": "5277200001", "name": "USPS COLLECTION BOX - BLUE BOX", "address": {"city": "TIPTON", "state": "IA", "street": "400 CEDAR ST", "postcode": "52772"}}},
{"geometry": {"type": "Point", "coordinates": [-91.1298825139, 41.770115921]}, "type": "Feature", "properties": {"collection_times": [{"days": "Mon-Sat", "time": "4:30pm"}, {"days": "Sun", "time": "Closed"}], "id": "5277200003", "name": "USPS COLLECTION BOX - BLUE BOX", "address": {"city": "TIPTON", "state": "IA", "street": "509 LYNN ST", "postcode": "52772"}}},
{"geometry": {"type": "Point", "coordinates": [-91.1297353299, 41.7701564694]}, "type": "Feature", "properties": {"collection_times": [{"days": "Mon-Sat", "time": "4:45pm"}, {"days": "Sun", "time": "Closed"}], "id": "5277200004", "name": "USPS COLLECTION BOX - PO LOBBY", "address": {"city": "TIPTON", "state": "IA", "street": "512 LYNN ST", "postcode": "52772"}}},
{"geometry": {"type": "Point", "coordinates": [-90.759113607, 41.6267396448]}, "type": "Feature", "properties": {"collection_times": [{"days": "Mon-Sat", "time": "4:15pm"}, {"days": "Sun", "time": "Closed"}], "id": "5277300000", "name": "USPS COLLECTION BOX - BLUE BOX", "address": {"city": "WALCOTT", "state": "IA", "street": "117 E BRYANT ST", "postcode": "52773"}}},
{"geometry": {"type": "Point", "coordinates": [-90.759113607, 41.6267396448]}, "type": "Feature", "properties": {"collection_times": [{"days": "Mon-Fri", "time": "4:15pm"}, {"days": "Sat-Sun", "time": "Closed"}], "id": "5277300001", "name": "USPS COLLECTION BOX - PO LOBBY", "address": {"city": "WALCOTT", "state": "IA", "street": "117 E BRYANT ST", "postcode": "52773"}}},
{"geometry": {"type": "Point", "coordinates": [-90.7822311722, 41.5944156626]}, "type": "Feature", "properties": {"collection_times": [{"days": "Mon-Sat", "time": "1:00pm"}, {"days": "Sun", "time": "Closed"}], "id": "5277300002", "name": "USPS COLLECTION BOX - BLUE BOX", "address": {"city": "WALCOTT", "state": "IA", "street": "781 W WALCOTT RD", "postcode": "52773"}}},
{"geometry": {"type": "Point", "coordinates": [-90.7771499041, 41.6218543816]}, "type": "Feature", "properties": {"collection_times": [{"days": "Mon-Sat", "time": "12:30pm"}, {"days": "Sun", "time": "Closed"}], "id": "5277300003", "name": "USPS COLLECTION BOX - BLUE BOX", "address": {"city": "WALCOTT", "state": "IA", "street": "515 STERLING DR", "postcode": "52773"}}},
{"geometry": {"type": "Point", "coordinates": [-90.759113607, 41.6267396448]}, "type": "Feature", "properties": {"collection_times": [{"days": "Mon-Sat", "time": "12:15pm"}, {"days": "Sun", "time": "Closed"}], "id": "5277300004", "name": "USPS COLLECTION BOX - BLUE BOX", "address": {"city": "WALCOTT", "state": "IA", "street": "3500 N PLAINVIEW RD", "postcode": "52773"}}},
{"geometry": {"type": "Point", "coordinates": [-90.5934840602, 41.9086108467]}, "type": "Feature", "properties": {"collection_times": [{"days": "Mon-Sat", "time": "4:30pm"}, {"days": "Sun", "time": "Closed"}], "id": "5277400000", "name": "USPS COLLECTION BOX - BLUE BOX", "address": {"city": "WELTON", "state": "IA", "street": "502 MAIN ST", "postcode": "52774"}}},
{"geometry": {"type": "Point", "coordinates": [-91.2804109944, 41.5659897193]}, "type": "Feature", "properties": {"collection_times": [{"days": "Mon-Sat", "time": "9:00am"}, {"days": "Sun", "time": "Closed"}], "id": "5277600000", "name": "USPS COLLECTION BOX - BLUE BOX", "address": {"city": "WEST LIBERTY", "state": "IA", "street": "402 W 15TH ST", "postcode": "52776"}}},
{"geometry": {"type": "Point", "coordinates": [-91.2634502411, 41.5711081945]}, "type": "Feature", "properties": {"collection_times": [{"days": "Mon-Sat", "time": "1:15pm"}, {"days": "Sun", "time": "Closed"}], "id": "5277600002", "name": "USPS COLLECTION BOX - BLUE BOX", "address": {"city": "WEST LIBERTY", "state": "IA", "street": "401 N CALHOUN ST", "postcode": "52776"}}},
{"geometry": {"type": "Point", "coordinates": [-91.2608686754, 41.5685836309]}, "type": "Feature", "properties": {"collection_times": [{"days": "Mon-Sat", "time": "4:00pm"}, {"days": "Sun", "time": "Closed"}], "id": "5277600004", "name": "USPS COLLECTION BOX - BLUE BOX", "address": {"city": "WEST LIBERTY", "state": "IA", "street": "203 N COLUMBUS ST", "postcode": "52776"}}},
{"geometry": {"type": "Point", "coordinates": [-91.2608686754, 41.5685836309]}, "type": "Feature", "properties": {"collection_times": [{"days": "Mon-Fri", "time": "4:00pm"}, {"days": "Sat", "time": "11:00am"}, {"days": "Sun", "time": "Closed"}], "id": "5277600006", "name": "USPS COLLECTION BOX - PO LOBBY", "address": {"city": "WEST LIBERTY", "state": "IA", "street": "203 N COLUMBUS ST", "postcode": "52776"}}},
{"geometry": {"type": "Point", "coordinates": [-90.8384331688, 41.8334469445]}, "type": "Feature", "properties": {"collection_times": [{"days": "Mon-Sat", "time": "4:00pm"}, {"days": "Sun", "time": "Closed"}], "id": "5277700000", "name": "USPS COLLECTION BOX - BLUE BOX", "address": {"city": "WHEATLAND", "state": "IA", "street": "104 S MAIN ST", "postcode": "52777"}}},
{"geometry": {"type": "Point", "coordinates": [-90.8384331688, 41.8334469445]}, "type": "Feature", "properties": {"collection_times": [{"days": "Mon-Fri", "time": "1:45pm"}, {"days": "Sat", "time": "8:00am"}, {"days": "Sun", "time": "Closed"}], "id": "5277700001", "name": "USPS COLLECTION BOX - PO LOBBY", "address": {"city": "WHEATLAND", "state": "IA", "street": "104 S MAIN ST", "postcode": "52777"}}},
{"geometry": {"type": "Point", "coordinates": [-91.015823539, 41.5886843424]}, "type": "Feature", "properties": {"collection_times": [{"days": "Mon-Sat", "time": "4:30pm"}, {"days": "Sun", "time": "Closed"}], "id": "5277800001", "name": "USPS COLLECTION BOX - BLUE BOX", "address": {"city": "WILTON", "state": "IA", "street": "118 E 4TH ST", "postcode": "52778"}}},
{"geometry": {"type": "Point", "coordinates": [-91.015823539, 41.5886843424]}, "type": "Feature", "properties": {"collection_times": [{"days": "Mon-Fri", "time": "4:30pm"}, {"days": "Sat", "time": "12:00pm"}, {"days": "Sun", "time": "Closed"}], "id": "5277800002", "name": "USPS COLLECTION BOX - PO LOBBY", "address": {"city": "WILTON", "state": "IA", "street": "118 E 4TH ST", "postcode": "52778"}}}
]}
