{"type": "FeatureCollection", "features": [
{"geometry": {"type": "Point", "coordinates": [-90.5772957626, 41.5234747858]}, "type": "Feature", "properties": {"collection_times": [{"days": "Mon-Fri", "time": "5:00pm"}, {"days": "Sat-Sun", "time": "Closed"}], "id": "5280100006", "name": "USPS COLLECTION BOX - BLUE BOX", "address": {"city": "DAVENPORT", "state": "IA", "street": "317 W 4TH ST", "postcode": "52801"}}},
{"geometry": {"type": "Point", "coordinates": [-90.575614147, 41.5215670306]}, "type": "Feature", "properties": {"collection_times": [{"days": "Mon-Fri", "time": "5:00pm"}, {"days": "Sat-Sun", "time": "Closed"}], "id": "5280100008", "name": "USPS COLLECTION BOX - BLUE BOX", "address": {"city": "DAVENPORT", "state": "IA", "street": "220 N MAIN ST", "postcode": "52801"}}},
{"geometry": {"type": "Point", "coordinates": [-90.5774761231, 41.5223658468]}, "type": "Feature", "properties": {"collection_times": [{"days": "Mon-Fri", "time": "5:00pm"}, {"days": "Sat-Sun", "time": "Closed"}], "id": "5280100018", "name": "USPS COLLECTION BOX - BLUE BOX", "address": {"city": "DAVENPORT", "state": "IA", "street": "331 W 3RD ST", "postcode": "52801"}}},
{"geometry": {"type": "Point", "coordinates": [-90.575933636, 41.5212753949]}, "type": "Feature", "properties": {"collection_times": [{"days": "Mon-Fri", "time": "5:00pm"}, {"days": "Sat-Sun", "time": "Closed"}], "id": "5280100020", "name": "USPS COLLECTION BOX - BLUE BOX", "address": {"city": "DAVENPORT", "state": "IA", "street": "225 W 2ND ST", "postcode": "52801"}}},
{"geometry": {"type": "Point", "coordinates": [-90.5741584203, 41.520664558]}, "type": "Feature", "properties": {"collection_times": [{"days": "Mon-Fri", "time": "4:30pm"}, {"days": "Sat-Sun", "time": "Closed"}], "id": "5280100023", "name": "USPS COLLECTION BOX - BLUE BOX", "address": {"city": "DAVENPORT", "state": "IA", "street": "130 BRADY ST", "postcode": "52801"}}},
{"geometry": {"type": "Point", "coordinates": [-90.6202232192, 41.5107295265]}, "type": "Feature", "properties": {"collection_times": [{"days": "Mon-Sat", "time": "2:00pm"}, {"days": "Sun", "time": "Closed"}], "id": "5280200004", "name": "USPS COLLECTION BOX - BLUE BOX", "address": {"city": "DAVENPORT", "state": "IA", "street": "3019 ROCKINGHAM RD", "postcode": "52802"}}},
{"geometry": {"type": "Point", "coordinates": [-90.5864680935, 41.5212393676]}, "type": "Feature", "properties": {"collection_times": [{"days": "Mon-Sat", "time": "5:30pm"}, {"days": "Sun", "time": "Closed"}], "id": "5280200011", "name": "USPS COLLECTION BOX - BLUE BOX", "address": {"city": "DAVENPORT", "state": "IA", "street": "933 W 2ND ST", "postcode": "52802"}}},
{"geometry": {"type": "Point", "coordinates": [-90.5864680935, 41.5212393676]}, "type": "Feature", "properties": {"collection_times": [{"days": "Mon-Sat", "time": "5:30pm"}, {"days": "Sun", "time": "Closed"}], "id": "5280200017", "name": "USPS COLLECTION BOX - PO LOBBY", "address": {"city": "DAVENPORT", "state": "IA", "street": "933 W 2ND ST", "postcode": "52802"}}},
{"geometry": {"type": "Point", "coordinates": [-90.5864680935, 41.5212393676]}, "type": "Feature", "properties": {"collection_times": [{"days": "Mon-Sat", "time": "5:30pm"}, {"days": "Sun", "time": "Closed"}], "id": "5280200019", "name": "USPS COLLECTION BOX - BLUE BOX", "address": {"city": "DAVENPORT", "state": "IA", "street": "933 W 2ND ST", "postcode": "52802"}}},
{"geometry": {"type": "Point", "coordinates": [-90.5864680935, 41.5212393676]}, "type": "Feature", "properties": {"collection_times": [{"days": "Mon-Sat", "time": "5:30pm"}, {"days": "Sun", "time": "Closed"}], "id": "5280200020", "name": "USPS COLLECTION BOX - BLUE BOX", "address": {"city": "DAVENPORT", "state": "IA", "street": "933 W 2ND ST", "postcode": "52802"}}},
{"geometry": {"type": "Point", "coordinates": [-90.5633794971, 41.5248060961]}, "type": "Feature", "properties": {"collection_times": [{"days": "Mon-Sat", "time": "3:30pm"}, {"days": "Sun", "time": "Closed"}], "id": "5280300000", "name": "USPS COLLECTION BOX - BLUE BOX", "address": {"city": "DAVENPORT", "state": "IA", "street": "736 FEDERAL ST", "postcode": "52803"}}},
{"geometry": {"type": "Point", "coordinates": [-90.5464200503, 41.5302605131]}, "type": "Feature", "properties": {"collection_times": [{"days": "Mon-Sat", "time": "2:30pm"}, {"days": "Sun", "time": "Closed"}], "id": "5280300002", "name": "USPS COLLECTION BOX - BLUE BOX", "address": {"city": "DAVENPORT", "state": "IA", "street": "1019 MOUND ST", "postcode": "52803"}}},
{"geometry": {"type": "Point", "coordinates": [-90.5574856854, 41.5429004187]}, "type": "Feature", "properties": {"collection_times": [{"days": "Mon-Fri", "time": "5:00pm"}, {"days": "Sat-Sun", "time": "Closed"}], "id": "5280300006", "name": "USPS COLLECTION BOX - BLUE BOX", "address": {"city": "DAVENPORT", "state": "IA", "street": "1228 E RUSHOLME ST", "postcode": "52803"}}},
{"geometry": {"type": "Point", "coordinates": [-90.5615083019, 41.5378130677]}, "type": "Feature", "properties": {"collection_times": [{"days": "Mon-Fri", "time": "4:30pm"}, {"days": "Sat-Sun", "time": "Closed"}], "id": "5280300009", "name": "USPS COLLECTION BOX - BLUE BOX", "address": {"city": "DAVENPORT", "state": "IA", "street": "125 KIRKWOOD BLVD", "postcode": "52803"}}},
{"geometry": {"type": "Point", "coordinates": [-90.5515397139, 41.5474189018]}, "type": "Feature", "properties": {"collection_times": [{"days": "Mon-Fri", "time": "4:30pm"}, {"days": "Sat-Sun", "time": "Closed"}], "id": "5280300014", "name": "USPS COLLECTION BOX - BLUE BOX", "address": {"city": "DAVENPORT", "state": "IA", "street": "2804 EASTERN AVE", "postcode": "52803"}}},
{"geometry": {"type": "Point", "coordinates": [-90.5646172799, 41.5490430924]}, "type": "Feature", "properties": {"collection_times": [{"days": "Mon-Sat", "time": "10:00am"}, {"days": "Sun", "time": "Closed"}], "id": "5280300016", "name": "USPS COLLECTION BOX - BLUE BOX", "address": {"city": "DAVENPORT", "state": "IA", "street": "2830 GRAND AVE", "postcode": "52803"}}},
{"geometry": {"type": "Point", "coordinates": [-90.5428912851, 41.5426336664]}, "type": "Feature", "properties": {"collection_times": [{"days": "Mon-Sat", "time": "2:00pm"}, {"days": "Sun", "time": "Closed"}], "id": "5280300018", "name": "USPS COLLECTION BOX - BLUE BOX", "address": {"city": "DAVENPORT", "state": "IA", "street": "2356 E LOMBARD ST", "postcode": "52803"}}},
{"geometry": {"type": "Point", "coordinates": [-90.5739738416, 41.5257644575]}, "type": "Feature", "properties": {"collection_times": [{"days": "Mon-Fri", "time": "4:30pm"}, {"days": "Sat-Sun", "time": "Closed"}], "id": "5280300019", "name": "USPS COLLECTION BOX - BLUE BOX", "address": {"city": "DAVENPORT", "state": "IA", "street": "601 BRADY ST", "postcode": "52803"}}},
{"geometry": {"type": "Point", "coordinates": [-90.5741247694, 41.5362102812]}, "type": "Feature", "properties": {"collection_times": [{"days": "Mon-Fri", "time": "4:30pm"}, {"days": "Sat-Sun", "time": "Closed"}], "id": "5280300022", "name": "USPS COLLECTION BOX - BLUE BOX", "address": {"city": "DAVENPORT", "state": "IA", "street": "1606 BRADY ST", "postcode": "52803"}}},
{"geometry": {"type": "Point", "coordinates": [-90.5741247694, 41.5362102812]}, "type": "Feature", "properties": {"collection_times": [{"days": "Mon-Fri", "time": "4:30pm"}, {"days": "Sat-Sun", "time": "Closed"}], "id": "5280300024", "name": "USPS COLLECTION BOX - BLUE BOX", "address": {"city": "DAVENPORT", "state": "IA", "street": "1606 BRADY ST", "postcode": "52803"}}},
{"geometry": {"type": "Point", "coordinates": [-90.5709232504, 41.5488966775]}, "type": "Feature", "properties": {"collection_times": [{"days": "Mon-Fri", "time": "4:30pm"}, {"days": "Sat-Sun", "time": "Closed"}], "id": "5280300026", "name": "USPS COLLECTION BOX - BLUE BOX", "address": {"city": "DAVENPORT", "state": "IA", "street": "2829 BRADY ST", "postcode": "52803"}}},
{"geometry": {"type": "Point", "coordinates": [-90.5574856854, 41.5429004187]}, "type": "Feature", "properties": {"collection_times": [{"days": "Mon-Fri", "time": "5:00pm"}, {"days": "Sat-Sun", "time": "Closed"}], "id": "5280300037", "name": "USPS COLLECTION BOX - BLUE BOX", "address": {"city": "DAVENPORT", "state": "IA", "street": "1228 E RUSHOLME ST", "postcode": "52803"}}},
{"geometry": {"type": "Point", "coordinates": [-90.5924824963, 41.5454506024]}, "type": "Feature", "properties": {"collection_times": [{"days": "Mon-Fri", "time": "4:30pm"}, {"days": "Sat-Sun", "time": "Closed"}], "id": "5280400001", "name": "USPS COLLECTION BOX - BLUE BOX", "address": {"city": "DAVENPORT", "state": "IA", "street": "1351 W CENTRAL PARK AVE", "postcode": "52804"}}},
{"geometry": {"type": "Point", "coordinates": [-90.6325141562, 41.5380709114]}, "type": "Feature", "properties": {"collection_times": [{"days": "Mon-Fri", "time": "4:00pm"}, {"days": "Sat-Sun", "time": "Closed"}], "id": "5280400002", "name": "USPS COLLECTION BOX - BLUE BOX", "address": {"city": "DAVENPORT", "state": "IA", "street": "3911 W LOCUST ST", "postcode": "52804"}}},
{"geometry": {"type": "Point", "coordinates": [-90.6215103875, 41.5190391567]}, "type": "Feature", "properties": {"collection_times": [{"days": "Mon-Sat", "time": "11:45am"}, {"days": "Sun", "time": "Closed"}], "id": "5280400009", "name": "USPS COLLECTION BOX - BLUE BOX", "address": {"city": "DAVENPORT", "state": "IA", "street": "2805 TELEGRAPH RD", "postcode": "52804"}}},
{"geometry": {"type": "Point", "coordinates": [-90.6173298293, 41.5382329751]}, "type": "Feature", "properties": {"collection_times": [{"days": "Mon-Fri", "time": "4:30pm"}, {"days": "Sat-Sun", "time": "Closed"}], "id": "5280400015", "name": "USPS COLLECTION BOX - BLUE BOX", "address": {"city": "DAVENPORT", "state": "IA", "street": "2720 W LOCUST ST", "postcode": "52804"}}},
{"geometry": {"type": "Point", "coordinates": [-90.6173298293, 41.5382329751]}, "type": "Feature", "properties": {"collection_times": [{"days": "Mon-Fri", "time": "4:30pm"}, {"days": "Sat-Sun", "time": "Closed"}], "id": "5280400021", "name": "USPS COLLECTION BOX - BLUE BOX", "address": {"city": "DAVENPORT", "state": "IA", "street": "2720 W LOCUST ST", "postcode": "52804"}}},
{"geometry": {"type": "Point", "coordinates": [-90.6325141562, 41.5380709114]}, "type": "Feature", "properties": {"collection_times": [{"days": "Mon-Fri", "time": "4:00pm"}, {"days": "Sat-Sun", "time": "Closed"}], "id": "5280400022", "name": "USPS COLLECTION BOX - BLUE BOX", "address": {"city": "DAVENPORT", "state": "IA", "street": "3911 W LOCUST ST", "postcode": "52804"}}},
{"geometry": {"type": "Point", "coordinates": [-90.6265304558, 41.5418195871]}, "type": "Feature", "properties": {"collection_times": [{"days": "Mon-Sat", "time": "11:00am"}, {"days": "Sun", "time": "Closed"}], "id": "5280400024", "name": "USPS COLLECTION BOX - BLUE BOX", "address": {"city": "DAVENPORT", "state": "IA", "street": "3422 W LOMBARD ST", "postcode": "52804"}}},
{"geometry": {"type": "Point", "coordinates": [-90.5955659112, 41.5383162295]}, "type": "Feature", "properties": {"collection_times": [{"days": "Mon-Fri", "time": "4:30pm"}, {"days": "Sat-Sun", "time": "Closed"}], "id": "5280400026", "name": "USPS COLLECTION BOX - BLUE BOX", "address": {"city": "DAVENPORT", "state": "IA", "street": "1454 W LOCUST ST", "postcode": "52804"}}},
{"geometry": {"type": "Point", "coordinates": [-90.6003781016, 41.538308918]}, "type": "Feature", "properties": {"collection_times": [{"days": "Mon-Sat", "time": "10:00am"}, {"days": "Sun", "time": "Closed"}], "id": "5280400027", "name": "USPS COLLECTION BOX - BLUE BOX", "address": {"city": "DAVENPORT", "state": "IA", "street": "1660 W LOCUST ST", "postcode": "52804"}}},
{"geometry": {"type": "Point", "coordinates": [-90.5910744558, 41.5620223453]}, "type": "Feature", "properties": {"collection_times": [{"days": "Mon-Sat", "time": "5:00pm"}, {"days": "Sun", "time": "Closed"}], "id": "5280600007", "name": "USPS COLLECTION BOX - BLUE BOX", "address": {"city": "DAVENPORT", "state": "IA", "street": "4018 MARQUETTE ST", "postcode": "52806"}}},
{"geometry": {"type": "Point", "coordinates": [-90.5809846962, 41.5630482121]}, "type": "Feature", "properties": {"collection_times": [{"days": "Mon-Sat", "time": "11:30am"}, {"days": "Sun", "time": "Closed"}], "id": "5280600010", "name": "USPS COLLECTION BOX - BLUE BOX", "address": {"city": "DAVENPORT", "state": "IA", "street": "4130 NORTHWEST BLVD", "postcode": "52806"}}},
{"geometry": {"type": "Point", "coordinates": [-90.6098037472, 41.5895949058]}, "type": "Feature", "properties": {"collection_times": [{"days": "Mon-Sat", "time": "9:30am"}, {"days": "Sun", "time": "Closed"}], "id": "5280600011", "name": "USPS COLLECTION BOX - BLUE BOX", "address": {"city": "DAVENPORT", "state": "IA", "street": "6723 NORTHWEST BLVD", "postcode": "52806"}}},
{"geometry": {"type": "Point", "coordinates": [-90.5770835692, 41.5602634008]}, "type": "Feature", "properties": {"collection_times": [{"days": "Mon-Fri", "time": "4:15pm"}, {"days": "Sat-Sun", "time": "Closed"}], "id": "5280600017", "name": "USPS COLLECTION BOX - BLUE BOX", "address": {"city": "DAVENPORT", "state": "IA", "street": "320 W KIMBERLY RD", "postcode": "52806"}}},
{"geometry": {"type": "Point", "coordinates": [-90.5724903915, 41.5604054865]}, "type": "Feature", "properties": {"collection_times": [{"days": "Mon-Fri", "time": "4:15pm"}, {"days": "Sat-Sun", "time": "Closed"}], "id": "5280600027", "name": "USPS COLLECTION BOX - BLUE BOX", "address": {"city": "DAVENPORT", "state": "IA", "street": "100 E KIMBERLY RD", "postcode": "52806"}}},
{"geometry": {"type": "Point", "coordinates": [-90.5682071899, 41.5690866727]}, "type": "Feature", "properties": {"collection_times": [{"days": "Mon-Fri", "time": "4:30pm"}, {"days": "Sat-Sun", "time": "Closed"}], "id": "5280600029", "name": "USPS COLLECTION BOX - BLUE BOX", "address": {"city": "DAVENPORT", "state": "IA", "street": "4711 N BRADY ST", "postcode": "52806"}}},
{"geometry": {"type": "Point", "coordinates": [-90.600982503, 41.5601280921]}, "type": "Feature", "properties": {"collection_times": [{"days": "Mon-Sat", "time": "9:00am"}, {"days": "Sun", "time": "Closed"}], "id": "5280600032", "name": "USPS COLLECTION BOX - BLUE BOX", "address": {"city": "DAVENPORT", "state": "IA", "street": "1720 W KIMBERLY RD", "postcode": "52806"}}},
{"geometry": {"type": "Point", "coordinates": [-90.5679603947, 41.5673809353]}, "type": "Feature", "properties": {"collection_times": [{"days": "Mon-Fri", "time": "4:30pm"}, {"days": "Sat-Sun", "time": "Closed"}], "id": "5280600034", "name": "USPS COLLECTION BOX - BLUE BOX", "address": {"city": "DAVENPORT", "state": "IA", "street": "4540 N BRADY ST", "postcode": "52806"}}},
{"geometry": {"type": "Point", "coordinates": [-90.5815154106, 41.5959980757]}, "type": "Feature", "properties": {"collection_times": [{"days": "Mon-Fri", "time": "4:30pm"}, {"days": "Sat-Sun", "time": "Closed"}], "id": "5280600035", "name": "USPS COLLECTION BOX - BLUE BOX", "address": {"city": "DAVENPORT", "state": "IA", "street": "7575 GAINES STREET CT", "postcode": "52806"}}},
{"geometry": {"type": "Point", "coordinates": [-90.6292604698, 41.5570102121]}, "type": "Feature", "properties": {"collection_times": [{"days": "Mon-Sat", "time": "10:00am"}, {"days": "Sun", "time": "Closed"}], "id": "5280600036", "name": "USPS COLLECTION BOX - BLUE BOX", "address": {"city": "DAVENPORT", "state": "IA", "street": "3622 HICKORY GROVE RD", "postcode": "52806"}}},
{"geometry": {"type": "Point", "coordinates": [-90.5682071899, 41.5690866727]}, "type": "Feature", "properties": {"collection_times": [{"days": "Mon-Fri", "time": "4:30pm"}, {"days": "Sat-Sun", "time": "Closed"}], "id": "5280600037", "name": "USPS COLLECTION BOX - BLUE BOX", "address": {"city": "DAVENPORT", "state": "IA", "street": "4711 N BRADY ST", "postcode": "52806"}}},
{"geometry": {"type": "Point", "coordinates": [-90.5910744558, 41.5620223453]}, "type": "Feature", "properties": {"collection_times": [{"days": "Mon-Sat", "time": "5:00pm"}, {"days": "Sun", "time": "Closed"}], "id": "5280600038", "name": "USPS COLLECTION BOX - PO LOBBY", "address": {"city": "DAVENPORT", "state": "IA", "street": "4018 MARQUETTE ST", "postcode": "52806"}}},
{"geometry": {"type": "Point", "coordinates": [-90.6238609574, 41.6031383789]}, "type": "Feature", "properties": {"collection_times": [{"days": "Mon-Sat", "time": "10:00am"}, {"days": "Sun", "time": "Closed"}], "id": "5280600039", "name": "USPS COLLECTION BOX - BLUE BOX", "address": {"city": "DAVENPORT", "state": "IA", "street": "8200 NORTHWEST BLVD", "postcode": "52806"}}},
{"geometry": {"type": "Point", "coordinates": [-90.5910744558, 41.5620223453]}, "type": "Feature", "properties": {"collection_times": [{"days": "Mon-Sat", "time": "5:00pm"}, {"days": "Sun", "time": "Closed"}], "id": "5280600041", "name": "USPS COLLECTION BOX - BLUE BOX", "address": {"city": "DAVENPORT", "state": "IA", "street": "4018 MARQUETTE ST", "postcode": "52806"}}},
{"geometry": {"type": "Point", "coordinates": [-90.5679603947, 41.5673809353]}, "type": "Feature", "properties": {"collection_times": [{"days": "Mon-Fri", "time": "4:30pm"}, {"days": "Sat-Sun", "time": "Closed"}], "id": "5280600044", "name": "USPS COLLECTION BOX - BLUE BOX", "address": {"city": "DAVENPORT", "state": "IA", "street": "4540 N BRADY ST", "postcode": "52806"}}},
{"geometry": {"type": "Point", "coordinates": [-90.5910744558, 41.5620223453]}, "type": "Feature", "properties": {"collection_times": [{"days": "Mon-Sat", "time": "5:00pm"}, {"days": "Sun", "time": "Closed"}], "id": "5280600045", "name": "USPS COLLECTION BOX - APC", "address": {"city": "DAVENPORT", "state": "IA", "street": "4018 MARQUETTE ST", "postcode": "52806"}}},
{"geometry": {"type": "Point", "coordinates": [-90.629999769, 41.5937703286]}, "type": "Feature", "properties": {"collection_times": [{"days": "Mon-Sat", "time": "5:00pm"}, {"days": "Sun", "time": "Closed"}], "id": "5280600046", "name": "USPS COLLECTION BOX - BLUE BOX", "address": {"city": "DAVENPORT", "state": "IA", "street": "4018 MARQUETTE ST", "postcode": "52806"}}},
{"geometry": {"type": "Point", "coordinates": [-90.5688380674, 41.5559542499]}, "type": "Feature", "properties": {"collection_times": [{"days": "Mon-Sat", "time": "10:30am"}, {"days": "Sun", "time": "Closed"}], "id": "5280600047", "name": "USPS COLLECTION BOX - BLUE BOX", "address": {"city": "DAVENPORT", "state": "IA", "street": "3562 N BRADY ST", "postcode": "52806"}}},
{"geometry": {"type": "Point", "coordinates": [-90.5698816124, 41.6114973548]}, "type": "Feature", "properties": {"collection_times": [{"days": "Mon-Sat", "time": "9:00am"}, {"days": "Sun", "time": "Closed"}], "id": "5280600049", "name": "USPS COLLECTION BOX - BLUE BOX", "address": {"city": "DAVENPORT", "state": "IA", "street": "21037 HOLDEN DR", "postcode": "52806"}}},
{"geometry": {"type": "Point", "coordinates": [-90.5116270077, 41.5751486225]}, "type": "Feature", "properties": {"collection_times": [{"days": "Mon-Fri", "time": "4:45pm"}, {"days": "Sat-Sun", "time": "Closed"}], "id": "5280700000", "name": "USPS COLLECTION BOX - BLUE BOX", "address": {"city": "DAVENPORT", "state": "IA", "street": "5306 VICTORIA AVE", "postcode": "52807"}}},
{"geometry": {"type": "Point", "coordinates": [-90.5501201182, 41.5619348168]}, "type": "Feature", "properties": {"collection_times": [{"days": "Mon-Sat", "time": "1:00pm"}, {"days": "Sun", "time": "Closed"}], "id": "5280700002", "name": "USPS COLLECTION BOX - BLUE BOX", "address": {"city": "DAVENPORT", "state": "IA", "street": "1825 WINDING HILL RD", "postcode": "52807"}}},
{"geometry": {"type": "Point", "coordinates": [-90.5476781671, 41.5580281802]}, "type": "Feature", "properties": {"collection_times": [{"days": "Mon-Fri", "time": "4:45pm"}, {"days": "Sat-Sun", "time": "Closed"}], "id": "5280700004", "name": "USPS COLLECTION BOX - BLUE BOX", "address": {"city": "DAVENPORT", "state": "IA", "street": "3715 SPRING ST", "postcode": "52807"}}},
{"geometry": {"type": "Point", "coordinates": [-90.5258427556, 41.5527988168]}, "type": "Feature", "properties": {"collection_times": [{"days": "Mon-Sat", "time": "12:45pm"}, {"days": "Sun", "time": "Closed"}], "id": "5280700008", "name": "USPS COLLECTION BOX - BLUE BOX", "address": {"city": "DAVENPORT", "state": "IA", "street": "3300 E KIMBERLY RD", "postcode": "52807"}}},
{"geometry": {"type": "Point", "coordinates": [-90.5416460245, 41.554907833]}, "type": "Feature", "properties": {"collection_times": [{"days": "Mon-Sat", "time": "1:00pm"}, {"days": "Sun", "time": "Closed"}], "id": "5280700009", "name": "USPS COLLECTION BOX - BLUE BOX", "address": {"city": "DAVENPORT", "state": "IA", "street": "3403 JERSEY RIDGE RD", "postcode": "52807"}}},
{"geometry": {"type": "Point", "coordinates": [-90.5415519384, 41.5729101529]}, "type": "Feature", "properties": {"collection_times": [{"days": "Mon-Sat", "time": "2:15pm"}, {"days": "Sun", "time": "Closed"}], "id": "5280700010", "name": "USPS COLLECTION BOX - BLUE BOX", "address": {"city": "DAVENPORT", "state": "IA", "street": "2400 E 51ST ST", "postcode": "52807"}}},
{"geometry": {"type": "Point", "coordinates": [-90.5620984656, 41.5577679124]}, "type": "Feature", "properties": {"collection_times": [{"days": "Mon-Fri", "time": "4:30pm"}, {"days": "Sat-Sun", "time": "Closed"}], "id": "5280700012", "name": "USPS COLLECTION BOX - BLUE BOX", "address": {"city": "DAVENPORT", "state": "IA", "street": "903 E KIMBERLY RD", "postcode": "52807"}}},
{"geometry": {"type": "Point", "coordinates": [-90.5536117295, 41.556726324]}, "type": "Feature", "properties": {"collection_times": [{"days": "Mon-Fri", "time": "4:30pm"}, {"days": "Sat-Sun", "time": "Closed"}], "id": "5280700013", "name": "USPS COLLECTION BOX - BLUE BOX", "address": {"city": "DAVENPORT", "state": "IA", "street": "1525 E KIMBERLY RD", "postcode": "52807"}}},
{"geometry": {"type": "Point", "coordinates": [-90.5116270077, 41.5751486225]}, "type": "Feature", "properties": {"collection_times": [{"days": "Mon-Fri", "time": "4:45pm"}, {"days": "Sat-Sun", "time": "Closed"}], "id": "5280700016", "name": "USPS COLLECTION BOX - BLUE BOX", "address": {"city": "DAVENPORT", "state": "IA", "street": "5306 VICTORIA AVE", "postcode": "52807"}}},
{"geometry": {"type": "Point", "coordinates": [-90.5272844522, 41.5598149302]}, "type": "Feature", "properties": {"collection_times": [{"days": "Mon-Fri", "time": "4:45pm"}, {"days": "Sat-Sun", "time": "Closed"}], "id": "5280700017", "name": "USPS COLLECTION BOX - BLUE BOX", "address": {"city": "DAVENPORT", "state": "IA", "street": "3860 ELMORE AVE", "postcode": "52807"}}},
{"geometry": {"type": "Point", "coordinates": [-90.5660489108, 41.5799164653]}, "type": "Feature", "properties": {"collection_times": [{"days": "Mon-Fri", "time": "4:30pm"}, {"days": "Sat-Sun", "time": "Closed"}], "id": "5280700020", "name": "USPS COLLECTION BOX - BLUE BOX", "address": {"city": "DAVENPORT", "state": "IA", "street": "611 E 59TH ST", "postcode": "52807"}}},
{"geometry": {"type": "Point", "coordinates": [-90.5608810195, 41.5713805002]}, "type": "Feature", "properties": {"collection_times": [{"days": "Mon-Fri", "time": "4:45pm"}, {"days": "Sat-Sun", "time": "Closed"}], "id": "5280700022", "name": "USPS COLLECTION BOX - BLUE BOX", "address": {"city": "DAVENPORT", "state": "IA", "street": "5008 TREMONT AVE", "postcode": "52807"}}},
{"geometry": {"type": "Point", "coordinates": [-90.5608810195, 41.5713805002]}, "type": "Feature", "properties": {"collection_times": [{"days": "Mon-Fri", "time": "4:45pm"}, {"days": "Sat-Sun", "time": "Closed"}], "id": "5280700023", "name": "USPS COLLECTION BOX - BLUE BOX", "address": {"city": "DAVENPORT", "state": "IA", "street": "5008 TREMONT AVE", "postcode": "52807"}}},
{"geometry": {"type": "Point", "coordinates": [-90.5608810195, 41.5713805002]}, "type": "Feature", "properties": {"collection_times": [{"days": "Mon-Fri", "time": "4:45pm"}, {"days": "Sat-Sun", "time": "Closed"}], "id": "5280700024", "name": "USPS COLLECTION BOX - BLUE BOX", "address": {"city": "DAVENPORT", "state": "IA", "street": "5008 TREMONT AVE", "postcode": "52807"}}},
{"geometry": {"type": "Point", "coordinates": [-90.5488765983, 41.55703767]}, "type": "Feature", "properties": {"collection_times": [{"days": "Mon-Fri", "time": "4:45pm"}, {"days": "Sat-Sun", "time": "Closed"}], "id": "5280700025", "name": "USPS COLLECTION BOX - BLUE BOX", "address": {"city": "DAVENPORT", "state": "IA", "street": "1910 E KIMBERLY RD", "postcode": "52807"}}},
{"geometry": {"type": "Point", "coordinates": [-90.527217674, 41.5582611011]}, "type": "Feature", "properties": {"collection_times": [{"days": "Mon-Fri", "time": "4:45pm"}, {"days": "Sat-Sun", "time": "Closed"}], "id": "5280700026", "name": "USPS COLLECTION BOX - BLUE BOX", "address": {"city": "DAVENPORT", "state": "IA", "street": "3860 ELMORE AVE", "postcode": "52807"}}},
{"geometry": {"type": "Point", "coordinates": [-90.5500208211, 41.5766147389]}, "type": "Feature", "properties": {"collection_times": [{"days": "Mon-Fri", "time": "4:45pm"}, {"days": "Sat-Sun", "time": "Closed"}], "id": "5280700030", "name": "USPS COLLECTION BOX - BLUE BOX", "address": {"city": "DAVENPORT", "state": "IA", "street": "1842 E 54TH ST", "postcode": "52807"}}},
{"geometry": {"type": "Point", "coordinates": [-90.517257524, 41.575090141]}, "type": "Feature", "properties": {"collection_times": [{"days": "Mon-Sat", "time": "12:00pm"}, {"days": "Sun", "time": "Closed"}], "id": "5280700033", "name": "USPS COLLECTION BOX - BLUE BOX", "address": {"city": "DAVENPORT", "state": "IA", "street": "5310 CORPORATE PARK DR", "postcode": "52807"}}},
{"geometry": {"type": "Point", "coordinates": [-90.5156013784, 41.5747798577]}, "type": "Feature", "properties": {"collection_times": [{"days": "Mon-Sat", "time": "10:30am"}, {"days": "Sun", "time": "Closed"}], "id": "5280700034", "name": "USPS COLLECTION BOX - BLUE BOX", "address": {"city": "DAVENPORT", "state": "IA", "street": "4011 E 53RD ST", "postcode": "52807"}}},
{"geometry": {"type": "Point", "coordinates": [-90.5373370363, 41.571352211]}, "type": "Feature", "properties": {"collection_times": [{"days": "Mon-Fri", "time": "4:45pm"}, {"days": "Sat-Sun", "time": "Closed"}], "id": "5280700036", "name": "USPS COLLECTION BOX - BLUE BOX", "address": {"city": "DAVENPORT", "state": "IA", "street": "1842 E 54TH ST", "postcode": "52807"}}}
]}
