{"type": "FeatureCollection", "features": [
{"geometry": {"type": "Point", "coordinates": [-87.0667244993, 36.5828780272]}, "type": "Feature", "properties": {"collection_times": [{"days": "Mon-Fri", "time": "3:30pm"}, {"days": "Sat", "time": "11:00am"}, {"days": "Sun", "time": "Closed"}], "id": "3701000001", "name": "USPS COLLECTION BOX - PO LOBBY", "address": {"city": "ADAMS", "state": "TN", "street": "104 S CHURCH ST", "postcode": "37010"}}},
{"geometry": {"type": "Point", "coordinates": [-87.0667244993, 36.5828780272]}, "type": "Feature", "properties": {"collection_times": [{"days": "Mon-Fri", "time": "3:30pm"}, {"days": "Sat", "time": "11:00am"}, {"days": "Sun", "time": "Closed"}], "id": "3701000002", "name": "USPS COLLECTION BOX - BLUE BOX", "address": {"city": "ADAMS", "state": "TN", "street": "104 S CHURCH ST", "postcode": "37010"}}},
{"geometry": {"type": "Point", "coordinates": [-86.0331767218, 36.0781646676]}, "type": "Feature", "properties": {"collection_times": [{"days": "Mon-Fri", "time": "4:00pm"}, {"days": "Sat", "time": "11:30am"}, {"days": "Sun", "time": "Closed"}], "id": "3701200001", "name": "USPS COLLECTION BOX - BLUE BOX", "address": {"city": "ALEXANDRIA", "state": "TN", "street": "100 HIGH ST", "postcode": "37012"}}},
{"geometry": {"type": "Point", "coordinates": [-86.0331767218, 36.0781646676]}, "type": "Feature", "properties": {"collection_times": [{"days": "Mon-Fri", "time": "4:00pm"}, {"days": "Sat", "time": "11:30am"}, {"days": "Sun", "time": "Closed"}], "id": "3701200002", "name": "USPS COLLECTION BOX - PO LOBBY", "address": {"city": "ALEXANDRIA", "state": "TN", "street": "100 HIGH ST", "postcode": "37012"}}},
{"geometry": {"type": "Point", "coordinates": [-86.6461034799, 36.0483750527]}, "type": "Feature", "properties": {"collection_times": [{"days": "Mon-Fri", "time": "5:00pm"}, {"days": "Sat", "time": "3:00pm"}, {"days": "Sun", "time": "Closed"}], "id": "3701300001", "name": "USPS COLLECTION BOX - PO LOBBY", "address": {"city": "ANTIOCH", "state": "TN", "street": "5424 BELL FORGE LN E", "postcode": "37013"}}},
{"geometry": {"type": "Point", "coordinates": [-86.6461034799, 36.0483750527]}, "type": "Feature", "properties": {"collection_times": [{"days": "Mon-Fri", "time": "5:00pm"}, {"days": "Sat", "time": "3:00pm"}, {"days": "Sun", "time": "Closed"}], "id": "3701300002", "name": "USPS COLLECTION BOX - BLUE BOX", "address": {"city": "ANTIOCH", "state": "TN", "street": "5424 BELL FORGE LN E", "postcode": "37013"}}},
{"geometry": {"type": "Point", "coordinates": [-86.6567702209, 36.0489050184]}, "type": "Feature", "properties": {"collection_times": [{"days": "Mon-Sat", "time": "2:00pm"}, {"days": "Sun", "time": "Closed"}], "id": "3701300008", "name": "USPS COLLECTION BOX - BLUE BOX", "address": {"city": "ANTIOCH", "state": "TN", "street": "5252 HICKORY HOLLOW PKWY", "postcode": "37013"}}},
{"geometry": {"type": "Point", "coordinates": [-86.6481866706, 36.0487630633]}, "type": "Feature", "properties": {"collection_times": [{"days": "Mon-Sat", "time": "2:00pm"}, {"days": "Sun", "time": "Closed"}], "id": "3701300013", "name": "USPS COLLECTION BOX - BLUE BOX", "address": {"city": "ANTIOCH", "state": "TN", "street": "5319 MOUNT VIEW RD", "postcode": "37013"}}},
{"geometry": {"type": "Point", "coordinates": [-86.6461034799, 36.0483750527]}, "type": "Feature", "properties": {"collection_times": [{"days": "Mon-Fri", "time": "5:00pm"}, {"days": "Sat", "time": "3:00pm"}, {"days": "Sun", "time": "Closed"}], "id": "3701300018", "name": "USPS COLLECTION BOX - APC", "address": {"city": "ANTIOCH", "state": "TN", "street": "5424 BELL FORGE LN E", "postcode": "37013"}}},
{"geometry": {"type": "Point", "coordinates": [-86.7089777489, 35.8679454196]}, "type": "Feature", "properties": {"collection_times": [{"days": "Mon-Fri", "time": "4:00pm"}, {"days": "Sat", "time": "11:00am"}, {"days": "Sun", "time": "Closed"}], "id": "3701400001", "name": "USPS COLLECTION BOX - PO LOBBY", "address": {"city": "ARRINGTON", "state": "TN", "street": "4817 MURFREESBORO RD", "postcode": "37014"}}},
{"geometry": {"type": "Point", "coordinates": [-86.7089777489, 35.8679454196]}, "type": "Feature", "properties": {"collection_times": [{"days": "Mon-Fri", "time": "4:00pm"}, {"days": "Sat", "time": "11:00am"}, {"days": "Sun", "time": "Closed"}], "id": "3701400002", "name": "USPS COLLECTION BOX - BLUE BOX", "address": {"city": "ARRINGTON", "state": "TN", "street": "4817 MURFREESBORO RD", "postcode": "37014"}}},
{"geometry": {"type": "Point", "coordinates": [-87.065404468, 36.2750583815]}, "type": "Feature", "properties": {"collection_times": [{"days": "Mon-Fri", "time": "4:45pm"}, {"days": "Sat", "time": "3:00pm"}, {"days": "Sun", "time": "Closed"}], "id": "3701500001", "name": "USPS COLLECTION BOX - BLUE BOX", "address": {"city": "ASHLAND CITY", "state": "TN", "street": "102 N VINE ST", "postcode": "37015"}}},
{"geometry": {"type": "Point", "coordinates": [-87.065404468, 36.2750583815]}, "type": "Feature", "properties": {"collection_times": [{"days": "Mon-Fri", "time": "4:45pm"}, {"days": "Sat", "time": "3:00pm"}, {"days": "Sun", "time": "Closed"}], "id": "3701500009", "name": "USPS COLLECTION BOX - PO LOBBY", "address": {"city": "ASHLAND CITY", "state": "TN", "street": "102 N VINE ST", "postcode": "37015"}}},
{"geometry": {"type": "Point", "coordinates": [-86.0961967943, 35.9479589783]}, "type": "Feature", "properties": {"collection_times": [{"days": "Mon-Fri", "time": "1:00pm"}, {"days": "Sat", "time": "11:45am"}, {"days": "Sun", "time": "Closed"}], "id": "3701600001", "name": "USPS COLLECTION BOX - BLUE BOX", "address": {"city": "AUBURNTOWN", "state": "TN", "street": "42 E MAIN ST", "postcode": "37016"}}},
{"geometry": {"type": "Point", "coordinates": [-86.0961967943, 35.9479589783]}, "type": "Feature", "properties": {"collection_times": [{"days": "Mon-Fri", "time": "1:00pm"}, {"days": "Sat", "time": "11:45am"}, {"days": "Sun", "time": "Closed"}], "id": "3701600002", "name": "USPS COLLECTION BOX - PO LOBBY", "address": {"city": "AUBURNTOWN", "state": "TN", "street": "42 E MAIN ST", "postcode": "37016"}}},
{"geometry": {"type": "Point", "coordinates": [-86.2372445406, 35.6248351027]}, "type": "Feature", "properties": {"collection_times": [{"days": "Mon-Fri", "time": "2:30pm"}, {"days": "Sat", "time": "10:30am"}, {"days": "Sun", "time": "Closed"}], "id": "3701800001", "name": "USPS COLLECTION BOX - PO LOBBY", "address": {"city": "BEECHGROVE", "state": "TN", "street": "13975 MURFREESBORO HWY", "postcode": "37018"}}},
{"geometry": {"type": "Point", "coordinates": [-86.2372445406, 35.6248351027]}, "type": "Feature", "properties": {"collection_times": [{"days": "Mon-Fri", "time": "2:30pm"}, {"days": "Sat", "time": "10:30am"}, {"days": "Sun", "time": "Closed"}], "id": "3701800002", "name": "USPS COLLECTION BOX - BLUE BOX", "address": {"city": "BEECHGROVE", "state": "TN", "street": "13975 MURFREESBORO HWY", "postcode": "37018"}}},
{"geometry": {"type": "Point", "coordinates": [-86.7037443384, 35.421617368]}, "type": "Feature", "properties": {"collection_times": [{"days": "Mon-Fri", "time": "3:30pm"}, {"days": "Sat", "time": "11:30am"}, {"days": "Sun", "time": "Closed"}], "id": "3701900001", "name": "USPS COLLECTION BOX - PO LOBBY", "address": {"city": "BELFAST", "state": "TN", "street": "2235 FAYETTEVILLE HWY", "postcode": "37019"}}},
{"geometry": {"type": "Point", "coordinates": [-86.7037443384, 35.421617368]}, "type": "Feature", "properties": {"collection_times": [{"days": "Mon-Fri", "time": "3:30pm"}, {"days": "Sat", "time": "11:30am"}, {"days": "Sun", "time": "Closed"}], "id": "3701900002", "name": "USPS COLLECTION BOX - BLUE BOX", "address": {"city": "BELFAST", "state": "TN", "street": "2235 FAYETTEVILLE HWY", "postcode": "37019"}}},
{"geometry": {"type": "Point", "coordinates": [-86.3937417106, 35.624306579]}, "type": "Feature", "properties": {"collection_times": [{"days": "Mon-Fri", "time": "3:30pm"}, {"days": "Sat", "time": "11:15am"}, {"days": "Sun", "time": "Closed"}], "id": "3702000001", "name": "USPS COLLECTION BOX - PO LOBBY", "address": {"city": "BELL BUCKLE", "state": "TN", "street": "1 RAILROAD SQ E", "postcode": "37020"}}},
{"geometry": {"type": "Point", "coordinates": [-86.3937417106, 35.624306579]}, "type": "Feature", "properties": {"collection_times": [{"days": "Mon-Fri", "time": "3:30pm"}, {"days": "Sat", "time": "11:15am"}, {"days": "Sun", "time": "Closed"}], "id": "3702000002", "name": "USPS COLLECTION BOX - BLUE BOX", "address": {"city": "BELL BUCKLE", "state": "TN", "street": "1 RAILROAD SQ E", "postcode": "37020"}}},
{"geometry": {"type": "Point", "coordinates": [-86.3121196214, 36.4822237011]}, "type": "Feature", "properties": {"collection_times": [{"days": "Mon-Fri", "time": "3:00pm"}, {"days": "Sat", "time": "11:30am"}, {"days": "Sun", "time": "Closed"}], "id": "3702200001", "name": "USPS COLLECTION BOX - PO LOBBY", "address": {"city": "BETHPAGE", "state": "TN", "street": "516 OLD HIGHWAY 31 E", "postcode": "37022"}}},
{"geometry": {"type": "Point", "coordinates": [-86.3121196214, 36.4822237011]}, "type": "Feature", "properties": {"collection_times": [{"days": "Mon-Fri", "time": "3:00pm"}, {"days": "Sat", "time": "11:30am"}, {"days": "Sun", "time": "Closed"}], "id": "3702200002", "name": "USPS COLLECTION BOX - BLUE BOX", "address": {"city": "BETHPAGE", "state": "TN", "street": "516 OLD HIGHWAY 31 E", "postcode": "37022"}}},
{"geometry": {"type": "Point", "coordinates": [-87.7594405779, 36.5811726728]}, "type": "Feature", "properties": {"collection_times": [{"days": "Mon-Fri", "time": "11:30am"}, {"days": "Sat", "time": "11:00am"}, {"days": "Sun", "time": "Closed"}], "id": "3702300001", "name": "USPS COLLECTION BOX - PO LOBBY", "address": {"city": "BIG ROCK", "state": "TN", "street": "515 BIG ROCK RD", "postcode": "37023"}}},
{"geometry": {"type": "Point", "coordinates": [-87.7594405779, 36.5811726728]}, "type": "Feature", "properties": {"collection_times": [{"days": "Mon-Fri", "time": "11:30am"}, {"days": "Sat", "time": "11:00am"}, {"days": "Sun", "time": "Closed"}], "id": "3702300002", "name": "USPS COLLECTION BOX - BLUE BOX", "address": {"city": "BIG ROCK", "state": "TN", "street": "515 BIG ROCK RD", "postcode": "37023"}}},
{"geometry": {"type": "Point", "coordinates": [-87.3063390615, 35.9551769085]}, "type": "Feature", "properties": {"collection_times": [{"days": "Mon-Fri", "time": "3:30pm"}, {"days": "Sat", "time": "11:00am"}, {"days": "Sun", "time": "Closed"}], "id": "3702500001", "name": "USPS COLLECTION BOX - PO LOBBY", "address": {"city": "BON AQUA", "state": "TN", "street": "10076 HIGHWAY 46", "postcode": "37025"}}},
{"geometry": {"type": "Point", "coordinates": [-87.3063390615, 35.9551769085]}, "type": "Feature", "properties": {"collection_times": [{"days": "Mon-Fri", "time": "3:30pm"}, {"days": "Sat", "time": "11:00am"}, {"days": "Sun", "time": "Closed"}], "id": "3702500002", "name": "USPS COLLECTION BOX - BLUE BOX", "address": {"city": "BON AQUA", "state": "TN", "street": "10076 HIGHWAY 46", "postcode": "37025"}}},
{"geometry": {"type": "Point", "coordinates": [-86.1655997216, 35.7392172312]}, "type": "Feature", "properties": {"collection_times": [{"days": "Mon-Fri", "time": "11:15am"}, {"days": "Sat", "time": "11:00am"}, {"days": "Sun", "time": "Closed"}], "id": "3702600001", "name": "USPS COLLECTION BOX - PO LOBBY", "address": {"city": "BRADYVILLE", "state": "TN", "street": "5978 BRADYVILLE RD", "postcode": "37026"}}},
{"geometry": {"type": "Point", "coordinates": [-86.1655997216, 35.7392172312]}, "type": "Feature", "properties": {"collection_times": [{"days": "Mon-Fri", "time": "11:15am"}, {"days": "Sat", "time": "11:00am"}, {"days": "Sun", "time": "Closed"}], "id": "3702600002", "name": "USPS COLLECTION BOX - BLUE BOX", "address": {"city": "BRADYVILLE", "state": "TN", "street": "5978 BRADYVILLE RD", "postcode": "37026"}}},
{"geometry": {"type": "Point", "coordinates": [-86.7843606259, 36.0359102141]}, "type": "Feature", "properties": {"collection_times": [{"days": "Mon-Fri", "time": "5:00pm"}, {"days": "Sat", "time": "3:00pm"}, {"days": "Sun", "time": "Closed"}], "id": "3702700001", "name": "USPS COLLECTION BOX - BLUE BOX", "address": {"city": "BRENTWOOD", "state": "TN", "street": "8011 BROOKS CHAPEL RD", "postcode": "37027"}}},
{"geometry": {"type": "Point", "coordinates": [-86.7843606259, 36.0359102141]}, "type": "Feature", "properties": {"collection_times": [{"days": "Mon-Fri", "time": "5:00pm"}, {"days": "Sat", "time": "3:00pm"}, {"days": "Sun", "time": "Closed"}], "id": "3702700002", "name": "USPS COLLECTION BOX - BLUE BOX", "address": {"city": "BRENTWOOD", "state": "TN", "street": "8011 BROOKS CHAPEL RD", "postcode": "37027"}}},
{"geometry": {"type": "Point", "coordinates": [-86.7843606259, 36.0359102141]}, "type": "Feature", "properties": {"collection_times": [{"days": "Mon-Fri", "time": "5:00pm"}, {"days": "Sat", "time": "3:00pm"}, {"days": "Sun", "time": "Closed"}], "id": "3702700003", "name": "USPS COLLECTION BOX - BLUE BOX", "address": {"city": "BRENTWOOD", "state": "TN", "street": "8011 BROOKS CHAPEL RD", "postcode": "37027"}}},
{"geometry": {"type": "Point", "coordinates": [-86.7843606259, 36.0359102141]}, "type": "Feature", "properties": {"collection_times": [{"days": "Mon-Fri", "time": "5:00pm"}, {"days": "Sat", "time": "3:00pm"}, {"days": "Sun", "time": "Closed"}], "id": "3702700004", "name": "USPS COLLECTION BOX - BLUE BOX", "address": {"city": "BRENTWOOD", "state": "TN", "street": "8011 BROOKS CHAPEL RD", "postcode": "37027"}}},
{"geometry": {"type": "Point", "coordinates": [-86.8052989996, 36.034962664]}, "type": "Feature", "properties": {"collection_times": [{"days": "Mon-Fri", "time": "3:00pm"}, {"days": "Sat", "time": "1:00pm"}, {"days": "Sun", "time": "Closed"}], "id": "3702700006", "name": "USPS COLLECTION BOX - BLUE BOX", "address": {"city": "BRENTWOOD", "state": "TN", "street": "5211 MARYLAND WAY", "postcode": "37027"}}},
{"geometry": {"type": "Point", "coordinates": [-86.8052989996, 36.034962664]}, "type": "Feature", "properties": {"collection_times": [{"days": "Mon-Fri", "time": "3:00pm"}, {"days": "Sat", "time": "1:00pm"}, {"days": "Sun", "time": "Closed"}], "id": "3702700007", "name": "USPS COLLECTION BOX - BLUE BOX", "address": {"city": "BRENTWOOD", "state": "TN", "street": "5211 MARYLAND WAY", "postcode": "37027"}}},
{"geometry": {"type": "Point", "coordinates": [-86.7904599624, 36.0302012542]}, "type": "Feature", "properties": {"collection_times": [{"days": "Mon-Fri", "time": "3:00pm"}, {"days": "Sat", "time": "1:00pm"}, {"days": "Sun", "time": "Closed"}], "id": "3702700009", "name": "USPS COLLECTION BOX - BLUE BOX", "address": {"city": "BRENTWOOD", "state": "TN", "street": "235 FRANKLIN RD", "postcode": "37027"}}},
{"geometry": {"type": "Point", "coordinates": [-86.7904599624, 36.0302012542]}, "type": "Feature", "properties": {"collection_times": [{"days": "Mon-Fri", "time": "3:00pm"}, {"days": "Sat", "time": "1:00pm"}, {"days": "Sun", "time": "Closed"}], "id": "3702700010", "name": "USPS COLLECTION BOX - BLUE BOX", "address": {"city": "BRENTWOOD", "state": "TN", "street": "235 FRANKLIN RD", "postcode": "37027"}}},
{"geometry": {"type": "Point", "coordinates": [-86.7948285469, 36.035718339]}, "type": "Feature", "properties": {"collection_times": [{"days": "Mon-Fri", "time": "2:45pm"}, {"days": "Sat", "time": "1:00pm"}, {"days": "Sun", "time": "Closed"}], "id": "3702700017", "name": "USPS COLLECTION BOX - BLUE BOX", "address": {"city": "BRENTWOOD", "state": "TN", "street": "104 BRENTWOOD BLVD", "postcode": "37027"}}},
{"geometry": {"type": "Point", "coordinates": [-86.7948285469, 36.035718339]}, "type": "Feature", "properties": {"collection_times": [{"days": "Mon-Fri", "time": "2:45pm"}, {"days": "Sat", "time": "1:00pm"}, {"days": "Sun", "time": "Closed"}], "id": "3702700018", "name": "USPS COLLECTION BOX - BLUE BOX", "address": {"city": "BRENTWOOD", "state": "TN", "street": "104 BRENTWOOD BLVD", "postcode": "37027"}}},
{"geometry": {"type": "Point", "coordinates": [-86.7948285469, 36.035718339]}, "type": "Feature", "properties": {"collection_times": [{"days": "Mon-Fri", "time": "2:45pm"}, {"days": "Sat", "time": "1:00pm"}, {"days": "Sun", "time": "Closed"}], "id": "3702700019", "name": "USPS COLLECTION BOX - BLUE BOX", "address": {"city": "BRENTWOOD", "state": "TN", "street": "104 BRENTWOOD BLVD", "postcode": "37027"}}},
{"geometry": {"type": "Point", "coordinates": [-86.7876220438, 36.0352619526]}, "type": "Feature", "properties": {"collection_times": [{"days": "Mon-Fri", "time": "3:00pm"}, {"days": "Sat", "time": "1:00pm"}, {"days": "Sun", "time": "Closed"}], "id": "3702700022", "name": "USPS COLLECTION BOX - BLUE BOX", "address": {"city": "BRENTWOOD", "state": "TN", "street": "129 FRANKLIN RD", "postcode": "37027"}}},
{"geometry": {"type": "Point", "coordinates": [-86.7876220438, 36.0352619526]}, "type": "Feature", "properties": {"collection_times": [{"days": "Mon-Fri", "time": "3:00pm"}, {"days": "Sat", "time": "1:00pm"}, {"days": "Sun", "time": "Closed"}], "id": "3702700023", "name": "USPS COLLECTION BOX - BLUE BOX", "address": {"city": "BRENTWOOD", "state": "TN", "street": "129 FRANKLIN RD", "postcode": "37027"}}},
{"geometry": {"type": "Point", "coordinates": [-86.7918791508, 36.0275104485]}, "type": "Feature", "properties": {"collection_times": [{"days": "Mon-Fri", "time": "2:15pm"}, {"days": "Sat", "time": "1:00pm"}, {"days": "Sun", "time": "Closed"}], "id": "3702700024", "name": "USPS COLLECTION BOX - BLUE BOX", "address": {"city": "BRENTWOOD", "state": "TN", "street": "320 FRANKLIN RD", "postcode": "37027"}}},
{"geometry": {"type": "Point", "coordinates": [-86.7888026369, 36.0314611055]}, "type": "Feature", "properties": {"collection_times": [{"days": "Mon-Fri", "time": "2:15pm"}, {"days": "Sat", "time": "1:00pm"}, {"days": "Sun", "time": "Closed"}], "id": "3702700025", "name": "USPS COLLECTION BOX - BLUE BOX", "address": {"city": "BRENTWOOD", "state": "TN", "street": "7003 CHADWICK DR", "postcode": "37027"}}},
{"geometry": {"type": "Point", "coordinates": [-86.7888026369, 36.0314611055]}, "type": "Feature", "properties": {"collection_times": [{"days": "Mon-Fri", "time": "2:15pm"}, {"days": "Sat", "time": "1:00pm"}, {"days": "Sun", "time": "Closed"}], "id": "3702700026", "name": "USPS COLLECTION BOX - BLUE BOX", "address": {"city": "BRENTWOOD", "state": "TN", "street": "7003 CHADWICK DR", "postcode": "37027"}}},
{"geometry": {"type": "Point", "coordinates": [-86.7888026369, 36.0314611055]}, "type": "Feature", "properties": {"collection_times": [{"days": "Mon-Fri", "time": "2:15pm"}, {"days": "Sat", "time": "1:00pm"}, {"days": "Sun", "time": "Closed"}], "id": "3702700027", "name": "USPS COLLECTION BOX - BLUE BOX", "address": {"city": "BRENTWOOD", "state": "TN", "street": "7003 CHADWICK DR", "postcode": "37027"}}},
{"geometry": {"type": "Point", "coordinates": [-86.7879840293, 36.0211267759]}, "type": "Feature", "properties": {"collection_times": [{"days": "Mon-Fri", "time": "2:15pm"}, {"days": "Sat", "time": "1:00pm"}, {"days": "Sun", "time": "Closed"}], "id": "3702700029", "name": "USPS COLLECTION BOX - BLUE BOX", "address": {"city": "BRENTWOOD", "state": "TN", "street": "500 WILSON PIKE CIR", "postcode": "37027"}}},
{"geometry": {"type": "Point", "coordinates": [-86.7879840293, 36.0211267759]}, "type": "Feature", "properties": {"collection_times": [{"days": "Mon-Fri", "time": "2:15pm"}, {"days": "Sat", "time": "1:00pm"}, {"days": "Sun", "time": "Closed"}], "id": "3702700030", "name": "USPS COLLECTION BOX - BLUE BOX", "address": {"city": "BRENTWOOD", "state": "TN", "street": "500 WILSON PIKE CIR", "postcode": "37027"}}},
{"geometry": {"type": "Point", "coordinates": [-86.7795613587, 36.0312980971]}, "type": "Feature", "properties": {"collection_times": [{"days": "Mon-Fri", "time": "2:15pm"}, {"days": "Sat", "time": "1:00pm"}, {"days": "Sun", "time": "Closed"}], "id": "3702700032", "name": "USPS COLLECTION BOX - BLUE BOX", "address": {"city": "BRENTWOOD", "state": "TN", "street": "9019 OVERLOOK BLVD", "postcode": "37027"}}},
{"geometry": {"type": "Point", "coordinates": [-86.7775467823, 36.0409117646]}, "type": "Feature", "properties": {"collection_times": [{"days": "Mon-Fri", "time": "2:30pm"}, {"days": "Sat", "time": "1:00pm"}, {"days": "Sun", "time": "Closed"}], "id": "3702700034", "name": "USPS COLLECTION BOX - BLUE BOX", "address": {"city": "BRENTWOOD", "state": "TN", "street": "783 OLD HICKORY BLVD", "postcode": "37027"}}},
{"geometry": {"type": "Point", "coordinates": [-86.7749253452, 36.0410915744]}, "type": "Feature", "properties": {"collection_times": [{"days": "Mon-Fri", "time": "2:30pm"}, {"days": "Sat", "time": "1:00pm"}, {"days": "Sun", "time": "Closed"}], "id": "3702700037", "name": "USPS COLLECTION BOX - BLUE BOX", "address": {"city": "BRENTWOOD", "state": "TN", "street": "750 OLD HICKORY BLVD", "postcode": "37027"}}},
{"geometry": {"type": "Point", "coordinates": [-86.7749253452, 36.0410915744]}, "type": "Feature", "properties": {"collection_times": [{"days": "Mon-Fri", "time": "2:30pm"}, {"days": "Sat", "time": "1:00pm"}, {"days": "Sun", "time": "Closed"}], "id": "3702700038", "name": "USPS COLLECTION BOX - BLUE BOX", "address": {"city": "BRENTWOOD", "state": "TN", "street": "750 OLD HICKORY BLVD", "postcode": "37027"}}},
{"geometry": {"type": "Point", "coordinates": [-86.8309046378, 35.9732259826]}, "type": "Feature", "properties": {"collection_times": [{"days": "Mon-Fri", "time": "2:00pm"}, {"days": "Sat", "time": "1:00pm"}, {"days": "Sun", "time": "Closed"}], "id": "3702700048", "name": "USPS COLLECTION BOX - BLUE BOX", "address": {"city": "BRENTWOOD", "state": "TN", "street": "6950 MOORES LN", "postcode": "37027"}}},
{"geometry": {"type": "Point", "coordinates": [-86.8309046378, 35.9732259826]}, "type": "Feature", "properties": {"collection_times": [{"days": "Mon-Fri", "time": "2:00pm"}, {"days": "Sat", "time": "1:00pm"}, {"days": "Sun", "time": "Closed"}], "id": "3702700049", "name": "USPS COLLECTION BOX - BLUE BOX", "address": {"city": "BRENTWOOD", "state": "TN", "street": "6950 MOORES LN", "postcode": "37027"}}},
{"geometry": {"type": "Point", "coordinates": [-86.8080529281, 36.0369429373]}, "type": "Feature", "properties": {"collection_times": [{"days": "Mon-Fri", "time": "3:00pm"}, {"days": "Sat", "time": "1:00pm"}, {"days": "Sun", "time": "Closed"}], "id": "3702700051", "name": "USPS COLLECTION BOX - BLUE BOX", "address": {"city": "BRENTWOOD", "state": "TN", "street": "101 WINNERS CIR N", "postcode": "37027"}}},
{"geometry": {"type": "Point", "coordinates": [-86.8080529281, 36.0369429373]}, "type": "Feature", "properties": {"collection_times": [{"days": "Mon-Fri", "time": "3:00pm"}, {"days": "Sat", "time": "1:00pm"}, {"days": "Sun", "time": "Closed"}], "id": "3702700052", "name": "USPS COLLECTION BOX - BLUE BOX", "address": {"city": "BRENTWOOD", "state": "TN", "street": "101 WINNERS CIR N", "postcode": "37027"}}},
{"geometry": {"type": "Point", "coordinates": [-86.8022162086, 36.0364981447]}, "type": "Feature", "properties": {"collection_times": [{"days": "Mon-Fri", "time": "2:45pm"}, {"days": "Sat", "time": "1:00pm"}, {"days": "Sun", "time": "Closed"}], "id": "3702700054", "name": "USPS COLLECTION BOX - BLUE BOX", "address": {"city": "BRENTWOOD", "state": "TN", "street": "109 WESTPARK DR", "postcode": "37027"}}},
{"geometry": {"type": "Point", "coordinates": [-86.8022162086, 36.0364981447]}, "type": "Feature", "properties": {"collection_times": [{"days": "Mon-Fri", "time": "2:45pm"}, {"days": "Sat", "time": "1:00pm"}, {"days": "Sun", "time": "Closed"}], "id": "3702700055", "name": "USPS COLLECTION BOX - BLUE BOX", "address": {"city": "BRENTWOOD", "state": "TN", "street": "109 WESTPARK DR", "postcode": "37027"}}},
{"geometry": {"type": "Point", "coordinates": [-86.7843606259, 36.0359102141]}, "type": "Feature", "properties": {"collection_times": [{"days": "Mon-Fri", "time": "5:00pm"}, {"days": "Sat", "time": "3:00pm"}, {"days": "Sun", "time": "Closed"}], "id": "3702700057", "name": "USPS COLLECTION BOX - PO LOBBY", "address": {"city": "BRENTWOOD", "state": "TN", "street": "8011 BROOKS CHAPEL RD", "postcode": "37027"}}},
{"geometry": {"type": "Point", "coordinates": [-86.7918791508, 36.0275104485]}, "type": "Feature", "properties": {"collection_times": [{"days": "Mon-Fri", "time": "2:15pm"}, {"days": "Sat", "time": "1:00pm"}, {"days": "Sun", "time": "Closed"}], "id": "3702700059", "name": "USPS COLLECTION BOX - BLUE BOX", "address": {"city": "BRENTWOOD", "state": "TN", "street": "320 FRANKLIN RD", "postcode": "37027"}}},
{"geometry": {"type": "Point", "coordinates": [-86.8024528004, 35.9657796748]}, "type": "Feature", "properties": {"collection_times": [{"days": "Mon-Fri", "time": "2:00pm"}, {"days": "Sat", "time": "1:00pm"}, {"days": "Sun", "time": "Closed"}], "id": "3702700060", "name": "USPS COLLECTION BOX - BLUE BOX", "address": {"city": "BRENTWOOD", "state": "TN", "street": "8105 MOORES LN", "postcode": "37027"}}},
{"geometry": {"type": "Point", "coordinates": [-86.8022162086, 36.0364981447]}, "type": "Feature", "properties": {"collection_times": [{"days": "Mon-Fri", "time": "2:45pm"}, {"days": "Sat", "time": "1:00pm"}, {"days": "Sun", "time": "Closed"}], "id": "3702700062", "name": "USPS COLLECTION BOX - BLUE BOX", "address": {"city": "BRENTWOOD", "state": "TN", "street": "109 WESTPARK DR", "postcode": "37027"}}},
{"geometry": {"type": "Point", "coordinates": [-86.8080529281, 36.0369429373]}, "type": "Feature", "properties": {"collection_times": [{"days": "Mon-Fri", "time": "3:00pm"}, {"days": "Sat", "time": "1:00pm"}, {"days": "Sun", "time": "Closed"}], "id": "3702700063", "name": "USPS COLLECTION BOX - BLUE BOX", "address": {"city": "BRENTWOOD", "state": "TN", "street": "101 WINNERS CIR N", "postcode": "37027"}}},
{"geometry": {"type": "Point", "coordinates": [-86.7775467823, 36.0409117646]}, "type": "Feature", "properties": {"collection_times": [{"days": "Mon-Fri", "time": "2:30pm"}, {"days": "Sat", "time": "1:00pm"}, {"days": "Sun", "time": "Closed"}], "id": "3702700064", "name": "USPS COLLECTION BOX - BLUE BOX", "address": {"city": "BRENTWOOD", "state": "TN", "street": "783 OLD HICKORY BLVD", "postcode": "37027"}}},
{"geometry": {"type": "Point", "coordinates": [-86.7901866989, 35.9966915756]}, "type": "Feature", "properties": {"collection_times": [{"days": "Mon-Sat", "time": "10:00am"}, {"days": "Sun", "time": "Closed"}], "id": "3702700065", "name": "USPS COLLECTION BOX - BLUE BOX", "address": {"city": "BRENTWOOD", "state": "TN", "street": "8109 CONCORD RD", "postcode": "37027"}}},
{"geometry": {"type": "Point", "coordinates": [-86.7843606259, 36.0359102141]}, "type": "Feature", "properties": {"collection_times": [{"days": "Mon-Fri", "time": "5:00pm"}, {"days": "Sat", "time": "3:00pm"}, {"days": "Sun", "time": "Closed"}], "id": "3702700066", "name": "USPS COLLECTION BOX - APC", "address": {"city": "BRENTWOOD", "state": "TN", "street": "8011 BROOKS CHAPEL RD", "postcode": "37027"}}},
{"geometry": {"type": "Point", "coordinates": [-87.8377027772, 36.6002443373]}, "type": "Feature", "properties": {"collection_times": [{"days": "Mon-Fri", "time": "2:45pm"}, {"days": "Sat-Sun", "time": "Closed"}], "id": "3702800001", "name": "USPS COLLECTION BOX - PO LOBBY", "address": {"city": "BUMPUS MILLS", "state": "TN", "street": "3035 HIGHWAY 120", "postcode": "37028"}}},
{"geometry": {"type": "Point", "coordinates": [-87.8377027772, 36.6002443373]}, "type": "Feature", "properties": {"collection_times": [{"days": "Mon-Fri", "time": "2:45pm"}, {"days": "Sat", "time": "11:30am"}, {"days": "Sun", "time": "Closed"}], "id": "3702800002", "name": "USPS COLLECTION BOX - BLUE BOX", "address": {"city": "BUMPUS MILLS", "state": "TN", "street": "3035 HIGHWAY 120", "postcode": "37028"}}},
{"geometry": {"type": "Point", "coordinates": [-87.3059225018, 36.0490694497]}, "type": "Feature", "properties": {"collection_times": [{"days": "Mon-Fri", "time": "4:00pm"}, {"days": "Sat", "time": "11:00am"}, {"days": "Sun", "time": "Closed"}], "id": "3702900001", "name": "USPS COLLECTION BOX - PO LOBBY", "address": {"city": "BURNS", "state": "TN", "street": "2312 HIGHWAY 96", "postcode": "37029"}}},
{"geometry": {"type": "Point", "coordinates": [-87.3059225018, 36.0490694497]}, "type": "Feature", "properties": {"collection_times": [{"days": "Mon-Fri", "time": "4:00pm"}, {"days": "Sat", "time": "11:00am"}, {"days": "Sun", "time": "Closed"}], "id": "3702900002", "name": "USPS COLLECTION BOX - BLUE BOX", "address": {"city": "BURNS", "state": "TN", "street": "2312 HIGHWAY 96", "postcode": "37029"}}},
{"geometry": {"type": "Point", "coordinates": [-85.9521418963, 36.2508585899]}, "type": "Feature", "properties": {"collection_times": [{"days": "Mon-Fri", "time": "4:00pm"}, {"days": "Sat", "time": "3:15pm"}, {"days": "Sun", "time": "Closed"}], "id": "3703000001", "name": "USPS COLLECTION BOX - PO LOBBY", "address": {"city": "CARTHAGE", "state": "TN", "street": "115 MAIN ST N", "postcode": "37030"}}},
{"geometry": {"type": "Point", "coordinates": [-85.9521418963, 36.2508585899]}, "type": "Feature", "properties": {"collection_times": [{"days": "Mon-Fri", "time": "4:00pm"}, {"days": "Sat", "time": "3:15pm"}, {"days": "Sun", "time": "Closed"}], "id": "3703000002", "name": "USPS COLLECTION BOX - BLUE BOX", "address": {"city": "CARTHAGE", "state": "TN", "street": "115 MAIN ST N", "postcode": "37030"}}},
{"geometry": {"type": "Point", "coordinates": [-85.9521418963, 36.2508585899]}, "type": "Feature", "properties": {"collection_times": [{"days": "Mon-Fri", "time": "4:00pm"}, {"days": "Sat", "time": "3:15pm"}, {"days": "Sun", "time": "Closed"}], "id": "3703000003", "name": "USPS COLLECTION BOX - BLUE BOX", "address": {"city": "CARTHAGE", "state": "TN", "street": "115 MAIN ST N", "postcode": "37030"}}},
{"geometry": {"type": "Point", "coordinates": [-85.9556344168, 36.263660757]}, "type": "Feature", "properties": {"collection_times": [{"days": "Mon-Sat", "time": "12:30pm"}, {"days": "Sun", "time": "Closed"}], "id": "3703000011", "name": "USPS COLLECTION BOX - BLUE BOX", "address": {"city": "CARTHAGE", "state": "TN", "street": "80 DIXON SPRINGS HWY", "postcode": "37030"}}},
{"geometry": {"type": "Point", "coordinates": [-85.95074429, 36.2521590012]}, "type": "Feature", "properties": {"collection_times": [{"days": "Mon-Fri", "time": "3:15pm"}, {"days": "Sat", "time": "2:15pm"}, {"days": "Sun", "time": "Closed"}], "id": "3703000014", "name": "USPS COLLECTION BOX - BLUE BOX", "address": {"city": "CARTHAGE", "state": "TN", "street": "314 SPRING ST", "postcode": "37030"}}},
{"geometry": {"type": "Point", "coordinates": [-85.9531911183, 36.251362007]}, "type": "Feature", "properties": {"collection_times": [{"days": "Mon-Fri", "time": "3:15pm"}, {"days": "Sat", "time": "2:15pm"}, {"days": "Sun", "time": "Closed"}], "id": "3703000015", "name": "USPS COLLECTION BOX - BLUE BOX", "address": {"city": "CARTHAGE", "state": "TN", "street": "113 WATER ST", "postcode": "37030"}}},
{"geometry": {"type": "Point", "coordinates": [-85.9518537571, 36.2424869296]}, "type": "Feature", "properties": {"collection_times": [{"days": "Mon-Sat", "time": "12:00pm"}, {"days": "Sun", "time": "Closed"}], "id": "3703000016", "name": "USPS COLLECTION BOX - BLUE BOX", "address": {"city": "CARTHAGE", "state": "TN", "street": "51 COOKEVILLE HWY", "postcode": "37030"}}},
{"geometry": {"type": "Point", "coordinates": [-86.3124868041, 36.3967003285]}, "type": "Feature", "properties": {"collection_times": [{"days": "Mon-Fri", "time": "4:30pm"}, {"days": "Sat", "time": "11:00am"}, {"days": "Sun", "time": "Closed"}], "id": "3703100003", "name": "USPS COLLECTION BOX - PO LOBBY", "address": {"city": "CASTALIN SPGS", "state": "TN", "street": "3070 HARTSVILLE PIKE", "postcode": "37031"}}},
{"geometry": {"type": "Point", "coordinates": [-86.3124868041, 36.3967003285]}, "type": "Feature", "properties": {"collection_times": [{"days": "Mon-Fri", "time": "4:30pm"}, {"days": "Sat", "time": "11:00am"}, {"days": "Sun", "time": "Closed"}], "id": "3703100004", "name": "USPS COLLECTION BOX - BLUE BOX", "address": {"city": "CASTALIN SPGS", "state": "TN", "street": "3070 HARTSVILLE PIKE", "postcode": "37031"}}},
{"geometry": {"type": "Point", "coordinates": [-86.9994056793, 36.5502702278]}, "type": "Feature", "properties": {"collection_times": [{"days": "Mon-Fri", "time": "3:30pm"}, {"days": "Sat", "time": "11:00am"}, {"days": "Sun", "time": "Closed"}], "id": "3703200001", "name": "USPS COLLECTION BOX - BLUE BOX", "address": {"city": "CEDAR HILL", "state": "TN", "street": "104 S MAIN ST", "postcode": "37032"}}},
{"geometry": {"type": "Point", "coordinates": [-86.9994056793, 36.5502702278]}, "type": "Feature", "properties": {"collection_times": [{"days": "Mon-Fri", "time": "3:30pm"}, {"days": "Sat", "time": "11:00am"}, {"days": "Sun", "time": "Closed"}], "id": "3703200002", "name": "USPS COLLECTION BOX - PO LOBBY", "address": {"city": "CEDAR HILL", "state": "TN", "street": "104 S MAIN ST", "postcode": "37032"}}},
{"geometry": {"type": "Point", "coordinates": [-87.4668238484, 35.7831367254]}, "type": "Feature", "properties": {"collection_times": [{"days": "Mon-Fri", "time": "4:15pm"}, {"days": "Sat", "time": "2:00pm"}, {"days": "Sun", "time": "Closed"}], "id": "3703300002", "name": "USPS COLLECTION BOX - BLUE BOX", "address": {"city": "CENTERVILLE", "state": "TN", "street": "100 BROWN JCT", "postcode": "37033"}}},
{"geometry": {"type": "Point", "coordinates": [-87.4668238484, 35.7831367254]}, "type": "Feature", "properties": {"collection_times": [{"days": "Mon-Fri", "time": "4:30pm"}, {"days": "Sat", "time": "2:30pm"}, {"days": "Sun", "time": "Closed"}], "id": "3703300009", "name": "USPS COLLECTION BOX - PO LOBBY", "address": {"city": "CENTERVILLE", "state": "TN", "street": "100 BROWN JCT", "postcode": "37033"}}},
{"geometry": {"type": "Point", "coordinates": [-87.4668238484, 35.7831367254]}, "type": "Feature", "properties": {"collection_times": [{"days": "Mon-Fri", "time": "4:15pm"}, {"days": "Sat", "time": "2:00pm"}, {"days": "Sun", "time": "Closed"}], "id": "3703300011", "name": "USPS COLLECTION BOX - BLUE BOX", "address": {"city": "CENTERVILLE", "state": "TN", "street": "100 BROWN JCT", "postcode": "37033"}}},
{"geometry": {"type": "Point", "coordinates": [-87.4668238484, 35.7831367254]}, "type": "Feature", "properties": {"collection_times": [{"days": "Mon-Fri", "time": "4:15pm"}, {"days": "Sat", "time": "2:00pm"}, {"days": "Sun", "time": "Closed"}], "id": "3703300012", "name": "USPS COLLECTION BOX - BLUE BOX", "address": {"city": "CENTERVILLE", "state": "TN", "street": "100 BROWN JCT", "postcode": "37033"}}},
{"geometry": {"type": "Point", "coordinates": [-86.6932645049, 35.6267661117]}, "type": "Feature", "properties": {"collection_times": [{"days": "Mon-Fri", "time": "4:00pm"}, {"days": "Sat", "time": "11:00am"}, {"days": "Sun", "time": "Closed"}], "id": "3703400001", "name": "USPS COLLECTION BOX - PO LOBBY", "address": {"city": "CHAPEL HILL", "state": "TN", "street": "102 N HORTON PKWY", "postcode": "37034"}}},
{"geometry": {"type": "Point", "coordinates": [-86.6932645049, 35.6267661117]}, "type": "Feature", "properties": {"collection_times": [{"days": "Mon-Fri", "time": "4:00pm"}, {"days": "Sat", "time": "11:00am"}, {"days": "Sun", "time": "Closed"}], "id": "3703400002", "name": "USPS COLLECTION BOX - BLUE BOX", "address": {"city": "CHAPEL HILL", "state": "TN", "street": "102 N HORTON PKWY", "postcode": "37034"}}},
{"geometry": {"type": "Point", "coordinates": [-87.156828412, 36.3359270931]}, "type": "Feature", "properties": {"collection_times": [{"days": "Mon-Fri", "time": "3:30pm"}, {"days": "Sat", "time": "11:00am"}, {"days": "Sun", "time": "Closed"}], "id": "3703500000", "name": "USPS COLLECTION BOX - BLUE BOX", "address": {"city": "CHAPMANSBORO", "state": "TN", "street": "2900 HIGHWAY 12 N", "postcode": "37035"}}},
{"geometry": {"type": "Point", "coordinates": [-87.156828412, 36.3359270931]}, "type": "Feature", "properties": {"collection_times": [{"days": "Mon-Fri", "time": "3:30pm"}, {"days": "Sat", "time": "11:00am"}, {"days": "Sun", "time": "Closed"}], "id": "3703500001", "name": "USPS COLLECTION BOX - PO LOBBY", "address": {"city": "CHAPMANSBORO", "state": "TN", "street": "2900 HIGHWAY 12 N", "postcode": "37035"}}},
{"geometry": {"type": "Point", "coordinates": [-87.3396619154, 36.1779663405]}, "type": "Feature", "properties": {"collection_times": [{"days": "Mon-Fri", "time": "4:00pm"}, {"days": "Sat", "time": "12:00pm"}, {"days": "Sun", "time": "Closed"}], "id": "3703600001", "name": "USPS COLLECTION BOX - PO LOBBY", "address": {"city": "CHARLOTTE", "state": "TN", "street": "7 COURT SQ", "postcode": "37036"}}},
{"geometry": {"type": "Point", "coordinates": [-87.3396619154, 36.1779663405]}, "type": "Feature", "properties": {"collection_times": [{"days": "Mon-Fri", "time": "4:00pm"}, {"days": "Sat", "time": "12:00pm"}, {"days": "Sun", "time": "Closed"}], "id": "3703600002", "name": "USPS COLLECTION BOX - BLUE BOX", "address": {"city": "CHARLOTTE", "state": "TN", "street": "7 COURT SQ", "postcode": "37036"}}},
{"geometry": {"type": "Point", "coordinates": [-86.39959021, 35.710042874]}, "type": "Feature", "properties": {"collection_times": [{"days": "Mon-Fri", "time": "3:30pm"}, {"days": "Sat", "time": "12:00pm"}, {"days": "Sun", "time": "Closed"}], "id": "3703700001", "name": "USPS COLLECTION BOX - BLUE BOX", "address": {"city": "CHRISTIANA", "state": "TN", "street": "1091 CHURCH ST", "postcode": "37037"}}},
{"geometry": {"type": "Point", "coordinates": [-86.39959021, 35.710042874]}, "type": "Feature", "properties": {"collection_times": [{"days": "Mon-Fri", "time": "3:30pm"}, {"days": "Sat", "time": "12:00pm"}, {"days": "Sun", "time": "Closed"}], "id": "3703700002", "name": "USPS COLLECTION BOX - PO LOBBY", "address": {"city": "CHRISTIANA", "state": "TN", "street": "1091 CHURCH ST", "postcode": "37037"}}},
{"geometry": {"type": "Point", "coordinates": [-87.3611660207, 36.527275908]}, "type": "Feature", "properties": {"collection_times": [{"days": "Mon-Sat", "time": "12:00pm"}, {"days": "Sun", "time": "Closed"}], "id": "3704000006", "name": "USPS COLLECTION BOX - BLUE BOX", "address": {"city": "CLARKSVILLE", "state": "TN", "street": "1 PUBLIC SQ", "postcode": "37040"}}},
{"geometry": {"type": "Point", "coordinates": [-87.3664793542, 36.5100354355]}, "type": "Feature", "properties": {"collection_times": [{"days": "Mon-Sat", "time": "12:00pm"}, {"days": "Sun", "time": "Closed"}], "id": "3704000012", "name": "USPS COLLECTION BOX - BLUE BOX", "address": {"city": "CLARKSVILLE", "state": "TN", "street": "1051 S RIVERSIDE DR", "postcode": "37040"}}},
{"geometry": {"type": "Point", "coordinates": [-87.3390654631, 36.520110697]}, "type": "Feature", "properties": {"collection_times": [{"days": "Mon-Sat", "time": "12:00pm"}, {"days": "Sun", "time": "Closed"}], "id": "3704000017", "name": "USPS COLLECTION BOX - BLUE BOX", "address": {"city": "CLARKSVILLE", "state": "TN", "street": "350 PAGEANT LN", "postcode": "37040"}}},
{"geometry": {"type": "Point", "coordinates": [-87.3617569338, 36.5279844633]}, "type": "Feature", "properties": {"collection_times": [{"days": "Mon-Sat", "time": "12:00pm"}, {"days": "Sun", "time": "Closed"}], "id": "3704000028", "name": "USPS COLLECTION BOX - BLUE BOX", "address": {"city": "CLARKSVILLE", "state": "TN", "street": "100 PUBLIC SQ", "postcode": "37040"}}},
{"geometry": {"type": "Point", "coordinates": [-87.3896198152, 36.4688009851]}, "type": "Feature", "properties": {"collection_times": [{"days": "Mon-Sat", "time": "11:00am"}, {"days": "Sun", "time": "Closed"}], "id": "3704000034", "name": "USPS COLLECTION BOX - BLUE BOX", "address": {"city": "CLARKSVILLE", "state": "TN", "street": "400 HIGHWAY 149", "postcode": "37040"}}},
{"geometry": {"type": "Point", "coordinates": [-87.3234612678, 36.5531575873]}, "type": "Feature", "properties": {"collection_times": [{"days": "Mon-Sat", "time": "12:00pm"}, {"days": "Sun", "time": "Closed"}], "id": "3704000045", "name": "USPS COLLECTION BOX - BLUE BOX", "address": {"city": "CLARKSVILLE", "state": "TN", "street": "120 W DUNBAR CAVE RD", "postcode": "37040"}}},
{"geometry": {"type": "Point", "coordinates": [-87.3390654631, 36.520110697]}, "type": "Feature", "properties": {"collection_times": [{"days": "Mon-Sat", "time": "12:00pm"}, {"days": "Sun", "time": "Closed"}], "id": "3704000047", "name": "USPS COLLECTION BOX - BLUE BOX", "address": {"city": "CLARKSVILLE", "state": "TN", "street": "350 PAGEANT LN", "postcode": "37040"}}},
{"geometry": {"type": "Point", "coordinates": [-87.2889801635, 36.5936150352]}, "type": "Feature", "properties": {"collection_times": [{"days": "Mon-Sat", "time": "10:00am"}, {"days": "Sun", "time": "Closed"}], "id": "3704000057", "name": "USPS COLLECTION BOX - BLUE BOX", "address": {"city": "CLARKSVILLE", "state": "TN", "street": "3050 WILMA RUDOLPH BLVD", "postcode": "37040"}}},
{"geometry": {"type": "Point", "coordinates": [-87.3180165987, 36.558760816]}, "type": "Feature", "properties": {"collection_times": [{"days": "Mon-Sat", "time": "5:00pm"}, {"days": "Sun", "time": "Closed"}], "id": "3704000061", "name": "USPS COLLECTION BOX - BLUE BOX", "address": {"city": "CLARKSVILLE", "state": "TN", "street": "2031 WILMA RUDOLPH BLVD", "postcode": "37040"}}},
{"geometry": {"type": "Point", "coordinates": [-87.3180165987, 36.558760816]}, "type": "Feature", "properties": {"collection_times": [{"days": "Mon-Sat", "time": "5:00pm"}, {"days": "Sun", "time": "Closed"}], "id": "3704000062", "name": "USPS COLLECTION BOX - BLUE BOX", "address": {"city": "CLARKSVILLE", "state": "TN", "street": "2031 WILMA RUDOLPH BLVD", "postcode": "37040"}}},
{"geometry": {"type": "Point", "coordinates": [-87.3180165987, 36.558760816]}, "type": "Feature", "properties": {"collection_times": [{"days": "Mon-Sat", "time": "5:00pm"}, {"days": "Sun", "time": "Closed"}], "id": "3704000064", "name": "USPS COLLECTION BOX - PO LOBBY", "address": {"city": "CLARKSVILLE", "state": "TN", "street": "2031 WILMA RUDOLPH BLVD", "postcode": "37040"}}},
{"geometry": {"type": "Point", "coordinates": [-87.3572842141, 36.5279241409]}, "type": "Feature", "properties": {"collection_times": [{"days": "Mon-Sat", "time": "12:00pm"}, {"days": "Sun", "time": "Closed"}], "id": "3704000066", "name": "USPS COLLECTION BOX - BLUE BOX", "address": {"city": "CLARKSVILLE", "state": "TN", "street": "310 FRANKLIN ST", "postcode": "37040"}}},
{"geometry": {"type": "Point", "coordinates": [-87.278009402, 36.5807716497]}, "type": "Feature", "properties": {"collection_times": [{"days": "Mon-Sat", "time": "12:00pm"}, {"days": "Sun", "time": "Closed"}], "id": "3704000067", "name": "USPS COLLECTION BOX - BLUE BOX", "address": {"city": "CLARKSVILLE", "state": "TN", "street": "651 DUNLOP LN", "postcode": "37040"}}},
{"geometry": {"type": "Point", "coordinates": [-87.278009402, 36.5807716497]}, "type": "Feature", "properties": {"collection_times": [{"days": "Mon-Sat", "time": "12:00pm"}, {"days": "Sun", "time": "Closed"}], "id": "3704000068", "name": "USPS COLLECTION BOX - BLUE BOX", "address": {"city": "CLARKSVILLE", "state": "TN", "street": "651 DUNLOP LN", "postcode": "37040"}}},
{"geometry": {"type": "Point", "coordinates": [-87.3180165987, 36.558760816]}, "type": "Feature", "properties": {"collection_times": [{"days": "Mon-Sat", "time": "5:00pm"}, {"days": "Sun", "time": "Closed"}], "id": "3704000069", "name": "USPS COLLECTION BOX - APC", "address": {"city": "CLARKSVILLE", "state": "TN", "street": "2031 WILMA RUDOLPH BLVD", "postcode": "37040"}}},
{"geometry": {"type": "Point", "coordinates": [-87.3567506996, 36.5254695011]}, "type": "Feature", "properties": {"collection_times": [{"days": "Mon-Fri", "time": "4:30pm"}, {"days": "Sat", "time": "10:30am"}, {"days": "Sun", "time": "Closed"}], "id": "3704100002", "name": "USPS COLLECTION BOX - BLUE BOX", "address": {"city": "CLARKSVILLE", "state": "TN", "street": "306 MADISON ST", "postcode": "37041"}}},
{"geometry": {"type": "Point", "coordinates": [-87.3567506996, 36.5254695011]}, "type": "Feature", "properties": {"collection_times": [{"days": "Mon-Fri", "time": "4:30pm"}, {"days": "Sat", "time": "10:30am"}, {"days": "Sun", "time": "Closed"}], "id": "3704100003", "name": "USPS COLLECTION BOX - BLUE BOX", "address": {"city": "CLARKSVILLE", "state": "TN", "street": "306 MADISON ST", "postcode": "37041"}}},
{"geometry": {"type": "Point", "coordinates": [-87.3567506996, 36.5254695011]}, "type": "Feature", "properties": {"collection_times": [{"days": "Mon-Fri", "time": "4:30pm"}, {"days": "Sat", "time": "10:30am"}, {"days": "Sun", "time": "Closed"}], "id": "3704100004", "name": "USPS COLLECTION BOX - BLUE BOX", "address": {"city": "CLARKSVILLE", "state": "TN", "street": "306 MADISON ST", "postcode": "37041"}}},
{"geometry": {"type": "Point", "coordinates": [-87.3567506996, 36.5254695011]}, "type": "Feature", "properties": {"collection_times": [{"days": "Mon-Fri", "time": "4:45pm"}, {"days": "Sat", "time": "10:30am"}, {"days": "Sun", "time": "Closed"}], "id": "3704100006", "name": "USPS COLLECTION BOX - PO LOBBY", "address": {"city": "CLARKSVILLE", "state": "TN", "street": "306 MADISON ST", "postcode": "37041"}}},
{"geometry": {"type": "Point", "coordinates": [-87.4187518807, 36.5951961896]}, "type": "Feature", "properties": {"collection_times": [{"days": "Mon-Sat", "time": "4:30pm"}, {"days": "Sun", "time": "Closed"}], "id": "3704200002", "name": "USPS COLLECTION BOX - BLUE BOX", "address": {"city": "CLARKSVILLE", "state": "TN", "street": "2011 FORT CAMPBELL BLVD", "postcode": "37042"}}},
{"geometry": {"type": "Point", "coordinates": [-87.3967512741, 36.5526065797]}, "type": "Feature", "properties": {"collection_times": [{"days": "Mon-Sat", "time": "10:00am"}, {"days": "Sun", "time": "Closed"}], "id": "3704200003", "name": "USPS COLLECTION BOX - BLUE BOX", "address": {"city": "CLARKSVILLE", "state": "TN", "street": "110 DOVER CROSSING RD", "postcode": "37042"}}},
{"geometry": {"type": "Point", "coordinates": [-87.4101482844, 36.5806912085]}, "type": "Feature", "properties": {"collection_times": [{"days": "Mon-Sat", "time": "10:00am"}, {"days": "Sun", "time": "Closed"}], "id": "3704200020", "name": "USPS COLLECTION BOX - BLUE BOX", "address": {"city": "CLARKSVILLE", "state": "TN", "street": "1680 FORT CAMPBELL BLVD", "postcode": "37042"}}},
{"geometry": {"type": "Point", "coordinates": [-87.4187518807, 36.5951961896]}, "type": "Feature", "properties": {"collection_times": [{"days": "Mon-Sat", "time": "4:30pm"}, {"days": "Sun", "time": "Closed"}], "id": "3704200021", "name": "USPS COLLECTION BOX - BLUE BOX", "address": {"city": "CLARKSVILLE", "state": "TN", "street": "2011 FORT CAMPBELL BLVD", "postcode": "37042"}}},
{"geometry": {"type": "Point", "coordinates": [-87.4187518807, 36.5951961896]}, "type": "Feature", "properties": {"collection_times": [{"days": "Mon-Sat", "time": "4:45pm"}, {"days": "Sun", "time": "Closed"}], "id": "3704200026", "name": "USPS COLLECTION BOX - PO LOBBY", "address": {"city": "CLARKSVILLE", "state": "TN", "street": "2011 FORT CAMPBELL BLVD", "postcode": "37042"}}},
{"geometry": {"type": "Point", "coordinates": [-87.2964434516, 36.5131797404]}, "type": "Feature", "properties": {"collection_times": [{"days": "Mon-Fri", "time": "4:30pm"}, {"days": "Sat", "time": "12:30pm"}, {"days": "Sun", "time": "Closed"}], "id": "3704300001", "name": "USPS COLLECTION BOX - BLUE BOX", "address": {"city": "CLARKSVILLE", "state": "TN", "street": "303 HOLLY CIR", "postcode": "37043"}}},
{"geometry": {"type": "Point", "coordinates": [-87.2964434516, 36.5131797404]}, "type": "Feature", "properties": {"collection_times": [{"days": "Mon-Fri", "time": "4:45pm"}, {"days": "Sat", "time": "12:30pm"}, {"days": "Sun", "time": "Closed"}], "id": "3704300020", "name": "USPS COLLECTION BOX - PO LOBBY", "address": {"city": "CLARKSVILLE", "state": "TN", "street": "303 HOLLY CIR", "postcode": "37043"}}},
{"geometry": {"type": "Point", "coordinates": [-87.2776048301, 36.5096604375]}, "type": "Feature", "properties": {"collection_times": [{"days": "Mon-Sat", "time": "12:00pm"}, {"days": "Sun", "time": "Closed"}], "id": "3704300032", "name": "USPS COLLECTION BOX - BLUE BOX", "address": {"city": "CLARKSVILLE", "state": "TN", "street": "2215 MADISON ST", "postcode": "37043"}}},
{"geometry": {"type": "Point", "coordinates": [-87.2714337961, 36.5083377266]}, "type": "Feature", "properties": {"collection_times": [{"days": "Mon-Sat", "time": "10:00am"}, {"days": "Sun", "time": "Closed"}], "id": "3704300033", "name": "USPS COLLECTION BOX - BLUE BOX", "address": {"city": "CLARKSVILLE", "state": "TN", "street": "2315 MADISON ST", "postcode": "37043"}}},
{"geometry": {"type": "Point", "coordinates": [-86.6781652167, 35.7835767862]}, "type": "Feature", "properties": {"collection_times": [{"days": "Mon-Fri", "time": "4:00pm"}, {"days": "Sat", "time": "12:00pm"}, {"days": "Sun", "time": "Closed"}], "id": "3704600001", "name": "USPS COLLECTION BOX - PO LOBBY", "address": {"city": "COLLEGE GROVE", "state": "TN", "street": "8776 HORTON HWY", "postcode": "37046"}}},
{"geometry": {"type": "Point", "coordinates": [-86.6781652167, 35.7835767862]}, "type": "Feature", "properties": {"collection_times": [{"days": "Mon-Fri", "time": "4:00pm"}, {"days": "Sat", "time": "12:00pm"}, {"days": "Sun", "time": "Closed"}], "id": "3704600002", "name": "USPS COLLECTION BOX - BLUE BOX", "address": {"city": "COLLEGE GROVE", "state": "TN", "street": "8776 HORTON HWY", "postcode": "37046"}}},
{"geometry": {"type": "Point", "coordinates": [-86.8384398383, 35.3728621347]}, "type": "Feature", "properties": {"collection_times": [{"days": "Mon-Fri", "time": "3:30pm"}, {"days": "Sat", "time": "11:30am"}, {"days": "Sun", "time": "Closed"}], "id": "3704700001", "name": "USPS COLLECTION BOX - BLUE BOX", "address": {"city": "CORNERSVILLE", "state": "TN", "street": "501 N MAIN ST", "postcode": "37047"}}},
{"geometry": {"type": "Point", "coordinates": [-86.8384398383, 35.3728621347]}, "type": "Feature", "properties": {"collection_times": [{"days": "Mon-Fri", "time": "3:30pm"}, {"days": "Sat", "time": "11:30am"}, {"days": "Sun", "time": "Closed"}], "id": "3704700003", "name": "USPS COLLECTION BOX - PO LOBBY", "address": {"city": "CORNERSVILLE", "state": "TN", "street": "501 N MAIN ST", "postcode": "37047"}}},
{"geometry": {"type": "Point", "coordinates": [-86.5442514759, 36.454499458]}, "type": "Feature", "properties": {"collection_times": [{"days": "Mon-Fri", "time": "3:45pm"}, {"days": "Sat", "time": "10:30am"}, {"days": "Sun", "time": "Closed"}], "id": "3704800001", "name": "USPS COLLECTION BOX - BLUE BOX", "address": {"city": "COTTONTOWN", "state": "TN", "street": "2401 HIGHWAY 25", "postcode": "37048"}}},
{"geometry": {"type": "Point", "coordinates": [-86.5442514759, 36.454499458]}, "type": "Feature", "properties": {"collection_times": [{"days": "Mon-Fri", "time": "3:45pm"}, {"days": "Sat", "time": "10:30am"}, {"days": "Sun", "time": "Closed"}], "id": "3704800002", "name": "USPS COLLECTION BOX - PO LOBBY", "address": {"city": "COTTONTOWN", "state": "TN", "street": "2401 HIGHWAY 25", "postcode": "37048"}}},
{"geometry": {"type": "Point", "coordinates": [-86.6973070547, 36.5485402276]}, "type": "Feature", "properties": {"collection_times": [{"days": "Mon-Fri", "time": "3:45pm"}, {"days": "Sat", "time": "11:00am"}, {"days": "Sun", "time": "Closed"}], "id": "3704900001", "name": "USPS COLLECTION BOX - PO LOBBY", "address": {"city": "CROSS PLAINS", "state": "TN", "street": "7780 HIGHWAY 25 E", "postcode": "37049"}}},
{"geometry": {"type": "Point", "coordinates": [-86.6973070547, 36.5485402276]}, "type": "Feature", "properties": {"collection_times": [{"days": "Mon-Fri", "time": "3:45pm"}, {"days": "Sat", "time": "11:00am"}, {"days": "Sun", "time": "Closed"}], "id": "3704900002", "name": "USPS COLLECTION BOX - BLUE BOX", "address": {"city": "CROSS PLAINS", "state": "TN", "street": "7780 HIGHWAY 25 E", "postcode": "37049"}}},
{"geometry": {"type": "Point", "coordinates": [-87.6331087679, 36.3927057942]}, "type": "Feature", "properties": {"collection_times": [{"days": "Mon-Fri", "time": "11:45am"}, {"days": "Sat", "time": "11:00am"}, {"days": "Sun", "time": "Closed"}], "id": "3705000001", "name": "USPS COLLECTION BOX - BLUE BOX", "address": {"city": "CUMBERLAND CITY", "state": "TN", "street": "201 BASS AVE", "postcode": "37050"}}},
{"geometry": {"type": "Point", "coordinates": [-87.6331087679, 36.3927057942]}, "type": "Feature", "properties": {"collection_times": [{"days": "Mon-Fri", "time": "11:45am"}, {"days": "Sat", "time": "11:00am"}, {"days": "Sun", "time": "Closed"}], "id": "3705000002", "name": "USPS COLLECTION BOX - BLUE BOX", "address": {"city": "CUMBERLAND CITY", "state": "TN", "street": "201 BASS AVE", "postcode": "37050"}}},
{"geometry": {"type": "Point", "coordinates": [-87.3624697963, 36.2666858078]}, "type": "Feature", "properties": {"collection_times": [{"days": "Mon-Fri", "time": "3:00pm"}, {"days": "Sat", "time": "11:00am"}, {"days": "Sun", "time": "Closed"}], "id": "3705100001", "name": "USPS COLLECTION BOX - BLUE BOX", "address": {"city": "CMBRLND FRNCE", "state": "TN", "street": "2985 NEW DRY HOLLOW RD", "postcode": "37051"}}},
{"geometry": {"type": "Point", "coordinates": [-87.3624697963, 36.2666858078]}, "type": "Feature", "properties": {"collection_times": [{"days": "Mon-Fri", "time": "3:00pm"}, {"days": "Sat", "time": "11:00am"}, {"days": "Sun", "time": "Closed"}], "id": "3705100002", "name": "USPS COLLECTION BOX - PO LOBBY", "address": {"city": "CMBRLND FRNCE", "state": "TN", "street": "2985 NEW DRY HOLLOW RD", "postcode": "37051"}}},
{"geometry": {"type": "Point", "coordinates": [-87.3877820792, 36.3931851148]}, "type": "Feature", "properties": {"collection_times": [{"days": "Mon-Fri", "time": "4:00pm"}, {"days": "Sat", "time": "11:00am"}, {"days": "Sun", "time": "Closed"}], "id": "3705200001", "name": "USPS COLLECTION BOX - PO LOBBY", "address": {"city": "CUNNINGHAM", "state": "TN", "street": "160 HIGHWAY 13", "postcode": "37052"}}},
{"geometry": {"type": "Point", "coordinates": [-87.3877820792, 36.3931851148]}, "type": "Feature", "properties": {"collection_times": [{"days": "Mon-Fri", "time": "4:00pm"}, {"days": "Sat", "time": "11:00am"}, {"days": "Sun", "time": "Closed"}], "id": "3705200002", "name": "USPS COLLECTION BOX - BLUE BOX", "address": {"city": "CUNNINGHAM", "state": "TN", "street": "160 HIGHWAY 13", "postcode": "37052"}}},
{"geometry": {"type": "Point", "coordinates": [-87.3762198152, 36.0628184221]}, "type": "Feature", "properties": {"collection_times": [{"days": "Mon-Sat", "time": "5:00pm"}, {"days": "Sun", "time": "Closed"}], "id": "3705500001", "name": "USPS COLLECTION BOX - BLUE BOX", "address": {"city": "DICKSON", "state": "TN", "street": "206 SKYLINE CR", "postcode": "37055"}}},
{"geometry": {"type": "Point", "coordinates": [-87.3624609227, 36.0764688874]}, "type": "Feature", "properties": {"collection_times": [{"days": "Mon-Sat", "time": "10:00am"}, {"days": "Sun", "time": "Closed"}], "id": "3705500004", "name": "USPS COLLECTION BOX - BLUE BOX", "address": {"city": "DICKSON", "state": "TN", "street": "705 HIGHWAY 70 E", "postcode": "37055"}}},
{"geometry": {"type": "Point", "coordinates": [-87.3824634957, 36.0730196369]}, "type": "Feature", "properties": {"collection_times": [{"days": "Mon-Sat", "time": "2:30pm"}, {"days": "Sun", "time": "Closed"}], "id": "3705500007", "name": "USPS COLLECTION BOX - BLUE BOX", "address": {"city": "DICKSON", "state": "TN", "street": "404 E COLLEGE ST", "postcode": "37055"}}},
{"geometry": {"type": "Point", "coordinates": [-87.390998387, 36.074404613]}, "type": "Feature", "properties": {"collection_times": [{"days": "Mon-Sat", "time": "2:30pm"}, {"days": "Sun", "time": "Closed"}], "id": "3705500010", "name": "USPS COLLECTION BOX - BLUE BOX", "address": {"city": "DICKSON", "state": "TN", "street": "204 N MAIN ST", "postcode": "37055"}}},
{"geometry": {"type": "Point", "coordinates": [-87.3856598508, 36.0783701603]}, "type": "Feature", "properties": {"collection_times": [{"days": "Mon-Sat", "time": "2:30pm"}, {"days": "Sun", "time": "Closed"}], "id": "3705500013", "name": "USPS COLLECTION BOX - BLUE BOX", "address": {"city": "DICKSON", "state": "TN", "street": "225 N MAIN ST", "postcode": "37055"}}},
{"geometry": {"type": "Point", "coordinates": [-87.3830691707, 36.0841548296]}, "type": "Feature", "properties": {"collection_times": [{"days": "Mon-Sat", "time": "9:30am"}, {"days": "Sun", "time": "Closed"}], "id": "3705500015", "name": "USPS COLLECTION BOX - BLUE BOX", "address": {"city": "DICKSON", "state": "TN", "street": "500 HENSLEE DR", "postcode": "37055"}}},
{"geometry": {"type": "Point", "coordinates": [-87.3717045392, 36.0741160511]}, "type": "Feature", "properties": {"collection_times": [{"days": "Mon-Sat", "time": "2:30pm"}, {"days": "Sun", "time": "Closed"}], "id": "3705500017", "name": "USPS COLLECTION BOX - BLUE BOX", "address": {"city": "DICKSON", "state": "TN", "street": "241 DICKSON PLAZA DR", "postcode": "37055"}}},
{"geometry": {"type": "Point", "coordinates": [-87.3743820404, 36.0723286995]}, "type": "Feature", "properties": {"collection_times": [{"days": "Mon-Sat", "time": "2:30pm"}, {"days": "Sun", "time": "Closed"}], "id": "3705500019", "name": "USPS COLLECTION BOX - BLUE BOX", "address": {"city": "DICKSON", "state": "TN", "street": "111 HIGHWAY 70 E", "postcode": "37055"}}},
{"geometry": {"type": "Point", "coordinates": [-87.377554216, 36.0713587625]}, "type": "Feature", "properties": {"collection_times": [{"days": "Mon-Sat", "time": "2:30pm"}, {"days": "Sun", "time": "Closed"}], "id": "3705500021", "name": "USPS COLLECTION BOX - BLUE BOX", "address": {"city": "DICKSON", "state": "TN", "street": "719 E COLLEGE ST", "postcode": "37055"}}},
{"geometry": {"type": "Point", "coordinates": [-87.3803616976, 36.0718772481]}, "type": "Feature", "properties": {"collection_times": [{"days": "Mon-Sat", "time": "2:30pm"}, {"days": "Sun", "time": "Closed"}], "id": "3705500022", "name": "USPS COLLECTION BOX - BLUE BOX", "address": {"city": "DICKSON", "state": "TN", "street": "611 E COLLEGE ST", "postcode": "37055"}}},
{"geometry": {"type": "Point", "coordinates": [-87.3403063871, 36.0233329944]}, "type": "Feature", "properties": {"collection_times": [{"days": "Mon-Sat", "time": "8:30am"}, {"days": "Sun", "time": "Closed"}], "id": "3705500024", "name": "USPS COLLECTION BOX - BLUE BOX", "address": {"city": "DICKSON", "state": "TN", "street": "2320 HIGHWAY 46 S", "postcode": "37055"}}},
{"geometry": {"type": "Point", "coordinates": [-87.3762198152, 36.0628184221]}, "type": "Feature", "properties": {"collection_times": [{"days": "Mon-Sat", "time": "5:00pm"}, {"days": "Sun", "time": "Closed"}], "id": "3705500030", "name": "USPS COLLECTION BOX - PO LOBBY", "address": {"city": "DICKSON", "state": "TN", "street": "206 SKYLINE CIR", "postcode": "37055"}}},
{"geometry": {"type": "Point", "coordinates": [-87.3699179618, 36.0749161148]}, "type": "Feature", "properties": {"collection_times": [{"days": "Mon-Sat", "time": "10:00am"}, {"days": "Sun", "time": "Closed"}], "id": "3705500033", "name": "USPS COLLECTION BOX - BLUE BOX", "address": {"city": "DICKSON", "state": "TN", "street": "143 HENSLEE DR", "postcode": "37055"}}},
{"geometry": {"type": "Point", "coordinates": [-86.0519631903, 36.3598152381]}, "type": "Feature", "properties": {"collection_times": [{"days": "Mon-Sat", "time": "11:00am"}, {"days": "Sun", "time": "Closed"}], "id": "3705700001", "name": "USPS COLLECTION BOX - BLUE BOX", "address": {"city": "DIXON SPRINGS", "state": "TN", "street": "4 HIGHERS DR", "postcode": "37057"}}},
{"geometry": {"type": "Point", "coordinates": [-86.0519631903, 36.3598152381]}, "type": "Feature", "properties": {"collection_times": [{"days": "Mon-Sat", "time": "11:00am"}, {"days": "Sun", "time": "Closed"}], "id": "3705700002", "name": "USPS COLLECTION BOX - PO LOBBY", "address": {"city": "DIXON SPRINGS", "state": "TN", "street": "4 HIGHERS DR", "postcode": "37057"}}},
{"geometry": {"type": "Point", "coordinates": [-87.8384941767, 36.4878951755]}, "type": "Feature", "properties": {"collection_times": [{"days": "Mon-Fri", "time": "4:00pm"}, {"days": "Sat", "time": "11:30am"}, {"days": "Sun", "time": "Closed"}], "id": "3705800000", "name": "USPS COLLECTION BOX - BLUE BOX", "address": {"city": "DOVER", "state": "TN", "street": "326 SPRING ST", "postcode": "37058"}}},
{"geometry": {"type": "Point", "coordinates": [-87.8384941767, 36.4878951755]}, "type": "Feature", "properties": {"collection_times": [{"days": "Mon-Fri", "time": "4:00pm"}, {"days": "Sat", "time": "11:30am"}, {"days": "Sun", "time": "Closed"}], "id": "3705800003", "name": "USPS COLLECTION BOX - PO LOBBY", "address": {"city": "DOVER", "state": "TN", "street": "326 SPRING ST", "postcode": "37058"}}},
{"geometry": {"type": "Point", "coordinates": [-87.8393256176, 36.480664313]}, "type": "Feature", "properties": {"collection_times": [{"days": "Mon-Sat", "time": "9:00am"}, {"days": "Sun", "time": "Closed"}], "id": "3705800004", "name": "USPS COLLECTION BOX - BLUE BOX", "address": {"city": "DOVER", "state": "TN", "street": "305 MAIN ST", "postcode": "37058"}}},
{"geometry": {"type": "Point", "coordinates": [-85.9428952324, 36.0128885473]}, "type": "Feature", "properties": {"collection_times": [{"days": "Mon-Fri", "time": "3:00pm"}, {"days": "Sat", "time": "10:30am"}, {"days": "Sun", "time": "Closed"}], "id": "3705900001", "name": "USPS COLLECTION BOX - PO LOBBY", "address": {"city": "DOWELLTOWN", "state": "TN", "street": "101 VILLAGE SQ", "postcode": "37059"}}},
{"geometry": {"type": "Point", "coordinates": [-85.9428952324, 36.0128885473]}, "type": "Feature", "properties": {"collection_times": [{"days": "Mon-Fri", "time": "3:00pm"}, {"days": "Sat", "time": "10:30am"}, {"days": "Sun", "time": "Closed"}], "id": "3705900002", "name": "USPS COLLECTION BOX - BLUE BOX", "address": {"city": "DOWELLTOWN", "state": "TN", "street": "101 VILLAGE SQ", "postcode": "37059"}}},
{"geometry": {"type": "Point", "coordinates": [-86.6499800364, 35.7414587152]}, "type": "Feature", "properties": {"collection_times": [{"days": "Mon-Fri", "time": "3:00pm"}, {"days": "Sat", "time": "11:00am"}, {"days": "Sun", "time": "Closed"}], "id": "3706000001", "name": "USPS COLLECTION BOX - BLUE BOX", "address": {"city": "EAGLEVILLE", "state": "TN", "street": "100 N MAIN ST", "postcode": "37060"}}},
{"geometry": {"type": "Point", "coordinates": [-86.6499800364, 35.7414587152]}, "type": "Feature", "properties": {"collection_times": [{"days": "Mon-Fri", "time": "3:00pm"}, {"days": "Sat", "time": "11:00am"}, {"days": "Sun", "time": "Closed"}], "id": "3706000002", "name": "USPS COLLECTION BOX - PO LOBBY", "address": {"city": "EAGLEVILLE", "state": "TN", "street": "100 N MAIN ST", "postcode": "37060"}}},
{"geometry": {"type": "Point", "coordinates": [-87.712882862, 36.3156090318]}, "type": "Feature", "properties": {"collection_times": [{"days": "Mon-Fri", "time": "4:15pm"}, {"days": "Sat", "time": "11:30am"}, {"days": "Sun", "time": "Closed"}], "id": "3706100001", "name": "USPS COLLECTION BOX - BLUE BOX", "address": {"city": "ERIN", "state": "TN", "street": "30 ARLINGTON ST", "postcode": "37061"}}},
{"geometry": {"type": "Point", "coordinates": [-87.712882862, 36.3156090318]}, "type": "Feature", "properties": {"collection_times": [{"days": "Mon-Fri", "time": "4:15pm"}, {"days": "Sat", "time": "11:30am"}, {"days": "Sun", "time": "Closed"}], "id": "3706100003", "name": "USPS COLLECTION BOX - PO LOBBY", "address": {"city": "ERIN", "state": "TN", "street": "30 ARLINGTON ST", "postcode": "37061"}}},
{"geometry": {"type": "Point", "coordinates": [-87.6943506268, 36.318773447]}, "type": "Feature", "properties": {"collection_times": [{"days": "Mon-Sat", "time": "1:00pm"}, {"days": "Sun", "time": "Closed"}], "id": "3706100004", "name": "USPS COLLECTION BOX - BLUE BOX", "address": {"city": "ERIN", "state": "TN", "street": "7 ADKINS DR", "postcode": "37061"}}},
{"geometry": {"type": "Point", "coordinates": [-87.111556429, 35.985177836]}, "type": "Feature", "properties": {"collection_times": [{"days": "Mon-Fri", "time": "4:00pm"}, {"days": "Sat", "time": "12:00pm"}, {"days": "Sun", "time": "Closed"}], "id": "3706200001", "name": "USPS COLLECTION BOX - BLUE BOX", "address": {"city": "FAIRVIEW", "state": "TN", "street": "1890 FAIRVIEW BLVD", "postcode": "37062"}}},
{"geometry": {"type": "Point", "coordinates": [-87.111556429, 35.985177836]}, "type": "Feature", "properties": {"collection_times": [{"days": "Mon-Fri", "time": "4:00pm"}, {"days": "Sat", "time": "12:00pm"}, {"days": "Sun", "time": "Closed"}], "id": "3706200003", "name": "USPS COLLECTION BOX - PO LOBBY", "address": {"city": "FAIRVIEW", "state": "TN", "street": "1890 FAIRVIEW BLVD", "postcode": "37062"}}},
{"geometry": {"type": "Point", "coordinates": [-87.1226182783, 35.9809759657]}, "type": "Feature", "properties": {"collection_times": [{"days": "Mon-Sat", "time": "9:00am"}, {"days": "Sun", "time": "Closed"}], "id": "3706200005", "name": "USPS COLLECTION BOX - BLUE BOX", "address": {"city": "FAIRVIEW", "state": "TN", "street": "2080 FAIRVIEW BLVD", "postcode": "37062"}}},
{"geometry": {"type": "Point", "coordinates": [-87.1718430264, 36.0255358633]}, "type": "Feature", "properties": {"collection_times": [{"days": "Mon-Sat", "time": "9:00am"}, {"days": "Sun", "time": "Closed"}], "id": "3706200006", "name": "USPS COLLECTION BOX - BLUE BOX", "address": {"city": "FAIRVIEW", "state": "TN", "street": "1420 HIGHWAY 96 N", "postcode": "37062"}}},
{"geometry": {"type": "Point", "coordinates": [-87.1290819661, 35.9723640244]}, "type": "Feature", "properties": {"collection_times": [{"days": "Mon-Sat", "time": "10:30am"}, {"days": "Sun", "time": "Closed"}], "id": "3706200007", "name": "USPS COLLECTION BOX - BLUE BOX", "address": {"city": "FAIRVIEW", "state": "TN", "street": "2239 FAIRVIEW BLVD", "postcode": "37062"}}},
{"geometry": {"type": "Point", "coordinates": [-86.8307799357, 35.9156210318]}, "type": "Feature", "properties": {"collection_times": [{"days": "Mon-Sat", "time": "11:30am"}, {"days": "Sun", "time": "Closed"}], "id": "3706400004", "name": "USPS COLLECTION BOX - BLUE BOX", "address": {"city": "FRANKLIN", "state": "TN", "street": "1211 MURFREESBORO RD", "postcode": "37064"}}},
{"geometry": {"type": "Point", "coordinates": [-86.796109924, 35.923930534]}, "type": "Feature", "properties": {"collection_times": [{"days": "Mon-Sat", "time": "11:00am"}, {"days": "Sun", "time": "Closed"}], "id": "3706400005", "name": "USPS COLLECTION BOX - BLUE BOX", "address": {"city": "FRANKLIN", "state": "TN", "street": "1400 LIBERTY PIKE", "postcode": "37064"}}},
{"geometry": {"type": "Point", "coordinates": [-86.8163904229, 35.9559481029]}, "type": "Feature", "properties": {"collection_times": [{"days": "Mon-Sat", "time": "11:00am"}, {"days": "Sun", "time": "Closed"}], "id": "3706400006", "name": "USPS COLLECTION BOX - BLUE BOX", "address": {"city": "FRANKLIN", "state": "TN", "street": "1800 GALLERIA BLVD", "postcode": "37064"}}},
{"geometry": {"type": "Point", "coordinates": [-86.8083202928, 35.9486758407]}, "type": "Feature", "properties": {"collection_times": [{"days": "Mon-Sat", "time": "10:00am"}, {"days": "Sun", "time": "Closed"}], "id": "3706400007", "name": "USPS COLLECTION BOX - BLUE BOX", "address": {"city": "FRANKLIN", "state": "TN", "street": "1000 CORPORATE CENTER DR.", "postcode": "37064"}}},
{"geometry": {"type": "Point", "coordinates": [-86.8184570522, 35.9507691085]}, "type": "Feature", "properties": {"collection_times": [{"days": "Mon-Sat", "time": "10:00am"}, {"days": "Sun", "time": "Closed"}], "id": "3706400008", "name": "USPS COLLECTION BOX - BLUE BOX", "address": {"city": "FRANKLIN", "state": "TN", "street": "2000 MALLORY LN", "postcode": "37064"}}},
{"geometry": {"type": "Point", "coordinates": [-86.8698304446, 35.9240513113]}, "type": "Feature", "properties": {"collection_times": [{"days": "Mon-Sat", "time": "1:00pm"}, {"days": "Sun", "time": "Closed"}], "id": "3706400011", "name": "USPS COLLECTION BOX - BLUE BOX", "address": {"city": "FRANKLIN", "state": "TN", "street": "135 4TH AVE S", "postcode": "37064"}}},
{"geometry": {"type": "Point", "coordinates": [-86.8775751573, 35.9328558068]}, "type": "Feature", "properties": {"collection_times": [{"days": "Mon-Sat", "time": "11:00am"}, {"days": "Sun", "time": "Closed"}], "id": "3706400013", "name": "USPS COLLECTION BOX - BLUE BOX", "address": {"city": "FRANKLIN", "state": "TN", "street": "305 INDEPENDENCE SQ", "postcode": "37064"}}},
{"geometry": {"type": "Point", "coordinates": [-86.8835304419, 35.9149999783]}, "type": "Feature", "properties": {"collection_times": [{"days": "Mon-Sat", "time": "1:00pm"}, {"days": "Sun", "time": "Closed"}], "id": "3706400014", "name": "USPS COLLECTION BOX - BLUE BOX", "address": {"city": "FRANKLIN", "state": "TN", "street": "1320 W MAIN ST", "postcode": "37064"}}},
{"geometry": {"type": "Point", "coordinates": [-86.8835304419, 35.9149999783]}, "type": "Feature", "properties": {"collection_times": [{"days": "Mon-Sat", "time": "1:00pm"}, {"days": "Sun", "time": "Closed"}], "id": "3706400015", "name": "USPS COLLECTION BOX - BLUE BOX", "address": {"city": "FRANKLIN", "state": "TN", "street": "1320 W MAIN ST", "postcode": "37064"}}},
{"geometry": {"type": "Point", "coordinates": [-86.8718487221, 35.9229518285]}, "type": "Feature", "properties": {"collection_times": [{"days": "Mon-Fri", "time": "5:00pm"}, {"days": "Sat", "time": "3:00pm"}, {"days": "Sun", "time": "Closed"}], "id": "3706400021", "name": "USPS COLLECTION BOX - BLUE BOX", "address": {"city": "FRANKLIN", "state": "TN", "street": "510 COLUMBIA AVE", "postcode": "37064"}}},
{"geometry": {"type": "Point", "coordinates": [-86.8718487221, 35.9229518285]}, "type": "Feature", "properties": {"collection_times": [{"days": "Mon-Fri", "time": "5:00pm"}, {"days": "Sat", "time": "3:00pm"}, {"days": "Sun", "time": "Closed"}], "id": "3706400022", "name": "USPS COLLECTION BOX - BLUE BOX", "address": {"city": "FRANKLIN", "state": "TN", "street": "510 COLUMBIA AVE", "postcode": "37064"}}},
{"geometry": {"type": "Point", "coordinates": [-86.8389033149, 35.9165117999]}, "type": "Feature", "properties": {"collection_times": [{"days": "Mon-Sat", "time": "2:00pm"}, {"days": "Sun", "time": "Closed"}], "id": "3706400025", "name": "USPS COLLECTION BOX - BLUE BOX", "address": {"city": "FRANKLIN", "state": "TN", "street": "1010 MURFREESBORO RD", "postcode": "37064"}}},
{"geometry": {"type": "Point", "coordinates": [-86.8333805457, 35.9098892928]}, "type": "Feature", "properties": {"collection_times": [{"days": "Mon-Fri", "time": "5:00pm"}, {"days": "Sat", "time": "3:00pm"}, {"days": "Sun", "time": "Closed"}], "id": "3706400030", "name": "USPS COLLECTION BOX - BLUE BOX", "address": {"city": "FRANKLIN", "state": "TN", "street": "810 OAK MEADOW DR", "postcode": "37064"}}},
{"geometry": {"type": "Point", "coordinates": [-86.8333805457, 35.9098892928]}, "type": "Feature", "properties": {"collection_times": [{"days": "Mon-Fri", "time": "5:00pm"}, {"days": "Sat", "time": "3:00pm"}, {"days": "Sun", "time": "Closed"}], "id": "3706400031", "name": "USPS COLLECTION BOX - BLUE BOX", "address": {"city": "FRANKLIN", "state": "TN", "street": "810 OAK MEADOW DR", "postcode": "37064"}}},
{"geometry": {"type": "Point", "coordinates": [-86.8333805457, 35.9098892928]}, "type": "Feature", "properties": {"collection_times": [{"days": "Mon-Fri", "time": "5:00pm"}, {"days": "Sat", "time": "3:00pm"}, {"days": "Sun", "time": "Closed"}], "id": "3706400032", "name": "USPS COLLECTION BOX - PO LOBBY", "address": {"city": "FRANKLIN", "state": "TN", "street": "810 OAK MEADOW DR", "postcode": "37064"}}},
{"geometry": {"type": "Point", "coordinates": [-86.9716126533, 35.9251323764]}, "type": "Feature", "properties": {"collection_times": [{"days": "Mon-Sat", "time": "12:00pm"}, {"days": "Sun", "time": "Closed"}], "id": "3706400034", "name": "USPS COLLECTION BOX - BLUE BOX", "address": {"city": "FRANKLIN", "state": "TN", "street": "2181 HILLSBORO RD", "postcode": "37064"}}},
{"geometry": {"type": "Point", "coordinates": [-86.8682649654, 35.9242988456]}, "type": "Feature", "properties": {"collection_times": [{"days": "Mon-Fri", "time": "1:00pm"}, {"days": "Sat-Sun", "time": "Closed"}], "id": "3706400040", "name": "USPS COLLECTION BOX - BLUE BOX", "address": {"city": "FRANKLIN", "state": "TN", "street": "109 3RD AVE S", "postcode": "37064"}}},
{"geometry": {"type": "Point", "coordinates": [-86.80874, 35.94879]}, "type": "Feature", "properties": {"collection_times": [{"days": "Mon-Sat", "time": "10:00am"}, {"days": "Sun", "time": "Closed"}], "id": "3706400041", "name": "USPS COLLECTION BOX - BLUE BOX", "address": {"city": "FRANKLIN", "state": "TN", "street": "1000 CORPORATE CENTRE DR", "postcode": "37064"}}},
{"geometry": {"type": "Point", "coordinates": [-86.8123896557, 35.9438227735]}, "type": "Feature", "properties": {"collection_times": [{"days": "Mon-Sat", "time": "11:00am"}, {"days": "Sun", "time": "Closed"}], "id": "3706400046", "name": "USPS COLLECTION BOX - BLUE BOX", "address": {"city": "FRANKLIN", "state": "TN", "street": "830 CRESCENT CENTRE DR", "postcode": "37064"}}},
{"geometry": {"type": "Point", "coordinates": [-86.8203462377, 35.9476614753]}, "type": "Feature", "properties": {"collection_times": [{"days": "Mon-Sat", "time": "10:00am"}, {"days": "Sun", "time": "Closed"}], "id": "3706400047", "name": "USPS COLLECTION BOX - BLUE BOX", "address": {"city": "FRANKLIN", "state": "TN", "street": "545 COOL SPRINGS BLVD", "postcode": "37064"}}},
{"geometry": {"type": "Point", "coordinates": [-86.8825615985, 35.9638964042]}, "type": "Feature", "properties": {"collection_times": [{"days": "Mon-Sat", "time": "12:00pm"}, {"days": "Sun", "time": "Closed"}], "id": "3706400049", "name": "USPS COLLECTION BOX - BLUE BOX", "address": {"city": "FRANKLIN", "state": "TN", "street": "2020 FIELDSTONE PKWY", "postcode": "37064"}}},
{"geometry": {"type": "Point", "coordinates": [-86.9959383385, 35.8957118658]}, "type": "Feature", "properties": {"collection_times": [{"days": "Mon-Sat", "time": "12:00pm"}, {"days": "Sun", "time": "Closed"}], "id": "3706400050", "name": "USPS COLLECTION BOX - BLUE BOX", "address": {"city": "FRANKLIN", "state": "TN", "street": "4146 OLD HILLSBORO RD", "postcode": "37064"}}},
{"geometry": {"type": "Point", "coordinates": [-86.8421529032, 35.914028769]}, "type": "Feature", "properties": {"collection_times": [{"days": "Mon-Sat", "time": "10:00am"}, {"days": "Sun", "time": "Closed"}], "id": "3706400051", "name": "USPS COLLECTION BOX - BLUE BOX", "address": {"city": "FRANKLIN", "state": "TN", "street": "700 COOL SPRINGS BLVD", "postcode": "37064"}}},
{"geometry": {"type": "Point", "coordinates": [-86.8421529032, 35.914028769]}, "type": "Feature", "properties": {"collection_times": [{"days": "Mon-Sat", "time": "10:00am"}, {"days": "Sun", "time": "Closed"}], "id": "3706400052", "name": "USPS COLLECTION BOX - BLUE BOX", "address": {"city": "FRANKLIN", "state": "TN", "street": "700 COOL SPRINGS BLVD", "postcode": "37064"}}},
{"geometry": {"type": "Point", "coordinates": [-86.8123896557, 35.9438227735]}, "type": "Feature", "properties": {"collection_times": [{"days": "Mon-Sat", "time": "11:00am"}, {"days": "Sun", "time": "Closed"}], "id": "3706400053", "name": "USPS COLLECTION BOX - BLUE BOX", "address": {"city": "FRANKLIN", "state": "TN", "street": "830 CRESCENT CENTRE DR", "postcode": "37064"}}},
{"geometry": {"type": "Point", "coordinates": [-86.8862607112, 35.9977526898]}, "type": "Feature", "properties": {"collection_times": [{"days": "Mon-Sat", "time": "11:00am"}, {"days": "Sun", "time": "Closed"}], "id": "3706400054", "name": "USPS COLLECTION BOX - BLUE BOX", "address": {"city": "FRANKLIN", "state": "TN", "street": "2200 HILLSBORO RD", "postcode": "37064"}}},
{"geometry": {"type": "Point", "coordinates": [-86.8825615985, 35.9638964042]}, "type": "Feature", "properties": {"collection_times": [{"days": "Mon-Sat", "time": "12:00pm"}, {"days": "Sun", "time": "Closed"}], "id": "3706400055", "name": "USPS COLLECTION BOX - BLUE BOX", "address": {"city": "FRANKLIN", "state": "TN", "street": "2020 FIELDSTONE PKWY", "postcode": "37064"}}},
{"geometry": {"type": "Point", "coordinates": [-86.8258977976, 35.935854284]}, "type": "Feature", "properties": {"collection_times": [{"days": "Mon-Sat", "time": "12:00pm"}, {"days": "Sun", "time": "Closed"}], "id": "3706400056", "name": "USPS COLLECTION BOX - BLUE BOX", "address": {"city": "FRANKLIN", "state": "TN", "street": "1556 W MCEWEN DR", "postcode": "37064"}}},
{"geometry": {"type": "Point", "coordinates": [-86.8333805457, 35.9098892928]}, "type": "Feature", "properties": {"collection_times": [{"days": "Mon-Fri", "time": "5:00pm"}, {"days": "Sat", "time": "3:00pm"}, {"days": "Sun", "time": "Closed"}], "id": "3706400057", "name": "USPS COLLECTION BOX - APC", "address": {"city": "FRANKLIN", "state": "TN", "street": "810 OAK MEADOW DR", "postcode": "37064"}}},
{"geometry": {"type": "Point", "coordinates": [-86.8769714143, 35.8935359564]}, "type": "Feature", "properties": {"collection_times": [{"days": "Mon-Sat", "time": "12:00pm"}, {"days": "Sun", "time": "Closed"}], "id": "3706400058", "name": "USPS COLLECTION BOX - BLUE BOX", "address": {"city": "FRANKLIN", "state": "TN", "street": "3054 COLUMBIA AVE", "postcode": "37064"}}},
{"geometry": {"type": "Point", "coordinates": [-86.4448007208, 36.3936181812]}, "type": "Feature", "properties": {"collection_times": [{"days": "Mon-Sat", "time": "1:00pm"}, {"days": "Sun", "time": "Closed"}], "id": "3706600003", "name": "USPS COLLECTION BOX - BLUE BOX", "address": {"city": "GALLATIN", "state": "TN", "street": "206 E BROADWAY", "postcode": "37066"}}},
{"geometry": {"type": "Point", "coordinates": [-86.4463821519, 36.3888235451]}, "type": "Feature", "properties": {"collection_times": [{"days": "Mon-Fri", "time": "3:00pm"}, {"days": "Sat-Sun", "time": "Closed"}], "id": "3706600006", "name": "USPS COLLECTION BOX - BLUE BOX", "address": {"city": "GALLATIN", "state": "TN", "street": "118 PUBLIC SQ", "postcode": "37066"}}},
{"geometry": {"type": "Point", "coordinates": [-86.4398893522, 36.3898706313]}, "type": "Feature", "properties": {"collection_times": [{"days": "Mon-Sat", "time": "1:00pm"}, {"days": "Sun", "time": "Closed"}], "id": "3706600007", "name": "USPS COLLECTION BOX - BLUE BOX", "address": {"city": "GALLATIN", "state": "TN", "street": "353 E MAIN ST", "postcode": "37066"}}},
{"geometry": {"type": "Point", "coordinates": [-86.4327691874, 36.3905264347]}, "type": "Feature", "properties": {"collection_times": [{"days": "Mon-Fri", "time": "2:30pm"}, {"days": "Sat", "time": "1:00pm"}, {"days": "Sun", "time": "Closed"}], "id": "3706600018", "name": "USPS COLLECTION BOX - BLUE BOX", "address": {"city": "GALLATIN", "state": "TN", "street": "300 STEAM PLANT RD", "postcode": "37066"}}},
{"geometry": {"type": "Point", "coordinates": [-86.4365352015, 36.390989543]}, "type": "Feature", "properties": {"collection_times": [{"days": "Mon-Sat", "time": "1:00pm"}, {"days": "Sun", "time": "Closed"}], "id": "3706600024", "name": "USPS COLLECTION BOX - BLUE BOX", "address": {"city": "GALLATIN", "state": "TN", "street": "471 E MAIN ST", "postcode": "37066"}}},
{"geometry": {"type": "Point", "coordinates": [-86.4465608329, 36.3870869908]}, "type": "Feature", "properties": {"collection_times": [{"days": "Mon-Fri", "time": "2:30pm"}, {"days": "Sat", "time": "12:00pm"}, {"days": "Sun", "time": "Closed"}], "id": "3706600025", "name": "USPS COLLECTION BOX - BLUE BOX", "address": {"city": "GALLATIN", "state": "TN", "street": "117 W SMITH ST", "postcode": "37066"}}},
{"geometry": {"type": "Point", "coordinates": [-86.4427863042, 36.3791126887]}, "type": "Feature", "properties": {"collection_times": [{"days": "Mon-Fri", "time": "2:30pm"}, {"days": "Sat", "time": "1:00pm"}, {"days": "Sun", "time": "Closed"}], "id": "3706600027", "name": "USPS COLLECTION BOX - BLUE BOX", "address": {"city": "GALLATIN", "state": "TN", "street": "649 S WATER AVE", "postcode": "37066"}}},
{"geometry": {"type": "Point", "coordinates": [-86.4802053245, 36.3784567915]}, "type": "Feature", "properties": {"collection_times": [{"days": "Mon-Sat", "time": "1:00pm"}, {"days": "Sun", "time": "Closed"}], "id": "3706600032", "name": "USPS COLLECTION BOX - BLUE BOX", "address": {"city": "GALLATIN", "state": "TN", "street": "355 N BELVEDERE DR", "postcode": "37066"}}},
{"geometry": {"type": "Point", "coordinates": [-86.4544084323, 36.3808561461]}, "type": "Feature", "properties": {"collection_times": [{"days": "Mon-Sat", "time": "5:00pm"}, {"days": "Sun", "time": "Closed"}], "id": "3706600033", "name": "USPS COLLECTION BOX - BLUE BOX", "address": {"city": "GALLATIN", "state": "TN", "street": "380 MAPLE ST", "postcode": "37066"}}},
{"geometry": {"type": "Point", "coordinates": [-86.4544084323, 36.3808561461]}, "type": "Feature", "properties": {"collection_times": [{"days": "Mon-Sat", "time": "5:00pm"}, {"days": "Sun", "time": "Closed"}], "id": "3706600040", "name": "USPS COLLECTION BOX - PO LOBBY", "address": {"city": "GALLATIN", "state": "TN", "street": "380 MAPLE ST", "postcode": "37066"}}},
{"geometry": {"type": "Point", "coordinates": [-86.4750097588, 36.3750089503]}, "type": "Feature", "properties": {"collection_times": [{"days": "Mon-Fri", "time": "10:30am"}, {"days": "Sat", "time": "10:00am"}, {"days": "Sun", "time": "Closed"}], "id": "3706600041", "name": "USPS COLLECTION BOX - BLUE BOX", "address": {"city": "GALLATIN", "state": "TN", "street": "1112 NASHVILLE PIKE", "postcode": "37066"}}},
{"geometry": {"type": "Point", "coordinates": [-86.4544084323, 36.3808561461]}, "type": "Feature", "properties": {"collection_times": [{"days": "Mon-Sat", "time": "5:00pm"}, {"days": "Sun", "time": "Closed"}], "id": "3706600042", "name": "USPS COLLECTION BOX - APC", "address": {"city": "GALLATIN", "state": "TN", "street": "380 MAPLE ST", "postcode": "37066"}}},
{"geometry": {"type": "Point", "coordinates": [-86.4463821519, 36.3888235451]}, "type": "Feature", "properties": {"collection_times": [{"days": "Mon-Fri", "time": "3:00pm"}, {"days": "Sat-Sun", "time": "Closed"}], "id": "3706600045", "name": "USPS COLLECTION BOX - BLUE BOX", "address": {"city": "GALLATIN", "state": "TN", "street": "118 PUBLIC SQ", "postcode": "37066"}}},
{"geometry": {"type": "Point", "coordinates": [-86.4566336743, 36.3843129226]}, "type": "Feature", "properties": {"collection_times": [{"days": "Mon-Sat", "time": "1:00pm"}, {"days": "Sun", "time": "Closed"}], "id": "3706600046", "name": "USPS COLLECTION BOX - BLUE BOX", "address": {"city": "GALLATIN", "state": "TN", "street": "450 W MAIN ST", "postcode": "37066"}}},
{"geometry": {"type": "Point", "coordinates": [-86.4157283587, 36.1126659074]}, "type": "Feature", "properties": {"collection_times": [{"days": "Mon-Fri", "time": "4:00pm"}, {"days": "Sat", "time": "12:00pm"}, {"days": "Sun", "time": "Closed"}], "id": "3707100001", "name": "USPS COLLECTION BOX - BLUE BOX", "address": {"city": "GLADEVILLE", "state": "TN", "street": "8736 STEWARTS FERRY PIKE", "postcode": "37071"}}},
{"geometry": {"type": "Point", "coordinates": [-86.4157283587, 36.1126659074]}, "type": "Feature", "properties": {"collection_times": [{"days": "Mon-Fri", "time": "4:00pm"}, {"days": "Sat", "time": "12:00pm"}, {"days": "Sun", "time": "Closed"}], "id": "3707100003", "name": "USPS COLLECTION BOX - PO LOBBY", "address": {"city": "GLADEVILLE", "state": "TN", "street": "9005 STEWARTS FERRY PIKE", "postcode": "37071"}}},
{"geometry": {"type": "Point", "coordinates": [-86.712316469, 36.314778071]}, "type": "Feature", "properties": {"collection_times": [{"days": "Mon-Fri", "time": "2:00pm"}, {"days": "Sat", "time": "12:00pm"}, {"days": "Sun", "time": "Closed"}], "id": "3707200011", "name": "USPS COLLECTION BOX - BLUE BOX", "address": {"city": "GOODLETTSVILLE", "state": "TN", "street": "212 GOODLETTSVILLE PLZ", "postcode": "37072"}}},
{"geometry": {"type": "Point", "coordinates": [-86.6992896877, 36.3231023244]}, "type": "Feature", "properties": {"collection_times": [{"days": "Mon-Fri", "time": "5:00pm"}, {"days": "Sat", "time": "2:30pm"}, {"days": "Sun", "time": "Closed"}], "id": "3707200023", "name": "USPS COLLECTION BOX - BLUE BOX", "address": {"city": "GOODLETTSVILLE", "state": "TN", "street": "301 NORTHCREEK BLVD", "postcode": "37072"}}},
{"geometry": {"type": "Point", "coordinates": [-86.7178983327, 36.3436330071]}, "type": "Feature", "properties": {"collection_times": [{"days": "Mon-Sat", "time": "10:00am"}, {"days": "Sun", "time": "Closed"}], "id": "3707200025", "name": "USPS COLLECTION BOX - BLUE BOX", "address": {"city": "GOODLETTSVILLE", "state": "TN", "street": "1246 LOUISVILLE HWY", "postcode": "37072"}}},
{"geometry": {"type": "Point", "coordinates": [-86.6992896877, 36.3231023244]}, "type": "Feature", "properties": {"collection_times": [{"days": "Mon-Fri", "time": "5:00pm"}, {"days": "Sat", "time": "2:30pm"}, {"days": "Sun", "time": "Closed"}], "id": "3707200026", "name": "USPS COLLECTION BOX - PO LOBBY", "address": {"city": "GOODLETTSVILLE", "state": "TN", "street": "301 NORTHCREEK BLVD", "postcode": "37072"}}},
{"geometry": {"type": "Point", "coordinates": [-86.6992896877, 36.3231023244]}, "type": "Feature", "properties": {"collection_times": [{"days": "Mon-Fri", "time": "5:00pm"}, {"days": "Sat", "time": "2:30pm"}, {"days": "Sun", "time": "Closed"}], "id": "3707200027", "name": "USPS COLLECTION BOX - PO LOBBY", "address": {"city": "GOODLETTSVILLE", "state": "TN", "street": "301 NORTHCREEK BLVD", "postcode": "37072"}}},
{"geometry": {"type": "Point", "coordinates": [-86.7132778047, 36.3220833662]}, "type": "Feature", "properties": {"collection_times": [{"days": "Mon-Fri", "time": "3:00pm"}, {"days": "Sat", "time": "12:00pm"}, {"days": "Sun", "time": "Closed"}], "id": "3707200028", "name": "USPS COLLECTION BOX - BLUE BOX", "address": {"city": "GOODLETTSVILLE", "state": "TN", "street": "105 S MAIN ST", "postcode": "37072"}}},
{"geometry": {"type": "Point", "coordinates": [-86.6992896877, 36.3231023244]}, "type": "Feature", "properties": {"collection_times": [{"days": "Mon-Fri", "time": "5:00pm"}, {"days": "Sat", "time": "2:30pm"}, {"days": "Sun", "time": "Closed"}], "id": "3707200030", "name": "USPS COLLECTION BOX - BLUE BOX", "address": {"city": "GOODLETTSVILLE", "state": "TN", "street": "301 NORTHCREEK BLVD", "postcode": "37072"}}},
{"geometry": {"type": "Point", "coordinates": [-86.700555081, 36.2996390858]}, "type": "Feature", "properties": {"collection_times": [{"days": "Mon-Fri", "time": "2:00pm"}, {"days": "Sat", "time": "12:00pm"}, {"days": "Sun", "time": "Closed"}], "id": "3707200031", "name": "USPS COLLECTION BOX - BLUE BOX", "address": {"city": "GOODLETTSVILLE", "state": "TN", "street": "846 CONFERENCE DR", "postcode": "37072"}}},
{"geometry": {"type": "Point", "coordinates": [-86.6992896877, 36.3231023244]}, "type": "Feature", "properties": {"collection_times": [{"days": "Mon-Fri", "time": "5:00pm"}, {"days": "Sat", "time": "2:30pm"}, {"days": "Sun", "time": "Closed"}], "id": "3707200032", "name": "USPS COLLECTION BOX - APC", "address": {"city": "GOODLETTSVILLE", "state": "TN", "street": "301 NORTHCREEK BLVD", "postcode": "37072"}}},
{"geometry": {"type": "Point", "coordinates": [-86.7949658531, 36.4165154315]}, "type": "Feature", "properties": {"collection_times": [{"days": "Mon-Fri", "time": "4:00pm"}, {"days": "Sat", "time": "11:30am"}, {"days": "Sun", "time": "Closed"}], "id": "3707300002", "name": "USPS COLLECTION BOX - BLUE BOX", "address": {"city": "GREENBRIER", "state": "TN", "street": "2278 HIGHWAY 41 S", "postcode": "37073"}}},
{"geometry": {"type": "Point", "coordinates": [-86.7949658531, 36.4165154315]}, "type": "Feature", "properties": {"collection_times": [{"days": "Mon-Fri", "time": "4:00pm"}, {"days": "Sat", "time": "11:30am"}, {"days": "Sun", "time": "Closed"}], "id": "3707300006", "name": "USPS COLLECTION BOX - BLUE BOX", "address": {"city": "GREENBRIER", "state": "TN", "street": "2278 HIGHWAY 41 S", "postcode": "37073"}}},
{"geometry": {"type": "Point", "coordinates": [-86.7949658531, 36.4165154315]}, "type": "Feature", "properties": {"collection_times": [{"days": "Mon-Fri", "time": "4:00pm"}, {"days": "Sat", "time": "11:30am"}, {"days": "Sun", "time": "Closed"}], "id": "3707300008", "name": "USPS COLLECTION BOX - PO LOBBY", "address": {"city": "GREENBRIER", "state": "TN", "street": "2278 HIGHWAY 41 S", "postcode": "37073"}}},
{"geometry": {"type": "Point", "coordinates": [-86.1664431935, 36.3907174624]}, "type": "Feature", "properties": {"collection_times": [{"days": "Mon-Fri", "time": "4:30pm"}, {"days": "Sat", "time": "12:30pm"}, {"days": "Sun", "time": "Closed"}], "id": "3707400001", "name": "USPS COLLECTION BOX - BLUE BOX", "address": {"city": "HARTSVILLE", "state": "TN", "street": "200 W MAIN ST", "postcode": "37074"}}},
{"geometry": {"type": "Point", "coordinates": [-86.1664431935, 36.3907174624]}, "type": "Feature", "properties": {"collection_times": [{"days": "Mon-Fri", "time": "4:30pm"}, {"days": "Sat", "time": "12:30pm"}, {"days": "Sun", "time": "Closed"}], "id": "3707400002", "name": "USPS COLLECTION BOX - BLUE BOX", "address": {"city": "HARTSVILLE", "state": "TN", "street": "200 W MAIN ST", "postcode": "37074"}}},
{"geometry": {"type": "Point", "coordinates": [-86.1662571437, 36.4005796592]}, "type": "Feature", "properties": {"collection_times": [{"days": "Mon-Sat", "time": "10:30am"}, {"days": "Sun", "time": "Closed"}], "id": "3707400004", "name": "USPS COLLECTION BOX - BLUE BOX", "address": {"city": "HARTSVILLE", "state": "TN", "street": "130 MCMURRY BLVD E", "postcode": "37074"}}},
{"geometry": {"type": "Point", "coordinates": [-86.1664431935, 36.3907174624]}, "type": "Feature", "properties": {"collection_times": [{"days": "Mon-Fri", "time": "4:30pm"}, {"days": "Sat", "time": "12:30pm"}, {"days": "Sun", "time": "Closed"}], "id": "3707400006", "name": "USPS COLLECTION BOX - PO LOBBY", "address": {"city": "HARTSVILLE", "state": "TN", "street": "200 W MAIN ST", "postcode": "37074"}}},
{"geometry": {"type": "Point", "coordinates": [-86.6060141835, 36.2685592049]}, "type": "Feature", "properties": {"collection_times": [{"days": "Mon-Fri", "time": "5:00pm"}, {"days": "Sat", "time": "3:00pm"}, {"days": "Sun", "time": "Closed"}], "id": "3707500001", "name": "USPS COLLECTION BOX - BLUE BOX", "address": {"city": "HENDERSONVILLE", "state": "TN", "street": "105 IMPERIAL BLVD", "postcode": "37075"}}},
{"geometry": {"type": "Point", "coordinates": [-86.6060141835, 36.2685592049]}, "type": "Feature", "properties": {"collection_times": [{"days": "Mon-Fri", "time": "5:00pm"}, {"days": "Sat", "time": "3:00pm"}, {"days": "Sun", "time": "Closed"}], "id": "3707500002", "name": "USPS COLLECTION BOX - BLUE BOX", "address": {"city": "HENDERSONVILLE", "state": "TN", "street": "105 IMPERIAL BLVD", "postcode": "37075"}}},
{"geometry": {"type": "Point", "coordinates": [-86.570627149, 36.3222880181]}, "type": "Feature", "properties": {"collection_times": [{"days": "Mon-Fri", "time": "3:00pm"}, {"days": "Sat", "time": "2:00pm"}, {"days": "Sun", "time": "Closed"}], "id": "3707500007", "name": "USPS COLLECTION BOX - BLUE BOX", "address": {"city": "HENDERSONVILLE", "state": "TN", "street": "100 BLUEGRASS COMMONS BLVD", "postcode": "37075"}}},
{"geometry": {"type": "Point", "coordinates": [-86.602337547, 36.3093346175]}, "type": "Feature", "properties": {"collection_times": [{"days": "Mon-Fri", "time": "3:00pm"}, {"days": "Sat", "time": "2:00pm"}, {"days": "Sun", "time": "Closed"}], "id": "3707500008", "name": "USPS COLLECTION BOX - BLUE BOX", "address": {"city": "HENDERSONVILLE", "state": "TN", "street": "235 E MAIN ST", "postcode": "37075"}}},
{"geometry": {"type": "Point", "coordinates": [-86.5980706141, 36.3112711213]}, "type": "Feature", "properties": {"collection_times": [{"days": "Mon-Fri", "time": "3:00pm"}, {"days": "Sat", "time": "2:00pm"}, {"days": "Sun", "time": "Closed"}], "id": "3707500009", "name": "USPS COLLECTION BOX - BLUE BOX", "address": {"city": "HENDERSONVILLE", "state": "TN", "street": "313 E MAIN ST", "postcode": "37075"}}},
{"geometry": {"type": "Point", "coordinates": [-86.5694323605, 36.3235455035]}, "type": "Feature", "properties": {"collection_times": [{"days": "Mon-Fri", "time": "3:00pm"}, {"days": "Sat", "time": "2:00pm"}, {"days": "Sun", "time": "Closed"}], "id": "3707500010", "name": "USPS COLLECTION BOX - BLUE BOX", "address": {"city": "HENDERSONVILLE", "state": "TN", "street": "623 E MAIN ST", "postcode": "37075"}}},
{"geometry": {"type": "Point", "coordinates": [-86.6226229274, 36.3043082248]}, "type": "Feature", "properties": {"collection_times": [{"days": "Mon-Fri", "time": "3:00pm"}, {"days": "Sat", "time": "12:00pm"}, {"days": "Sun", "time": "Closed"}], "id": "3707500013", "name": "USPS COLLECTION BOX - BLUE BOX", "address": {"city": "HENDERSONVILLE", "state": "TN", "street": "260 W MAIN ST", "postcode": "37075"}}},
{"geometry": {"type": "Point", "coordinates": [-86.6204533806, 36.3237264962]}, "type": "Feature", "properties": {"collection_times": [{"days": "Mon-Fri", "time": "2:00pm"}, {"days": "Sat", "time": "11:00am"}, {"days": "Sun", "time": "Closed"}], "id": "3707500016", "name": "USPS COLLECTION BOX - BLUE BOX", "address": {"city": "HENDERSONVILLE", "state": "TN", "street": "353 NEW SHACKLE ISLAND RD", "postcode": "37075"}}},
{"geometry": {"type": "Point", "coordinates": [-86.6353421022, 36.3041485254]}, "type": "Feature", "properties": {"collection_times": [{"days": "Mon-Fri", "time": "3:00pm"}, {"days": "Sat", "time": "12:00pm"}, {"days": "Sun", "time": "Closed"}], "id": "3707500017", "name": "USPS COLLECTION BOX - BLUE BOX", "address": {"city": "HENDERSONVILLE", "state": "TN", "street": "71 NEW SHACKLE ISLAND RD", "postcode": "37075"}}},
{"geometry": {"type": "Point", "coordinates": [-86.607758389, 36.3058923108]}, "type": "Feature", "properties": {"collection_times": [{"days": "Mon-Fri", "time": "3:00pm"}, {"days": "Sat", "time": "12:00pm"}, {"days": "Sun", "time": "Closed"}], "id": "3707500021", "name": "USPS COLLECTION BOX - BLUE BOX", "address": {"city": "HENDERSONVILLE", "state": "TN", "street": "109 HAZELPATH", "postcode": "37075"}}},
{"geometry": {"type": "Point", "coordinates": [-86.5901329594, 36.3148318278]}, "type": "Feature", "properties": {"collection_times": [{"days": "Mon-Fri", "time": "3:00pm"}, {"days": "Sat", "time": "2:00pm"}, {"days": "Sun", "time": "Closed"}], "id": "3707500022", "name": "USPS COLLECTION BOX - BLUE BOX", "address": {"city": "HENDERSONVILLE", "state": "TN", "street": "393 E MAIN ST", "postcode": "37075"}}},
{"geometry": {"type": "Point", "coordinates": [-86.6060141835, 36.2685592049]}, "type": "Feature", "properties": {"collection_times": [{"days": "Mon-Fri", "time": "5:00pm"}, {"days": "Sat", "time": "3:00pm"}, {"days": "Sun", "time": "Closed"}], "id": "3707500024", "name": "USPS COLLECTION BOX - PO LOBBY", "address": {"city": "HENDERSONVILLE", "state": "TN", "street": "105 IMPERIAL BLVD", "postcode": "37075"}}},
{"geometry": {"type": "Point", "coordinates": [-86.570627149, 36.3222880181]}, "type": "Feature", "properties": {"collection_times": [{"days": "Mon-Fri", "time": "3:00pm"}, {"days": "Sat", "time": "2:00pm"}, {"days": "Sun", "time": "Closed"}], "id": "3707500026", "name": "USPS COLLECTION BOX - BLUE BOX", "address": {"city": "HENDERSONVILLE", "state": "TN", "street": "100 BLUEGRASS COMMONS BLVD", "postcode": "37075"}}},
{"geometry": {"type": "Point", "coordinates": [-86.6202759368, 36.3328234507]}, "type": "Feature", "properties": {"collection_times": [{"days": "Mon-Sat", "time": "11:00am"}, {"days": "Sun", "time": "Closed"}], "id": "3707500030", "name": "USPS COLLECTION BOX - BLUE BOX", "address": {"city": "HENDERSONVILLE", "state": "TN", "street": "1010 GLENBROOK WAY", "postcode": "37075"}}},
{"geometry": {"type": "Point", "coordinates": [-86.5979428545, 36.3123405162]}, "type": "Feature", "properties": {"collection_times": [{"days": "Mon-Fri", "time": "3:00pm"}, {"days": "Sat", "time": "12:00pm"}, {"days": "Sun", "time": "Closed"}], "id": "3707500031", "name": "USPS COLLECTION BOX - BLUE BOX", "address": {"city": "HENDERSONVILLE", "state": "TN", "street": "101 MAPLE DR N", "postcode": "37075"}}},
{"geometry": {"type": "Point", "coordinates": [-86.6060141835, 36.2685592049]}, "type": "Feature", "properties": {"collection_times": [{"days": "Mon-Fri", "time": "5:00pm"}, {"days": "Sat", "time": "3:00pm"}, {"days": "Sun", "time": "Closed"}], "id": "3707500033", "name": "USPS COLLECTION BOX - APC", "address": {"city": "HENDERSONVILLE", "state": "TN", "street": "105 IMPERIAL BLVD", "postcode": "37075"}}},
{"geometry": {"type": "Point", "coordinates": [-86.6018513509, 36.172444972]}, "type": "Feature", "properties": {"collection_times": [{"days": "Mon-Sat", "time": "2:00pm"}, {"days": "Sun", "time": "Closed"}], "id": "3707600001", "name": "USPS COLLECTION BOX - BLUE BOX", "address": {"city": "HERMITAGE", "state": "TN", "street": "5760 OLD HICKORY BLVD", "postcode": "37076"}}},
{"geometry": {"type": "Point", "coordinates": [-86.6059987355, 36.1802144688]}, "type": "Feature", "properties": {"collection_times": [{"days": "Mon-Sat", "time": "2:00pm"}, {"days": "Sun", "time": "Closed"}], "id": "3707600002", "name": "USPS COLLECTION BOX - BLUE BOX", "address": {"city": "HERMITAGE", "state": "TN", "street": "5536 OLD HICKORY BLVD", "postcode": "37076"}}},
{"geometry": {"type": "Point", "coordinates": [-86.6033726361, 36.2150409584]}, "type": "Feature", "properties": {"collection_times": [{"days": "Mon-Sat", "time": "2:00pm"}, {"days": "Sun", "time": "Closed"}], "id": "3707600003", "name": "USPS COLLECTION BOX - BLUE BOX", "address": {"city": "HERMITAGE", "state": "TN", "street": "4400 LEBANON PIKE", "postcode": "37076"}}},
{"geometry": {"type": "Point", "coordinates": [-86.5945867999, 36.2150847278]}, "type": "Feature", "properties": {"collection_times": [{"days": "Mon-Sat", "time": "2:00pm"}, {"days": "Sun", "time": "Closed"}], "id": "3707600005", "name": "USPS COLLECTION BOX - BLUE BOX", "address": {"city": "HERMITAGE", "state": "TN", "street": "4740 LEBANON PIKE", "postcode": "37076"}}},
{"geometry": {"type": "Point", "coordinates": [-86.5993825156, 36.2151486076]}, "type": "Feature", "properties": {"collection_times": [{"days": "Mon-Sat", "time": "2:00pm"}, {"days": "Sun", "time": "Closed"}], "id": "3707600009", "name": "USPS COLLECTION BOX - BLUE BOX", "address": {"city": "HERMITAGE", "state": "TN", "street": "4491 LEBANON PIKE", "postcode": "37076"}}},
{"geometry": {"type": "Point", "coordinates": [-86.6120117855, 36.2072263314]}, "type": "Feature", "properties": {"collection_times": [{"days": "Mon-Sat", "time": "2:00pm"}, {"days": "Sun", "time": "Closed"}], "id": "3707600014", "name": "USPS COLLECTION BOX - BLUE BOX", "address": {"city": "HERMITAGE", "state": "TN", "street": "4347 LEBANON PIKE", "postcode": "37076"}}},
{"geometry": {"type": "Point", "coordinates": [-86.6232782866, 36.1934697016]}, "type": "Feature", "properties": {"collection_times": [{"days": "Mon-Fri", "time": "4:45pm"}, {"days": "Sat", "time": "3:00pm"}, {"days": "Sun", "time": "Closed"}], "id": "3707600017", "name": "USPS COLLECTION BOX - BLUE BOX", "address": {"city": "HERMITAGE", "state": "TN", "street": "3908 LEBANON PIKE", "postcode": "37076"}}},
{"geometry": {"type": "Point", "coordinates": [-86.6232782866, 36.1934697016]}, "type": "Feature", "properties": {"collection_times": [{"days": "Mon-Fri", "time": "4:45pm"}, {"days": "Sat", "time": "3:00pm"}, {"days": "Sun", "time": "Closed"}], "id": "3707600021", "name": "USPS COLLECTION BOX - PO LOBBY", "address": {"city": "HERMITAGE", "state": "TN", "street": "3908 LEBANON PIKE", "postcode": "37076"}}},
{"geometry": {"type": "Point", "coordinates": [-86.61096532, 36.1742365407]}, "type": "Feature", "properties": {"collection_times": [{"days": "Mon-Sat", "time": "11:00am"}, {"days": "Sun", "time": "Closed"}], "id": "3707600026", "name": "USPS COLLECTION BOX - BLUE BOX", "address": {"city": "HERMITAGE", "state": "TN", "street": "3840 CENTRAL PIKE", "postcode": "37076"}}},
{"geometry": {"type": "Point", "coordinates": [-86.6232782866, 36.1934697016]}, "type": "Feature", "properties": {"collection_times": [{"days": "Mon-Fri", "time": "4:45pm"}, {"days": "Sat", "time": "3:00pm"}, {"days": "Sun", "time": "Closed"}], "id": "3707600028", "name": "USPS COLLECTION BOX - APC", "address": {"city": "HERMITAGE", "state": "TN", "street": "3908 LEBANON PIKE", "postcode": "37076"}}},
{"geometry": {"type": "Point", "coordinates": [-87.7957303024, 35.9701277845]}, "type": "Feature", "properties": {"collection_times": [{"days": "Mon-Fri", "time": "12:30pm"}, {"days": "Sat", "time": "11:00am"}, {"days": "Sun", "time": "Closed"}], "id": "3707800000", "name": "USPS COLLECTION BOX - BLUE BOX", "address": {"city": "HURRICANE MILLS", "state": "TN", "street": "1855 HURRICANE MILLS RD", "postcode": "37078"}}},
{"geometry": {"type": "Point", "coordinates": [-87.8004159106, 35.8819185309]}, "type": "Feature", "properties": {"collection_times": [{"days": "Mon-Sat", "time": "11:00am"}, {"days": "Sun", "time": "Closed"}], "id": "3707800003", "name": "USPS COLLECTION BOX - BLUE BOX", "address": {"city": "HURRICANE MILLS", "state": "TN", "street": "15559 HIGHWAY 13 S", "postcode": "37078"}}},
{"geometry": {"type": "Point", "coordinates": [-87.6928908555, 36.502063475]}, "type": "Feature", "properties": {"collection_times": [{"days": "Mon-Fri", "time": "11:30am"}, {"days": "Sat", "time": "11:00am"}, {"days": "Sun", "time": "Closed"}], "id": "3707900001", "name": "USPS COLLECTION BOX - BLUE BOX", "address": {"city": "INDIAN MOUND", "state": "TN", "street": "1207 HIGHWAY 46", "postcode": "37079"}}},
{"geometry": {"type": "Point", "coordinates": [-87.6928908555, 36.502063475]}, "type": "Feature", "properties": {"collection_times": [{"days": "Mon-Fri", "time": "11:30am"}, {"days": "Sat", "time": "11:00am"}, {"days": "Sun", "time": "Closed"}], "id": "3707900002", "name": "USPS COLLECTION BOX - PO LOBBY", "address": {"city": "INDIAN MOUND", "state": "TN", "street": "1207 HIGHWAY 46", "postcode": "37079"}}},
{"geometry": {"type": "Point", "coordinates": [-86.8646705271, 36.3160680199]}, "type": "Feature", "properties": {"collection_times": [{"days": "Mon-Fri", "time": "3:30pm"}, {"days": "Sat", "time": "10:30am"}, {"days": "Sun", "time": "Closed"}], "id": "3708000000", "name": "USPS COLLECTION BOX - BLUE BOX", "address": {"city": "JOELTON", "state": "TN", "street": "3340 UNION HILL RD", "postcode": "37080"}}},
{"geometry": {"type": "Point", "coordinates": [-86.8761700712, 36.2812653671]}, "type": "Feature", "properties": {"collection_times": [{"days": "Mon-Sat", "time": "12:00pm"}, {"days": "Sun", "time": "Closed"}], "id": "3708000001", "name": "USPS COLLECTION BOX - BLUE BOX", "address": {"city": "JOELTON", "state": "TN", "street": "5529 CLARKSVILLE PIKE", "postcode": "37080"}}},
{"geometry": {"type": "Point", "coordinates": [-86.8646705271, 36.3160680199]}, "type": "Feature", "properties": {"collection_times": [{"days": "Mon-Fri", "time": "3:30pm"}, {"days": "Sat", "time": "10:30am"}, {"days": "Sun", "time": "Closed"}], "id": "3708000003", "name": "USPS COLLECTION BOX - PO LOBBY", "address": {"city": "JOELTON", "state": "TN", "street": "3340 UNION HILL RD", "postcode": "37080"}}},
{"geometry": {"type": "Point", "coordinates": [-87.1004247852, 36.08633384]}, "type": "Feature", "properties": {"collection_times": [{"days": "Mon-Fri", "time": "4:00pm"}, {"days": "Sat", "time": "12:00pm"}, {"days": "Sun", "time": "Closed"}], "id": "3708200001", "name": "USPS COLLECTION BOX - PO LOBBY", "address": {"city": "KINGSTON SPGS", "state": "TN", "street": "110 LUYBEN HILLS RD", "postcode": "37082"}}},
{"geometry": {"type": "Point", "coordinates": [-87.1004247852, 36.08633384]}, "type": "Feature", "properties": {"collection_times": [{"days": "Mon-Fri", "time": "4:00pm"}, {"days": "Sat", "time": "12:00pm"}, {"days": "Sun", "time": "Closed"}], "id": "3708200002", "name": "USPS COLLECTION BOX - BLUE BOX", "address": {"city": "KINGSTON SPGS", "state": "TN", "street": "110 LUYBEN HILLS RD", "postcode": "37082"}}},
{"geometry": {"type": "Point", "coordinates": [-87.1004247852, 36.08633384]}, "type": "Feature", "properties": {"collection_times": [{"days": "Mon-Fri", "time": "4:00pm"}, {"days": "Sat", "time": "12:00pm"}, {"days": "Sun", "time": "Closed"}], "id": "3708200004", "name": "USPS COLLECTION BOX - BLUE BOX", "address": {"city": "KINGSTON SPGS", "state": "TN", "street": "110 LUYBEN HILLS RD", "postcode": "37082"}}},
{"geometry": {"type": "Point", "coordinates": [-86.0378229272, 36.5258275164]}, "type": "Feature", "properties": {"collection_times": [{"days": "Mon-Fri", "time": "4:00pm"}, {"days": "Sat", "time": "11:30am"}, {"days": "Sun", "time": "Closed"}], "id": "3708300001", "name": "USPS COLLECTION BOX - PO LOBBY", "address": {"city": "LAFAYETTE", "state": "TN", "street": "506 ELLINGTON DR", "postcode": "37083"}}},
{"geometry": {"type": "Point", "coordinates": [-86.0353966141, 36.5196150688]}, "type": "Feature", "properties": {"collection_times": [{"days": "Mon-Sat", "time": "11:00am"}, {"days": "Sun", "time": "Closed"}], "id": "3708300003", "name": "USPS COLLECTION BOX - BLUE BOX", "address": {"city": "LAFAYETTE", "state": "TN", "street": "435 HIGHWAY 52 BYP W", "postcode": "37083"}}},
{"geometry": {"type": "Point", "coordinates": [-86.0279685736, 36.5316689461]}, "type": "Feature", "properties": {"collection_times": [{"days": "Mon-Sat", "time": "11:00am"}, {"days": "Sun", "time": "Closed"}], "id": "3708300004", "name": "USPS COLLECTION BOX - BLUE BOX", "address": {"city": "LAFAYETTE", "state": "TN", "street": "1059 SCOTTSVILLE RD", "postcode": "37083"}}},
{"geometry": {"type": "Point", "coordinates": [-86.0378229272, 36.5258275164]}, "type": "Feature", "properties": {"collection_times": [{"days": "Mon-Fri", "time": "4:00pm"}, {"days": "Sat", "time": "11:30am"}, {"days": "Sun", "time": "Closed"}], "id": "3708300005", "name": "USPS COLLECTION BOX - BLUE BOX", "address": {"city": "LAFAYETTE", "state": "TN", "street": "506 ELLINGTON DR", "postcode": "37083"}}},
{"geometry": {"type": "Point", "coordinates": [-86.0378229272, 36.5258275164]}, "type": "Feature", "properties": {"collection_times": [{"days": "Mon-Fri", "time": "4:00pm"}, {"days": "Sat", "time": "11:30am"}, {"days": "Sun", "time": "Closed"}], "id": "3708300006", "name": "USPS COLLECTION BOX - BLUE BOX", "address": {"city": "LAFAYETTE", "state": "TN", "street": "506 ELLINGTON DR", "postcode": "37083"}}},
{"geometry": {"type": "Point", "coordinates": [-86.0244087559, 36.5214464078]}, "type": "Feature", "properties": {"collection_times": [{"days": "Mon-Sat", "time": "11:00am"}, {"days": "Sun", "time": "Closed"}], "id": "3708300007", "name": "USPS COLLECTION BOX - BLUE BOX", "address": {"city": "LAFAYETTE", "state": "TN", "street": "118 E LOCUST ST", "postcode": "37083"}}},
{"geometry": {"type": "Point", "coordinates": [-86.00304004, 36.5418069165]}, "type": "Feature", "properties": {"collection_times": [{"days": "Mon-Sat", "time": "11:00am"}, {"days": "Sun", "time": "Closed"}], "id": "3708300008", "name": "USPS COLLECTION BOX - BLUE BOX", "address": {"city": "LAFAYETTE", "state": "TN", "street": "101 COURTHOUSE", "postcode": "37083"}}},
{"geometry": {"type": "Point", "coordinates": [-86.281308559, 35.9482719873]}, "type": "Feature", "properties": {"collection_times": [{"days": "Mon-Fri", "time": "3:30pm"}, {"days": "Sat", "time": "11:00am"}, {"days": "Sun", "time": "Closed"}], "id": "3708500001", "name": "USPS COLLECTION BOX - PO LOBBY", "address": {"city": "LASCASSAS", "state": "TN", "street": "4682 E JEFFERSON PIKE", "postcode": "37085"}}},
{"geometry": {"type": "Point", "coordinates": [-86.281308559, 35.9482719873]}, "type": "Feature", "properties": {"collection_times": [{"days": "Mon-Fri", "time": "3:30pm"}, {"days": "Sat", "time": "11:00am"}, {"days": "Sun", "time": "Closed"}], "id": "3708500002", "name": "USPS COLLECTION BOX - BLUE BOX", "address": {"city": "LASCASSAS", "state": "TN", "street": "4682 E JEFFERSON PIKE", "postcode": "37085"}}},
{"geometry": {"type": "Point", "coordinates": [-86.5648490997, 36.0173565322]}, "type": "Feature", "properties": {"collection_times": [{"days": "Mon-Fri", "time": "4:30pm"}, {"days": "Sat", "time": "12:00pm"}, {"days": "Sun", "time": "Closed"}], "id": "3708600001", "name": "USPS COLLECTION BOX - PO LOBBY", "address": {"city": "LAVERGNE", "state": "TN", "street": "5309 MURFREESBORO RD", "postcode": "37086"}}},
{"geometry": {"type": "Point", "coordinates": [-86.5648490997, 36.0173565322]}, "type": "Feature", "properties": {"collection_times": [{"days": "Mon-Fri", "time": "4:30pm"}, {"days": "Sat", "time": "12:00pm"}, {"days": "Sun", "time": "Closed"}], "id": "3708600002", "name": "USPS COLLECTION BOX - BLUE BOX", "address": {"city": "LAVERGNE", "state": "TN", "street": "5309 MURFREESBORO RD", "postcode": "37086"}}},
{"geometry": {"type": "Point", "coordinates": [-86.2879934102, 36.2065674233]}, "type": "Feature", "properties": {"collection_times": [{"days": "Mon-Fri", "time": "5:00pm"}, {"days": "Sat", "time": "2:00pm"}, {"days": "Sun", "time": "Closed"}], "id": "3708700001", "name": "USPS COLLECTION BOX - BLUE BOX", "address": {"city": "LEBANON", "state": "TN", "street": "226 E GAY ST", "postcode": "37087"}}},
{"geometry": {"type": "Point", "coordinates": [-86.2907437897, 36.2080496709]}, "type": "Feature", "properties": {"collection_times": [{"days": "Mon-Fri", "time": "3:00pm"}, {"days": "Sat", "time": "2:00pm"}, {"days": "Sun", "time": "Closed"}], "id": "3708700007", "name": "USPS COLLECTION BOX - BLUE BOX", "address": {"city": "LEBANON", "state": "TN", "street": "100 PUBLIC SQ", "postcode": "37087"}}},
{"geometry": {"type": "Point", "coordinates": [-86.3180275553, 36.2121640022]}, "type": "Feature", "properties": {"collection_times": [{"days": "Mon-Fri", "time": "3:00pm"}, {"days": "Sat", "time": "2:00pm"}, {"days": "Sun", "time": "Closed"}], "id": "3708700008", "name": "USPS COLLECTION BOX - BLUE BOX", "address": {"city": "LEBANON", "state": "TN", "street": "1035 W MAIN ST", "postcode": "37087"}}},
{"geometry": {"type": "Point", "coordinates": [-86.331124094, 36.2165598777]}, "type": "Feature", "properties": {"collection_times": [{"days": "Mon-Fri", "time": "3:00pm"}, {"days": "Sat", "time": "2:00pm"}, {"days": "Sun", "time": "Closed"}], "id": "3708700012", "name": "USPS COLLECTION BOX - BLUE BOX", "address": {"city": "LEBANON", "state": "TN", "street": "1443 W MAIN ST", "postcode": "37087"}}},
{"geometry": {"type": "Point", "coordinates": [-86.2890332311, 36.2122775662]}, "type": "Feature", "properties": {"collection_times": [{"days": "Mon-Fri", "time": "3:00pm"}, {"days": "Sat", "time": "1:00pm"}, {"days": "Sun", "time": "Closed"}], "id": "3708700021", "name": "USPS COLLECTION BOX - BLUE BOX", "address": {"city": "LEBANON", "state": "TN", "street": "105 E HIGH ST", "postcode": "37087"}}},
{"geometry": {"type": "Point", "coordinates": [-86.2879934102, 36.2065674233]}, "type": "Feature", "properties": {"collection_times": [{"days": "Mon-Fri", "time": "5:00pm"}, {"days": "Sat", "time": "2:00pm"}, {"days": "Sun", "time": "Closed"}], "id": "3708700023", "name": "USPS COLLECTION BOX - PO LOBBY", "address": {"city": "LEBANON", "state": "TN", "street": "226 E GAY ST", "postcode": "37087"}}},
{"geometry": {"type": "Point", "coordinates": [-86.290159408, 36.2266209437]}, "type": "Feature", "properties": {"collection_times": [{"days": "Mon-Sat", "time": "1:00pm"}, {"days": "Sun", "time": "Closed"}], "id": "3708700028", "name": "USPS COLLECTION BOX - BLUE BOX", "address": {"city": "LEBANON", "state": "TN", "street": "1112 N CUMBERLAND ST", "postcode": "37087"}}},
{"geometry": {"type": "Point", "coordinates": [-86.302698076, 36.2091193966]}, "type": "Feature", "properties": {"collection_times": [{"days": "Mon-Fri", "time": "3:00pm"}, {"days": "Sat", "time": "2:00pm"}, {"days": "Sun", "time": "Closed"}], "id": "3708700032", "name": "USPS COLLECTION BOX - BLUE BOX", "address": {"city": "LEBANON", "state": "TN", "street": "516 W MAIN ST", "postcode": "37087"}}},
{"geometry": {"type": "Point", "coordinates": [-86.3072295059, 36.2128631309]}, "type": "Feature", "properties": {"collection_times": [{"days": "Mon-Fri", "time": "3:00pm"}, {"days": "Sat", "time": "2:00pm"}, {"days": "Sun", "time": "Closed"}], "id": "3708700033", "name": "USPS COLLECTION BOX - BLUE BOX", "address": {"city": "LEBANON", "state": "TN", "street": "702 CADET CT", "postcode": "37087"}}},
{"geometry": {"type": "Point", "coordinates": [-86.3001412158, 36.1796633876]}, "type": "Feature", "properties": {"collection_times": [{"days": "Mon-Fri", "time": "3:00pm"}, {"days": "Sat", "time": "2:00pm"}, {"days": "Sun", "time": "Closed"}], "id": "3708700034", "name": "USPS COLLECTION BOX - BLUE BOX", "address": {"city": "LEBANON", "state": "TN", "street": "921 MURFREESBORO RD", "postcode": "37087"}}},
{"geometry": {"type": "Point", "coordinates": [-86.29142754, 36.2078071643]}, "type": "Feature", "properties": {"collection_times": [{"days": "Mon-Fri", "time": "3:00pm"}, {"days": "Sat", "time": "2:00pm"}, {"days": "Sun", "time": "Closed"}], "id": "3708700038", "name": "USPS COLLECTION BOX - BLUE BOX", "address": {"city": "LEBANON", "state": "TN", "street": "132 PUBLIC SQ", "postcode": "37087"}}},
{"geometry": {"type": "Point", "coordinates": [-86.7880360795, 35.4484007419]}, "type": "Feature", "properties": {"collection_times": [{"days": "Mon-Sat", "time": "2:00pm"}, {"days": "Sun", "time": "Closed"}], "id": "3709100007", "name": "USPS COLLECTION BOX - BLUE BOX", "address": {"city": "LEWISBURG", "state": "TN", "street": "121 1ST AVE S", "postcode": "37091"}}},
{"geometry": {"type": "Point", "coordinates": [-86.7881733804, 35.4500268227]}, "type": "Feature", "properties": {"collection_times": [{"days": "Mon-Sat", "time": "2:00pm"}, {"days": "Sun", "time": "Closed"}], "id": "3709100008", "name": "USPS COLLECTION BOX - BLUE BOX", "address": {"city": "LEWISBURG", "state": "TN", "street": "126 W CHURCH @ COURTHOUSE ST", "postcode": "37091"}}},
{"geometry": {"type": "Point", "coordinates": [-86.7788645986, 35.446612108]}, "type": "Feature", "properties": {"collection_times": [{"days": "Mon-Sat", "time": "4:30pm"}, {"days": "Sun", "time": "Closed"}], "id": "3709100015", "name": "USPS COLLECTION BOX - BLUE BOX", "address": {"city": "LEWISBURG", "state": "TN", "street": "557 E COMMERCE ST", "postcode": "37091"}}},
{"geometry": {"type": "Point", "coordinates": [-86.7788645986, 35.446612108]}, "type": "Feature", "properties": {"collection_times": [{"days": "Mon-Sat", "time": "4:30pm"}, {"days": "Sun", "time": "Closed"}], "id": "3709100024", "name": "USPS COLLECTION BOX - BLUE BOX", "address": {"city": "LEWISBURG", "state": "TN", "street": "557 E COMMERCE ST", "postcode": "37091"}}},
{"geometry": {"type": "Point", "coordinates": [-86.7788645986, 35.446612108]}, "type": "Feature", "properties": {"collection_times": [{"days": "Mon-Sat", "time": "4:45pm"}, {"days": "Sun", "time": "Closed"}], "id": "3709100025", "name": "USPS COLLECTION BOX - PO LOBBY", "address": {"city": "LEWISBURG", "state": "TN", "street": "557 E COMMERCE ST", "postcode": "37091"}}},
{"geometry": {"type": "Point", "coordinates": [-86.7920420568, 35.4686542737]}, "type": "Feature", "properties": {"collection_times": [{"days": "Mon-Fri", "time": "1:00pm"}, {"days": "Sat", "time": "12:00pm"}, {"days": "Sun", "time": "Closed"}], "id": "3709100028", "name": "USPS COLLECTION BOX - BLUE BOX", "address": {"city": "LEWISBURG", "state": "TN", "street": "1334 N ELLINGTON PKWY", "postcode": "37091"}}},
{"geometry": {"type": "Point", "coordinates": [-86.76954, 35.53084]}, "type": "Feature", "properties": {"collection_times": [{"days": "Mon-Sat", "time": "10:00am"}, {"days": "Sun", "time": "Closed"}], "id": "3709100030", "name": "USPS COLLECTION BOX - BLUE BOX", "address": {"city": "LEWISBURG", "state": "TN", "street": "2465 VERONA CANEY RD", "postcode": "37091"}}},
{"geometry": {"type": "Point", "coordinates": [-85.9653323793, 36.0053453567]}, "type": "Feature", "properties": {"collection_times": [{"days": "Mon-Fri", "time": "2:45pm"}, {"days": "Sat", "time": "10:30am"}, {"days": "Sun", "time": "Closed"}], "id": "3709500001", "name": "USPS COLLECTION BOX - PO LOBBY", "address": {"city": "LIBERTY", "state": "TN", "street": "230 E MAIN ST", "postcode": "37095"}}},
{"geometry": {"type": "Point", "coordinates": [-85.9653323793, 36.0053453567]}, "type": "Feature", "properties": {"collection_times": [{"days": "Mon-Fri", "time": "2:45pm"}, {"days": "Sat", "time": "10:30am"}, {"days": "Sun", "time": "Closed"}], "id": "3709500002", "name": "USPS COLLECTION BOX - BLUE BOX", "address": {"city": "LIBERTY", "state": "TN", "street": "230 E MAIN ST", "postcode": "37095"}}},
{"geometry": {"type": "Point", "coordinates": [-87.8403100187, 35.6171155325]}, "type": "Feature", "properties": {"collection_times": [{"days": "Mon-Fri", "time": "3:30pm"}, {"days": "Sat", "time": "11:00am"}, {"days": "Sun", "time": "Closed"}], "id": "3709600001", "name": "USPS COLLECTION BOX - BLUE BOX", "address": {"city": "LINDEN", "state": "TN", "street": "128 W MAIN ST", "postcode": "37096"}}},
{"geometry": {"type": "Point", "coordinates": [-87.8403100187, 35.6171155325]}, "type": "Feature", "properties": {"collection_times": [{"days": "Mon-Fri", "time": "3:30pm"}, {"days": "Sat", "time": "11:00am"}, {"days": "Sun", "time": "Closed"}], "id": "3709600002", "name": "USPS COLLECTION BOX - BLUE BOX", "address": {"city": "LINDEN", "state": "TN", "street": "128 W MAIN ST", "postcode": "37096"}}},
{"geometry": {"type": "Point", "coordinates": [-87.8403100187, 35.6171155325]}, "type": "Feature", "properties": {"collection_times": [{"days": "Mon-Fri", "time": "3:30pm"}, {"days": "Sat", "time": "11:00am"}, {"days": "Sun", "time": "Closed"}], "id": "3709600005", "name": "USPS COLLECTION BOX - PO LOBBY", "address": {"city": "LINDEN", "state": "TN", "street": "128 W MAIN ST", "postcode": "37096"}}},
{"geometry": {"type": "Point", "coordinates": [-87.7837013317, 35.7718148003]}, "type": "Feature", "properties": {"collection_times": [{"days": "Mon-Fri", "time": "4:00pm"}, {"days": "Sat", "time": "12:00pm"}, {"days": "Sun", "time": "Closed"}], "id": "3709700001", "name": "USPS COLLECTION BOX - BLUE BOX", "address": {"city": "LOBELVILLE", "state": "TN", "street": "22 S MAIN ST", "postcode": "37097"}}},
{"geometry": {"type": "Point", "coordinates": [-87.7837013317, 35.7718148003]}, "type": "Feature", "properties": {"collection_times": [{"days": "Mon-Fri", "time": "4:00pm"}, {"days": "Sat", "time": "12:00pm"}, {"days": "Sun", "time": "Closed"}], "id": "3709700002", "name": "USPS COLLECTION BOX - PO LOBBY", "address": {"city": "LOBELVILLE", "state": "TN", "street": "22 S MAIN ST", "postcode": "37097"}}},
{"geometry": {"type": "Point", "coordinates": [-87.3107711032, 35.9283307196]}, "type": "Feature", "properties": {"collection_times": [{"days": "Mon-Fri", "time": "3:30pm"}, {"days": "Sat", "time": "11:00am"}, {"days": "Sun", "time": "Closed"}], "id": "3709800001", "name": "USPS COLLECTION BOX - PO LOBBY", "address": {"city": "LYLES", "state": "TN", "street": "5379 HIGHWAY 100", "postcode": "37098"}}},
{"geometry": {"type": "Point", "coordinates": [-87.3107711032, 35.9283307196]}, "type": "Feature", "properties": {"collection_times": [{"days": "Mon-Fri", "time": "3:30pm"}, {"days": "Sat", "time": "11:00am"}, {"days": "Sun", "time": "Closed"}], "id": "3709800003", "name": "USPS COLLECTION BOX - BLUE BOX", "address": {"city": "LYLES", "state": "TN", "street": "5379 HIGHWAY 100", "postcode": "37098"}}}
]}
