{"type": "FeatureCollection", "features": [
{"geometry": {"type": "Point", "coordinates": [-87.6346853112, 36.1082372963]}, "type": "Feature", "properties": {"collection_times": [{"days": "Mon-Fri", "time": "4:00pm"}, {"days": "Sat", "time": "12:00pm"}, {"days": "Sun", "time": "Closed"}], "id": "3710100001", "name": "USPS COLLECTION BOX - BLUE BOX", "address": {"city": "MCEWEN", "state": "TN", "street": "32 LONG ST E", "postcode": "37101"}}},
{"geometry": {"type": "Point", "coordinates": [-87.6346853112, 36.1082372963]}, "type": "Feature", "properties": {"collection_times": [{"days": "Mon-Fri", "time": "4:00pm"}, {"days": "Sat", "time": "12:00pm"}, {"days": "Sun", "time": "Closed"}], "id": "3710100002", "name": "USPS COLLECTION BOX - PO LOBBY", "address": {"city": "MCEWEN", "state": "TN", "street": "32 LONG ST E", "postcode": "37101"}}},
{"geometry": {"type": "Point", "coordinates": [-85.7473059718, 35.6954400037]}, "type": "Feature", "properties": {"collection_times": [{"days": "Mon-Fri", "time": "11:00am"}, {"days": "Sat", "time": "10:00am"}, {"days": "Sun", "time": "Closed"}], "id": "3711000002", "name": "USPS COLLECTION BOX - BLUE BOX", "address": {"city": "MCMINNVILLE", "state": "TN", "street": "1410 SPARTA ST", "postcode": "37110"}}},
{"geometry": {"type": "Point", "coordinates": [-85.7415763835, 35.6993666693]}, "type": "Feature", "properties": {"collection_times": [{"days": "Mon-Fri", "time": "12:00pm"}, {"days": "Sat", "time": "10:00am"}, {"days": "Sun", "time": "Closed"}], "id": "3711000003", "name": "USPS COLLECTION BOX - BLUE BOX", "address": {"city": "MCMINNVILLE", "state": "TN", "street": "1559 SPARTA ST", "postcode": "37110"}}},
{"geometry": {"type": "Point", "coordinates": [-85.780421207, 35.6994471105]}, "type": "Feature", "properties": {"collection_times": [{"days": "Mon-Fri", "time": "1:00pm"}, {"days": "Sat", "time": "10:00am"}, {"days": "Sun", "time": "Closed"}], "id": "3711000005", "name": "USPS COLLECTION BOX - BLUE BOX", "address": {"city": "MCMINNVILLE", "state": "TN", "street": "1100 SMITHVILLE HWY", "postcode": "37110"}}},
{"geometry": {"type": "Point", "coordinates": [-85.7812256191, 35.6999912716]}, "type": "Feature", "properties": {"collection_times": [{"days": "Mon-Fri", "time": "1:00pm"}, {"days": "Sat", "time": "12:00pm"}, {"days": "Sun", "time": "Closed"}], "id": "3711000008", "name": "USPS COLLECTION BOX - BLUE BOX", "address": {"city": "MCMINNVILLE", "state": "TN", "street": "231 NORTHGATE DR STE 100", "postcode": "37110"}}},
{"geometry": {"type": "Point", "coordinates": [-85.7797066998, 35.6959845896]}, "type": "Feature", "properties": {"collection_times": [{"days": "Mon-Fri", "time": "1:00pm"}, {"days": "Sat", "time": "10:00am"}, {"days": "Sun", "time": "Closed"}], "id": "3711000010", "name": "USPS COLLECTION BOX - BLUE BOX", "address": {"city": "MCMINNVILLE", "state": "TN", "street": "835 SMITHVILLE HWY", "postcode": "37110"}}},
{"geometry": {"type": "Point", "coordinates": [-85.7760113759, 35.6823551978]}, "type": "Feature", "properties": {"collection_times": [{"days": "Mon-Fri", "time": "3:00pm"}, {"days": "Sat", "time": "9:00am"}, {"days": "Sun", "time": "Closed"}], "id": "3711000013", "name": "USPS COLLECTION BOX - BLUE BOX", "address": {"city": "MCMINNVILLE", "state": "TN", "street": "307 W MORFORD ST", "postcode": "37110"}}},
{"geometry": {"type": "Point", "coordinates": [-85.7778813941, 35.6817512274]}, "type": "Feature", "properties": {"collection_times": [{"days": "Mon-Fri", "time": "1:00pm"}, {"days": "Sat", "time": "9:00am"}, {"days": "Sun", "time": "Closed"}], "id": "3711000014", "name": "USPS COLLECTION BOX - BLUE BOX", "address": {"city": "MCMINNVILLE", "state": "TN", "street": "314 W MAIN ST", "postcode": "37110"}}},
{"geometry": {"type": "Point", "coordinates": [-85.7729304515, 35.6821600807]}, "type": "Feature", "properties": {"collection_times": [{"days": "Mon-Sat", "time": "5:00pm"}, {"days": "Sun", "time": "Closed"}], "id": "3711000018", "name": "USPS COLLECTION BOX - BLUE BOX", "address": {"city": "MCMINNVILLE", "state": "TN", "street": "100 MORFORD ST", "postcode": "37110"}}},
{"geometry": {"type": "Point", "coordinates": [-85.7812256191, 35.6999912716]}, "type": "Feature", "properties": {"collection_times": [{"days": "Mon-Fri", "time": "1:00pm"}, {"days": "Sat", "time": "12:00pm"}, {"days": "Sun", "time": "Closed"}], "id": "3711000029", "name": "USPS COLLECTION BOX - BLUE BOX", "address": {"city": "MCMINNVILLE", "state": "TN", "street": "231 NORTHGATE DR STE 100", "postcode": "37110"}}},
{"geometry": {"type": "Point", "coordinates": [-85.7729304515, 35.6821600807]}, "type": "Feature", "properties": {"collection_times": [{"days": "Mon-Sat", "time": "5:00pm"}, {"days": "Sun", "time": "Closed"}], "id": "3711000031", "name": "USPS COLLECTION BOX - BLUE BOX", "address": {"city": "MCMINNVILLE", "state": "TN", "street": "100 MORFORD ST", "postcode": "37110"}}},
{"geometry": {"type": "Point", "coordinates": [-85.7885907217, 35.699519271]}, "type": "Feature", "properties": {"collection_times": [{"days": "Mon-Sat", "time": "12:00pm"}, {"days": "Sun", "time": "Closed"}], "id": "3711000033", "name": "USPS COLLECTION BOX - BLUE BOX", "address": {"city": "MCMINNVILLE", "state": "TN", "street": "915 N CHANCERY ST", "postcode": "37110"}}},
{"geometry": {"type": "Point", "coordinates": [-85.7726042142, 35.6817973628]}, "type": "Feature", "properties": {"collection_times": [{"days": "Mon-Sat", "time": "5:00pm"}, {"days": "Sun", "time": "Closed"}], "id": "3711000034", "name": "USPS COLLECTION BOX - PO LOBBY", "address": {"city": "MCMINNVILLE", "state": "TN", "street": "102 E COURT SQ", "postcode": "37110"}}},
{"geometry": {"type": "Point", "coordinates": [-85.7810600049, 35.7025038765]}, "type": "Feature", "properties": {"collection_times": [{"days": "Mon-Fri", "time": "1:00pm"}, {"days": "Sat", "time": "12:00pm"}, {"days": "Sun", "time": "Closed"}], "id": "3711000035", "name": "USPS COLLECTION BOX - BLUE BOX", "address": {"city": "MCMINNVILLE", "state": "TN", "street": "1339 SMITHVILLE HWY", "postcode": "37110"}}},
{"geometry": {"type": "Point", "coordinates": [-85.7723262188, 35.6871372395]}, "type": "Feature", "properties": {"collection_times": [{"days": "Mon-Sat", "time": "12:00pm"}, {"days": "Sun", "time": "Closed"}], "id": "3711000038", "name": "USPS COLLECTION BOX - BLUE BOX", "address": {"city": "MCMINNVILLE", "state": "TN", "street": "201 LOCUST ST", "postcode": "37110"}}},
{"geometry": {"type": "Point", "coordinates": [-86.720030916, 36.2485783858]}, "type": "Feature", "properties": {"collection_times": [{"days": "Mon-Sat", "time": "2:00pm"}, {"days": "Sun", "time": "Closed"}], "id": "3711500001", "name": "USPS COLLECTION BOX - BLUE BOX", "address": {"city": "MADISON", "state": "TN", "street": "1160 GALLATIN PIKE S", "postcode": "37115"}}},
{"geometry": {"type": "Point", "coordinates": [-86.6926166455, 36.3021412512]}, "type": "Feature", "properties": {"collection_times": [{"days": "Mon-Sat", "time": "10:00am"}, {"days": "Sun", "time": "Closed"}], "id": "3711500022", "name": "USPS COLLECTION BOX - BLUE BOX", "address": {"city": "MADISON", "state": "TN", "street": "2101 GALLATIN PIKE N", "postcode": "37115"}}},
{"geometry": {"type": "Point", "coordinates": [-86.6998296044, 36.2960822094]}, "type": "Feature", "properties": {"collection_times": [{"days": "Mon-Sat", "time": "11:00am"}, {"days": "Sun", "time": "Closed"}], "id": "3711500024", "name": "USPS COLLECTION BOX - BLUE BOX", "address": {"city": "MADISON", "state": "TN", "street": "1793 GALLATIN PIKE N", "postcode": "37115"}}},
{"geometry": {"type": "Point", "coordinates": [-86.7190589252, 36.2851099838]}, "type": "Feature", "properties": {"collection_times": [{"days": "Mon-Sat", "time": "11:00am"}, {"days": "Sun", "time": "Closed"}], "id": "3711500029", "name": "USPS COLLECTION BOX - BLUE BOX", "address": {"city": "MADISON", "state": "TN", "street": "100 STAR BLVD", "postcode": "37115"}}},
{"geometry": {"type": "Point", "coordinates": [-86.7064461032, 36.2627076047]}, "type": "Feature", "properties": {"collection_times": [{"days": "Mon-Fri", "time": "5:00pm"}, {"days": "Sat", "time": "4:00pm"}, {"days": "Sun", "time": "Closed"}], "id": "3711500043", "name": "USPS COLLECTION BOX - BLUE BOX", "address": {"city": "MADISON", "state": "TN", "street": "323 E OLD HICKORY BLVD", "postcode": "37115"}}},
{"geometry": {"type": "Point", "coordinates": [-86.7064461032, 36.2627076047]}, "type": "Feature", "properties": {"collection_times": [{"days": "Mon-Fri", "time": "5:00pm"}, {"days": "Sat", "time": "4:00pm"}, {"days": "Sun", "time": "Closed"}], "id": "3711500044", "name": "USPS COLLECTION BOX - BLUE BOX", "address": {"city": "MADISON", "state": "TN", "street": "323 E OLD HICKORY BLVD", "postcode": "37115"}}},
{"geometry": {"type": "Point", "coordinates": [-86.7064461032, 36.2627076047]}, "type": "Feature", "properties": {"collection_times": [{"days": "Mon-Fri", "time": "5:00pm"}, {"days": "Sat", "time": "4:00pm"}, {"days": "Sun", "time": "Closed"}], "id": "3711500046", "name": "USPS COLLECTION BOX - PO LOBBY", "address": {"city": "MADISON", "state": "TN", "street": "323 E OLD HICKORY BLVD", "postcode": "37115"}}},
{"geometry": {"type": "Point", "coordinates": [-86.71257335, 36.2613576707]}, "type": "Feature", "properties": {"collection_times": [{"days": "Mon-Sat", "time": "11:00am"}, {"days": "Sun", "time": "Closed"}], "id": "3711500048", "name": "USPS COLLECTION BOX - BLUE BOX", "address": {"city": "MADISON", "state": "TN", "street": "200 GALLATIN PIKE S", "postcode": "37115"}}},
{"geometry": {"type": "Point", "coordinates": [-86.6946320055, 36.2979947728]}, "type": "Feature", "properties": {"collection_times": [{"days": "Mon-Sat", "time": "12:00pm"}, {"days": "Sun", "time": "Closed"}], "id": "3711500053", "name": "USPS COLLECTION BOX - BLUE BOX", "address": {"city": "MADISON", "state": "TN", "street": "104 CUDE LN", "postcode": "37115"}}},
{"geometry": {"type": "Point", "coordinates": [-86.7064461032, 36.2627076047]}, "type": "Feature", "properties": {"collection_times": [{"days": "Mon-Fri", "time": "5:00pm"}, {"days": "Sat", "time": "4:00pm"}, {"days": "Sun", "time": "Closed"}], "id": "3711500054", "name": "USPS COLLECTION BOX - APC", "address": {"city": "MADISON", "state": "TN", "street": "323 E OLD HICKORY BLVD", "postcode": "37115"}}},
{"geometry": {"type": "Point", "coordinates": [-86.1812976093, 35.9300342038]}, "type": "Feature", "properties": {"collection_times": [{"days": "Mon-Fri", "time": "2:45pm"}, {"days": "Sat", "time": "11:15am"}, {"days": "Sun", "time": "Closed"}], "id": "3711800000", "name": "USPS COLLECTION BOX - BLUE BOX", "address": {"city": "MILTON", "state": "TN", "street": "12017 MILTON ST", "postcode": "37118"}}},
{"geometry": {"type": "Point", "coordinates": [-86.1812976093, 35.9300342038]}, "type": "Feature", "properties": {"collection_times": [{"days": "Mon-Fri", "time": "2:45pm"}, {"days": "Sat", "time": "11:15am"}, {"days": "Sun", "time": "Closed"}], "id": "3711800001", "name": "USPS COLLECTION BOX - PO LOBBY", "address": {"city": "MILTON", "state": "TN", "street": "12017 MILTON ST", "postcode": "37118"}}},
{"geometry": {"type": "Point", "coordinates": [-86.5181057014, 36.2046185504]}, "type": "Feature", "properties": {"collection_times": [{"days": "Mon-Fri", "time": "5:00pm"}, {"days": "Sat", "time": "3:00pm"}, {"days": "Sun", "time": "Closed"}], "id": "3712200002", "name": "USPS COLLECTION BOX - PO LOBBY", "address": {"city": "MOUNT JULIET", "state": "TN", "street": "2491 N MOUNT JULIET RD", "postcode": "37122"}}},
{"geometry": {"type": "Point", "coordinates": [-86.5181057014, 36.2046185504]}, "type": "Feature", "properties": {"collection_times": [{"days": "Mon-Fri", "time": "5:00pm"}, {"days": "Sat", "time": "3:00pm"}, {"days": "Sun", "time": "Closed"}], "id": "3712200003", "name": "USPS COLLECTION BOX - BLUE BOX", "address": {"city": "MOUNT JULIET", "state": "TN", "street": "2491 N MOUNT JULIET RD", "postcode": "37122"}}},
{"geometry": {"type": "Point", "coordinates": [-86.5094803486, 36.2309374549]}, "type": "Feature", "properties": {"collection_times": [{"days": "Mon-Sat", "time": "9:00am"}, {"days": "Sun", "time": "Closed"}], "id": "3712200006", "name": "USPS COLLECTION BOX - BLUE BOX", "address": {"city": "MOUNT JULIET", "state": "TN", "street": "10960 LEBANON RD", "postcode": "37122"}}},
{"geometry": {"type": "Point", "coordinates": [-86.5133553171, 36.1902597335]}, "type": "Feature", "properties": {"collection_times": [{"days": "Mon-Sat", "time": "10:30am"}, {"days": "Sun", "time": "Closed"}], "id": "3712200007", "name": "USPS COLLECTION BOX - BLUE BOX", "address": {"city": "MOUNT JULIET", "state": "TN", "street": "1337 N MOUNT JULIET RD", "postcode": "37122"}}},
{"geometry": {"type": "Point", "coordinates": [-86.4876968027, 36.1785548123]}, "type": "Feature", "properties": {"collection_times": [{"days": "Mon-Sat", "time": "9:00am"}, {"days": "Sun", "time": "Closed"}], "id": "3712200008", "name": "USPS COLLECTION BOX - BLUE BOX", "address": {"city": "MOUNT JULIET", "state": "TN", "street": "5001 CROSSINGS CIR", "postcode": "37122"}}},
{"geometry": {"type": "Point", "coordinates": [-86.5141270036, 36.227338558]}, "type": "Feature", "properties": {"collection_times": [{"days": "Mon-Sat", "time": "11:00am"}, {"days": "Sun", "time": "Closed"}], "id": "3712200010", "name": "USPS COLLECTION BOX - BLUE BOX", "address": {"city": "MOUNT JULIET", "state": "TN", "street": "4120 N MOUNT JULIET RD", "postcode": "37122"}}},
{"geometry": {"type": "Point", "coordinates": [-86.4876968027, 36.1785548123]}, "type": "Feature", "properties": {"collection_times": [{"days": "Mon-Sat", "time": "12:00pm"}, {"days": "Sun", "time": "Closed"}], "id": "3712200013", "name": "USPS COLLECTION BOX - BLUE BOX", "address": {"city": "MOUNT JULIET", "state": "TN", "street": "2048 PROVIDENCE PKWY", "postcode": "37122"}}},
{"geometry": {"type": "Point", "coordinates": [-86.5181057014, 36.2046185504]}, "type": "Feature", "properties": {"collection_times": [{"days": "Mon-Fri", "time": "5:00pm"}, {"days": "Sat", "time": "3:00pm"}, {"days": "Sun", "time": "Closed"}], "id": "3712200014", "name": "USPS COLLECTION BOX - APC", "address": {"city": "MOUNT JULIET", "state": "TN", "street": "2491 N MOUNT JULIET RD", "postcode": "37122"}}},
{"geometry": {"type": "Point", "coordinates": [-86.4254922795, 35.8466332309]}, "type": "Feature", "properties": {"collection_times": [{"days": "Mon-Fri", "time": "2:45pm"}, {"days": "Sat", "time": "1:00pm"}, {"days": "Sun", "time": "Closed"}], "id": "3712900001", "name": "USPS COLLECTION BOX - BLUE BOX", "address": {"city": "MURFREESBORO", "state": "TN", "street": "1950 OLD FORT PKWY", "postcode": "37129"}}},
{"geometry": {"type": "Point", "coordinates": [-86.4078863013, 35.8621430058]}, "type": "Feature", "properties": {"collection_times": [{"days": "Mon-Fri", "time": "3:00pm"}, {"days": "Sat", "time": "1:00pm"}, {"days": "Sun", "time": "Closed"}], "id": "3712900003", "name": "USPS COLLECTION BOX - BLUE BOX", "address": {"city": "MURFREESBORO", "state": "TN", "street": "1266 NW BROAD ST", "postcode": "37129"}}},
{"geometry": {"type": "Point", "coordinates": [-86.4112435388, 35.8718988684]}, "type": "Feature", "properties": {"collection_times": [{"days": "Mon-Fri", "time": "3:00pm"}, {"days": "Sat", "time": "1:00pm"}, {"days": "Sun", "time": "Closed"}], "id": "3712900004", "name": "USPS COLLECTION BOX - BLUE BOX", "address": {"city": "MURFREESBORO", "state": "TN", "street": "1535 W NORTHFIELD BLVD", "postcode": "37129"}}},
{"geometry": {"type": "Point", "coordinates": [-86.3857555049, 35.8709039999]}, "type": "Feature", "properties": {"collection_times": [{"days": "Mon-Fri", "time": "3:00pm"}, {"days": "Sat", "time": "1:00pm"}, {"days": "Sun", "time": "Closed"}], "id": "3712900005", "name": "USPS COLLECTION BOX - BLUE BOX", "address": {"city": "MURFREESBORO", "state": "TN", "street": "1801 MEMORIAL BLVD", "postcode": "37129"}}},
{"geometry": {"type": "Point", "coordinates": [-86.3881168088, 35.8662225781]}, "type": "Feature", "properties": {"collection_times": [{"days": "Mon-Fri", "time": "3:00pm"}, {"days": "Sat", "time": "1:00pm"}, {"days": "Sun", "time": "Closed"}], "id": "3712900008", "name": "USPS COLLECTION BOX - BLUE BOX", "address": {"city": "MURFREESBORO", "state": "TN", "street": "1650 MEMORIAL BLVD", "postcode": "37129"}}},
{"geometry": {"type": "Point", "coordinates": [-86.4188268917, 35.8723412397]}, "type": "Feature", "properties": {"collection_times": [{"days": "Mon-Fri", "time": "3:00pm"}, {"days": "Sat", "time": "1:00pm"}, {"days": "Sun", "time": "Closed"}], "id": "3712900015", "name": "USPS COLLECTION BOX - BLUE BOX", "address": {"city": "MURFREESBORO", "state": "TN", "street": "1776 NW BROAD ST", "postcode": "37129"}}},
{"geometry": {"type": "Point", "coordinates": [-86.4186015436, 35.8478339342]}, "type": "Feature", "properties": {"collection_times": [{"days": "Mon-Fri", "time": "2:45pm"}, {"days": "Sat", "time": "1:00pm"}, {"days": "Sun", "time": "Closed"}], "id": "3712900016", "name": "USPS COLLECTION BOX - BLUE BOX", "address": {"city": "MURFREESBORO", "state": "TN", "street": "1720 OLD FORT PKWY", "postcode": "37129"}}},
{"geometry": {"type": "Point", "coordinates": [-86.3828217667, 35.8848652816]}, "type": "Feature", "properties": {"collection_times": [{"days": "Mon-Fri", "time": "5:00pm"}, {"days": "Sat", "time": "1:00pm"}, {"days": "Sun", "time": "Closed"}], "id": "3712900021", "name": "USPS COLLECTION BOX - BLUE BOX", "address": {"city": "MURFREESBORO", "state": "TN", "street": "2255 MEMORIAL BLVD", "postcode": "37129"}}},
{"geometry": {"type": "Point", "coordinates": [-86.3828217667, 35.8848652816]}, "type": "Feature", "properties": {"collection_times": [{"days": "Mon-Fri", "time": "5:00pm"}, {"days": "Sat", "time": "1:00pm"}, {"days": "Sun", "time": "Closed"}], "id": "3712900022", "name": "USPS COLLECTION BOX - BLUE BOX", "address": {"city": "MURFREESBORO", "state": "TN", "street": "2255 MEMORIAL BLVD", "postcode": "37129"}}},
{"geometry": {"type": "Point", "coordinates": [-86.3828217667, 35.8848652816]}, "type": "Feature", "properties": {"collection_times": [{"days": "Mon-Fri", "time": "5:00pm"}, {"days": "Sat", "time": "1:00pm"}, {"days": "Sun", "time": "Closed"}], "id": "3712900023", "name": "USPS COLLECTION BOX - PO LOBBY", "address": {"city": "MURFREESBORO", "state": "TN", "street": "2255 MEMORIAL BLVD", "postcode": "37129"}}},
{"geometry": {"type": "Point", "coordinates": [-86.3828217667, 35.8848652816]}, "type": "Feature", "properties": {"collection_times": [{"days": "Mon-Fri", "time": "5:00pm"}, {"days": "Sat", "time": "1:00pm"}, {"days": "Sun", "time": "Closed"}], "id": "3712900024", "name": "USPS COLLECTION BOX - APC", "address": {"city": "MURFREESBORO", "state": "TN", "street": "2255 MEMORIAL BLVD", "postcode": "37129"}}},
{"geometry": {"type": "Point", "coordinates": [-86.3828217667, 35.8848652816]}, "type": "Feature", "properties": {"collection_times": [{"days": "Mon-Fri", "time": "5:00pm"}, {"days": "Sat", "time": "1:00pm"}, {"days": "Sun", "time": "Closed"}], "id": "3712900025", "name": "USPS COLLECTION BOX - PO LOBBY", "address": {"city": "MURFREESBORO", "state": "TN", "street": "2255 MEMORIAL BLVD", "postcode": "37129"}}},
{"geometry": {"type": "Point", "coordinates": [-86.4417916514, 35.8457343649]}, "type": "Feature", "properties": {"collection_times": [{"days": "Mon-Fri", "time": "2:30pm"}, {"days": "Sat", "time": "1:00pm"}, {"days": "Sun", "time": "Closed"}], "id": "3712900026", "name": "USPS COLLECTION BOX - BLUE BOX", "address": {"city": "MURFREESBORO", "state": "TN", "street": "2449 OLD FORT PKWY", "postcode": "37129"}}},
{"geometry": {"type": "Point", "coordinates": [-86.4011812898, 35.786033792]}, "type": "Feature", "properties": {"collection_times": [{"days": "Mon-Sat", "time": "1:00pm"}, {"days": "Sun", "time": "Closed"}], "id": "3712900027", "name": "USPS COLLECTION BOX - BLUE BOX", "address": {"city": "MURFREESBORO", "state": "TN", "street": "106 BARFIELD CRESENT RD", "postcode": "37129"}}},
{"geometry": {"type": "Point", "coordinates": [-86.4390903266, 35.9284341356]}, "type": "Feature", "properties": {"collection_times": [{"days": "Mon-Sat", "time": "1:00pm"}, {"days": "Sun", "time": "Closed"}], "id": "3712900028", "name": "USPS COLLECTION BOX - BLUE BOX", "address": {"city": "MURFREESBORO", "state": "TN", "street": "3055 AVENUE WAY", "postcode": "37129"}}},
{"geometry": {"type": "Point", "coordinates": [-86.3917662679, 35.8464748317]}, "type": "Feature", "properties": {"collection_times": [{"days": "Mon-Fri", "time": "3:00pm"}, {"days": "Sat", "time": "1:00pm"}, {"days": "Sun", "time": "Closed"}], "id": "3713000004", "name": "USPS COLLECTION BOX - BLUE BOX", "address": {"city": "MURFREESBORO", "state": "TN", "street": "10 N PUBLIC SQ", "postcode": "37130"}}},
{"geometry": {"type": "Point", "coordinates": [-86.3914544437, 35.8455878468]}, "type": "Feature", "properties": {"collection_times": [{"days": "Mon-Fri", "time": "3:00pm"}, {"days": "Sat", "time": "1:00pm"}, {"days": "Sun", "time": "Closed"}], "id": "3713000005", "name": "USPS COLLECTION BOX - BLUE BOX", "address": {"city": "MURFREESBORO", "state": "TN", "street": "1 PUBLIC SQ", "postcode": "37130"}}},
{"geometry": {"type": "Point", "coordinates": [-86.3901442827, 35.8541391055]}, "type": "Feature", "properties": {"collection_times": [{"days": "Mon-Fri", "time": "3:00pm"}, {"days": "Sat", "time": "1:00pm"}, {"days": "Sun", "time": "Closed"}], "id": "3713000011", "name": "USPS COLLECTION BOX - BLUE BOX", "address": {"city": "MURFREESBORO", "state": "TN", "street": "805 S CHURCH ST", "postcode": "37130"}}},
{"geometry": {"type": "Point", "coordinates": [-86.3920188846, 35.8464931514]}, "type": "Feature", "properties": {"collection_times": [{"days": "Mon-Fri", "time": "3:00pm"}, {"days": "Sat", "time": "1:00pm"}, {"days": "Sun", "time": "Closed"}], "id": "3713000014", "name": "USPS COLLECTION BOX - BLUE BOX", "address": {"city": "MURFREESBORO", "state": "TN", "street": "26 N PUBLIC SQ", "postcode": "37130"}}},
{"geometry": {"type": "Point", "coordinates": [-86.376846641, 35.8298778001]}, "type": "Feature", "properties": {"collection_times": [{"days": "Mon-Fri", "time": "3:00pm"}, {"days": "Sat", "time": "1:00pm"}, {"days": "Sun", "time": "Closed"}], "id": "3713000016", "name": "USPS COLLECTION BOX - BLUE BOX", "address": {"city": "MURFREESBORO", "state": "TN", "street": "1622 MIDDLE TENNESSEE BLVD", "postcode": "37130"}}},
{"geometry": {"type": "Point", "coordinates": [-86.3809325812, 35.8485460755]}, "type": "Feature", "properties": {"collection_times": [{"days": "Mon-Fri", "time": "3:00pm"}, {"days": "Sat", "time": "1:00pm"}, {"days": "Sun", "time": "Closed"}], "id": "3713000021", "name": "USPS COLLECTION BOX - BLUE BOX", "address": {"city": "MURFREESBORO", "state": "TN", "street": "420 N UNIVERSITY ST", "postcode": "37130"}}},
{"geometry": {"type": "Point", "coordinates": [-86.3907665191, 35.8459057111]}, "type": "Feature", "properties": {"collection_times": [{"days": "Mon-Fri", "time": "3:00pm"}, {"days": "Sat", "time": "1:00pm"}, {"days": "Sun", "time": "Closed"}], "id": "3713000034", "name": "USPS COLLECTION BOX - BLUE BOX", "address": {"city": "MURFREESBORO", "state": "TN", "street": "201 E MAIN ST", "postcode": "37130"}}},
{"geometry": {"type": "Point", "coordinates": [-86.391280548, 35.8460069972]}, "type": "Feature", "properties": {"collection_times": [{"days": "Mon-Fri", "time": "3:00pm"}, {"days": "Sat", "time": "1:00pm"}, {"days": "Sun", "time": "Closed"}], "id": "3713000036", "name": "USPS COLLECTION BOX - BLUE BOX", "address": {"city": "MURFREESBORO", "state": "TN", "street": "111 E MAIN ST", "postcode": "37130"}}},
{"geometry": {"type": "Point", "coordinates": [-86.3929159556, 35.8357393617]}, "type": "Feature", "properties": {"collection_times": [{"days": "Mon-Fri", "time": "5:00pm"}, {"days": "Sat", "time": "1:00pm"}, {"days": "Sun", "time": "Closed"}], "id": "3713000037", "name": "USPS COLLECTION BOX - BLUE BOX", "address": {"city": "MURFREESBORO", "state": "TN", "street": "825 S CHURCH ST", "postcode": "37130"}}},
{"geometry": {"type": "Point", "coordinates": [-86.3929159556, 35.8357393617]}, "type": "Feature", "properties": {"collection_times": [{"days": "Mon-Fri", "time": "5:00pm"}, {"days": "Sat", "time": "1:00pm"}, {"days": "Sun", "time": "Closed"}], "id": "3713000038", "name": "USPS COLLECTION BOX - BLUE BOX", "address": {"city": "MURFREESBORO", "state": "TN", "street": "825 S CHURCH ST", "postcode": "37130"}}},
{"geometry": {"type": "Point", "coordinates": [-86.3929159556, 35.8357393617]}, "type": "Feature", "properties": {"collection_times": [{"days": "Mon-Fri", "time": "5:00pm"}, {"days": "Sat", "time": "1:00pm"}, {"days": "Sun", "time": "Closed"}], "id": "3713000040", "name": "USPS COLLECTION BOX - PO LOBBY", "address": {"city": "MURFREESBORO", "state": "TN", "street": "825 S CHURCH ST", "postcode": "37130"}}},
{"geometry": {"type": "Point", "coordinates": [-86.3922534985, 35.8486998602]}, "type": "Feature", "properties": {"collection_times": [{"days": "Mon-Fri", "time": "3:00pm"}, {"days": "Sat", "time": "1:00pm"}, {"days": "Sun", "time": "Closed"}], "id": "3713000041", "name": "USPS COLLECTION BOX - BLUE BOX", "address": {"city": "MURFREESBORO", "state": "TN", "street": "319 N MAPLE ST", "postcode": "37130"}}},
{"geometry": {"type": "Point", "coordinates": [-86.3687756439, 35.8119894988]}, "type": "Feature", "properties": {"collection_times": [{"days": "Mon-Fri", "time": "2:45pm"}, {"days": "Sat", "time": "1:00pm"}, {"days": "Sun", "time": "Closed"}], "id": "3713000043", "name": "USPS COLLECTION BOX - BLUE BOX", "address": {"city": "MURFREESBORO", "state": "TN", "street": "1715 S RUTHERFORD BLVD", "postcode": "37130"}}},
{"geometry": {"type": "Point", "coordinates": [-86.3929159556, 35.8357393617]}, "type": "Feature", "properties": {"collection_times": [{"days": "Mon-Fri", "time": "5:00pm"}, {"days": "Sat", "time": "1:00pm"}, {"days": "Sun", "time": "Closed"}], "id": "3713000044", "name": "USPS COLLECTION BOX - APC", "address": {"city": "MURFREESBORO", "state": "TN", "street": "825 S CHURCH ST", "postcode": "37130"}}},
{"geometry": {"type": "Point", "coordinates": [-86.3630513336, 35.8486201167]}, "type": "Feature", "properties": {"collection_times": [{"days": "Mon-Fri", "time": "4:00pm"}, {"days": "Sat", "time": "1:00pm"}, {"days": "Sun", "time": "Closed"}], "id": "3713200001", "name": "USPS COLLECTION BOX - BLUE BOX", "address": {"city": "MURFREESBORO", "state": "TN", "street": "N/A MTSU POST OFFICE", "postcode": "37132"}}},
{"geometry": {"type": "Point", "coordinates": [-87.967261626, 36.0209138433]}, "type": "Feature", "properties": {"collection_times": [{"days": "Mon-Fri", "time": "4:00pm"}, {"days": "Sat", "time": "12:00pm"}, {"days": "Sun", "time": "Closed"}], "id": "3713400001", "name": "USPS COLLECTION BOX - PO LOBBY", "address": {"city": "NEW JOHSONVLE", "state": "TN", "street": "556 BROADWAY AVE", "postcode": "37134"}}},
{"geometry": {"type": "Point", "coordinates": [-87.967261626, 36.0209138433]}, "type": "Feature", "properties": {"collection_times": [{"days": "Mon-Fri", "time": "4:00pm"}, {"days": "Sat", "time": "12:00pm"}, {"days": "Sun", "time": "Closed"}], "id": "3713400002", "name": "USPS COLLECTION BOX - BLUE BOX", "address": {"city": "NEW JOHSONVLE", "state": "TN", "street": "556 BROADWAY AVE", "postcode": "37134"}}},
{"geometry": {"type": "Point", "coordinates": [-87.967261626, 36.0209138433]}, "type": "Feature", "properties": {"collection_times": [{"days": "Mon-Fri", "time": "2:00pm"}, {"days": "Sat", "time": "12:00pm"}, {"days": "Sun", "time": "Closed"}], "id": "3713400003", "name": "USPS COLLECTION BOX - BLUE BOX", "address": {"city": "NEW JOHSONVLE", "state": "TN", "street": "556 BROADWAY AVE", "postcode": "37134"}}},
{"geometry": {"type": "Point", "coordinates": [-86.6718848876, 35.9618735443]}, "type": "Feature", "properties": {"collection_times": [{"days": "Mon-Fri", "time": "4:30pm"}, {"days": "Sat", "time": "12:00pm"}, {"days": "Sun", "time": "Closed"}], "id": "3713500001", "name": "USPS COLLECTION BOX - PO LOBBY", "address": {"city": "NOLENSVILLE", "state": "TN", "street": "923 OLDHAM DR", "postcode": "37135"}}},
{"geometry": {"type": "Point", "coordinates": [-86.6718848876, 35.9618735443]}, "type": "Feature", "properties": {"collection_times": [{"days": "Mon-Fri", "time": "4:30pm"}, {"days": "Sat", "time": "12:00pm"}, {"days": "Sun", "time": "Closed"}], "id": "3713500002", "name": "USPS COLLECTION BOX - BLUE BOX", "address": {"city": "NOLENSVILLE", "state": "TN", "street": "923 OLDHAM DR", "postcode": "37135"}}},
{"geometry": {"type": "Point", "coordinates": [-86.2417546547, 36.0545131768]}, "type": "Feature", "properties": {"collection_times": [{"days": "Mon-Fri", "time": "10:30am"}, {"days": "Sat-Sun", "time": "Closed"}], "id": "3713600004", "name": "USPS COLLECTION BOX - BLUE BOX", "address": {"city": "NORENE", "state": "TN", "street": "11185 CAINSVILLE RD", "postcode": "37136"}}},
{"geometry": {"type": "Point", "coordinates": [-87.4688329308, 35.859148285]}, "type": "Feature", "properties": {"collection_times": [{"days": "Mon-Fri", "time": "3:00pm"}, {"days": "Sat", "time": "10:00am"}, {"days": "Sun", "time": "Closed"}], "id": "3713700001", "name": "USPS COLLECTION BOX - PO LOBBY", "address": {"city": "NUNNELLY", "state": "TN", "street": "3250 HIGHWAY 48 N", "postcode": "37137"}}},
{"geometry": {"type": "Point", "coordinates": [-87.4688329308, 35.859148285]}, "type": "Feature", "properties": {"collection_times": [{"days": "Mon-Fri", "time": "3:00pm"}, {"days": "Sat", "time": "10:00am"}, {"days": "Sun", "time": "Closed"}], "id": "3713700002", "name": "USPS COLLECTION BOX - BLUE BOX", "address": {"city": "NUNNELLY", "state": "TN", "street": "3250 HIGHWAY 48 N", "postcode": "37137"}}},
{"geometry": {"type": "Point", "coordinates": [-86.5885856491, 36.2302467129]}, "type": "Feature", "properties": {"collection_times": [{"days": "Mon-Sat", "time": "1:00pm"}, {"days": "Sun", "time": "Closed"}], "id": "3713800005", "name": "USPS COLLECTION BOX - BLUE BOX", "address": {"city": "OLD HICKORY", "state": "TN", "street": "4337 SAUNDERSVILLE RD", "postcode": "37138"}}},
{"geometry": {"type": "Point", "coordinates": [-86.5598571309, 36.2212177521]}, "type": "Feature", "properties": {"collection_times": [{"days": "Mon-Sat", "time": "1:30pm"}, {"days": "Sun", "time": "Closed"}], "id": "3713800006", "name": "USPS COLLECTION BOX - BLUE BOX", "address": {"city": "OLD HICKORY", "state": "TN", "street": "14000 LEBANON RD", "postcode": "37138"}}},
{"geometry": {"type": "Point", "coordinates": [-86.6537358017, 36.2557332259]}, "type": "Feature", "properties": {"collection_times": [{"days": "Mon-Sat", "time": "2:00pm"}, {"days": "Sun", "time": "Closed"}], "id": "3713800007", "name": "USPS COLLECTION BOX - BLUE BOX", "address": {"city": "OLD HICKORY", "state": "TN", "street": "1471 ROBINSON RD", "postcode": "37138"}}},
{"geometry": {"type": "Point", "coordinates": [-86.6243304693, 36.219518978]}, "type": "Feature", "properties": {"collection_times": [{"days": "Mon-Sat", "time": "2:00pm"}, {"days": "Sun", "time": "Closed"}], "id": "3713800014", "name": "USPS COLLECTION BOX - BLUE BOX", "address": {"city": "OLD HICKORY", "state": "TN", "street": "4300 OLD HICKORY BLVD", "postcode": "37138"}}},
{"geometry": {"type": "Point", "coordinates": [-86.6499291692, 36.2641136451]}, "type": "Feature", "properties": {"collection_times": [{"days": "Mon-Fri", "time": "4:30pm"}, {"days": "Sat", "time": "12:00pm"}, {"days": "Sun", "time": "Closed"}], "id": "3713800015", "name": "USPS COLLECTION BOX - BLUE BOX", "address": {"city": "OLD HICKORY", "state": "TN", "street": "1101 DONELSON AVE", "postcode": "37138"}}},
{"geometry": {"type": "Point", "coordinates": [-86.6499291692, 36.2641136451]}, "type": "Feature", "properties": {"collection_times": [{"days": "Mon-Fri", "time": "4:30pm"}, {"days": "Sat", "time": "12:00pm"}, {"days": "Sun", "time": "Closed"}], "id": "3713800017", "name": "USPS COLLECTION BOX - PO LOBBY", "address": {"city": "OLD HICKORY", "state": "TN", "street": "1101 DONELSON AVE", "postcode": "37138"}}},
{"geometry": {"type": "Point", "coordinates": [-86.711397359, 36.5989909796]}, "type": "Feature", "properties": {"collection_times": [{"days": "Mon-Fri", "time": "3:30pm"}, {"days": "Sat", "time": "11:30am"}, {"days": "Sun", "time": "Closed"}], "id": "3714100001", "name": "USPS COLLECTION BOX - PO LOBBY", "address": {"city": "ORLINDA", "state": "TN", "street": "7503 HIGHWAY 52", "postcode": "37141"}}},
{"geometry": {"type": "Point", "coordinates": [-86.711397359, 36.5989909796]}, "type": "Feature", "properties": {"collection_times": [{"days": "Mon-Fri", "time": "3:30pm"}, {"days": "Sat", "time": "11:30am"}, {"days": "Sun", "time": "Closed"}], "id": "3714100002", "name": "USPS COLLECTION BOX - BLUE BOX", "address": {"city": "ORLINDA", "state": "TN", "street": "7503 HIGHWAY 52", "postcode": "37141"}}},
{"geometry": {"type": "Point", "coordinates": [-87.0528631234, 36.1015672706]}, "type": "Feature", "properties": {"collection_times": [{"days": "Mon-Fri", "time": "3:30pm"}, {"days": "Sat", "time": "10:30am"}, {"days": "Sun", "time": "Closed"}], "id": "3714300001", "name": "USPS COLLECTION BOX - PO LOBBY", "address": {"city": "PEGRAM", "state": "TN", "street": "502 HIGHWAY 70", "postcode": "37143"}}},
{"geometry": {"type": "Point", "coordinates": [-87.0528631234, 36.1015672706]}, "type": "Feature", "properties": {"collection_times": [{"days": "Mon-Fri", "time": "3:30pm"}, {"days": "Sat", "time": "10:30am"}, {"days": "Sun", "time": "Closed"}], "id": "3714300002", "name": "USPS COLLECTION BOX - BLUE BOX", "address": {"city": "PEGRAM", "state": "TN", "street": "502 HIGHWAY 70", "postcode": "37143"}}},
{"geometry": {"type": "Point", "coordinates": [-86.6374293601, 35.3201867008]}, "type": "Feature", "properties": {"collection_times": [{"days": "Mon-Fri", "time": "2:30pm"}, {"days": "Sat", "time": "12:00pm"}, {"days": "Sun", "time": "Closed"}], "id": "3714400000", "name": "USPS COLLECTION BOX - BLUE BOX", "address": {"city": "PETERSBURG", "state": "TN", "street": "100 NORTHSIDE SQ", "postcode": "37144"}}},
{"geometry": {"type": "Point", "coordinates": [-86.6374293601, 35.3201867008]}, "type": "Feature", "properties": {"collection_times": [{"days": "Mon-Fri", "time": "2:30pm"}, {"days": "Sat", "time": "12:00pm"}, {"days": "Sun", "time": "Closed"}], "id": "3714400001", "name": "USPS COLLECTION BOX - PO LOBBY", "address": {"city": "PETERSBURG", "state": "TN", "street": "100 NORTHSIDE SQ", "postcode": "37144"}}},
{"geometry": {"type": "Point", "coordinates": [-85.9489522156, 36.3792087782]}, "type": "Feature", "properties": {"collection_times": [{"days": "Mon-Fri", "time": "11:00am"}, {"days": "Sat", "time": "10:45am"}, {"days": "Sun", "time": "Closed"}], "id": "3714500002", "name": "USPS COLLECTION BOX - BLUE BOX", "address": {"city": "PLEASANT SHADE", "state": "TN", "street": "19 POST OFFICE LN", "postcode": "37145"}}},
{"geometry": {"type": "Point", "coordinates": [-87.0332764854, 36.3966701119]}, "type": "Feature", "properties": {"collection_times": [{"days": "Mon-Fri", "time": "4:00pm"}, {"days": "Sat", "time": "12:00pm"}, {"days": "Sun", "time": "Closed"}], "id": "3714600001", "name": "USPS COLLECTION BOX - BLUE BOX", "address": {"city": "PLEASANTVIEW", "state": "TN", "street": "2550 HIGHWAY 49 E", "postcode": "37146"}}},
{"geometry": {"type": "Point", "coordinates": [-87.0332764854, 36.3966701119]}, "type": "Feature", "properties": {"collection_times": [{"days": "Mon-Fri", "time": "4:00pm"}, {"days": "Sat", "time": "12:00pm"}, {"days": "Sun", "time": "Closed"}], "id": "3714600002", "name": "USPS COLLECTION BOX - PO LOBBY", "address": {"city": "PLEASANTVIEW", "state": "TN", "street": "2550 HIGHWAY 49 E", "postcode": "37146"}}},
{"geometry": {"type": "Point", "coordinates": [-86.5161637183, 36.5741257863]}, "type": "Feature", "properties": {"collection_times": [{"days": "Mon-Fri", "time": "5:00pm"}, {"days": "Sat", "time": "4:15pm"}, {"days": "Sun", "time": "Closed"}], "id": "3714800001", "name": "USPS COLLECTION BOX - PO LOBBY", "address": {"city": "PORTLAND", "state": "TN", "street": "130 VILLAGE DR", "postcode": "37148"}}},
{"geometry": {"type": "Point", "coordinates": [-86.5161637183, 36.5741257863]}, "type": "Feature", "properties": {"collection_times": [{"days": "Mon-Fri", "time": "5:00pm"}, {"days": "Sat", "time": "4:15pm"}, {"days": "Sun", "time": "Closed"}], "id": "3714800002", "name": "USPS COLLECTION BOX - BLUE BOX", "address": {"city": "PORTLAND", "state": "TN", "street": "130 VILLAGE DR", "postcode": "37148"}}},
{"geometry": {"type": "Point", "coordinates": [-86.5161637183, 36.5741257863]}, "type": "Feature", "properties": {"collection_times": [{"days": "Mon-Fri", "time": "5:00pm"}, {"days": "Sat", "time": "4:15pm"}, {"days": "Sun", "time": "Closed"}], "id": "3714800012", "name": "USPS COLLECTION BOX - BLUE BOX", "address": {"city": "PORTLAND", "state": "TN", "street": "130 VILLAGE DR", "postcode": "37148"}}},
{"geometry": {"type": "Point", "coordinates": [-86.5161637183, 36.5741257863]}, "type": "Feature", "properties": {"collection_times": [{"days": "Mon-Fri", "time": "5:00pm"}, {"days": "Sat", "time": "4:15pm"}, {"days": "Sun", "time": "Closed"}], "id": "3714800013", "name": "USPS COLLECTION BOX - BLUE BOX", "address": {"city": "PORTLAND", "state": "TN", "street": "130 VILLAGE DR", "postcode": "37148"}}},
{"geometry": {"type": "Point", "coordinates": [-86.5210470843, 36.5874469604]}, "type": "Feature", "properties": {"collection_times": [{"days": "Mon-Sat", "time": "9:00am"}, {"days": "Sun", "time": "Closed"}], "id": "3714800014", "name": "USPS COLLECTION BOX - BLUE BOX", "address": {"city": "PORTLAND", "state": "TN", "street": "433 N BROADWAY", "postcode": "37148"}}},
{"geometry": {"type": "Point", "coordinates": [-86.5161637183, 36.5741257863]}, "type": "Feature", "properties": {"collection_times": [{"days": "Mon-Fri", "time": "5:00pm"}, {"days": "Sat", "time": "4:15pm"}, {"days": "Sun", "time": "Closed"}], "id": "3714800015", "name": "USPS COLLECTION BOX - PO LOBBY", "address": {"city": "PORTLAND", "state": "TN", "street": "130 VILLAGE DR", "postcode": "37148"}}},
{"geometry": {"type": "Point", "coordinates": [-86.5161637183, 36.5741257863]}, "type": "Feature", "properties": {"collection_times": [{"days": "Mon-Fri", "time": "5:00pm"}, {"days": "Sat", "time": "4:15pm"}, {"days": "Sun", "time": "Closed"}], "id": "3714800016", "name": "USPS COLLECTION BOX - PO LOBBY", "address": {"city": "PORTLAND", "state": "TN", "street": "130 VILLAGE DR", "postcode": "37148"}}},
{"geometry": {"type": "Point", "coordinates": [-86.1808566963, 35.8287547765]}, "type": "Feature", "properties": {"collection_times": [{"days": "Mon-Fri", "time": "2:15pm"}, {"days": "Sat", "time": "11:00am"}, {"days": "Sun", "time": "Closed"}], "id": "3714900001", "name": "USPS COLLECTION BOX - PO LOBBY", "address": {"city": "READYVILLE", "state": "TN", "street": "1828 OLD WOODBURY PIKE", "postcode": "37149"}}},
{"geometry": {"type": "Point", "coordinates": [-86.1808566963, 35.8287547765]}, "type": "Feature", "properties": {"collection_times": [{"days": "Mon-Fri", "time": "2:15pm"}, {"days": "Sat", "time": "11:00am"}, {"days": "Sun", "time": "Closed"}], "id": "3714900002", "name": "USPS COLLECTION BOX - BLUE BOX", "address": {"city": "READYVILLE", "state": "TN", "street": "1828 OLD WOODBURY PIKE", "postcode": "37149"}}},
{"geometry": {"type": "Point", "coordinates": [-85.8503457484, 36.5328008105]}, "type": "Feature", "properties": {"collection_times": [{"days": "Mon-Fri", "time": "3:45pm"}, {"days": "Sat", "time": "12:00pm"}, {"days": "Sun", "time": "Closed"}], "id": "3715000001", "name": "USPS COLLECTION BOX - PO LOBBY", "address": {"city": "RED BLNG SPGS", "state": "TN", "street": "134 MARKET ST", "postcode": "37150"}}},
{"geometry": {"type": "Point", "coordinates": [-85.8503457484, 36.5328008105]}, "type": "Feature", "properties": {"collection_times": [{"days": "Mon-Fri", "time": "3:45pm"}, {"days": "Sat", "time": "12:00pm"}, {"days": "Sun", "time": "Closed"}], "id": "3715000002", "name": "USPS COLLECTION BOX - BLUE BOX", "address": {"city": "RED BLNG SPGS", "state": "TN", "street": "134 MARKET ST", "postcode": "37150"}}},
{"geometry": {"type": "Point", "coordinates": [-86.0185969443, 36.321882306]}, "type": "Feature", "properties": {"collection_times": [{"days": "Mon-Fri", "time": "3:45pm"}, {"days": "Sat", "time": "12:00pm"}, {"days": "Sun", "time": "Closed"}], "id": "3715100001", "name": "USPS COLLECTION BOX - BLUE BOX", "address": {"city": "RIDDLETON", "state": "TN", "street": "73 RIDDLETON CIR", "postcode": "37151"}}},
{"geometry": {"type": "Point", "coordinates": [-86.0185969443, 36.321882306]}, "type": "Feature", "properties": {"collection_times": [{"days": "Mon-Fri", "time": "3:45pm"}, {"days": "Sat", "time": "12:00pm"}, {"days": "Sun", "time": "Closed"}], "id": "3715100002", "name": "USPS COLLECTION BOX - PO LOBBY", "address": {"city": "RIDDLETON", "state": "TN", "street": "73 RIDDLETON CIR", "postcode": "37151"}}},
{"geometry": {"type": "Point", "coordinates": [-86.7669556909, 36.3961629992]}, "type": "Feature", "properties": {"collection_times": [{"days": "Mon-Fri", "time": "3:30pm"}, {"days": "Sat", "time": "9:30am"}, {"days": "Sun", "time": "Closed"}], "id": "3715200001", "name": "USPS COLLECTION BOX - PO LOBBY", "address": {"city": "RIDGETOP", "state": "TN", "street": "1736 HIGHWAY 41 S", "postcode": "37152"}}},
{"geometry": {"type": "Point", "coordinates": [-86.7669556909, 36.3961629992]}, "type": "Feature", "properties": {"collection_times": [{"days": "Mon-Fri", "time": "3:30pm"}, {"days": "Sat", "time": "9:30am"}, {"days": "Sun", "time": "Closed"}], "id": "3715200002", "name": "USPS COLLECTION BOX - BLUE BOX", "address": {"city": "RIDGETOP", "state": "TN", "street": "1736 HIGHWAY 41 S", "postcode": "37152"}}},
{"geometry": {"type": "Point", "coordinates": [-86.5217780415, 35.7676754518]}, "type": "Feature", "properties": {"collection_times": [{"days": "Mon-Fri", "time": "3:30pm"}, {"days": "Sat", "time": "11:00am"}, {"days": "Sun", "time": "Closed"}], "id": "3715300000", "name": "USPS COLLECTION BOX - BLUE BOX", "address": {"city": "ROCKVALE", "state": "TN", "street": "8000 HIGHWAY 99", "postcode": "37153"}}},
{"geometry": {"type": "Point", "coordinates": [-86.5217780415, 35.7676754518]}, "type": "Feature", "properties": {"collection_times": [{"days": "Mon-Fri", "time": "3:30pm"}, {"days": "Sat", "time": "11:00am"}, {"days": "Sun", "time": "Closed"}], "id": "3715300001", "name": "USPS COLLECTION BOX - PO LOBBY", "address": {"city": "ROCKVALE", "state": "TN", "street": "8000 HIGHWAY 99", "postcode": "37153"}}},
{"geometry": {"type": "Point", "coordinates": [-86.4579372951, 35.4976224815]}, "type": "Feature", "properties": {"collection_times": [{"days": "Mon-Fri", "time": "11:00am"}, {"days": "Sat", "time": "9:30am"}, {"days": "Sun", "time": "Closed"}], "id": "3716000012", "name": "USPS COLLECTION BOX - BLUE BOX", "address": {"city": "SHELBYVILLE", "state": "TN", "street": "1010 N MAIN ST", "postcode": "37160"}}},
{"geometry": {"type": "Point", "coordinates": [-86.4736091354, 35.495906008]}, "type": "Feature", "properties": {"collection_times": [{"days": "Mon-Sat", "time": "10:00am"}, {"days": "Sun", "time": "Closed"}], "id": "3716000013", "name": "USPS COLLECTION BOX - BLUE BOX", "address": {"city": "SHELBYVILLE", "state": "TN", "street": "874 UNION ST", "postcode": "37160"}}},
{"geometry": {"type": "Point", "coordinates": [-86.4590812354, 35.48922686]}, "type": "Feature", "properties": {"collection_times": [{"days": "Mon-Fri", "time": "3:00pm"}, {"days": "Sat", "time": "12:00pm"}, {"days": "Sun", "time": "Closed"}], "id": "3716000016", "name": "USPS COLLECTION BOX - BLUE BOX", "address": {"city": "SHELBYVILLE", "state": "TN", "street": "101 ELM ST", "postcode": "37160"}}},
{"geometry": {"type": "Point", "coordinates": [-86.4593819128, 35.4863081898]}, "type": "Feature", "properties": {"collection_times": [{"days": "Mon-Fri", "time": "4:30pm"}, {"days": "Sat", "time": "3:30pm"}, {"days": "Sun", "time": "Closed"}], "id": "3716000022", "name": "USPS COLLECTION BOX - BLUE BOX", "address": {"city": "SHELBYVILLE", "state": "TN", "street": "600 N MAIN ST", "postcode": "37160"}}},
{"geometry": {"type": "Point", "coordinates": [-86.4593819128, 35.4863081898]}, "type": "Feature", "properties": {"collection_times": [{"days": "Mon-Fri", "time": "4:30pm"}, {"days": "Sat", "time": "3:30pm"}, {"days": "Sun", "time": "Closed"}], "id": "3716000023", "name": "USPS COLLECTION BOX - BLUE BOX", "address": {"city": "SHELBYVILLE", "state": "TN", "street": "600 N MAIN ST", "postcode": "37160"}}},
{"geometry": {"type": "Point", "coordinates": [-86.4593819128, 35.4863081898]}, "type": "Feature", "properties": {"collection_times": [{"days": "Mon-Fri", "time": "4:30pm"}, {"days": "Sat", "time": "3:30pm"}, {"days": "Sun", "time": "Closed"}], "id": "3716000026", "name": "USPS COLLECTION BOX - PO LOBBY", "address": {"city": "SHELBYVILLE", "state": "TN", "street": "600 N MAIN ST", "postcode": "37160"}}},
{"geometry": {"type": "Point", "coordinates": [-86.461022452, 35.4832211391]}, "type": "Feature", "properties": {"collection_times": [{"days": "Mon-Fri", "time": "3:00pm"}, {"days": "Sat", "time": "2:00pm"}, {"days": "Sun", "time": "Closed"}], "id": "3716000032", "name": "USPS COLLECTION BOX - BLUE BOX", "address": {"city": "SHELBYVILLE", "state": "TN", "street": "100 W SIDE SQ", "postcode": "37160"}}},
{"geometry": {"type": "Point", "coordinates": [-86.4599696186, 35.4830342315]}, "type": "Feature", "properties": {"collection_times": [{"days": "Mon-Fri", "time": "3:00pm"}, {"days": "Sat", "time": "2:00pm"}, {"days": "Sun", "time": "Closed"}], "id": "3716000034", "name": "USPS COLLECTION BOX - BLUE BOX", "address": {"city": "SHELBYVILLE", "state": "TN", "street": "112 E SIDE SQ", "postcode": "37160"}}},
{"geometry": {"type": "Point", "coordinates": [-86.4569110654, 35.5065707703]}, "type": "Feature", "properties": {"collection_times": [{"days": "Mon-Fri", "time": "12:00pm"}, {"days": "Sat", "time": "10:00am"}, {"days": "Sun", "time": "Closed"}], "id": "3716000035", "name": "USPS COLLECTION BOX - BLUE BOX", "address": {"city": "SHELBYVILLE", "state": "TN", "street": "1701 N MAIN ST", "postcode": "37160"}}},
{"geometry": {"type": "Point", "coordinates": [-87.4705471067, 36.2967397459]}, "type": "Feature", "properties": {"collection_times": [{"days": "Mon-Fri", "time": "4:00pm"}, {"days": "Sat", "time": "11:45am"}, {"days": "Sun", "time": "Closed"}], "id": "3716500001", "name": "USPS COLLECTION BOX - BLUE BOX", "address": {"city": "SLAYDEN", "state": "TN", "street": "2830 SLAYDEN MARION RD", "postcode": "37165"}}},
{"geometry": {"type": "Point", "coordinates": [-87.4705471067, 36.2967397459]}, "type": "Feature", "properties": {"collection_times": [{"days": "Mon-Fri", "time": "4:00pm"}, {"days": "Sat", "time": "11:45am"}, {"days": "Sun", "time": "Closed"}], "id": "3716500002", "name": "USPS COLLECTION BOX - PO LOBBY", "address": {"city": "SLAYDEN", "state": "TN", "street": "2830 SLAYDEN MARION RD", "postcode": "37165"}}},
{"geometry": {"type": "Point", "coordinates": [-85.8115915417, 35.9607131933]}, "type": "Feature", "properties": {"collection_times": [{"days": "Mon-Fri", "time": "4:30pm"}, {"days": "Sat", "time": "4:00pm"}, {"days": "Sun", "time": "Closed"}], "id": "3716600001", "name": "USPS COLLECTION BOX - PO LOBBY", "address": {"city": "SMITHVILLE", "state": "TN", "street": "100 S 1ST ST", "postcode": "37166"}}},
{"geometry": {"type": "Point", "coordinates": [-85.8109833717, 35.9606138293]}, "type": "Feature", "properties": {"collection_times": [{"days": "Mon-Fri", "time": "4:30pm"}, {"days": "Sat", "time": "4:00pm"}, {"days": "Sun", "time": "Closed"}], "id": "3716600003", "name": "USPS COLLECTION BOX - BLUE BOX", "address": {"city": "SMITHVILLE", "state": "TN", "street": "201 E MAIN ST", "postcode": "37166"}}},
{"geometry": {"type": "Point", "coordinates": [-85.8137228395, 35.9610879944]}, "type": "Feature", "properties": {"collection_times": [{"days": "Mon-Sat", "time": "3:45pm"}, {"days": "Sun", "time": "Closed"}], "id": "3716600006", "name": "USPS COLLECTION BOX - BLUE BOX", "address": {"city": "SMITHVILLE", "state": "TN", "street": "400 W PUBLIC SQ", "postcode": "37166"}}},
{"geometry": {"type": "Point", "coordinates": [-85.8125351116, 35.9525477842]}, "type": "Feature", "properties": {"collection_times": [{"days": "Mon-Sat", "time": "3:45pm"}, {"days": "Sun", "time": "Closed"}], "id": "3716600008", "name": "USPS COLLECTION BOX - BLUE BOX", "address": {"city": "SMITHVILLE", "state": "TN", "street": "724 S CONGRESS BLVD", "postcode": "37166"}}},
{"geometry": {"type": "Point", "coordinates": [-85.830343778, 35.9584742055]}, "type": "Feature", "properties": {"collection_times": [{"days": "Mon-Sat", "time": "2:30pm"}, {"days": "Sun", "time": "Closed"}], "id": "3716600009", "name": "USPS COLLECTION BOX - BLUE BOX", "address": {"city": "SMITHVILLE", "state": "TN", "street": "515 W BROAD ST", "postcode": "37166"}}},
{"geometry": {"type": "Point", "coordinates": [-86.508330164, 35.9775193596]}, "type": "Feature", "properties": {"collection_times": [{"days": "Mon-Fri", "time": "5:00pm"}, {"days": "Sat", "time": "3:30pm"}, {"days": "Sun", "time": "Closed"}], "id": "3716700002", "name": "USPS COLLECTION BOX - PO LOBBY", "address": {"city": "SMYRNA", "state": "TN", "street": "250 MAYFIELD DR", "postcode": "37167"}}},
{"geometry": {"type": "Point", "coordinates": [-86.50499904, 35.9668577434]}, "type": "Feature", "properties": {"collection_times": [{"days": "Mon-Sat", "time": "10:30am"}, {"days": "Sun", "time": "Closed"}], "id": "3716700008", "name": "USPS COLLECTION BOX - BLUE BOX", "address": {"city": "SMYRNA", "state": "TN", "street": "575 S LOWRY ST", "postcode": "37167"}}},
{"geometry": {"type": "Point", "coordinates": [-86.5207015929, 35.9587564637]}, "type": "Feature", "properties": {"collection_times": [{"days": "Mon-Sat", "time": "12:00pm"}, {"days": "Sun", "time": "Closed"}], "id": "3716700010", "name": "USPS COLLECTION BOX - BLUE BOX", "address": {"city": "SMYRNA", "state": "TN", "street": "1350 HAZELWOOD DR", "postcode": "37167"}}},
{"geometry": {"type": "Point", "coordinates": [-86.5246268336, 35.9858608702]}, "type": "Feature", "properties": {"collection_times": [{"days": "Mon-Sat", "time": "10:15am"}, {"days": "Sun", "time": "Closed"}], "id": "3716700012", "name": "USPS COLLECTION BOX - BLUE BOX", "address": {"city": "SMYRNA", "state": "TN", "street": "1 IMPERIAL BLVD", "postcode": "37167"}}},
{"geometry": {"type": "Point", "coordinates": [-86.5318903205, 35.9593063731]}, "type": "Feature", "properties": {"collection_times": [{"days": "Mon-Sat", "time": "11:00am"}, {"days": "Sun", "time": "Closed"}], "id": "3716700023", "name": "USPS COLLECTION BOX - BLUE BOX", "address": {"city": "SMYRNA", "state": "TN", "street": "1021 ALMAVILLE RD & INTRSTATE24", "postcode": "37167"}}},
{"geometry": {"type": "Point", "coordinates": [-86.508330164, 35.9775193596]}, "type": "Feature", "properties": {"collection_times": [{"days": "Mon-Fri", "time": "5:00pm"}, {"days": "Sat", "time": "3:30pm"}, {"days": "Sun", "time": "Closed"}], "id": "3716700027", "name": "USPS COLLECTION BOX - BLUE BOX", "address": {"city": "SMYRNA", "state": "TN", "street": "250 MAYFIELD DR", "postcode": "37167"}}},
{"geometry": {"type": "Point", "coordinates": [-86.5511651081, 35.9833986657]}, "type": "Feature", "properties": {"collection_times": [{"days": "Mon-Fri", "time": "12:00pm"}, {"days": "Sat", "time": "10:00am"}, {"days": "Sun", "time": "Closed"}], "id": "3716700029", "name": "USPS COLLECTION BOX - BLUE BOX", "address": {"city": "SMYRNA", "state": "TN", "street": "463 SAM RIDLEY PKWY W", "postcode": "37167"}}},
{"geometry": {"type": "Point", "coordinates": [-86.5288650114, 35.9385536871]}, "type": "Feature", "properties": {"collection_times": [{"days": "Mon-Sat", "time": "11:00am"}, {"days": "Sun", "time": "Closed"}], "id": "3716700033", "name": "USPS COLLECTION BOX - BLUE BOX", "address": {"city": "SMYRNA", "state": "TN", "street": "1021 ALMAVILLE RD @ INTERSTATE 24", "postcode": "37167"}}},
{"geometry": {"type": "Point", "coordinates": [-86.8856543068, 36.5093695942]}, "type": "Feature", "properties": {"collection_times": [{"days": "Mon-Fri", "time": "10:30am"}, {"days": "Sat", "time": "9:30am"}, {"days": "Sun", "time": "Closed"}], "id": "3717200006", "name": "USPS COLLECTION BOX - BLUE BOX", "address": {"city": "SPRINGFIELD", "state": "TN", "street": "503 W COURT SQ", "postcode": "37172"}}},
{"geometry": {"type": "Point", "coordinates": [-86.8867741154, 36.4825777749]}, "type": "Feature", "properties": {"collection_times": [{"days": "Mon-Sat", "time": "10:00am"}, {"days": "Sun", "time": "Closed"}], "id": "3717200008", "name": "USPS COLLECTION BOX - BLUE BOX", "address": {"city": "SPRINGFIELD", "state": "TN", "street": "3360 TOM AUSTIN HWY", "postcode": "37172"}}},
{"geometry": {"type": "Point", "coordinates": [-86.8841242751, 36.5068340285]}, "type": "Feature", "properties": {"collection_times": [{"days": "Mon-Sat", "time": "4:45pm"}, {"days": "Sun", "time": "Closed"}], "id": "3717200009", "name": "USPS COLLECTION BOX - BLUE BOX", "address": {"city": "SPRINGFIELD", "state": "TN", "street": "800 WILLOW ST", "postcode": "37172"}}},
{"geometry": {"type": "Point", "coordinates": [-86.8841242751, 36.5068340285]}, "type": "Feature", "properties": {"collection_times": [{"days": "Mon-Sat", "time": "4:45pm"}, {"days": "Sun", "time": "Closed"}], "id": "3717200011", "name": "USPS COLLECTION BOX - PO LOBBY", "address": {"city": "SPRINGFIELD", "state": "TN", "street": "800 WILLOW ST", "postcode": "37172"}}},
{"geometry": {"type": "Point", "coordinates": [-86.8803649105, 36.5075175243]}, "type": "Feature", "properties": {"collection_times": [{"days": "Mon-Fri", "time": "11:30am"}, {"days": "Sat", "time": "9:00am"}, {"days": "Sun", "time": "Closed"}], "id": "3717200012", "name": "USPS COLLECTION BOX - BLUE BOX", "address": {"city": "SPRINGFIELD", "state": "TN", "street": "511 S BROWN ST", "postcode": "37172"}}},
{"geometry": {"type": "Point", "coordinates": [-86.8647190284, 36.4871700216]}, "type": "Feature", "properties": {"collection_times": [{"days": "Mon-Fri", "time": "11:00am"}, {"days": "Sat", "time": "10:00am"}, {"days": "Sun", "time": "Closed"}], "id": "3717200013", "name": "USPS COLLECTION BOX - BLUE BOX", "address": {"city": "SPRINGFIELD", "state": "TN", "street": "2600 MEMORIAL BLVD", "postcode": "37172"}}},
{"geometry": {"type": "Point", "coordinates": [-86.9428026008, 35.7525288452]}, "type": "Feature", "properties": {"collection_times": [{"days": "Mon-Fri", "time": "4:00pm"}, {"days": "Sat", "time": "11:00am"}, {"days": "Sun", "time": "Closed"}], "id": "3717400001", "name": "USPS COLLECTION BOX - PO LOBBY", "address": {"city": "SPRING HILL", "state": "TN", "street": "223 TOWN CENTER PKWY", "postcode": "37174"}}},
{"geometry": {"type": "Point", "coordinates": [-86.9428026008, 35.7525288452]}, "type": "Feature", "properties": {"collection_times": [{"days": "Mon-Fri", "time": "4:00pm"}, {"days": "Sat", "time": "11:00am"}, {"days": "Sun", "time": "Closed"}], "id": "3717400003", "name": "USPS COLLECTION BOX - BLUE BOX", "address": {"city": "SPRING HILL", "state": "TN", "street": "223 TOWN CENTER PKW", "postcode": "37174"}}},
{"geometry": {"type": "Point", "coordinates": [-86.9150525341, 35.7774768142]}, "type": "Feature", "properties": {"collection_times": [{"days": "Mon-Sat", "time": "10:00am"}, {"days": "Sun", "time": "Closed"}], "id": "3717400004", "name": "USPS COLLECTION BOX - BLUE BOX", "address": {"city": "SPRING HILL", "state": "TN", "street": "4910 COLUMBIA PIKE", "postcode": "37174"}}},
{"geometry": {"type": "Point", "coordinates": [-87.8420963467, 36.3208808836]}, "type": "Feature", "properties": {"collection_times": [{"days": "Mon-Sat", "time": "11:30am"}, {"days": "Sun", "time": "Closed"}], "id": "3717500001", "name": "USPS COLLECTION BOX - PO LOBBY", "address": {"city": "STEWART", "state": "TN", "street": "6285 STATE ROUTE 147", "postcode": "37175"}}},
{"geometry": {"type": "Point", "coordinates": [-87.8420963467, 36.3208808836]}, "type": "Feature", "properties": {"collection_times": [{"days": "Mon-Sat", "time": "11:30am"}, {"days": "Sun", "time": "Closed"}], "id": "3717500002", "name": "USPS COLLECTION BOX - BLUE BOX", "address": {"city": "STEWART", "state": "TN", "street": "6285 STATE ROUTE 147", "postcode": "37175"}}},
{"geometry": {"type": "Point", "coordinates": [-87.7515940111, 36.3314618649]}, "type": "Feature", "properties": {"collection_times": [{"days": "Mon-Fri", "time": "3:45pm"}, {"days": "Sat", "time": "12:00pm"}, {"days": "Sun", "time": "Closed"}], "id": "3717800001", "name": "USPS COLLECTION BOX - PO LOBBY", "address": {"city": "TENNESSEE RIDGE", "state": "TN", "street": "940 STATE ROUTE 49", "postcode": "37178"}}},
{"geometry": {"type": "Point", "coordinates": [-87.7515940111, 36.3314618649]}, "type": "Feature", "properties": {"collection_times": [{"days": "Mon-Fri", "time": "3:45pm"}, {"days": "Sat", "time": "12:00pm"}, {"days": "Sun", "time": "Closed"}], "id": "3717800002", "name": "USPS COLLECTION BOX - BLUE BOX", "address": {"city": "TENNESSEE RIDGE", "state": "TN", "street": "940 STATE ROUTE 49", "postcode": "37178"}}},
{"geometry": {"type": "Point", "coordinates": [-87.772441297, 36.3119749819]}, "type": "Feature", "properties": {"collection_times": [{"days": "Mon-Sat", "time": "1:00pm"}, {"days": "Sun", "time": "Closed"}], "id": "3717800003", "name": "USPS COLLECTION BOX - BLUE BOX", "address": {"city": "TENNESSEE RIDGE", "state": "TN", "street": "1887 N MAIN ST", "postcode": "37178"}}},
{"geometry": {"type": "Point", "coordinates": [-86.9903819064, 35.8171071052]}, "type": "Feature", "properties": {"collection_times": [{"days": "Mon-Fri", "time": "4:00pm"}, {"days": "Sat", "time": "11:00am"}, {"days": "Sun", "time": "Closed"}], "id": "3717900001", "name": "USPS COLLECTION BOX - PO LOBBY", "address": {"city": "THOMPSON STATION", "state": "TN", "street": "1507 THOMPSONS STATION RD W", "postcode": "37179"}}},
{"geometry": {"type": "Point", "coordinates": [-86.9903819064, 35.8171071052]}, "type": "Feature", "properties": {"collection_times": [{"days": "Mon-Fri", "time": "4:00pm"}, {"days": "Sat", "time": "11:00am"}, {"days": "Sun", "time": "Closed"}], "id": "3717900002", "name": "USPS COLLECTION BOX - BLUE BOX", "address": {"city": "THOMPSON STATION", "state": "TN", "street": "1507 THOMPSONS STATION RD W", "postcode": "37179"}}},
{"geometry": {"type": "Point", "coordinates": [-86.5770258713, 35.6053387862]}, "type": "Feature", "properties": {"collection_times": [{"days": "Mon-Fri", "time": "3:00pm"}, {"days": "Sat", "time": "11:00am"}, {"days": "Sun", "time": "Closed"}], "id": "3718000000", "name": "USPS COLLECTION BOX - BLUE BOX", "address": {"city": "UNIONVILLE", "state": "TN", "street": "3370 HIGHWAY 41A N", "postcode": "37180"}}},
{"geometry": {"type": "Point", "coordinates": [-86.5770258713, 35.6053387862]}, "type": "Feature", "properties": {"collection_times": [{"days": "Mon-Fri", "time": "3:00pm"}, {"days": "Sat", "time": "11:00am"}, {"days": "Sun", "time": "Closed"}], "id": "3718000002", "name": "USPS COLLECTION BOX - PO LOBBY", "address": {"city": "UNIONVILLE", "state": "TN", "street": "3370 HIGHWAY 41A N", "postcode": "37180"}}},
{"geometry": {"type": "Point", "coordinates": [-87.4424654426, 36.2256924294]}, "type": "Feature", "properties": {"collection_times": [{"days": "Mon-Fri", "time": "3:00pm"}, {"days": "Sat", "time": "10:30am"}, {"days": "Sun", "time": "Closed"}], "id": "3718100001", "name": "USPS COLLECTION BOX - BLUE BOX", "address": {"city": "VANLEER", "state": "TN", "street": "4460 HIGHWAY 49 W", "postcode": "37181"}}},
{"geometry": {"type": "Point", "coordinates": [-87.4424654426, 36.2256924294]}, "type": "Feature", "properties": {"collection_times": [{"days": "Mon-Fri", "time": "3:00pm"}, {"days": "Sat", "time": "10:30am"}, {"days": "Sun", "time": "Closed"}], "id": "3718100002", "name": "USPS COLLECTION BOX - PO LOBBY", "address": {"city": "VANLEER", "state": "TN", "street": "4460 HIGHWAY 49 W", "postcode": "37181"}}},
{"geometry": {"type": "Point", "coordinates": [-86.3337614918, 35.5237144804]}, "type": "Feature", "properties": {"collection_times": [{"days": "Mon-Fri", "time": "3:30pm"}, {"days": "Sat", "time": "11:00am"}, {"days": "Sun", "time": "Closed"}], "id": "3718300001", "name": "USPS COLLECTION BOX - PO LOBBY", "address": {"city": "WARTRACE", "state": "TN", "street": "506 BLACKMAN BLVD W", "postcode": "37183"}}},
{"geometry": {"type": "Point", "coordinates": [-86.3337614918, 35.5237144804]}, "type": "Feature", "properties": {"collection_times": [{"days": "Mon-Fri", "time": "3:30pm"}, {"days": "Sat", "time": "11:00am"}, {"days": "Sun", "time": "Closed"}], "id": "3718300002", "name": "USPS COLLECTION BOX - BLUE BOX", "address": {"city": "WARTRACE", "state": "TN", "street": "506 BLACKMAN BLVD W", "postcode": "37183"}}},
{"geometry": {"type": "Point", "coordinates": [-86.129963105, 36.1001354223]}, "type": "Feature", "properties": {"collection_times": [{"days": "Mon-Fri", "time": "4:30pm"}, {"days": "Sat", "time": "12:00pm"}, {"days": "Sun", "time": "Closed"}], "id": "3718400001", "name": "USPS COLLECTION BOX - BLUE BOX", "address": {"city": "WATERTOWN", "state": "TN", "street": "601 E MAIN ST", "postcode": "37184"}}},
{"geometry": {"type": "Point", "coordinates": [-86.146933, 36.081607]}, "type": "Feature", "properties": {"collection_times": [{"days": "Mon-Sat", "time": "12:00pm"}, {"days": "Sun", "time": "Closed"}], "id": "3718400004", "name": "USPS COLLECTION BOX - BLUE BOX", "address": {"city": "WATERTOWN", "state": "TN", "street": "CENTER PUBLIC SQ", "postcode": "37184"}}},
{"geometry": {"type": "Point", "coordinates": [-86.129963105, 36.1001354223]}, "type": "Feature", "properties": {"collection_times": [{"days": "Mon-Fri", "time": "4:30pm"}, {"days": "Sat", "time": "12:00pm"}, {"days": "Sun", "time": "Closed"}], "id": "3718400005", "name": "USPS COLLECTION BOX - PO LOBBY", "address": {"city": "WATERTOWN", "state": "TN", "street": "601 E MAIN ST", "postcode": "37184"}}},
{"geometry": {"type": "Point", "coordinates": [-87.8019336469, 36.0840140575]}, "type": "Feature", "properties": {"collection_times": [{"days": "Mon-Fri", "time": "4:15pm"}, {"days": "Sat", "time": "3:00pm"}, {"days": "Sun", "time": "Closed"}], "id": "3718500002", "name": "USPS COLLECTION BOX - BLUE BOX", "address": {"city": "WAVERLY", "state": "TN", "street": "403 W MAIN ST", "postcode": "37185"}}},
{"geometry": {"type": "Point", "coordinates": [-87.8019336469, 36.0840140575]}, "type": "Feature", "properties": {"collection_times": [{"days": "Mon-Fri", "time": "4:15pm"}, {"days": "Sat", "time": "3:00pm"}, {"days": "Sun", "time": "Closed"}], "id": "3718500003", "name": "USPS COLLECTION BOX - BLUE BOX", "address": {"city": "WAVERLY", "state": "TN", "street": "403 W MAIN ST", "postcode": "37185"}}},
{"geometry": {"type": "Point", "coordinates": [-87.7946182287, 36.0832427682]}, "type": "Feature", "properties": {"collection_times": [{"days": "Mon-Sat", "time": "3:00pm"}, {"days": "Sun", "time": "Closed"}], "id": "3718500008", "name": "USPS COLLECTION BOX - BLUE BOX", "address": {"city": "WAVERLY", "state": "TN", "street": "117 N COURT SQ", "postcode": "37185"}}},
{"geometry": {"type": "Point", "coordinates": [-87.79267996, 36.0751115644]}, "type": "Feature", "properties": {"collection_times": [{"days": "Mon-Sat", "time": "3:00pm"}, {"days": "Sun", "time": "Closed"}], "id": "3718500011", "name": "USPS COLLECTION BOX - BLUE BOX", "address": {"city": "WAVERLY", "state": "TN", "street": "451 HIGHWAY 13 S", "postcode": "37185"}}},
{"geometry": {"type": "Point", "coordinates": [-87.7944774566, 36.0825755794]}, "type": "Feature", "properties": {"collection_times": [{"days": "Mon-Fri", "time": "4:00pm"}, {"days": "Sat", "time": "3:00pm"}, {"days": "Sun", "time": "Closed"}], "id": "3718500012", "name": "USPS COLLECTION BOX - BLUE BOX", "address": {"city": "WAVERLY", "state": "TN", "street": "100 S COURT SQ", "postcode": "37185"}}},
{"geometry": {"type": "Point", "coordinates": [-87.796454181, 36.0834497861]}, "type": "Feature", "properties": {"collection_times": [{"days": "Mon-Sat", "time": "3:00pm"}, {"days": "Sun", "time": "Closed"}], "id": "3718500013", "name": "USPS COLLECTION BOX - BLUE BOX", "address": {"city": "WAVERLY", "state": "TN", "street": "122 W MAIN ST", "postcode": "37185"}}},
{"geometry": {"type": "Point", "coordinates": [-87.7931265174, 36.0830996302]}, "type": "Feature", "properties": {"collection_times": [{"days": "Mon-Sat", "time": "3:00pm"}, {"days": "Sun", "time": "Closed"}], "id": "3718500017", "name": "USPS COLLECTION BOX - BLUE BOX", "address": {"city": "WAVERLY", "state": "TN", "street": "108 E MAIN ST", "postcode": "37185"}}},
{"geometry": {"type": "Point", "coordinates": [-87.8019336469, 36.0840140575]}, "type": "Feature", "properties": {"collection_times": [{"days": "Mon-Fri", "time": "4:15pm"}, {"days": "Sat", "time": "3:00pm"}, {"days": "Sun", "time": "Closed"}], "id": "3718500019", "name": "USPS COLLECTION BOX - PO LOBBY", "address": {"city": "WAVERLY", "state": "TN", "street": "403 W MAIN ST", "postcode": "37185"}}},
{"geometry": {"type": "Point", "coordinates": [-86.2313474045, 36.5879412266]}, "type": "Feature", "properties": {"collection_times": [{"days": "Mon-Fri", "time": "3:30pm"}, {"days": "Sat", "time": "11:30am"}, {"days": "Sun", "time": "Closed"}], "id": "3718600001", "name": "USPS COLLECTION BOX - BLUE BOX", "address": {"city": "WESTMORELAND", "state": "TN", "street": "1 DEPOT ST", "postcode": "37186"}}},
{"geometry": {"type": "Point", "coordinates": [-86.2313474045, 36.5879412266]}, "type": "Feature", "properties": {"collection_times": [{"days": "Mon-Fri", "time": "3:30pm"}, {"days": "Sat", "time": "11:30am"}, {"days": "Sun", "time": "Closed"}], "id": "3718600002", "name": "USPS COLLECTION BOX - PO LOBBY", "address": {"city": "WESTMORELAND", "state": "TN", "street": "1 DEPOT ST", "postcode": "37186"}}},
{"geometry": {"type": "Point", "coordinates": [-87.2232861632, 36.1083524975]}, "type": "Feature", "properties": {"collection_times": [{"days": "Mon-Fri", "time": "4:00pm"}, {"days": "Sat", "time": "12:00pm"}, {"days": "Sun", "time": "Closed"}], "id": "3718700001", "name": "USPS COLLECTION BOX - BLUE BOX", "address": {"city": "WHITE BLUFF", "state": "TN", "street": "4401 HIGHWAY 70 E", "postcode": "37187"}}},
{"geometry": {"type": "Point", "coordinates": [-87.2232861632, 36.1083524975]}, "type": "Feature", "properties": {"collection_times": [{"days": "Mon-Fri", "time": "4:00pm"}, {"days": "Sat", "time": "12:00pm"}, {"days": "Sun", "time": "Closed"}], "id": "3718700003", "name": "USPS COLLECTION BOX - PO LOBBY", "address": {"city": "WHITE BLUFF", "state": "TN", "street": "4401 HIGHWAY 70 E", "postcode": "37187"}}},
{"geometry": {"type": "Point", "coordinates": [-86.653562004, 36.4685508744]}, "type": "Feature", "properties": {"collection_times": [{"days": "Mon-Sat", "time": "11:00am"}, {"days": "Sun", "time": "Closed"}], "id": "3718800002", "name": "USPS COLLECTION BOX - BLUE BOX", "address": {"city": "WHITE HOUSE", "state": "TN", "street": "100 HIGHWAY 76", "postcode": "37188"}}},
{"geometry": {"type": "Point", "coordinates": [-86.6717678475, 36.4696132402]}, "type": "Feature", "properties": {"collection_times": [{"days": "Mon-Fri", "time": "4:00pm"}, {"days": "Sat", "time": "2:00pm"}, {"days": "Sun", "time": "Closed"}], "id": "3718800003", "name": "USPS COLLECTION BOX - BLUE BOX", "address": {"city": "WHITE HOUSE", "state": "TN", "street": "616 HIGHWAY 76", "postcode": "37188"}}},
{"geometry": {"type": "Point", "coordinates": [-86.6717678475, 36.4696132402]}, "type": "Feature", "properties": {"collection_times": [{"days": "Mon-Fri", "time": "4:00pm"}, {"days": "Sat", "time": "2:00pm"}, {"days": "Sun", "time": "Closed"}], "id": "3718800004", "name": "USPS COLLECTION BOX - BLUE BOX", "address": {"city": "WHITE HOUSE", "state": "TN", "street": "616 HIGHWAY 76", "postcode": "37188"}}},
{"geometry": {"type": "Point", "coordinates": [-86.6717678475, 36.4696132402]}, "type": "Feature", "properties": {"collection_times": [{"days": "Mon-Fri", "time": "4:00pm"}, {"days": "Sat", "time": "2:00pm"}, {"days": "Sun", "time": "Closed"}], "id": "3718800007", "name": "USPS COLLECTION BOX - PO LOBBY", "address": {"city": "WHITE HOUSE", "state": "TN", "street": "616 HIGHWAY 76", "postcode": "37188"}}},
{"geometry": {"type": "Point", "coordinates": [-86.6717678475, 36.4696132402]}, "type": "Feature", "properties": {"collection_times": [{"days": "Mon-Fri", "time": "4:00pm"}, {"days": "Sat", "time": "2:00pm"}, {"days": "Sun", "time": "Closed"}], "id": "3718800008", "name": "USPS COLLECTION BOX - PO LOBBY", "address": {"city": "WHITE HOUSE", "state": "TN", "street": "616 HIGHWAY 76", "postcode": "37188"}}},
{"geometry": {"type": "Point", "coordinates": [-86.6633427409, 36.4608645631]}, "type": "Feature", "properties": {"collection_times": [{"days": "Mon-Sat", "time": "12:00pm"}, {"days": "Sun", "time": "Closed"}], "id": "3718800009", "name": "USPS COLLECTION BOX - BLUE BOX", "address": {"city": "WHITE HOUSE", "state": "TN", "street": "2910 HIGHWAY 31 W", "postcode": "37188"}}},
{"geometry": {"type": "Point", "coordinates": [-86.8307953142, 36.2643395903]}, "type": "Feature", "properties": {"collection_times": [{"days": "Mon-Fri", "time": "3:30pm"}, {"days": "Sat", "time": "10:30am"}, {"days": "Sun", "time": "Closed"}], "id": "3718900001", "name": "USPS COLLECTION BOX - BLUE BOX", "address": {"city": "WHITES CREEK", "state": "TN", "street": "4402 WHITES CREEK PIKE", "postcode": "37189"}}},
{"geometry": {"type": "Point", "coordinates": [-86.8307953142, 36.2643395903]}, "type": "Feature", "properties": {"collection_times": [{"days": "Mon-Fri", "time": "3:30pm"}, {"days": "Sat", "time": "10:00am"}, {"days": "Sun", "time": "Closed"}], "id": "3718900002", "name": "USPS COLLECTION BOX - PO LOBBY", "address": {"city": "WHITES CREEK", "state": "TN", "street": "4402 WHITES CREEK PIKE", "postcode": "37189"}}},
{"geometry": {"type": "Point", "coordinates": [-86.0674768465, 35.8263502164]}, "type": "Feature", "properties": {"collection_times": [{"days": "Mon-Fri", "time": "4:30pm"}, {"days": "Sat", "time": "12:00pm"}, {"days": "Sun", "time": "Closed"}], "id": "3719000001", "name": "USPS COLLECTION BOX - PO LOBBY", "address": {"city": "WOODBURY", "state": "TN", "street": "203 W HIGH ST", "postcode": "37190"}}},
{"geometry": {"type": "Point", "coordinates": [-86.0674768465, 35.8263502164]}, "type": "Feature", "properties": {"collection_times": [{"days": "Mon-Fri", "time": "4:30pm"}, {"days": "Sat", "time": "12:00pm"}, {"days": "Sun", "time": "Closed"}], "id": "3719000002", "name": "USPS COLLECTION BOX - BLUE BOX", "address": {"city": "WOODBURY", "state": "TN", "street": "203 W HIGH ST", "postcode": "37190"}}},
{"geometry": {"type": "Point", "coordinates": [-86.041172489, 35.8251601146]}, "type": "Feature", "properties": {"collection_times": [{"days": "Mon-Fri", "time": "4:30pm"}, {"days": "Sat", "time": "12:00pm"}, {"days": "Sun", "time": "Closed"}], "id": "3719000003", "name": "USPS COLLECTION BOX - BLUE BOX", "address": {"city": "WOODBURY", "state": "TN", "street": "200 S TATUM ST", "postcode": "37190"}}},
{"geometry": {"type": "Point", "coordinates": [-86.0701195769, 35.8270647237]}, "type": "Feature", "properties": {"collection_times": [{"days": "Mon-Fri", "time": "4:30pm"}, {"days": "Sat", "time": "12:00pm"}, {"days": "Sun", "time": "Closed"}], "id": "3719000004", "name": "USPS COLLECTION BOX - BLUE BOX", "address": {"city": "WOODBURY", "state": "TN", "street": "109 S CANNON ST", "postcode": "37190"}}},
{"geometry": {"type": "Point", "coordinates": [-87.5101251504, 36.5440347315]}, "type": "Feature", "properties": {"collection_times": [{"days": "Mon-Fri", "time": "4:00pm"}, {"days": "Sat", "time": "11:15am"}, {"days": "Sun", "time": "Closed"}], "id": "3719100001", "name": "USPS COLLECTION BOX - PO LOBBY", "address": {"city": "WOODLAWN", "state": "TN", "street": "2412 DOVER RD", "postcode": "37191"}}},
{"geometry": {"type": "Point", "coordinates": [-87.5101251504, 36.5440347315]}, "type": "Feature", "properties": {"collection_times": [{"days": "Mon-Fri", "time": "4:00pm"}, {"days": "Sat", "time": "11:15am"}, {"days": "Sun", "time": "Closed"}], "id": "3719100002", "name": "USPS COLLECTION BOX - BLUE BOX", "address": {"city": "WOODLAWN", "state": "TN", "street": "2412 DOVER RD", "postcode": "37191"}}}
]}
