{"type": "FeatureCollection", "features": [
{"geometry": {"type": "Point", "coordinates": [-86.779711173, 36.1672519975]}, "type": "Feature", "properties": {"collection_times": [{"days": "Mon-Fri", "time": "4:00pm"}, {"days": "Sat", "time": "1:00pm"}, {"days": "Sun", "time": "Closed"}], "id": "3720100004", "name": "USPS COLLECTION BOX - BLUE BOX", "address": {"city": "NASHVILLE", "state": "TN", "street": "401 3RD AVE N", "postcode": "37201"}}},
{"geometry": {"type": "Point", "coordinates": [-86.7773285265, 36.1652342176]}, "type": "Feature", "properties": {"collection_times": [{"days": "Mon-Fri", "time": "5:00pm"}, {"days": "Sat", "time": "2:00pm"}, {"days": "Sun", "time": "Closed"}], "id": "3720100019", "name": "USPS COLLECTION BOX - BLUE BOX", "address": {"city": "NASHVILLE", "state": "TN", "street": "219 2ND AVE N", "postcode": "37201"}}},
{"geometry": {"type": "Point", "coordinates": [-86.7773285265, 36.1652342176]}, "type": "Feature", "properties": {"collection_times": [{"days": "Mon-Fri", "time": "5:00pm"}, {"days": "Sat", "time": "2:00pm"}, {"days": "Sun", "time": "Closed"}], "id": "3720100020", "name": "USPS COLLECTION BOX - BLUE BOX", "address": {"city": "NASHVILLE", "state": "TN", "street": "219 2ND AVE N", "postcode": "37201"}}},
{"geometry": {"type": "Point", "coordinates": [-86.7813570931, 36.1718286503]}, "type": "Feature", "properties": {"collection_times": [{"days": "Mon-Fri", "time": "4:00pm"}, {"days": "Sat", "time": "1:00pm"}, {"days": "Sun", "time": "Closed"}], "id": "3720100035", "name": "USPS COLLECTION BOX - BLUE BOX", "address": {"city": "NASHVILLE", "state": "TN", "street": "800 2ND AVE N", "postcode": "37201"}}},
{"geometry": {"type": "Point", "coordinates": [-86.7774221495, 36.1638157376]}, "type": "Feature", "properties": {"collection_times": [{"days": "Mon-Fri", "time": "5:00pm"}, {"days": "Sat", "time": "2:00pm"}, {"days": "Sun", "time": "Closed"}], "id": "3720100040", "name": "USPS COLLECTION BOX - BLUE BOX", "address": {"city": "NASHVILLE", "state": "TN", "street": "180 3RD AVE N", "postcode": "37201"}}},
{"geometry": {"type": "Point", "coordinates": [-86.7757172301, 36.1616904579]}, "type": "Feature", "properties": {"collection_times": [{"days": "Mon-Fri", "time": "5:00pm"}, {"days": "Sat", "time": "2:00pm"}, {"days": "Sun", "time": "Closed"}], "id": "3720100041", "name": "USPS COLLECTION BOX - BLUE BOX", "address": {"city": "NASHVILLE", "state": "TN", "street": "212 BROADWAY", "postcode": "37201"}}},
{"geometry": {"type": "Point", "coordinates": [-86.7774221495, 36.1638157376]}, "type": "Feature", "properties": {"collection_times": [{"days": "Mon-Fri", "time": "5:00pm"}, {"days": "Sat", "time": "2:00pm"}, {"days": "Sun", "time": "Closed"}], "id": "3720100043", "name": "USPS COLLECTION BOX - BLUE BOX", "address": {"city": "NASHVILLE", "state": "TN", "street": "180 3RD AVE N", "postcode": "37201"}}},
{"geometry": {"type": "Point", "coordinates": [-86.7765691731, 36.1629745927]}, "type": "Feature", "properties": {"collection_times": [{"days": "Mon-Fri", "time": "5:00pm"}, {"days": "Sat", "time": "1:00pm"}, {"days": "Sun", "time": "Closed"}], "id": "3720100050", "name": "USPS COLLECTION BOX - BLUE BOX", "address": {"city": "NASHVILLE", "state": "TN", "street": "211 COMMERCE ST", "postcode": "37201"}}},
{"geometry": {"type": "Point", "coordinates": [-86.7834805827, 36.1582638872]}, "type": "Feature", "properties": {"collection_times": [{"days": "Mon-Fri", "time": "5:00pm"}, {"days": "Sat-Sun", "time": "Closed"}], "id": "3720200004", "name": "USPS COLLECTION BOX - PO LOBBY", "address": {"city": "NASHVILLE", "state": "TN", "street": "901 BROADWAY", "postcode": "37202"}}},
{"geometry": {"type": "Point", "coordinates": [-86.8044462844, 36.1527809269]}, "type": "Feature", "properties": {"collection_times": [{"days": "Mon-Fri", "time": "2:45pm"}, {"days": "Sat", "time": "1:00pm"}, {"days": "Sun", "time": "Closed"}], "id": "3720300054", "name": "USPS COLLECTION BOX - BLUE BOX", "address": {"city": "NASHVILLE", "state": "TN", "street": "222 22ND AVE N", "postcode": "37203"}}},
{"geometry": {"type": "Point", "coordinates": [-86.8074697293, 36.1540274838]}, "type": "Feature", "properties": {"collection_times": [{"days": "Mon-Fri", "time": "2:30pm"}, {"days": "Sat", "time": "1:00pm"}, {"days": "Sun", "time": "Closed"}], "id": "3720300091", "name": "USPS COLLECTION BOX - BLUE BOX", "address": {"city": "NASHVILLE", "state": "TN", "street": "2221 MURPHY AVE", "postcode": "37203"}}},
{"geometry": {"type": "Point", "coordinates": [-86.7989897531, 36.1502968608]}, "type": "Feature", "properties": {"collection_times": [{"days": "Mon-Fri", "time": "4:00pm"}, {"days": "Sat", "time": "1:00pm"}, {"days": "Sun", "time": "Closed"}], "id": "3720300096", "name": "USPS COLLECTION BOX - BLUE BOX", "address": {"city": "NASHVILLE", "state": "TN", "street": "2016 TERRACE PL", "postcode": "37203"}}},
{"geometry": {"type": "Point", "coordinates": [-86.8072071987, 36.1535205804]}, "type": "Feature", "properties": {"collection_times": [{"days": "Mon-Fri", "time": "4:15pm"}, {"days": "Sat", "time": "2:00pm"}, {"days": "Sun", "time": "Closed"}], "id": "3720300102", "name": "USPS COLLECTION BOX - BLUE BOX", "address": {"city": "NASHVILLE", "state": "TN", "street": "28 MUSIC SQ E", "postcode": "37203"}}},
{"geometry": {"type": "Point", "coordinates": [-86.8010123671, 36.1533756215]}, "type": "Feature", "properties": {"collection_times": [{"days": "Mon-Fri", "time": "3:00pm"}, {"days": "Sat", "time": "1:00pm"}, {"days": "Sun", "time": "Closed"}], "id": "3720300118", "name": "USPS COLLECTION BOX - BLUE BOX", "address": {"city": "NASHVILLE", "state": "TN", "street": "2010 CHURCH ST", "postcode": "37203"}}},
{"geometry": {"type": "Point", "coordinates": [-86.8175269828, 36.1408956748]}, "type": "Feature", "properties": {"collection_times": [{"days": "Mon-Fri", "time": "4:45pm"}, {"days": "Sat", "time": "1:00pm"}, {"days": "Sun", "time": "Closed"}], "id": "3720300173", "name": "USPS COLLECTION BOX - BLUE BOX", "address": {"city": "NASHVILLE", "state": "TN", "street": "3310 WEST END AVE", "postcode": "37203"}}},
{"geometry": {"type": "Point", "coordinates": [-86.8044462844, 36.1527809269]}, "type": "Feature", "properties": {"collection_times": [{"days": "Mon-Fri", "time": "2:45pm"}, {"days": "Sat", "time": "1:00pm"}, {"days": "Sun", "time": "Closed"}], "id": "3720300174", "name": "USPS COLLECTION BOX - BLUE BOX", "address": {"city": "NASHVILLE", "state": "TN", "street": "222 22ND AVE N", "postcode": "37203"}}},
{"geometry": {"type": "Point", "coordinates": [-86.793267124, 36.1468232637]}, "type": "Feature", "properties": {"collection_times": [{"days": "Mon-Fri", "time": "4:30pm"}, {"days": "Sat", "time": "2:00pm"}, {"days": "Sun", "time": "Closed"}], "id": "3720300179", "name": "USPS COLLECTION BOX - BLUE BOX", "address": {"city": "NASHVILLE", "state": "TN", "street": "9 MUSIC SQ S", "postcode": "37203"}}},
{"geometry": {"type": "Point", "coordinates": [-86.8151092783, 36.145317357]}, "type": "Feature", "properties": {"collection_times": [{"days": "Mon-Fri", "time": "3:45pm"}, {"days": "Sat", "time": "1:00pm"}, {"days": "Sun", "time": "Closed"}], "id": "3720300209", "name": "USPS COLLECTION BOX - BLUE BOX", "address": {"city": "NASHVILLE", "state": "TN", "street": "3000 POSTON AVE", "postcode": "37203"}}},
{"geometry": {"type": "Point", "coordinates": [-86.7970916303, 36.1552258213]}, "type": "Feature", "properties": {"collection_times": [{"days": "Mon-Fri", "time": "5:30pm"}, {"days": "Sat-Sun", "time": "Closed"}], "id": "3720300225", "name": "USPS COLLECTION BOX - PO LOBBY", "address": {"city": "NASHVILLE", "state": "TN", "street": "1718 CHURCH ST", "postcode": "37203"}}},
{"geometry": {"type": "Point", "coordinates": [-86.7935297409, 36.1482475463]}, "type": "Feature", "properties": {"collection_times": [{"days": "Mon-Fri", "time": "5:00pm"}, {"days": "Sat", "time": "2:00pm"}, {"days": "Sun", "time": "Closed"}], "id": "3720300226", "name": "USPS COLLECTION BOX - BLUE BOX", "address": {"city": "NASHVILLE", "state": "TN", "street": "50 MUSIC SQ W", "postcode": "37203"}}},
{"geometry": {"type": "Point", "coordinates": [-86.7970916303, 36.1552258213]}, "type": "Feature", "properties": {"collection_times": [{"days": "Mon-Fri", "time": "5:30pm"}, {"days": "Sat", "time": "3:00pm"}, {"days": "Sun", "time": "Closed"}], "id": "3720300227", "name": "USPS COLLECTION BOX - BLUE BOX", "address": {"city": "NASHVILLE", "state": "TN", "street": "1718 CHURCH ST", "postcode": "37203"}}},
{"geometry": {"type": "Point", "coordinates": [-86.7827417078, 36.1585296213]}, "type": "Feature", "properties": {"collection_times": [{"days": "Mon-Fri", "time": "4:00pm"}, {"days": "Sat", "time": "3:00pm"}, {"days": "Sun", "time": "Closed"}], "id": "3720300234", "name": "USPS COLLECTION BOX - BLUE BOX", "address": {"city": "NASHVILLE", "state": "TN", "street": "901 BROADWAY", "postcode": "37203"}}},
{"geometry": {"type": "Point", "coordinates": [-86.7827417078, 36.1585296213]}, "type": "Feature", "properties": {"collection_times": [{"days": "Mon-Fri", "time": "4:00pm"}, {"days": "Sat", "time": "3:00pm"}, {"days": "Sun", "time": "Closed"}], "id": "3720300235", "name": "USPS COLLECTION BOX - BLUE BOX", "address": {"city": "NASHVILLE", "state": "TN", "street": "901 BROADWAY", "postcode": "37203"}}},
{"geometry": {"type": "Point", "coordinates": [-86.7970916303, 36.1552258213]}, "type": "Feature", "properties": {"collection_times": [{"days": "Mon-Fri", "time": "5:30pm"}, {"days": "Sat", "time": "3:00pm"}, {"days": "Sun", "time": "Closed"}], "id": "3720300242", "name": "USPS COLLECTION BOX - BLUE BOX", "address": {"city": "NASHVILLE", "state": "TN", "street": "1718 CHURCH ST", "postcode": "37203"}}},
{"geometry": {"type": "Point", "coordinates": [-86.8151092783, 36.145317357]}, "type": "Feature", "properties": {"collection_times": [{"days": "Mon-Fri", "time": "3:45pm"}, {"days": "Sat", "time": "1:00pm"}, {"days": "Sun", "time": "Closed"}], "id": "3720300268", "name": "USPS COLLECTION BOX - BLUE BOX", "address": {"city": "NASHVILLE", "state": "TN", "street": "3000 POSTON AVE", "postcode": "37203"}}},
{"geometry": {"type": "Point", "coordinates": [-86.8175269828, 36.1408956748]}, "type": "Feature", "properties": {"collection_times": [{"days": "Mon-Fri", "time": "4:45pm"}, {"days": "Sat", "time": "1:00pm"}, {"days": "Sun", "time": "Closed"}], "id": "3720300274", "name": "USPS COLLECTION BOX - BLUE BOX", "address": {"city": "NASHVILLE", "state": "TN", "street": "3310 WEST END AVE", "postcode": "37203"}}},
{"geometry": {"type": "Point", "coordinates": [-86.7870000768, 36.1514385226]}, "type": "Feature", "properties": {"collection_times": [{"days": "Mon-Fri", "time": "3:45pm"}, {"days": "Sat", "time": "2:00pm"}, {"days": "Sun", "time": "Closed"}], "id": "3720300275", "name": "USPS COLLECTION BOX - BLUE BOX", "address": {"city": "NASHVILLE", "state": "TN", "street": "1302 DIVISION ST", "postcode": "37203"}}},
{"geometry": {"type": "Point", "coordinates": [-86.7970916303, 36.1552258213]}, "type": "Feature", "properties": {"collection_times": [{"days": "Mon-Fri", "time": "5:30pm"}, {"days": "Sat-Sun", "time": "Closed"}], "id": "3720300276", "name": "USPS COLLECTION BOX - PO LOBBY", "address": {"city": "NASHVILLE", "state": "TN", "street": "1718 CHURCH ST LBBY DROP", "postcode": "37203"}}},
{"geometry": {"type": "Point", "coordinates": [-86.7722743342, 36.1193916283]}, "type": "Feature", "properties": {"collection_times": [{"days": "Mon-Fri", "time": "5:00pm"}, {"days": "Sat", "time": "3:00pm"}, {"days": "Sun", "time": "Closed"}], "id": "3720400001", "name": "USPS COLLECTION BOX - BLUE BOX", "address": {"city": "NASHVILLE", "state": "TN", "street": "798 BERRY RD", "postcode": "37204"}}},
{"geometry": {"type": "Point", "coordinates": [-86.775337015, 36.1210477708]}, "type": "Feature", "properties": {"collection_times": [{"days": "Mon-Fri", "time": "2:00pm"}, {"days": "Sat", "time": "1:00pm"}, {"days": "Sun", "time": "Closed"}], "id": "3720400012", "name": "USPS COLLECTION BOX - BLUE BOX", "address": {"city": "NASHVILLE", "state": "TN", "street": "2613 FRANKLIN PIKE", "postcode": "37204"}}},
{"geometry": {"type": "Point", "coordinates": [-86.753658109, 36.1099196759]}, "type": "Feature", "properties": {"collection_times": [{"days": "Mon-Fri", "time": "5:00pm"}, {"days": "Sat", "time": "1:00pm"}, {"days": "Sun", "time": "Closed"}], "id": "3720400022", "name": "USPS COLLECTION BOX - BLUE BOX", "address": {"city": "NASHVILLE", "state": "TN", "street": "2906 FOSTER CREIGHTON DR", "postcode": "37204"}}},
{"geometry": {"type": "Point", "coordinates": [-86.7586643913, 36.0788776497]}, "type": "Feature", "properties": {"collection_times": [{"days": "Mon-Fri", "time": "3:00pm"}, {"days": "Sat", "time": "2:00pm"}, {"days": "Sun", "time": "Closed"}], "id": "3720400029", "name": "USPS COLLECTION BOX - BLUE BOX", "address": {"city": "NASHVILLE", "state": "TN", "street": "4701 TROUSDALE DR", "postcode": "37204"}}},
{"geometry": {"type": "Point", "coordinates": [-86.7586643913, 36.0788776497]}, "type": "Feature", "properties": {"collection_times": [{"days": "Mon-Fri", "time": "3:00pm"}, {"days": "Sat", "time": "2:00pm"}, {"days": "Sun", "time": "Closed"}], "id": "3720400030", "name": "USPS COLLECTION BOX - BLUE BOX", "address": {"city": "NASHVILLE", "state": "TN", "street": "4701 TROUSDALE DR", "postcode": "37204"}}},
{"geometry": {"type": "Point", "coordinates": [-86.759134026, 36.0753831889]}, "type": "Feature", "properties": {"collection_times": [{"days": "Mon-Fri", "time": "3:00pm"}, {"days": "Sat", "time": "2:00pm"}, {"days": "Sun", "time": "Closed"}], "id": "3720400037", "name": "USPS COLLECTION BOX - BLUE BOX", "address": {"city": "NASHVILLE", "state": "TN", "street": "4825 TROUSDALE DR.", "postcode": "37204"}}},
{"geometry": {"type": "Point", "coordinates": [-86.7722743342, 36.1193916283]}, "type": "Feature", "properties": {"collection_times": [{"days": "Mon-Fri", "time": "5:00pm"}, {"days": "Sat", "time": "12:00pm"}, {"days": "Sun", "time": "Closed"}], "id": "3720400039", "name": "USPS COLLECTION BOX - PO LOBBY", "address": {"city": "NASHVILLE", "state": "TN", "street": "798 BERRY RD", "postcode": "37204"}}},
{"geometry": {"type": "Point", "coordinates": [-86.7629952033, 36.1053397616]}, "type": "Feature", "properties": {"collection_times": [{"days": "Mon-Fri", "time": "5:00pm"}, {"days": "Sat", "time": "2:00pm"}, {"days": "Sun", "time": "Closed"}], "id": "3720400048", "name": "USPS COLLECTION BOX - BLUE BOX", "address": {"city": "NASHVILLE", "state": "TN", "street": "4013 ARMORY OAKS DR", "postcode": "37204"}}},
{"geometry": {"type": "Point", "coordinates": [-86.7781557724, 36.1678429278]}, "type": "Feature", "properties": {"collection_times": [{"days": "Mon-Fri", "time": "5:00pm"}, {"days": "Sat-Sun", "time": "Closed"}], "id": "3720400050", "name": "USPS COLLECTION BOX - APC", "address": {"city": "NASHVILLE", "state": "TN", "street": "798 BERRY RD", "postcode": "37204"}}},
{"geometry": {"type": "Point", "coordinates": [-86.8715293232, 36.0993168147]}, "type": "Feature", "properties": {"collection_times": [{"days": "Mon-Fri", "time": "5:00pm"}, {"days": "Sat", "time": "3:00pm"}, {"days": "Sun", "time": "Closed"}], "id": "3720500001", "name": "USPS COLLECTION BOX - BLUE BOX", "address": {"city": "NASHVILLE", "state": "TN", "street": "5421 HIGHWAY 100", "postcode": "37205"}}},
{"geometry": {"type": "Point", "coordinates": [-86.9024907556, 36.1256270297]}, "type": "Feature", "properties": {"collection_times": [{"days": "Mon-Fri", "time": "5:00pm"}, {"days": "Sat", "time": "2:00pm"}, {"days": "Sun", "time": "Closed"}], "id": "3720500014", "name": "USPS COLLECTION BOX - BLUE BOX", "address": {"city": "NASHVILLE", "state": "TN", "street": "994 DAVIDSON DR", "postcode": "37205"}}},
{"geometry": {"type": "Point", "coordinates": [-86.8497013644, 36.0931606962]}, "type": "Feature", "properties": {"collection_times": [{"days": "Mon-Fri", "time": "4:00pm"}, {"days": "Sat", "time": "1:00pm"}, {"days": "Sun", "time": "Closed"}], "id": "3720500019", "name": "USPS COLLECTION BOX - BLUE BOX", "address": {"city": "NASHVILLE", "state": "TN", "street": "4304 HARDING RD", "postcode": "37205"}}},
{"geometry": {"type": "Point", "coordinates": [-86.8471710152, 36.1253147038]}, "type": "Feature", "properties": {"collection_times": [{"days": "Mon-Fri", "time": "4:15pm"}, {"days": "Sat", "time": "1:00pm"}, {"days": "Sun", "time": "Closed"}], "id": "3720500021", "name": "USPS COLLECTION BOX - BLUE BOX", "address": {"city": "NASHVILLE", "state": "TN", "street": "4400 HARDING PIKE", "postcode": "37205"}}},
{"geometry": {"type": "Point", "coordinates": [-86.8471710152, 36.1253147038]}, "type": "Feature", "properties": {"collection_times": [{"days": "Mon-Fri", "time": "4:15pm"}, {"days": "Sat", "time": "1:00pm"}, {"days": "Sun", "time": "Closed"}], "id": "3720500022", "name": "USPS COLLECTION BOX - BLUE BOX", "address": {"city": "NASHVILLE", "state": "TN", "street": "4400 HARDING PIKE", "postcode": "37205"}}},
{"geometry": {"type": "Point", "coordinates": [-86.8485917489, 36.1242760659]}, "type": "Feature", "properties": {"collection_times": [{"days": "Mon-Fri", "time": "3:45pm"}, {"days": "Sat", "time": "1:00pm"}, {"days": "Sun", "time": "Closed"}], "id": "3720500024", "name": "USPS COLLECTION BOX - BLUE BOX", "address": {"city": "NASHVILLE", "state": "TN", "street": "4515 HARDING PIKE", "postcode": "37205"}}},
{"geometry": {"type": "Point", "coordinates": [-86.8485917489, 36.1242760659]}, "type": "Feature", "properties": {"collection_times": [{"days": "Mon-Fri", "time": "3:45pm"}, {"days": "Sat", "time": "1:00pm"}, {"days": "Sun", "time": "Closed"}], "id": "3720500025", "name": "USPS COLLECTION BOX - BLUE BOX", "address": {"city": "NASHVILLE", "state": "TN", "street": "4515 HARDING PIKE", "postcode": "37205"}}},
{"geometry": {"type": "Point", "coordinates": [-86.8454557247, 36.1281230484]}, "type": "Feature", "properties": {"collection_times": [{"days": "Mon-Fri", "time": "4:00pm"}, {"days": "Sat", "time": "1:00pm"}, {"days": "Sun", "time": "Closed"}], "id": "3720500043", "name": "USPS COLLECTION BOX - BLUE BOX", "address": {"city": "NASHVILLE", "state": "TN", "street": "4230 HARDING PIKE", "postcode": "37205"}}},
{"geometry": {"type": "Point", "coordinates": [-86.8490711787, 36.1239978566]}, "type": "Feature", "properties": {"collection_times": [{"days": "Mon-Fri", "time": "4:15pm"}, {"days": "Sat", "time": "1:00pm"}, {"days": "Sun", "time": "Closed"}], "id": "3720500046", "name": "USPS COLLECTION BOX - BLUE BOX", "address": {"city": "NASHVILLE", "state": "TN", "street": "4524 HARDING PIKE", "postcode": "37205"}}},
{"geometry": {"type": "Point", "coordinates": [-86.8715293232, 36.0993168147]}, "type": "Feature", "properties": {"collection_times": [{"days": "Mon-Fri", "time": "5:00pm"}, {"days": "Sat", "time": "12:00pm"}, {"days": "Sun", "time": "Closed"}], "id": "3720500054", "name": "USPS COLLECTION BOX - PO LOBBY", "address": {"city": "NASHVILLE", "state": "TN", "street": "5421 HIGHWAY 100", "postcode": "37205"}}},
{"geometry": {"type": "Point", "coordinates": [-86.8545290199, 36.1294668898]}, "type": "Feature", "properties": {"collection_times": [{"days": "Mon-Fri", "time": "4:00pm"}, {"days": "Sat", "time": "1:00pm"}, {"days": "Sun", "time": "Closed"}], "id": "3720500055", "name": "USPS COLLECTION BOX - BLUE BOX", "address": {"city": "NASHVILLE", "state": "TN", "street": "28 WHITE BRIDGE RD", "postcode": "37205"}}},
{"geometry": {"type": "Point", "coordinates": [-86.9024907556, 36.1256270297]}, "type": "Feature", "properties": {"collection_times": [{"days": "Mon-Fri", "time": "5:00pm"}, {"days": "Sat", "time": "2:00pm"}, {"days": "Sun", "time": "Closed"}], "id": "3720500066", "name": "USPS COLLECTION BOX - BLUE BOX", "address": {"city": "NASHVILLE", "state": "TN", "street": "994 DAVIDSON DR", "postcode": "37205"}}},
{"geometry": {"type": "Point", "coordinates": [-86.8715293232, 36.0993168147]}, "type": "Feature", "properties": {"collection_times": [{"days": "Mon-Fri", "time": "5:00pm"}, {"days": "Sat", "time": "12:00pm"}, {"days": "Sun", "time": "Closed"}], "id": "3720500067", "name": "USPS COLLECTION BOX - APC", "address": {"city": "NASHVILLE", "state": "TN", "street": "5421 HIGHWAY 100", "postcode": "37205"}}},
{"geometry": {"type": "Point", "coordinates": [-86.8519171027, 36.1217943872]}, "type": "Feature", "properties": {"collection_times": [{"days": "Mon-Fri", "time": "3:30pm"}, {"days": "Sat", "time": "1:00pm"}, {"days": "Sun", "time": "Closed"}], "id": "3720500068", "name": "USPS COLLECTION BOX - BLUE BOX", "address": {"city": "NASHVILLE", "state": "TN", "street": "4705 HARDING PIKE", "postcode": "37205"}}},
{"geometry": {"type": "Point", "coordinates": [-86.741909557, 36.1819941782]}, "type": "Feature", "properties": {"collection_times": [{"days": "Mon-Fri", "time": "5:00pm"}, {"days": "Sat", "time": "3:00pm"}, {"days": "Sun", "time": "Closed"}], "id": "3720600002", "name": "USPS COLLECTION BOX - BLUE BOX", "address": {"city": "NASHVILLE", "state": "TN", "street": "1109 WOODLAND ST", "postcode": "37206"}}},
{"geometry": {"type": "Point", "coordinates": [-86.7599656462, 36.1684619491]}, "type": "Feature", "properties": {"collection_times": [{"days": "Mon-Fri", "time": "4:30pm"}, {"days": "Sat", "time": "1:00pm"}, {"days": "Sun", "time": "Closed"}], "id": "3720600018", "name": "USPS COLLECTION BOX - BLUE BOX", "address": {"city": "NASHVILLE", "state": "TN", "street": "600 SHELBY AVE", "postcode": "37206"}}},
{"geometry": {"type": "Point", "coordinates": [-86.7607736071, 36.1745967743]}, "type": "Feature", "properties": {"collection_times": [{"days": "Mon-Fri", "time": "4:30pm"}, {"days": "Sat", "time": "1:00pm"}, {"days": "Sun", "time": "Closed"}], "id": "3720600028", "name": "USPS COLLECTION BOX - BLUE BOX", "address": {"city": "NASHVILLE", "state": "TN", "street": "700 MAIN ST", "postcode": "37206"}}},
{"geometry": {"type": "Point", "coordinates": [-86.741909557, 36.1819941782]}, "type": "Feature", "properties": {"collection_times": [{"days": "Mon-Fri", "time": "5:00pm"}, {"days": "Sat", "time": "12:00pm"}, {"days": "Sun", "time": "Closed"}], "id": "3720600046", "name": "USPS COLLECTION BOX - PO LOBBY", "address": {"city": "NASHVILLE", "state": "TN", "street": "1109 WOODLAND ST", "postcode": "37206"}}},
{"geometry": {"type": "Point", "coordinates": [-86.741909557, 36.1819941782]}, "type": "Feature", "properties": {"collection_times": [{"days": "Mon-Fri", "time": "5:00pm"}, {"days": "Sat", "time": "12:00pm"}, {"days": "Sun", "time": "Closed"}], "id": "3720600052", "name": "USPS COLLECTION BOX - PO LOBBY", "address": {"city": "NASHVILLE", "state": "TN", "street": "1109 WOODLAND ST", "postcode": "37206"}}},
{"geometry": {"type": "Point", "coordinates": [-86.741909557, 36.1819941782]}, "type": "Feature", "properties": {"collection_times": [{"days": "Mon-Fri", "time": "5:00pm"}, {"days": "Sat", "time": "12:00pm"}, {"days": "Sun", "time": "Closed"}], "id": "3720600053", "name": "USPS COLLECTION BOX - APC", "address": {"city": "NASHVILLE", "state": "TN", "street": "1109 WOODLAND ST", "postcode": "37206"}}},
{"geometry": {"type": "Point", "coordinates": [-86.7591294871, 36.2298137694]}, "type": "Feature", "properties": {"collection_times": [{"days": "Mon-Fri", "time": "2:45pm"}, {"days": "Sat", "time": "2:00pm"}, {"days": "Sun", "time": "Closed"}], "id": "3720700006", "name": "USPS COLLECTION BOX - BLUE BOX", "address": {"city": "NASHVILLE", "state": "TN", "street": "3109 DICKERSON PIKE", "postcode": "37207"}}},
{"geometry": {"type": "Point", "coordinates": [-86.7566987535, 36.266378434]}, "type": "Feature", "properties": {"collection_times": [{"days": "Mon-Fri", "time": "3:15pm"}, {"days": "Sat", "time": "2:00pm"}, {"days": "Sun", "time": "Closed"}], "id": "3720700007", "name": "USPS COLLECTION BOX - BLUE BOX", "address": {"city": "NASHVILLE", "state": "TN", "street": "3837 DICKERSON PIKE", "postcode": "37207"}}},
{"geometry": {"type": "Point", "coordinates": [-86.7673332521, 36.2081966663]}, "type": "Feature", "properties": {"collection_times": [{"days": "Mon-Fri", "time": "5:00pm"}, {"days": "Sat", "time": "3:00pm"}, {"days": "Sun", "time": "Closed"}], "id": "3720700012", "name": "USPS COLLECTION BOX - BLUE BOX", "address": {"city": "NASHVILLE", "state": "TN", "street": "2325 DICKERSON PIKE", "postcode": "37207"}}},
{"geometry": {"type": "Point", "coordinates": [-86.7673332521, 36.2081966663]}, "type": "Feature", "properties": {"collection_times": [{"days": "Mon-Fri", "time": "5:00pm"}, {"days": "Sat", "time": "3:00pm"}, {"days": "Sun", "time": "Closed"}], "id": "3720700013", "name": "USPS COLLECTION BOX - BLUE BOX", "address": {"city": "NASHVILLE", "state": "TN", "street": "2325 DICKERSON PIKE", "postcode": "37207"}}},
{"geometry": {"type": "Point", "coordinates": [-86.7673332521, 36.2081966663]}, "type": "Feature", "properties": {"collection_times": [{"days": "Mon-Fri", "time": "5:00pm"}, {"days": "Sat", "time": "12:00pm"}, {"days": "Sun", "time": "Closed"}], "id": "3720700019", "name": "USPS COLLECTION BOX - PO LOBBY", "address": {"city": "NASHVILLE", "state": "TN", "street": "2325 DICKERSON PIKE", "postcode": "37207"}}},
{"geometry": {"type": "Point", "coordinates": [-86.7903366393, 36.1698551125]}, "type": "Feature", "properties": {"collection_times": [{"days": "Mon-Fri", "time": "2:30pm"}, {"days": "Sat", "time": "1:00pm"}, {"days": "Sun", "time": "Closed"}], "id": "3720800009", "name": "USPS COLLECTION BOX - BLUE BOX", "address": {"city": "NASHVILLE", "state": "TN", "street": "901 9TH AVE N", "postcode": "37208"}}},
{"geometry": {"type": "Point", "coordinates": [-86.8056795395, 36.1662950363]}, "type": "Feature", "properties": {"collection_times": [{"days": "Mon-Fri", "time": "2:30pm"}, {"days": "Sat", "time": "1:00pm"}, {"days": "Sun", "time": "Closed"}], "id": "3720800015", "name": "USPS COLLECTION BOX - BLUE BOX", "address": {"city": "NASHVILLE", "state": "TN", "street": "1820 ALBION ST", "postcode": "37208"}}},
{"geometry": {"type": "Point", "coordinates": [-86.8055580676, 36.1934555061]}, "type": "Feature", "properties": {"collection_times": [{"days": "Mon-Fri", "time": "5:00pm"}, {"days": "Sat", "time": "2:00pm"}, {"days": "Sun", "time": "Closed"}], "id": "3720800027", "name": "USPS COLLECTION BOX - BLUE BOX", "address": {"city": "NASHVILLE", "state": "TN", "street": "2245 ROSA L PARKS BLVD", "postcode": "37208"}}},
{"geometry": {"type": "Point", "coordinates": [-86.8055580676, 36.1934555061]}, "type": "Feature", "properties": {"collection_times": [{"days": "Mon-Fri", "time": "5:00pm"}, {"days": "Sat", "time": "12:00pm"}, {"days": "Sun", "time": "Closed"}], "id": "3720800029", "name": "USPS COLLECTION BOX - PO LOBBY", "address": {"city": "NASHVILLE", "state": "TN", "street": "2245 ROSA L PARKS BLVD", "postcode": "37208"}}},
{"geometry": {"type": "Point", "coordinates": [-86.8055580676, 36.1934555061]}, "type": "Feature", "properties": {"collection_times": [{"days": "Mon-Fri", "time": "5:00pm"}, {"days": "Sat", "time": "12:00pm"}, {"days": "Sun", "time": "Closed"}], "id": "3720800038", "name": "USPS COLLECTION BOX - APC", "address": {"city": "NASHVILLE", "state": "TN", "street": "2245 ROSA L PARKS BLVD", "postcode": "37208"}}},
{"geometry": {"type": "Point", "coordinates": [-86.8749811975, 36.1710538122]}, "type": "Feature", "properties": {"collection_times": [{"days": "Mon-Fri", "time": "5:00pm"}, {"days": "Sat", "time": "2:00pm"}, {"days": "Sun", "time": "Closed"}], "id": "3720900001", "name": "USPS COLLECTION BOX - BLUE BOX", "address": {"city": "NASHVILLE", "state": "TN", "street": "7100 COCKRILL BEND BLVD", "postcode": "37209"}}},
{"geometry": {"type": "Point", "coordinates": [-86.8628658201, 36.1491633166]}, "type": "Feature", "properties": {"collection_times": [{"days": "Mon-Fri", "time": "5:00pm"}, {"days": "Sat", "time": "2:00pm"}, {"days": "Sun", "time": "Closed"}], "id": "3720900028", "name": "USPS COLLECTION BOX - BLUE BOX", "address": {"city": "NASHVILLE", "state": "TN", "street": "4501 CHARLOTTE AVE", "postcode": "37209"}}},
{"geometry": {"type": "Point", "coordinates": [-86.8749811975, 36.1710538122]}, "type": "Feature", "properties": {"collection_times": [{"days": "Mon-Fri", "time": "5:00pm"}, {"days": "Sat", "time": "2:00pm"}, {"days": "Sun", "time": "Closed"}], "id": "3720900031", "name": "USPS COLLECTION BOX - BLUE BOX", "address": {"city": "NASHVILLE", "state": "TN", "street": "7100 COCKRILL BEND BLVD", "postcode": "37209"}}},
{"geometry": {"type": "Point", "coordinates": [-86.8628658201, 36.1491633166]}, "type": "Feature", "properties": {"collection_times": [{"days": "Mon-Fri", "time": "5:00pm"}, {"days": "Sat", "time": "2:00pm"}, {"days": "Sun", "time": "Closed"}], "id": "3720900038", "name": "USPS COLLECTION BOX - PO LOBBY", "address": {"city": "NASHVILLE", "state": "TN", "street": "4501 CHARLOTTE AVE", "postcode": "37209"}}},
{"geometry": {"type": "Point", "coordinates": [-86.8798059783, 36.1397699813]}, "type": "Feature", "properties": {"collection_times": [{"days": "Mon-Fri", "time": "4:45pm"}, {"days": "Sat", "time": "2:00pm"}, {"days": "Sun", "time": "Closed"}], "id": "3720900045", "name": "USPS COLLECTION BOX - BLUE BOX", "address": {"city": "NASHVILLE", "state": "TN", "street": "6540 CHARLOTTE PIKE", "postcode": "37209"}}},
{"geometry": {"type": "Point", "coordinates": [-86.8628658201, 36.1491633166]}, "type": "Feature", "properties": {"collection_times": [{"days": "Mon-Fri", "time": "5:00pm"}, {"days": "Sat", "time": "2:00pm"}, {"days": "Sun", "time": "Closed"}], "id": "3720900046", "name": "USPS COLLECTION BOX - APC", "address": {"city": "NASHVILLE", "state": "TN", "street": "4501 CHARLOTTE AVE", "postcode": "37209"}}},
{"geometry": {"type": "Point", "coordinates": [-86.8628658201, 36.1491633166]}, "type": "Feature", "properties": {"collection_times": [{"days": "Mon-Fri", "time": "5:00pm"}, {"days": "Sat", "time": "2:00pm"}, {"days": "Sun", "time": "Closed"}], "id": "3720900047", "name": "USPS COLLECTION BOX - BLUE BOX", "address": {"city": "NASHVILLE", "state": "TN", "street": "4501 CHARLOTTE AVE", "postcode": "37209"}}},
{"geometry": {"type": "Point", "coordinates": [-86.7451573658, 36.1414940336]}, "type": "Feature", "properties": {"collection_times": [{"days": "Mon-Fri", "time": "5:00pm"}, {"days": "Sat", "time": "3:00pm"}, {"days": "Sun", "time": "Closed"}], "id": "3721000003", "name": "USPS COLLECTION BOX - BLUE BOX", "address": {"city": "NASHVILLE", "state": "TN", "street": "714 FESSLERS LN", "postcode": "37210"}}},
{"geometry": {"type": "Point", "coordinates": [-86.7704780077, 36.1527850404]}, "type": "Feature", "properties": {"collection_times": [{"days": "Mon-Fri", "time": "3:00pm"}, {"days": "Sat", "time": "1:00pm"}, {"days": "Sun", "time": "Closed"}], "id": "3721000014", "name": "USPS COLLECTION BOX - BLUE BOX", "address": {"city": "NASHVILLE", "state": "TN", "street": "800 3RD AVE S", "postcode": "37210"}}},
{"geometry": {"type": "Point", "coordinates": [-86.7434669175, 36.1370579375]}, "type": "Feature", "properties": {"collection_times": [{"days": "Mon-Fri", "time": "2:15pm"}, {"days": "Sat", "time": "1:00pm"}, {"days": "Sun", "time": "Closed"}], "id": "3721000015", "name": "USPS COLLECTION BOX - BLUE BOX", "address": {"city": "NASHVILLE", "state": "TN", "street": "1116 POLK AVE", "postcode": "37210"}}},
{"geometry": {"type": "Point", "coordinates": [-86.7525520423, 36.1455291066]}, "type": "Feature", "properties": {"collection_times": [{"days": "Mon-Fri", "time": "3:30pm"}, {"days": "Sat", "time": "1:00pm"}, {"days": "Sun", "time": "Closed"}], "id": "3721000017", "name": "USPS COLLECTION BOX - BLUE BOX", "address": {"city": "NASHVILLE", "state": "TN", "street": "360 MURFREESBORO PIKE", "postcode": "37210"}}},
{"geometry": {"type": "Point", "coordinates": [-86.7397453286, 36.1461631726]}, "type": "Feature", "properties": {"collection_times": [{"days": "Mon-Fri", "time": "4:00pm"}, {"days": "Sat", "time": "1:00pm"}, {"days": "Sun", "time": "Closed"}], "id": "3721000030", "name": "USPS COLLECTION BOX - BLUE BOX", "address": {"city": "NASHVILLE", "state": "TN", "street": "851 FESSLERS PKWY", "postcode": "37210"}}},
{"geometry": {"type": "Point", "coordinates": [-86.7100577904, 36.1449648352]}, "type": "Feature", "properties": {"collection_times": [{"days": "Mon-Fri", "time": "4:15pm"}, {"days": "Sat", "time": "3:00pm"}, {"days": "Sun", "time": "Closed"}], "id": "3721000032", "name": "USPS COLLECTION BOX - BLUE BOX", "address": {"city": "NASHVILLE", "state": "TN", "street": "1717 ELM HILL PIKE", "postcode": "37210"}}},
{"geometry": {"type": "Point", "coordinates": [-86.700360167, 36.1512276524]}, "type": "Feature", "properties": {"collection_times": [{"days": "Mon-Fri", "time": "4:15pm"}, {"days": "Sat", "time": "3:00pm"}, {"days": "Sun", "time": "Closed"}], "id": "3721000042", "name": "USPS COLLECTION BOX - BLUE BOX", "address": {"city": "NASHVILLE", "state": "TN", "street": "1033 ACORN DR", "postcode": "37210"}}},
{"geometry": {"type": "Point", "coordinates": [-86.7451573658, 36.1414940336]}, "type": "Feature", "properties": {"collection_times": [{"days": "Mon-Fri", "time": "5:00pm"}, {"days": "Sat-Sun", "time": "Closed"}], "id": "3721000052", "name": "USPS COLLECTION BOX - PO LOBBY", "address": {"city": "NASHVILLE", "state": "TN", "street": "714 FESSLERS LN", "postcode": "37210"}}},
{"geometry": {"type": "Point", "coordinates": [-86.7433508368, 36.1168176802]}, "type": "Feature", "properties": {"collection_times": [{"days": "Mon-Fri", "time": "1:30pm"}, {"days": "Sat", "time": "1:00pm"}, {"days": "Sun", "time": "Closed"}], "id": "3721000057", "name": "USPS COLLECTION BOX - BLUE BOX", "address": {"city": "NASHVILLE", "state": "TN", "street": "2604 FOSTER AVE", "postcode": "37210"}}},
{"geometry": {"type": "Point", "coordinates": [-86.7447350495, 36.1100379718]}, "type": "Feature", "properties": {"collection_times": [{"days": "Mon-Fri", "time": "1:45pm"}, {"days": "Sat", "time": "2:00pm"}, {"days": "Sun", "time": "Closed"}], "id": "3721100005", "name": "USPS COLLECTION BOX - BLUE BOX", "address": {"city": "NASHVILLE", "state": "TN", "street": "2915 NOLENSVILLE PIKE", "postcode": "37211"}}},
{"geometry": {"type": "Point", "coordinates": [-86.6945811383, 36.0849012767]}, "type": "Feature", "properties": {"collection_times": [{"days": "Mon-Fri", "time": "4:15pm"}, {"days": "Sat", "time": "2:00pm"}, {"days": "Sun", "time": "Closed"}], "id": "3721100016", "name": "USPS COLLECTION BOX - BLUE BOX", "address": {"city": "NASHVILLE", "state": "TN", "street": "3343 PERIMETER HILL DR", "postcode": "37211"}}},
{"geometry": {"type": "Point", "coordinates": [-86.6953760867, 36.0771883843]}, "type": "Feature", "properties": {"collection_times": [{"days": "Mon-Fri", "time": "4:00pm"}, {"days": "Sat", "time": "2:00pm"}, {"days": "Sun", "time": "Closed"}], "id": "3721100021", "name": "USPS COLLECTION BOX - BLUE BOX", "address": {"city": "NASHVILLE", "state": "TN", "street": "5209 LINBAR DR", "postcode": "37211"}}},
{"geometry": {"type": "Point", "coordinates": [-86.700038128, 36.0813890715]}, "type": "Feature", "properties": {"collection_times": [{"days": "Mon-Fri", "time": "4:00pm"}, {"days": "Sat", "time": "2:00pm"}, {"days": "Sun", "time": "Closed"}], "id": "3721100022", "name": "USPS COLLECTION BOX - BLUE BOX", "address": {"city": "NASHVILLE", "state": "TN", "street": "5000 LINBAR DR", "postcode": "37211"}}},
{"geometry": {"type": "Point", "coordinates": [-86.7522823277, 36.0864698803]}, "type": "Feature", "properties": {"collection_times": [{"days": "Mon-Fri", "time": "3:15pm"}, {"days": "Sat", "time": "2:00pm"}, {"days": "Sun", "time": "Closed"}], "id": "3721100031", "name": "USPS COLLECTION BOX - BLUE BOX", "address": {"city": "NASHVILLE", "state": "TN", "street": "618 GRASSMERE PARK", "postcode": "37211"}}},
{"geometry": {"type": "Point", "coordinates": [-86.7300388461, 36.0866536798]}, "type": "Feature", "properties": {"collection_times": [{"days": "Mon-Sat", "time": "2:00pm"}, {"days": "Sun", "time": "Closed"}], "id": "3721100033", "name": "USPS COLLECTION BOX - BLUE BOX", "address": {"city": "NASHVILLE", "state": "TN", "street": "3907 NOLENSVILLE PIKE", "postcode": "37211"}}},
{"geometry": {"type": "Point", "coordinates": [-86.7253359388, 36.0771711758]}, "type": "Feature", "properties": {"collection_times": [{"days": "Mon-Fri", "time": "3:45pm"}, {"days": "Sat", "time": "3:00pm"}, {"days": "Sun", "time": "Closed"}], "id": "3721100038", "name": "USPS COLLECTION BOX - BLUE BOX", "address": {"city": "NASHVILLE", "state": "TN", "street": "397 WALLACE RD", "postcode": "37211"}}},
{"geometry": {"type": "Point", "coordinates": [-86.7253359388, 36.0771711758]}, "type": "Feature", "properties": {"collection_times": [{"days": "Mon-Fri", "time": "3:45pm"}, {"days": "Sat", "time": "3:00pm"}, {"days": "Sun", "time": "Closed"}], "id": "3721100039", "name": "USPS COLLECTION BOX - BLUE BOX", "address": {"city": "NASHVILLE", "state": "TN", "street": "397 WALLACE RD", "postcode": "37211"}}},
{"geometry": {"type": "Point", "coordinates": [-86.7195640486, 36.1153139687]}, "type": "Feature", "properties": {"collection_times": [{"days": "Mon-Fri", "time": "1:30pm"}, {"days": "Sat", "time": "2:00pm"}, {"days": "Sun", "time": "Closed"}], "id": "3721100045", "name": "USPS COLLECTION BOX - BLUE BOX", "address": {"city": "NASHVILLE", "state": "TN", "street": "18 E THOMPSON LN", "postcode": "37211"}}},
{"geometry": {"type": "Point", "coordinates": [-86.7102783429, 36.1015157108]}, "type": "Feature", "properties": {"collection_times": [{"days": "Mon-Fri", "time": "4:45pm"}, {"days": "Sat", "time": "2:00pm"}, {"days": "Sun", "time": "Closed"}], "id": "3721100046", "name": "USPS COLLECTION BOX - BLUE BOX", "address": {"city": "NASHVILLE", "state": "TN", "street": "110 SPACE PARK S", "postcode": "37211"}}},
{"geometry": {"type": "Point", "coordinates": [-86.725723716, 36.0778508413]}, "type": "Feature", "properties": {"collection_times": [{"days": "Mon-Fri", "time": "6:00pm"}, {"days": "Sat", "time": "3:00pm"}, {"days": "Sun", "time": "Closed"}], "id": "3721100052", "name": "USPS COLLECTION BOX - BLUE BOX", "address": {"city": "NASHVILLE", "state": "TN", "street": "4112 NOLENSVILLE PIKE", "postcode": "37211"}}},
{"geometry": {"type": "Point", "coordinates": [-86.6970416929, 36.0842944188]}, "type": "Feature", "properties": {"collection_times": [{"days": "Mon-Fri", "time": "4:15pm"}, {"days": "Sat", "time": "2:00pm"}, {"days": "Sun", "time": "Closed"}], "id": "3721100055", "name": "USPS COLLECTION BOX - BLUE BOX", "address": {"city": "NASHVILLE", "state": "TN", "street": "301 S PERIMETER PARK DR", "postcode": "37211"}}},
{"geometry": {"type": "Point", "coordinates": [-86.6970416929, 36.0842944188]}, "type": "Feature", "properties": {"collection_times": [{"days": "Mon-Fri", "time": "4:15pm"}, {"days": "Sat", "time": "2:00pm"}, {"days": "Sun", "time": "Closed"}], "id": "3721100063", "name": "USPS COLLECTION BOX - BLUE BOX", "address": {"city": "NASHVILLE", "state": "TN", "street": "301 S PERIMETER PARK DR", "postcode": "37211"}}},
{"geometry": {"type": "Point", "coordinates": [-86.7427938138, 36.0399890566]}, "type": "Feature", "properties": {"collection_times": [{"days": "Mon-Fri", "time": "2:45pm"}, {"days": "Sat", "time": "2:00pm"}, {"days": "Sun", "time": "Closed"}], "id": "3721100068", "name": "USPS COLLECTION BOX - BLUE BOX", "address": {"city": "NASHVILLE", "state": "TN", "street": "15580 OLD HICKORY BLVD", "postcode": "37211"}}},
{"geometry": {"type": "Point", "coordinates": [-86.7522823277, 36.0864698803]}, "type": "Feature", "properties": {"collection_times": [{"days": "Mon-Fri", "time": "3:15pm"}, {"days": "Sat", "time": "2:00pm"}, {"days": "Sun", "time": "Closed"}], "id": "3721100069", "name": "USPS COLLECTION BOX - BLUE BOX", "address": {"city": "NASHVILLE", "state": "TN", "street": "618 GRASSMERE PARK", "postcode": "37211"}}},
{"geometry": {"type": "Point", "coordinates": [-86.700902871, 36.0903511687]}, "type": "Feature", "properties": {"collection_times": [{"days": "Mon-Fri", "time": "4:30pm"}, {"days": "Sat", "time": "2:00pm"}, {"days": "Sun", "time": "Closed"}], "id": "3721100077", "name": "USPS COLLECTION BOX - BLUE BOX", "address": {"city": "NASHVILLE", "state": "TN", "street": "490 METROPLEX DR", "postcode": "37211"}}},
{"geometry": {"type": "Point", "coordinates": [-86.725723716, 36.0778508413]}, "type": "Feature", "properties": {"collection_times": [{"days": "Mon-Fri", "time": "6:00pm"}, {"days": "Sat", "time": "12:00pm"}, {"days": "Sun", "time": "Closed"}], "id": "3721100078", "name": "USPS COLLECTION BOX - PO LOBBY", "address": {"city": "NASHVILLE", "state": "TN", "street": "4112 NOLENSVILLE PIKE", "postcode": "37211"}}},
{"geometry": {"type": "Point", "coordinates": [-86.725723716, 36.0778508413]}, "type": "Feature", "properties": {"collection_times": [{"days": "Mon-Fri", "time": "6:00pm"}, {"days": "Sat", "time": "12:00pm"}, {"days": "Sun", "time": "Closed"}], "id": "3721100099", "name": "USPS COLLECTION BOX - APC", "address": {"city": "NASHVILLE", "state": "TN", "street": "4112 NOLENSVILLE PIKE", "postcode": "37211"}}},
{"geometry": {"type": "Point", "coordinates": [-86.7134444097, 36.0464386919]}, "type": "Feature", "properties": {"collection_times": [{"days": "Mon-Fri", "time": "2:30pm"}, {"days": "Sat", "time": "2:00pm"}, {"days": "Sun", "time": "Closed"}], "id": "3721100107", "name": "USPS COLLECTION BOX - BLUE BOX", "address": {"city": "NASHVILLE", "state": "TN", "street": "5765 NOLENSVILLE PIKE", "postcode": "37211"}}},
{"geometry": {"type": "Point", "coordinates": [-86.725637016, 36.1108615133]}, "type": "Feature", "properties": {"collection_times": [{"days": "Mon-Sat", "time": "1:00pm"}, {"days": "Sun", "time": "Closed"}], "id": "3721100112", "name": "USPS COLLECTION BOX - BLUE BOX", "address": {"city": "NASHVILLE", "state": "TN", "street": "61 E THOMPSON LN", "postcode": "37211"}}},
{"geometry": {"type": "Point", "coordinates": [-86.8030525606, 36.1383769367]}, "type": "Feature", "properties": {"collection_times": [{"days": "Mon-Fri", "time": "1:45pm"}, {"days": "Sat", "time": "2:00pm"}, {"days": "Sun", "time": "Closed"}], "id": "3721200001", "name": "USPS COLLECTION BOX - BLUE BOX", "address": {"city": "NASHVILLE", "state": "TN", "street": "1601 23RD AVE S", "postcode": "37212"}}},
{"geometry": {"type": "Point", "coordinates": [-86.8035941424, 36.1323054186]}, "type": "Feature", "properties": {"collection_times": [{"days": "Mon-Fri", "time": "5:00pm"}, {"days": "Sat", "time": "2:00pm"}, {"days": "Sun", "time": "Closed"}], "id": "3721200002", "name": "USPS COLLECTION BOX - BLUE BOX", "address": {"city": "NASHVILLE", "state": "TN", "street": "2209 GARLAND AVE", "postcode": "37212"}}},
{"geometry": {"type": "Point", "coordinates": [-86.343048067, 35.8430039943]}, "type": "Feature", "properties": {"collection_times": [{"days": "Mon-Fri", "time": "5:00pm"}, {"days": "Sat", "time": "2:00pm"}, {"days": "Sun", "time": "Closed"}], "id": "3721200003", "name": "USPS COLLECTION BOX - BLUE BOX", "address": {"city": "NASHVILLE", "state": "TN", "street": "1211 22ND AVE", "postcode": "37212"}}},
{"geometry": {"type": "Point", "coordinates": [-86.8048648537, 36.1260670657]}, "type": "Feature", "properties": {"collection_times": [{"days": "Mon-Fri", "time": "3:00pm"}, {"days": "Sat", "time": "2:00pm"}, {"days": "Sun", "time": "Closed"}], "id": "3721200006", "name": "USPS COLLECTION BOX - BLUE BOX", "address": {"city": "NASHVILLE", "state": "TN", "street": "2501 21ST AVE S", "postcode": "37212"}}},
{"geometry": {"type": "Point", "coordinates": [-86.8020955468, 36.1301423594]}, "type": "Feature", "properties": {"collection_times": [{"days": "Mon-Fri", "time": "2:30pm"}, {"days": "Sat", "time": "1:00pm"}, {"days": "Sun", "time": "Closed"}], "id": "3721200008", "name": "USPS COLLECTION BOX - BLUE BOX", "address": {"city": "NASHVILLE", "state": "TN", "street": "2200 21ST AVE S", "postcode": "37212"}}},
{"geometry": {"type": "Point", "coordinates": [-86.8020955468, 36.1301423594]}, "type": "Feature", "properties": {"collection_times": [{"days": "Mon-Fri", "time": "2:30pm"}, {"days": "Sat", "time": "1:00pm"}, {"days": "Sun", "time": "Closed"}], "id": "3721200009", "name": "USPS COLLECTION BOX - BLUE BOX", "address": {"city": "NASHVILLE", "state": "TN", "street": "2200 21ST AVE S", "postcode": "37212"}}},
{"geometry": {"type": "Point", "coordinates": [-86.8007931089, 36.1373584091]}, "type": "Feature", "properties": {"collection_times": [{"days": "Mon-Fri", "time": "1:45pm"}, {"days": "Sat", "time": "1:00pm"}, {"days": "Sun", "time": "Closed"}], "id": "3721200012", "name": "USPS COLLECTION BOX - BLUE BOX", "address": {"city": "NASHVILLE", "state": "TN", "street": "1701 21ST AVE S", "postcode": "37212"}}},
{"geometry": {"type": "Point", "coordinates": [-86.7999401955, 36.1356667777]}, "type": "Feature", "properties": {"collection_times": [{"days": "Mon-Fri", "time": "5:00pm"}, {"days": "Sat", "time": "2:00pm"}, {"days": "Sun", "time": "Closed"}], "id": "3721200017", "name": "USPS COLLECTION BOX - BLUE BOX", "address": {"city": "NASHVILLE", "state": "TN", "street": "2006 ACKLEN AVE", "postcode": "37212"}}},
{"geometry": {"type": "Point", "coordinates": [-86.7975896561, 36.1443851853]}, "type": "Feature", "properties": {"collection_times": [{"days": "Mon-Fri", "time": "1:15pm"}, {"days": "Sat", "time": "1:00pm"}, {"days": "Sun", "time": "Closed"}], "id": "3721200039", "name": "USPS COLLECTION BOX - BLUE BOX", "address": {"city": "NASHVILLE", "state": "TN", "street": "1114 19TH AVE S", "postcode": "37212"}}},
{"geometry": {"type": "Point", "coordinates": [-86.7945506345, 36.1426497845]}, "type": "Feature", "properties": {"collection_times": [{"days": "Mon-Fri", "time": "1:15pm"}, {"days": "Sat", "time": "1:00pm"}, {"days": "Sun", "time": "Closed"}], "id": "3721200044", "name": "USPS COLLECTION BOX - BLUE BOX", "address": {"city": "NASHVILLE", "state": "TN", "street": "1207 17TH AVE S", "postcode": "37212"}}},
{"geometry": {"type": "Point", "coordinates": [-86.7935309238, 36.1412716373]}, "type": "Feature", "properties": {"collection_times": [{"days": "Mon-Sat", "time": "1:00pm"}, {"days": "Sun", "time": "Closed"}], "id": "3721200046", "name": "USPS COLLECTION BOX - BLUE BOX", "address": {"city": "NASHVILLE", "state": "TN", "street": "1226 16TH AVE S", "postcode": "37212"}}},
{"geometry": {"type": "Point", "coordinates": [-86.8002471722, 36.1418253333]}, "type": "Feature", "properties": {"collection_times": [{"days": "Mon-Fri", "time": "1:30pm"}, {"days": "Sat", "time": "1:00pm"}, {"days": "Sun", "time": "Closed"}], "id": "3721200058", "name": "USPS COLLECTION BOX - BLUE BOX", "address": {"city": "NASHVILLE", "state": "TN", "street": "1211 21ST AVE S", "postcode": "37212"}}},
{"geometry": {"type": "Point", "coordinates": [-86.7999401955, 36.1356667777]}, "type": "Feature", "properties": {"collection_times": [{"days": "Mon-Fri", "time": "5:00pm"}, {"days": "Sat", "time": "12:00pm"}, {"days": "Sun", "time": "Closed"}], "id": "3721200067", "name": "USPS COLLECTION BOX - PO LOBBY", "address": {"city": "NASHVILLE", "state": "TN", "street": "2006 ACKLEN AVE", "postcode": "37212"}}},
{"geometry": {"type": "Point", "coordinates": [-86.7966915282, 36.1180540546]}, "type": "Feature", "properties": {"collection_times": [{"days": "Mon-Sat", "time": "1:00pm"}, {"days": "Sun", "time": "Closed"}], "id": "3721200071", "name": "USPS COLLECTION BOX - BLUE BOX", "address": {"city": "NASHVILLE", "state": "TN", "street": "3116 BELMONT BLVD", "postcode": "37212"}}},
{"geometry": {"type": "Point", "coordinates": [-86.8025194274, 36.1398768043]}, "type": "Feature", "properties": {"collection_times": [{"days": "Mon-Fri", "time": "2:15pm"}, {"days": "Sat", "time": "2:00pm"}, {"days": "Sun", "time": "Closed"}], "id": "3721200072", "name": "USPS COLLECTION BOX - BLUE BOX", "address": {"city": "NASHVILLE", "state": "TN", "street": "2220 PIERCE AVE", "postcode": "37212"}}},
{"geometry": {"type": "Point", "coordinates": [-86.7999401955, 36.1356667777]}, "type": "Feature", "properties": {"collection_times": [{"days": "Mon-Fri", "time": "5:00pm"}, {"days": "Sat", "time": "12:00pm"}, {"days": "Sun", "time": "Closed"}], "id": "3721200080", "name": "USPS COLLECTION BOX - APC", "address": {"city": "NASHVILLE", "state": "TN", "street": "2006 ACKLEN AVE", "postcode": "37212"}}},
{"geometry": {"type": "Point", "coordinates": [-86.8035941424, 36.1323054186]}, "type": "Feature", "properties": {"collection_times": [{"days": "Mon-Fri", "time": "5:00pm"}, {"days": "Sat", "time": "2:00pm"}, {"days": "Sun", "time": "Closed"}], "id": "3721200082", "name": "USPS COLLECTION BOX - BLUE BOX", "address": {"city": "NASHVILLE", "state": "TN", "street": "2209 GARLAND AVE", "postcode": "37212"}}},
{"geometry": {"type": "Point", "coordinates": [-86.695655265, 36.2228473046]}, "type": "Feature", "properties": {"collection_times": [{"days": "Mon-Fri", "time": "2:30pm"}, {"days": "Sat", "time": "1:00pm"}, {"days": "Sun", "time": "Closed"}], "id": "3721400001", "name": "USPS COLLECTION BOX - BLUE BOX", "address": {"city": "NASHVILLE", "state": "TN", "street": "107 MUSIC CITY CR", "postcode": "37214"}}},
{"geometry": {"type": "Point", "coordinates": [-86.6676250523, 36.1697679358]}, "type": "Feature", "properties": {"collection_times": [{"days": "Mon-Fri", "time": "2:30pm"}, {"days": "Sat", "time": "3:00pm"}, {"days": "Sun", "time": "Closed"}], "id": "3721400014", "name": "USPS COLLECTION BOX - BLUE BOX", "address": {"city": "NASHVILLE", "state": "TN", "street": "2710 OLD LEBANON RD", "postcode": "37214"}}},
{"geometry": {"type": "Point", "coordinates": [-86.6805808189, 36.169272276]}, "type": "Feature", "properties": {"collection_times": [{"days": "Mon-Fri", "time": "2:30pm"}, {"days": "Sat", "time": "3:00pm"}, {"days": "Sun", "time": "Closed"}], "id": "3721400015", "name": "USPS COLLECTION BOX - BLUE BOX", "address": {"city": "NASHVILLE", "state": "TN", "street": "2421 LEBANON PIKE", "postcode": "37214"}}},
{"geometry": {"type": "Point", "coordinates": [-86.6786833527, 36.1695076848]}, "type": "Feature", "properties": {"collection_times": [{"days": "Mon-Fri", "time": "2:30pm"}, {"days": "Sat", "time": "3:00pm"}, {"days": "Sun", "time": "Closed"}], "id": "3721400020", "name": "USPS COLLECTION BOX - BLUE BOX", "address": {"city": "NASHVILLE", "state": "TN", "street": "2510 LEBANON PIKE", "postcode": "37214"}}},
{"geometry": {"type": "Point", "coordinates": [-86.6676489649, 36.1355035328]}, "type": "Feature", "properties": {"collection_times": [{"days": "Mon-Fri", "time": "1:45pm"}, {"days": "Sat", "time": "1:00pm"}, {"days": "Sun", "time": "Closed"}], "id": "3721400024", "name": "USPS COLLECTION BOX - BLUE BOX", "address": {"city": "NASHVILLE", "state": "TN", "street": "1 TERMINAL DR", "postcode": "37214"}}},
{"geometry": {"type": "Point", "coordinates": [-86.6642015691, 36.1614576491]}, "type": "Feature", "properties": {"collection_times": [{"days": "Mon-Fri", "time": "5:00pm"}, {"days": "Sat", "time": "3:00pm"}, {"days": "Sun", "time": "Closed"}], "id": "3721400026", "name": "USPS COLLECTION BOX - BLUE BOX", "address": {"city": "NASHVILLE", "state": "TN", "street": "215 DONELSON PIKE", "postcode": "37214"}}},
{"geometry": {"type": "Point", "coordinates": [-86.6843874184, 36.1688946122]}, "type": "Feature", "properties": {"collection_times": [{"days": "Mon-Fri", "time": "2:30pm"}, {"days": "Sat", "time": "3:00pm"}, {"days": "Sun", "time": "Closed"}], "id": "3721400045", "name": "USPS COLLECTION BOX - BLUE BOX", "address": {"city": "NASHVILLE", "state": "TN", "street": "2290 LEBANON PIKE", "postcode": "37214"}}},
{"geometry": {"type": "Point", "coordinates": [-86.6642015691, 36.1614576491]}, "type": "Feature", "properties": {"collection_times": [{"days": "Mon-Fri", "time": "5:00pm"}, {"days": "Sat", "time": "12:00pm"}, {"days": "Sun", "time": "Closed"}], "id": "3721400046", "name": "USPS COLLECTION BOX - PO LOBBY", "address": {"city": "NASHVILLE", "state": "TN", "street": "215 DONELSON PIKE", "postcode": "37214"}}},
{"geometry": {"type": "Point", "coordinates": [-86.6254285472, 36.1506638009]}, "type": "Feature", "properties": {"collection_times": [{"days": "Mon-Sat", "time": "1:00pm"}, {"days": "Sun", "time": "Closed"}], "id": "3721400062", "name": "USPS COLLECTION BOX - BLUE BOX", "address": {"city": "NASHVILLE", "state": "TN", "street": "3652 BELL RD", "postcode": "37214"}}},
{"geometry": {"type": "Point", "coordinates": [-86.6676489649, 36.1355035328]}, "type": "Feature", "properties": {"collection_times": [{"days": "Mon-Fri", "time": "1:45pm"}, {"days": "Sat", "time": "1:00pm"}, {"days": "Sun", "time": "Closed"}], "id": "3721400063", "name": "USPS COLLECTION BOX - BLUE BOX", "address": {"city": "NASHVILLE", "state": "TN", "street": "1 TERMINAL DR", "postcode": "37214"}}},
{"geometry": {"type": "Point", "coordinates": [-86.6828662956, 36.1479352452]}, "type": "Feature", "properties": {"collection_times": [{"days": "Mon-Fri", "time": "4:30pm"}, {"days": "Sat", "time": "1:00pm"}, {"days": "Sun", "time": "Closed"}], "id": "3721400073", "name": "USPS COLLECTION BOX - BLUE BOX", "address": {"city": "NASHVILLE", "state": "TN", "street": "51 CENTURY BLVD", "postcode": "37214"}}},
{"geometry": {"type": "Point", "coordinates": [-86.8217610566, 36.0986295155]}, "type": "Feature", "properties": {"collection_times": [{"days": "Mon-Fri", "time": "3:30pm"}, {"days": "Sat", "time": "3:00pm"}, {"days": "Sun", "time": "Closed"}], "id": "3721500005", "name": "USPS COLLECTION BOX - BLUE BOX", "address": {"city": "NASHVILLE", "state": "TN", "street": "4301 HILLSBORO RD", "postcode": "37215"}}},
{"geometry": {"type": "Point", "coordinates": [-86.8217610566, 36.0986295155]}, "type": "Feature", "properties": {"collection_times": [{"days": "Mon-Fri", "time": "3:30pm"}, {"days": "Sat", "time": "3:00pm"}, {"days": "Sun", "time": "Closed"}], "id": "3721500006", "name": "USPS COLLECTION BOX - BLUE BOX", "address": {"city": "NASHVILLE", "state": "TN", "street": "4301 HILLSBORO RD", "postcode": "37215"}}},
{"geometry": {"type": "Point", "coordinates": [-86.8118242013, 36.104582165]}, "type": "Feature", "properties": {"collection_times": [{"days": "Mon-Fri", "time": "4:00pm"}, {"days": "Sat", "time": "2:00pm"}, {"days": "Sun", "time": "Closed"}], "id": "3721500008", "name": "USPS COLLECTION BOX - BLUE BOX", "address": {"city": "NASHVILLE", "state": "TN", "street": "2002 RICHARD JONES RD", "postcode": "37215"}}},
{"geometry": {"type": "Point", "coordinates": [-86.8118242013, 36.104582165]}, "type": "Feature", "properties": {"collection_times": [{"days": "Mon-Fri", "time": "4:00pm"}, {"days": "Sat", "time": "2:00pm"}, {"days": "Sun", "time": "Closed"}], "id": "3721500009", "name": "USPS COLLECTION BOX - BLUE BOX", "address": {"city": "NASHVILLE", "state": "TN", "street": "2002 RICHARD JONES RD", "postcode": "37215"}}},
{"geometry": {"type": "Point", "coordinates": [-86.8104756281, 36.1082327764]}, "type": "Feature", "properties": {"collection_times": [{"days": "Mon-Fri", "time": "6:00pm"}, {"days": "Sat", "time": "3:00pm"}, {"days": "Sun", "time": "Closed"}], "id": "3721500013", "name": "USPS COLLECTION BOX - BLUE BOX", "address": {"city": "NASHVILLE", "state": "TN", "street": "1906 GLEN ECHO RD", "postcode": "37215"}}},
{"geometry": {"type": "Point", "coordinates": [-86.8151341205, 36.1042414728]}, "type": "Feature", "properties": {"collection_times": [{"days": "Mon-Fri", "time": "4:00pm"}, {"days": "Sat", "time": "2:00pm"}, {"days": "Sun", "time": "Closed"}], "id": "3721500016", "name": "USPS COLLECTION BOX - BLUE BOX", "address": {"city": "NASHVILLE", "state": "TN", "street": "4004 HILLSBORO RD", "postcode": "37215"}}},
{"geometry": {"type": "Point", "coordinates": [-86.819311378, 36.1010493061]}, "type": "Feature", "properties": {"collection_times": [{"days": "Mon-Fri", "time": "3:15pm"}, {"days": "Sat", "time": "2:00pm"}, {"days": "Sun", "time": "Closed"}], "id": "3721500025", "name": "USPS COLLECTION BOX - BLUE BOX", "address": {"city": "NASHVILLE", "state": "TN", "street": "2104 HOBBS RD", "postcode": "37215"}}},
{"geometry": {"type": "Point", "coordinates": [-86.8104756281, 36.1082327764]}, "type": "Feature", "properties": {"collection_times": [{"days": "Mon-Fri", "time": "6:00pm"}, {"days": "Sat", "time": "2:00pm"}, {"days": "Sun", "time": "Closed"}], "id": "3721500026", "name": "USPS COLLECTION BOX - PO LOBBY", "address": {"city": "NASHVILLE", "state": "TN", "street": "1906 GLEN ECHO RD", "postcode": "37215"}}},
{"geometry": {"type": "Point", "coordinates": [-86.8104756281, 36.1082327764]}, "type": "Feature", "properties": {"collection_times": [{"days": "Mon-Fri", "time": "6:00pm"}, {"days": "Sat", "time": "3:00pm"}, {"days": "Sun", "time": "Closed"}], "id": "3721500034", "name": "USPS COLLECTION BOX - BLUE BOX", "address": {"city": "NASHVILLE", "state": "TN", "street": "1906 GLEN ECHO RD", "postcode": "37215"}}},
{"geometry": {"type": "Point", "coordinates": [-86.8104756281, 36.1082327764]}, "type": "Feature", "properties": {"collection_times": [{"days": "Mon-Fri", "time": "6:00pm"}, {"days": "Sat", "time": "2:00pm"}, {"days": "Sun", "time": "Closed"}], "id": "3721500038", "name": "USPS COLLECTION BOX - APC", "address": {"city": "NASHVILLE", "state": "TN", "street": "1906 GLEN ECHO RD", "postcode": "37215"}}},
{"geometry": {"type": "Point", "coordinates": [-86.731459884, 36.2143974287]}, "type": "Feature", "properties": {"collection_times": [{"days": "Mon-Fri", "time": "5:00pm"}, {"days": "Sat", "time": "3:00pm"}, {"days": "Sun", "time": "Closed"}], "id": "3721600002", "name": "USPS COLLECTION BOX - BLUE BOX", "address": {"city": "NASHVILLE", "state": "TN", "street": "1011 GILLOCK ST", "postcode": "37216"}}},
{"geometry": {"type": "Point", "coordinates": [-86.731459884, 36.2143974287]}, "type": "Feature", "properties": {"collection_times": [{"days": "Mon-Fri", "time": "5:00pm"}, {"days": "Sat", "time": "12:00pm"}, {"days": "Sun", "time": "Closed"}], "id": "3721600011", "name": "USPS COLLECTION BOX - PO LOBBY", "address": {"city": "NASHVILLE", "state": "TN", "street": "1011 GILLOCK ST", "postcode": "37216"}}},
{"geometry": {"type": "Point", "coordinates": [-86.7248506923, 36.231569261]}, "type": "Feature", "properties": {"collection_times": [{"days": "Mon-Fri", "time": "2:45pm"}, {"days": "Sat", "time": "2:00pm"}, {"days": "Sun", "time": "Closed"}], "id": "3721600013", "name": "USPS COLLECTION BOX - BLUE BOX", "address": {"city": "NASHVILLE", "state": "TN", "street": "4800 GALLATIN PIKE", "postcode": "37216"}}},
{"geometry": {"type": "Point", "coordinates": [-86.6495729572, 36.0882854022]}, "type": "Feature", "properties": {"collection_times": [{"days": "Mon-Fri", "time": "1:30pm"}, {"days": "Sat", "time": "1:00pm"}, {"days": "Sun", "time": "Closed"}], "id": "3721700001", "name": "USPS COLLECTION BOX - BLUE BOX", "address": {"city": "NASHVILLE", "state": "TN", "street": "2265 MURFREESBORO PIKE", "postcode": "37217"}}},
{"geometry": {"type": "Point", "coordinates": [-86.6978094333, 36.1378635325]}, "type": "Feature", "properties": {"collection_times": [{"days": "Mon-Fri", "time": "5:00pm"}, {"days": "Sat", "time": "1:00pm"}, {"days": "Sun", "time": "Closed"}], "id": "3721700003", "name": "USPS COLLECTION BOX - BLUE BOX", "address": {"city": "NASHVILLE", "state": "TN", "street": "402 BNA DR", "postcode": "37217"}}},
{"geometry": {"type": "Point", "coordinates": [-86.6381548226, 36.0739001198]}, "type": "Feature", "properties": {"collection_times": [{"days": "Mon-Fri", "time": "1:30pm"}, {"days": "Sat", "time": "1:00pm"}, {"days": "Sun", "time": "Closed"}], "id": "3721700007", "name": "USPS COLLECTION BOX - BLUE BOX", "address": {"city": "NASHVILLE", "state": "TN", "street": "2615 MURFREESBORO PIKE", "postcode": "37217"}}},
{"geometry": {"type": "Point", "coordinates": [-86.6718955342, 36.1034831961]}, "type": "Feature", "properties": {"collection_times": [{"days": "Mon-Fri", "time": "5:00pm"}, {"days": "Sat", "time": "2:00pm"}, {"days": "Sun", "time": "Closed"}], "id": "3721700010", "name": "USPS COLLECTION BOX - BLUE BOX", "address": {"city": "NASHVILLE", "state": "TN", "street": "301 EZELL PIKE", "postcode": "37217"}}},
{"geometry": {"type": "Point", "coordinates": [-86.6798327479, 36.0974444099]}, "type": "Feature", "properties": {"collection_times": [{"days": "Mon-Fri", "time": "4:15pm"}, {"days": "Sat", "time": "1:00pm"}, {"days": "Sun", "time": "Closed"}], "id": "3721700014", "name": "USPS COLLECTION BOX - BLUE BOX", "address": {"city": "NASHVILLE", "state": "TN", "street": "500 AIRPARK CENTER DR", "postcode": "37217"}}},
{"geometry": {"type": "Point", "coordinates": [-86.7222588292, 36.1337208102]}, "type": "Feature", "properties": {"collection_times": [{"days": "Mon-Fri", "time": "3:45pm"}, {"days": "Sat", "time": "1:00pm"}, {"days": "Sun", "time": "Closed"}], "id": "3721700035", "name": "USPS COLLECTION BOX - BLUE BOX", "address": {"city": "NASHVILLE", "state": "TN", "street": "831 MURFREESBORO PIKE", "postcode": "37217"}}},
{"geometry": {"type": "Point", "coordinates": [-86.6718955342, 36.1034831961]}, "type": "Feature", "properties": {"collection_times": [{"days": "Mon-Fri", "time": "5:00pm"}, {"days": "Sat", "time": "12:00pm"}, {"days": "Sun", "time": "Closed"}], "id": "3721700052", "name": "USPS COLLECTION BOX - PO LOBBY", "address": {"city": "NASHVILLE", "state": "TN", "street": "301 EZELL PIKE", "postcode": "37217"}}},
{"geometry": {"type": "Point", "coordinates": [-86.6084593597, 36.0888499937]}, "type": "Feature", "properties": {"collection_times": [{"days": "Mon-Fri", "time": "1:15pm"}, {"days": "Sat", "time": "1:00pm"}, {"days": "Sun", "time": "Closed"}], "id": "3721700057", "name": "USPS COLLECTION BOX - BLUE BOX", "address": {"city": "NASHVILLE", "state": "TN", "street": "2808 SMITH SPRINGS RD", "postcode": "37217"}}},
{"geometry": {"type": "Point", "coordinates": [-86.6491330378, 36.0876812303]}, "type": "Feature", "properties": {"collection_times": [{"days": "Mon-Fri", "time": "1:30pm"}, {"days": "Sat", "time": "1:00pm"}, {"days": "Sun", "time": "Closed"}], "id": "3721700062", "name": "USPS COLLECTION BOX - BLUE BOX", "address": {"city": "NASHVILLE", "state": "TN", "street": "2284 MURFREESBORO PIKE", "postcode": "37217"}}},
{"geometry": {"type": "Point", "coordinates": [-86.6617131303, 36.1021904595]}, "type": "Feature", "properties": {"collection_times": [{"days": "Mon-Fri", "time": "1:45pm"}, {"days": "Sat", "time": "1:00pm"}, {"days": "Sun", "time": "Closed"}], "id": "3721700063", "name": "USPS COLLECTION BOX - BLUE BOX", "address": {"city": "NASHVILLE", "state": "TN", "street": "935 AIRPORT SVC RD", "postcode": "37217"}}},
{"geometry": {"type": "Point", "coordinates": [-86.8318079972, 36.1939627936]}, "type": "Feature", "properties": {"collection_times": [{"days": "Mon-Fri", "time": "2:00pm"}, {"days": "Sat", "time": "1:00pm"}, {"days": "Sun", "time": "Closed"}], "id": "3721800003", "name": "USPS COLLECTION BOX - BLUE BOX", "address": {"city": "NASHVILLE", "state": "TN", "street": "3205 CLARKSVILLE PIKE", "postcode": "37218"}}},
{"geometry": {"type": "Point", "coordinates": [-86.8379356545, 36.1983162845]}, "type": "Feature", "properties": {"collection_times": [{"days": "Mon-Fri", "time": "2:00pm"}, {"days": "Sat", "time": "1:00pm"}, {"days": "Sun", "time": "Closed"}], "id": "3721800006", "name": "USPS COLLECTION BOX - BLUE BOX", "address": {"city": "NASHVILLE", "state": "TN", "street": "3701 CLARKSVILLE PIKE", "postcode": "37218"}}},
{"geometry": {"type": "Point", "coordinates": [-86.839275947, 36.2096005301]}, "type": "Feature", "properties": {"collection_times": [{"days": "Mon-Fri", "time": "2:00pm"}, {"days": "Sat", "time": "1:00pm"}, {"days": "Sun", "time": "Closed"}], "id": "3721800007", "name": "USPS COLLECTION BOX - BLUE BOX", "address": {"city": "NASHVILLE", "state": "TN", "street": "3930 CLARKSVILLE PIKE", "postcode": "37218"}}},
{"geometry": {"type": "Point", "coordinates": [-86.839275947, 36.2096005301]}, "type": "Feature", "properties": {"collection_times": [{"days": "Mon-Fri", "time": "2:00pm"}, {"days": "Sat", "time": "1:00pm"}, {"days": "Sun", "time": "Closed"}], "id": "3721800008", "name": "USPS COLLECTION BOX - BLUE BOX", "address": {"city": "NASHVILLE", "state": "TN", "street": "3930 CLARKSVILLE PIKE", "postcode": "37218"}}},
{"geometry": {"type": "Point", "coordinates": [-86.781369971, 36.1626922552]}, "type": "Feature", "properties": {"collection_times": [{"days": "Mon-Fri", "time": "5:00pm"}, {"days": "Sat", "time": "2:00pm"}, {"days": "Sun", "time": "Closed"}], "id": "3721900001", "name": "USPS COLLECTION BOX - BLUE BOX", "address": {"city": "NASHVILLE", "state": "TN", "street": "200 6TH AVE N", "postcode": "37219"}}},
{"geometry": {"type": "Point", "coordinates": [-86.781369971, 36.1626922552]}, "type": "Feature", "properties": {"collection_times": [{"days": "Mon-Fri", "time": "5:00pm"}, {"days": "Sat", "time": "2:00pm"}, {"days": "Sun", "time": "Closed"}], "id": "3721900002", "name": "USPS COLLECTION BOX - BLUE BOX", "address": {"city": "NASHVILLE", "state": "TN", "street": "200 6TH AVE N", "postcode": "37219"}}},
{"geometry": {"type": "Point", "coordinates": [-86.7867856918, 36.1676835621]}, "type": "Feature", "properties": {"collection_times": [{"days": "Mon-Fri", "time": "4:15pm"}, {"days": "Sat", "time": "1:00pm"}, {"days": "Sun", "time": "Closed"}], "id": "3721900007", "name": "USPS COLLECTION BOX - BLUE BOX", "address": {"city": "NASHVILLE", "state": "TN", "street": "710 JAMES ROBERTSON PKWY", "postcode": "37219"}}},
{"geometry": {"type": "Point", "coordinates": [-86.7829673357, 36.1637679793]}, "type": "Feature", "properties": {"collection_times": [{"days": "Mon-Fri", "time": "4:15pm"}, {"days": "Sat", "time": "1:00pm"}, {"days": "Sun", "time": "Closed"}], "id": "3721900016", "name": "USPS COLLECTION BOX - BLUE BOX", "address": {"city": "NASHVILLE", "state": "TN", "street": "624 UNION ST", "postcode": "37219"}}},
{"geometry": {"type": "Point", "coordinates": [-86.7784578716, 36.1628565866]}, "type": "Feature", "properties": {"collection_times": [{"days": "Mon-Fri", "time": "4:15pm"}, {"days": "Sat", "time": "2:00pm"}, {"days": "Sun", "time": "Closed"}], "id": "3721900027", "name": "USPS COLLECTION BOX - BLUE BOX", "address": {"city": "NASHVILLE", "state": "TN", "street": "163 4TH AVE N", "postcode": "37219"}}},
{"geometry": {"type": "Point", "coordinates": [-86.7837738783, 36.1688748018]}, "type": "Feature", "properties": {"collection_times": [{"days": "Mon-Fri", "time": "4:15pm"}, {"days": "Sat", "time": "1:00pm"}, {"days": "Sun", "time": "Closed"}], "id": "3721900040", "name": "USPS COLLECTION BOX - BLUE BOX", "address": {"city": "NASHVILLE", "state": "TN", "street": "480 JAMES ROBERTSON PKWY", "postcode": "37219"}}},
{"geometry": {"type": "Point", "coordinates": [-86.7851131605, 36.168404423]}, "type": "Feature", "properties": {"collection_times": [{"days": "Mon-Fri", "time": "4:15pm"}, {"days": "Sat", "time": "1:00pm"}, {"days": "Sun", "time": "Closed"}], "id": "3721900056", "name": "USPS COLLECTION BOX - BLUE BOX", "address": {"city": "NASHVILLE", "state": "TN", "street": "598 JAMES ROBERTSON PKWY", "postcode": "37219"}}},
{"geometry": {"type": "Point", "coordinates": [-86.7816433692, 36.1680656579]}, "type": "Feature", "properties": {"collection_times": [{"days": "Mon-Fri", "time": "4:15pm"}, {"days": "Sat", "time": "1:00pm"}, {"days": "Sun", "time": "Closed"}], "id": "3721900058", "name": "USPS COLLECTION BOX - BLUE BOX", "address": {"city": "NASHVILLE", "state": "TN", "street": "446 JAMES ROBERTSON PKWY", "postcode": "37219"}}},
{"geometry": {"type": "Point", "coordinates": [-86.7743989285, 36.1567400087]}, "type": "Feature", "properties": {"collection_times": [{"days": "Mon-Fri", "time": "5:00pm"}, {"days": "Sat", "time": "2:00pm"}, {"days": "Sun", "time": "Closed"}], "id": "3721900061", "name": "USPS COLLECTION BOX - BLUE BOX", "address": {"city": "NASHVILLE", "state": "TN", "street": "401 4TH AVE N", "postcode": "37219"}}},
{"geometry": {"type": "Point", "coordinates": [-86.781369971, 36.1626922552]}, "type": "Feature", "properties": {"collection_times": [{"days": "Mon-Fri", "time": "5:00pm"}, {"days": "Sat", "time": "2:00pm"}, {"days": "Sun", "time": "Closed"}], "id": "3721900064", "name": "USPS COLLECTION BOX - BLUE BOX", "address": {"city": "NASHVILLE", "state": "TN", "street": "200 6TH AVE N", "postcode": "37219"}}},
{"geometry": {"type": "Point", "coordinates": [-86.7752802329, 36.1556859923]}, "type": "Feature", "properties": {"collection_times": [{"days": "Mon-Fri", "time": "5:00pm"}, {"days": "Sat", "time": "1:00pm"}, {"days": "Sun", "time": "Closed"}], "id": "3721900067", "name": "USPS COLLECTION BOX - BLUE BOX", "address": {"city": "NASHVILLE", "state": "TN", "street": "425 5TH AVE N", "postcode": "37219"}}},
{"geometry": {"type": "Point", "coordinates": [-86.7752802329, 36.1556859923]}, "type": "Feature", "properties": {"collection_times": [{"days": "Mon-Fri", "time": "5:00pm"}, {"days": "Sat", "time": "1:00pm"}, {"days": "Sun", "time": "Closed"}], "id": "3721900068", "name": "USPS COLLECTION BOX - BLUE BOX", "address": {"city": "NASHVILLE", "state": "TN", "street": "425 5TH AVE N", "postcode": "37219"}}},
{"geometry": {"type": "Point", "coordinates": [-86.7787214606, 36.1633693108]}, "type": "Feature", "properties": {"collection_times": [{"days": "Mon-Fri", "time": "4:15pm"}, {"days": "Sat", "time": "2:00pm"}, {"days": "Sun", "time": "Closed"}], "id": "3721900069", "name": "USPS COLLECTION BOX - BLUE BOX", "address": {"city": "NASHVILLE", "state": "TN", "street": "162 4TH AVE N", "postcode": "37219"}}},
{"geometry": {"type": "Point", "coordinates": [-86.780342536, 36.1644155135]}, "type": "Feature", "properties": {"collection_times": [{"days": "Mon-Fri", "time": "5:00pm"}, {"days": "Sat-Sun", "time": "Closed"}], "id": "3721900071", "name": "USPS COLLECTION BOX - PO LOBBY", "address": {"city": "NASHVILLE", "state": "TN", "street": "16 ARCADE", "postcode": "37219"}}},
{"geometry": {"type": "Point", "coordinates": [-86.7796512663, 36.1647770319]}, "type": "Feature", "properties": {"collection_times": [{"days": "Mon-Fri", "time": "4:15pm"}, {"days": "Sat", "time": "2:00pm"}, {"days": "Sun", "time": "Closed"}], "id": "3721900074", "name": "USPS COLLECTION BOX - BLUE BOX", "address": {"city": "NASHVILLE", "state": "TN", "street": "239 4TH AVE N", "postcode": "37219"}}},
{"geometry": {"type": "Point", "coordinates": [-86.7796512663, 36.1647770319]}, "type": "Feature", "properties": {"collection_times": [{"days": "Mon-Fri", "time": "4:15pm"}, {"days": "Sat", "time": "2:00pm"}, {"days": "Sun", "time": "Closed"}], "id": "3721900075", "name": "USPS COLLECTION BOX - BLUE BOX", "address": {"city": "NASHVILLE", "state": "TN", "street": "239 4TH AVE N", "postcode": "37219"}}},
{"geometry": {"type": "Point", "coordinates": [-86.780342536, 36.1644155135]}, "type": "Feature", "properties": {"collection_times": [{"days": "Mon-Fri", "time": "5:00pm"}, {"days": "Sat-Sun", "time": "Closed"}], "id": "3721900088", "name": "USPS COLLECTION BOX - PO LOBBY", "address": {"city": "NASHVILLE", "state": "TN", "street": "16 ARCADE", "postcode": "37219"}}},
{"geometry": {"type": "Point", "coordinates": [-86.947345647, 36.0773959474]}, "type": "Feature", "properties": {"collection_times": [{"days": "Mon-Fri", "time": "5:30pm"}, {"days": "Sat", "time": "3:00pm"}, {"days": "Sun", "time": "Closed"}], "id": "3722100010", "name": "USPS COLLECTION BOX - BLUE BOX", "address": {"city": "NASHVILLE", "state": "TN", "street": "7619 HIGHWAY 70 S", "postcode": "37221"}}},
{"geometry": {"type": "Point", "coordinates": [-86.9204955267, 36.0745295061]}, "type": "Feature", "properties": {"collection_times": [{"days": "Mon-Fri", "time": "5:00pm"}, {"days": "Sat", "time": "3:00pm"}, {"days": "Sun", "time": "Closed"}], "id": "3722100014", "name": "USPS COLLECTION BOX - BLUE BOX", "address": {"city": "NASHVILLE", "state": "TN", "street": "7083 HIGHWAY 70 S", "postcode": "37221"}}},
{"geometry": {"type": "Point", "coordinates": [-86.947345647, 36.0773959474]}, "type": "Feature", "properties": {"collection_times": [{"days": "Mon-Fri", "time": "6:00pm"}, {"days": "Sat", "time": "2:00pm"}, {"days": "Sun", "time": "Closed"}], "id": "3722100015", "name": "USPS COLLECTION BOX - PO LOBBY", "address": {"city": "NASHVILLE", "state": "TN", "street": "7619 HIGHWAY 70 S", "postcode": "37221"}}},
{"geometry": {"type": "Point", "coordinates": [-86.9573660087, 36.0442607215]}, "type": "Feature", "properties": {"collection_times": [{"days": "Mon-Sat", "time": "3:00pm"}, {"days": "Sun", "time": "Closed"}], "id": "3722100018", "name": "USPS COLLECTION BOX - BLUE BOX", "address": {"city": "NASHVILLE", "state": "TN", "street": "8141 HIGHWAY 100", "postcode": "37221"}}},
{"geometry": {"type": "Point", "coordinates": [-86.947345647, 36.0773959474]}, "type": "Feature", "properties": {"collection_times": [{"days": "Mon-Fri", "time": "6:00pm"}, {"days": "Sat", "time": "2:00pm"}, {"days": "Sun", "time": "Closed"}], "id": "3722100021", "name": "USPS COLLECTION BOX - APC", "address": {"city": "NASHVILLE", "state": "TN", "street": "7619 HIGHWAY 70 S", "postcode": "37221"}}},
{"geometry": {"type": "Point", "coordinates": [-86.7873666124, 36.194487762]}, "type": "Feature", "properties": {"collection_times": [{"days": "Mon-Fri", "time": "3:15pm"}, {"days": "Sat", "time": "1:00pm"}, {"days": "Sun", "time": "Closed"}], "id": "3722800008", "name": "USPS COLLECTION BOX - BLUE BOX", "address": {"city": "NASHVILLE", "state": "TN", "street": "235 CUMBERLAND BND", "postcode": "37228"}}},
{"geometry": {"type": "Point", "coordinates": [-86.8080588429, 36.1951246612]}, "type": "Feature", "properties": {"collection_times": [{"days": "Mon-Fri", "time": "5:00pm"}, {"days": "Sat", "time": "1:00pm"}, {"days": "Sun", "time": "Closed"}], "id": "3722800021", "name": "USPS COLLECTION BOX - BLUE BOX", "address": {"city": "NASHVILLE", "state": "TN", "street": "555 GREAT CIRCLE RD", "postcode": "37228"}}},
{"geometry": {"type": "Point", "coordinates": [-86.7997238278, 36.1955930917]}, "type": "Feature", "properties": {"collection_times": [{"days": "Mon-Fri", "time": "5:00pm"}, {"days": "Sat", "time": "1:00pm"}, {"days": "Sun", "time": "Closed"}], "id": "3722800046", "name": "USPS COLLECTION BOX - BLUE BOX", "address": {"city": "NASHVILLE", "state": "TN", "street": "220 ATHENS WAY", "postcode": "37228"}}},
{"geometry": {"type": "Point", "coordinates": [-86.8002004465, 36.1949519492]}, "type": "Feature", "properties": {"collection_times": [{"days": "Mon-Fri", "time": "5:00pm"}, {"days": "Sat", "time": "1:00pm"}, {"days": "Sun", "time": "Closed"}], "id": "3722800047", "name": "USPS COLLECTION BOX - BLUE BOX", "address": {"city": "NASHVILLE", "state": "TN", "street": "200 ATHENS WAY", "postcode": "37228"}}},
{"geometry": {"type": "Point", "coordinates": [-86.7997238278, 36.1955930917]}, "type": "Feature", "properties": {"collection_times": [{"days": "Mon-Fri", "time": "5:00pm"}, {"days": "Sat", "time": "1:00pm"}, {"days": "Sun", "time": "Closed"}], "id": "3722800055", "name": "USPS COLLECTION BOX - BLUE BOX", "address": {"city": "NASHVILLE", "state": "TN", "street": "220 ATHENS WAY", "postcode": "37228"}}},
{"geometry": {"type": "Point", "coordinates": [-86.6746814025, 36.148978615]}, "type": "Feature", "properties": {"collection_times": [{"days": "Mon-Sat", "time": "8:00pm"}, {"days": "Sun", "time": "Closed"}], "id": "3722900000", "name": "USPS COLLECTION BOX - BLUE BOX", "address": {"city": "NASHVILLE", "state": "TN", "street": "525 ROYAL PKWY", "postcode": "37229"}}},
{"geometry": {"type": "Point", "coordinates": [-86.6746814025, 36.148978615]}, "type": "Feature", "properties": {"collection_times": [{"days": "Mon-Sat", "time": "8:00pm"}, {"days": "Sun", "time": "Closed"}], "id": "3722900001", "name": "USPS COLLECTION BOX - BLUE BOX", "address": {"city": "NASHVILLE", "state": "TN", "street": "525 ROYAL PKWY", "postcode": "37229"}}},
{"geometry": {"type": "Point", "coordinates": [-86.6746814025, 36.148978615]}, "type": "Feature", "properties": {"collection_times": [{"days": "Mon-Sat", "time": "8:00pm"}, {"days": "Sun", "time": "Closed"}], "id": "3722900006", "name": "USPS COLLECTION BOX - PO LOBBY", "address": {"city": "NASHVILLE", "state": "TN", "street": "525 ROYAL PKWY", "postcode": "37229"}}},
{"geometry": {"type": "Point", "coordinates": [-86.6746814025, 36.148978615]}, "type": "Feature", "properties": {"collection_times": [{"days": "Mon-Sat", "time": "8:00pm"}, {"days": "Sun", "time": "Closed"}], "id": "3722900008", "name": "USPS COLLECTION BOX - APC", "address": {"city": "NASHVILLE", "state": "TN", "street": "525 ROYAL PKWY", "postcode": "37229"}}}
]}
