{"type": "FeatureCollection", "features": [
{"geometry": {"type": "Point", "coordinates": [-85.7221733446, 35.4301120805]}, "type": "Feature", "properties": {"collection_times": [{"days": "Mon-Fri", "time": "2:45pm"}, {"days": "Sat", "time": "10:45am"}, {"days": "Sun", "time": "Closed"}], "id": "3730100001", "name": "USPS COLLECTION BOX - PO LOBBY", "address": {"city": "ALTAMONT", "state": "TN", "street": "70 FITCHTOWN RD", "postcode": "37301"}}},
{"geometry": {"type": "Point", "coordinates": [-85.7221733446, 35.4301120805]}, "type": "Feature", "properties": {"collection_times": [{"days": "Mon-Fri", "time": "3:00pm"}, {"days": "Sat", "time": "10:45am"}, {"days": "Sun", "time": "Closed"}], "id": "3730100002", "name": "USPS COLLECTION BOX - BLUE BOX", "address": {"city": "ALTAMONT", "state": "TN", "street": "70 FITCHTOWN RD", "postcode": "37301"}}},
{"geometry": {"type": "Point", "coordinates": [-85.0277269129, 35.0160294768]}, "type": "Feature", "properties": {"collection_times": [{"days": "Mon-Fri", "time": "3:00pm"}, {"days": "Sat", "time": "11:15am"}, {"days": "Sun", "time": "Closed"}], "id": "3730200001", "name": "USPS COLLECTION BOX - BLUE BOX", "address": {"city": "APISON", "state": "TN", "street": "4498 BILL JONES RD", "postcode": "37302"}}},
{"geometry": {"type": "Point", "coordinates": [-85.0277269129, 35.0160294768]}, "type": "Feature", "properties": {"collection_times": [{"days": "Mon-Fri", "time": "3:00pm"}, {"days": "Sat", "time": "11:15am"}, {"days": "Sun", "time": "Closed"}], "id": "3730200002", "name": "USPS COLLECTION BOX - PO LOBBY", "address": {"city": "APISON", "state": "TN", "street": "4498 BILL JONES RD", "postcode": "37302"}}},
{"geometry": {"type": "Point", "coordinates": [-84.5877915525, 35.4375861311]}, "type": "Feature", "properties": {"collection_times": [{"days": "Mon-Fri", "time": "2:00pm"}, {"days": "Sat", "time": "1:30pm"}, {"days": "Sun", "time": "Closed"}], "id": "3730300002", "name": "USPS COLLECTION BOX - BLUE BOX", "address": {"city": "ATHENS", "state": "TN", "street": "216 N JACKSON ST", "postcode": "37303"}}},
{"geometry": {"type": "Point", "coordinates": [-84.5948087574, 35.4402280414]}, "type": "Feature", "properties": {"collection_times": [{"days": "Mon-Fri", "time": "2:00pm"}, {"days": "Sat", "time": "1:30pm"}, {"days": "Sun", "time": "Closed"}], "id": "3730300004", "name": "USPS COLLECTION BOX - BLUE BOX", "address": {"city": "ATHENS", "state": "TN", "street": "107 S HILL ST", "postcode": "37303"}}},
{"geometry": {"type": "Point", "coordinates": [-84.5925825363, 35.4407363508]}, "type": "Feature", "properties": {"collection_times": [{"days": "Mon-Fri", "time": "4:30pm"}, {"days": "Sat", "time": "3:00pm"}, {"days": "Sun", "time": "Closed"}], "id": "3730300005", "name": "USPS COLLECTION BOX - BLUE BOX", "address": {"city": "ATHENS", "state": "TN", "street": "202 S WHITE ST", "postcode": "37303"}}},
{"geometry": {"type": "Point", "coordinates": [-84.5893679952, 35.4366802326]}, "type": "Feature", "properties": {"collection_times": [{"days": "Mon-Sat", "time": "2:00pm"}, {"days": "Sun", "time": "Closed"}], "id": "3730300006", "name": "USPS COLLECTION BOX - BLUE BOX", "address": {"city": "ATHENS", "state": "TN", "street": "400 S WHITE ST", "postcode": "37303"}}},
{"geometry": {"type": "Point", "coordinates": [-84.6082106072, 35.4405044908]}, "type": "Feature", "properties": {"collection_times": [{"days": "Mon-Sat", "time": "2:00pm"}, {"days": "Sun", "time": "Closed"}], "id": "3730300007", "name": "USPS COLLECTION BOX - BLUE BOX", "address": {"city": "ATHENS", "state": "TN", "street": "1114 W MADISON AVE", "postcode": "37303"}}},
{"geometry": {"type": "Point", "coordinates": [-84.6060756402, 35.4420036513]}, "type": "Feature", "properties": {"collection_times": [{"days": "Mon-Fri", "time": "2:00pm"}, {"days": "Sat", "time": "1:30pm"}, {"days": "Sun", "time": "Closed"}], "id": "3730300008", "name": "USPS COLLECTION BOX - BLUE BOX", "address": {"city": "ATHENS", "state": "TN", "street": "719 COOK DR", "postcode": "37303"}}},
{"geometry": {"type": "Point", "coordinates": [-84.6206092001, 35.4501739974]}, "type": "Feature", "properties": {"collection_times": [{"days": "Mon-Sat", "time": "10:00am"}, {"days": "Sun", "time": "Closed"}], "id": "3730300009", "name": "USPS COLLECTION BOX - BLUE BOX", "address": {"city": "ATHENS", "state": "TN", "street": "1500 DECATUR PIKE", "postcode": "37303"}}},
{"geometry": {"type": "Point", "coordinates": [-84.6254881905, 35.4520022002]}, "type": "Feature", "properties": {"collection_times": [{"days": "Mon-Fri", "time": "11:00am"}, {"days": "Sat", "time": "10:00am"}, {"days": "Sun", "time": "Closed"}], "id": "3730300010", "name": "USPS COLLECTION BOX - BLUE BOX", "address": {"city": "ATHENS", "state": "TN", "street": "1800 DECATUR PIKE", "postcode": "37303"}}},
{"geometry": {"type": "Point", "coordinates": [-84.646038086, 35.4643434799]}, "type": "Feature", "properties": {"collection_times": [{"days": "Mon-Fri", "time": "2:00pm"}, {"days": "Sat", "time": "1:30pm"}, {"days": "Sun", "time": "Closed"}], "id": "3730300011", "name": "USPS COLLECTION BOX - BLUE BOX", "address": {"city": "ATHENS", "state": "TN", "street": "2635 DECATUR PIKE", "postcode": "37303"}}},
{"geometry": {"type": "Point", "coordinates": [-84.6281280873, 35.4543001583]}, "type": "Feature", "properties": {"collection_times": [{"days": "Mon-Fri", "time": "2:00pm"}, {"days": "Sat", "time": "1:30pm"}, {"days": "Sun", "time": "Closed"}], "id": "3730300012", "name": "USPS COLLECTION BOX - BLUE BOX", "address": {"city": "ATHENS", "state": "TN", "street": "1815 DECATUR PIKE", "postcode": "37303"}}},
{"geometry": {"type": "Point", "coordinates": [-84.5925362456, 35.4424455198]}, "type": "Feature", "properties": {"collection_times": [{"days": "Mon-Fri", "time": "2:00pm"}, {"days": "Sat", "time": "1:30pm"}, {"days": "Sun", "time": "Closed"}], "id": "3730300014", "name": "USPS COLLECTION BOX - BLUE BOX", "address": {"city": "ATHENS", "state": "TN", "street": "3 N JACKSON ST", "postcode": "37303"}}},
{"geometry": {"type": "Point", "coordinates": [-84.5946080369, 35.4424574857]}, "type": "Feature", "properties": {"collection_times": [{"days": "Mon-Fri", "time": "2:00pm"}, {"days": "Sat", "time": "1:30pm"}, {"days": "Sun", "time": "Closed"}], "id": "3730300015", "name": "USPS COLLECTION BOX - BLUE BOX", "address": {"city": "ATHENS", "state": "TN", "street": "100 WASHINGTON", "postcode": "37303"}}},
{"geometry": {"type": "Point", "coordinates": [-84.5925825363, 35.4407363508]}, "type": "Feature", "properties": {"collection_times": [{"days": "Mon-Fri", "time": "4:30pm"}, {"days": "Sat", "time": "3:00pm"}, {"days": "Sun", "time": "Closed"}], "id": "3730300016", "name": "USPS COLLECTION BOX - PO LOBBY", "address": {"city": "ATHENS", "state": "TN", "street": "202 S WHITE ST", "postcode": "37303"}}},
{"geometry": {"type": "Point", "coordinates": [-84.5925825363, 35.4407363508]}, "type": "Feature", "properties": {"collection_times": [{"days": "Mon-Fri", "time": "4:30pm"}, {"days": "Sat", "time": "3:00pm"}, {"days": "Sun", "time": "Closed"}], "id": "3730300022", "name": "USPS COLLECTION BOX - BLUE BOX", "address": {"city": "ATHENS", "state": "TN", "street": "202 W WHITE ST", "postcode": "37303"}}},
{"geometry": {"type": "Point", "coordinates": [-84.5927434187, 35.4799277813]}, "type": "Feature", "properties": {"collection_times": [{"days": "Mon-Fri", "time": "2:00pm"}, {"days": "Sat", "time": "1:30pm"}, {"days": "Sun", "time": "Closed"}], "id": "3730300023", "name": "USPS COLLECTION BOX - BLUE BOX", "address": {"city": "ATHENS", "state": "TN", "street": "947 CONGRESS PKWY N", "postcode": "37303"}}},
{"geometry": {"type": "Point", "coordinates": [-85.6722171659, 35.4628455193]}, "type": "Feature", "properties": {"collection_times": [{"days": "Mon-Fri", "time": "3:30pm"}, {"days": "Sat", "time": "11:30am"}, {"days": "Sun", "time": "Closed"}], "id": "3730500001", "name": "USPS COLLECTION BOX - PO LOBBY", "address": {"city": "BEERSHBA SPGS", "state": "TN", "street": "19472 STATE ROUTE 56", "postcode": "37305"}}},
{"geometry": {"type": "Point", "coordinates": [-85.6722171659, 35.4628455193]}, "type": "Feature", "properties": {"collection_times": [{"days": "Mon-Fri", "time": "3:30pm"}, {"days": "Sat", "time": "11:30am"}, {"days": "Sun", "time": "Closed"}], "id": "3730500002", "name": "USPS COLLECTION BOX - BLUE BOX", "address": {"city": "BEERSHBA SPGS", "state": "TN", "street": "19472 STATE ROUTE 56", "postcode": "37305"}}},
{"geometry": {"type": "Point", "coordinates": [-86.1986797204, 35.132854021]}, "type": "Feature", "properties": {"collection_times": [{"days": "Mon-Fri", "time": "11:00am"}, {"days": "Sat", "time": "10:00am"}, {"days": "Sun", "time": "Closed"}], "id": "3730600001", "name": "USPS COLLECTION BOX - BLUE BOX", "address": {"city": "BELVIDERE", "state": "TN", "street": "704 BELVIDERE RD", "postcode": "37306"}}},
{"geometry": {"type": "Point", "coordinates": [-86.1986797204, 35.132854021]}, "type": "Feature", "properties": {"collection_times": [{"days": "Mon-Fri", "time": "11:00am"}, {"days": "Sat", "time": "10:00am"}, {"days": "Sun", "time": "Closed"}], "id": "3730600002", "name": "USPS COLLECTION BOX - PO LOBBY", "address": {"city": "BELVIDERE", "state": "TN", "street": "704 BELVIDERE RD", "postcode": "37306"}}},
{"geometry": {"type": "Point", "coordinates": [-84.6504446082, 35.1724128665]}, "type": "Feature", "properties": {"collection_times": [{"days": "Mon-Fri", "time": "4:00pm"}, {"days": "Sat", "time": "11:00am"}, {"days": "Sun", "time": "Closed"}], "id": "3730700001", "name": "USPS COLLECTION BOX - PO LOBBY", "address": {"city": "BENTON", "state": "TN", "street": "188 MAIN ST", "postcode": "37307"}}},
{"geometry": {"type": "Point", "coordinates": [-84.6504446082, 35.1724128665]}, "type": "Feature", "properties": {"collection_times": [{"days": "Mon-Fri", "time": "4:00pm"}, {"days": "Sat", "time": "11:00am"}, {"days": "Sun", "time": "Closed"}], "id": "3730700003", "name": "USPS COLLECTION BOX - BLUE BOX", "address": {"city": "BENTON", "state": "TN", "street": "188 MAIN ST", "postcode": "37307"}}},
{"geometry": {"type": "Point", "coordinates": [-84.992037495, 35.3620829853]}, "type": "Feature", "properties": {"collection_times": [{"days": "Mon-Fri", "time": "3:00pm"}, {"days": "Sat", "time": "10:45am"}, {"days": "Sun", "time": "Closed"}], "id": "3730800001", "name": "USPS COLLECTION BOX - PO LOBBY", "address": {"city": "BIRCHWOOD", "state": "TN", "street": "5505 60 HWY", "postcode": "37308"}}},
{"geometry": {"type": "Point", "coordinates": [-84.992037495, 35.3620829853]}, "type": "Feature", "properties": {"collection_times": [{"days": "Mon-Fri", "time": "3:00pm"}, {"days": "Sat", "time": "10:45am"}, {"days": "Sun", "time": "Closed"}], "id": "3730800002", "name": "USPS COLLECTION BOX - BLUE BOX", "address": {"city": "BIRCHWOOD", "state": "TN", "street": "5505 60 HWY", "postcode": "37308"}}},
{"geometry": {"type": "Point", "coordinates": [-84.7447243813, 35.2959597208]}, "type": "Feature", "properties": {"collection_times": [{"days": "Mon-Fri", "time": "2:30pm"}, {"days": "Sat", "time": "9:30am"}, {"days": "Sun", "time": "Closed"}], "id": "3730900001", "name": "USPS COLLECTION BOX - BLUE BOX", "address": {"city": "CALHOUN", "state": "TN", "street": "748 HIGHWAY 163", "postcode": "37309"}}},
{"geometry": {"type": "Point", "coordinates": [-84.7472638847, 35.2956523485]}, "type": "Feature", "properties": {"collection_times": [{"days": "Mon-Fri", "time": "2:30pm"}, {"days": "Sat", "time": "9:30am"}, {"days": "Sun", "time": "Closed"}], "id": "3730900004", "name": "USPS COLLECTION BOX - PO LOBBY", "address": {"city": "CALHOUN", "state": "TN", "street": "748 HIGHWAY 163", "postcode": "37309"}}},
{"geometry": {"type": "Point", "coordinates": [-84.7472638847, 35.2956523485]}, "type": "Feature", "properties": {"collection_times": [{"days": "Mon-Fri", "time": "2:30pm"}, {"days": "Sat", "time": "9:30am"}, {"days": "Sun", "time": "Closed"}], "id": "3730900005", "name": "USPS COLLECTION BOX - PO LOBBY", "address": {"city": "CALHOUN", "state": "TN", "street": "748 HIGHWAY 163", "postcode": "37309"}}},
{"geometry": {"type": "Point", "coordinates": [-84.7595985978, 35.2855569767]}, "type": "Feature", "properties": {"collection_times": [{"days": "Mon-Fri", "time": "4:00pm"}, {"days": "Sat", "time": "11:00am"}, {"days": "Sun", "time": "Closed"}], "id": "3731000001", "name": "USPS COLLECTION BOX - BLUE BOX", "address": {"city": "CHARLESTON", "state": "TN", "street": "8916 HIWASSEE ST NE", "postcode": "37310"}}},
{"geometry": {"type": "Point", "coordinates": [-84.7595985978, 35.2855569767]}, "type": "Feature", "properties": {"collection_times": [{"days": "Mon-Fri", "time": "4:00pm"}, {"days": "Sat", "time": "11:00am"}, {"days": "Sun", "time": "Closed"}], "id": "3731000003", "name": "USPS COLLECTION BOX - PO LOBBY", "address": {"city": "CHARLESTON", "state": "TN", "street": "8916 HIWASSEE ST NE", "postcode": "37310"}}},
{"geometry": {"type": "Point", "coordinates": [-84.7595985978, 35.2855569767]}, "type": "Feature", "properties": {"collection_times": [{"days": "Mon-Fri", "time": "4:00pm"}, {"days": "Sat", "time": "11:00am"}, {"days": "Sun", "time": "Closed"}], "id": "3731000005", "name": "USPS COLLECTION BOX - PO LOBBY", "address": {"city": "CHARLESTON", "state": "TN", "street": "8916 HIWASSEE ST NE", "postcode": "37310"}}},
{"geometry": {"type": "Point", "coordinates": [-84.8632684857, 35.1351464629]}, "type": "Feature", "properties": {"collection_times": [{"days": "Mon-Sat", "time": "9:00am"}, {"days": "Sun", "time": "Closed"}], "id": "3731100001", "name": "USPS COLLECTION BOX - BLUE BOX", "address": {"city": "CLEVELAND", "state": "TN", "street": "1630 SPRING PLACE RD SE", "postcode": "37311"}}},
{"geometry": {"type": "Point", "coordinates": [-84.8577002018, 35.1312092228]}, "type": "Feature", "properties": {"collection_times": [{"days": "Mon-Sat", "time": "3:00pm"}, {"days": "Sun", "time": "Closed"}], "id": "3731100002", "name": "USPS COLLECTION BOX - BLUE BOX", "address": {"city": "CLEVELAND", "state": "TN", "street": "2010 SPRING PLACE RD SE", "postcode": "37311"}}},
{"geometry": {"type": "Point", "coordinates": [-84.8441855264, 35.1996364114]}, "type": "Feature", "properties": {"collection_times": [{"days": "Mon-Sat", "time": "2:00pm"}, {"days": "Sun", "time": "Closed"}], "id": "3731100003", "name": "USPS COLLECTION BOX - BLUE BOX", "address": {"city": "CLEVELAND", "state": "TN", "street": "114 STUART RD NW", "postcode": "37311"}}},
{"geometry": {"type": "Point", "coordinates": [-84.8845699317, 35.160234304]}, "type": "Feature", "properties": {"collection_times": [{"days": "Mon-Sat", "time": "9:00am"}, {"days": "Sun", "time": "Closed"}], "id": "3731100004", "name": "USPS COLLECTION BOX - BLUE BOX", "address": {"city": "CLEVELAND", "state": "TN", "street": "301 KEITH ST SW", "postcode": "37311"}}},
{"geometry": {"type": "Point", "coordinates": [-84.8775814795, 35.1750317038]}, "type": "Feature", "properties": {"collection_times": [{"days": "Mon-Fri", "time": "5:30pm"}, {"days": "Sat", "time": "3:00pm"}, {"days": "Sun", "time": "Closed"}], "id": "3731100021", "name": "USPS COLLECTION BOX - PO LOBBY", "address": {"city": "CLEVELAND", "state": "TN", "street": "1981 KEITH ST NW", "postcode": "37311"}}},
{"geometry": {"type": "Point", "coordinates": [-84.876114141, 35.1605584347]}, "type": "Feature", "properties": {"collection_times": [{"days": "Mon-Fri", "time": "4:30pm"}, {"days": "Sat", "time": "3:00pm"}, {"days": "Sun", "time": "Closed"}], "id": "3731100027", "name": "USPS COLLECTION BOX - PO LOBBY", "address": {"city": "CLEVELAND", "state": "TN", "street": "155 BROAD ST NW", "postcode": "37311"}}},
{"geometry": {"type": "Point", "coordinates": [-84.8856772984, 35.190141552]}, "type": "Feature", "properties": {"collection_times": [{"days": "Mon-Sat", "time": "2:00pm"}, {"days": "Sun", "time": "Closed"}], "id": "3731100033", "name": "USPS COLLECTION BOX - BLUE BOX", "address": {"city": "CLEVELAND", "state": "TN", "street": "2575 GEORGETOWN RD NW", "postcode": "37311"}}},
{"geometry": {"type": "Point", "coordinates": [-84.8501385911, 35.2053843686]}, "type": "Feature", "properties": {"collection_times": [{"days": "Mon-Sat", "time": "2:00pm"}, {"days": "Sun", "time": "Closed"}], "id": "3731100038", "name": "USPS COLLECTION BOX - BLUE BOX", "address": {"city": "CLEVELAND", "state": "TN", "street": "200 PAUL HUFF PKWY", "postcode": "37311"}}},
{"geometry": {"type": "Point", "coordinates": [-84.8775814795, 35.1750317038]}, "type": "Feature", "properties": {"collection_times": [{"days": "Mon-Fri", "time": "5:30pm"}, {"days": "Sat", "time": "3:00pm"}, {"days": "Sun", "time": "Closed"}], "id": "3731100041", "name": "USPS COLLECTION BOX - BLUE BOX", "address": {"city": "CLEVELAND", "state": "TN", "street": "1981 KEITH ST NW", "postcode": "37311"}}},
{"geometry": {"type": "Point", "coordinates": [-84.8742338214, 35.1617198908]}, "type": "Feature", "properties": {"collection_times": [{"days": "Mon-Sat", "time": "3:00pm"}, {"days": "Sun", "time": "Closed"}], "id": "3731100045", "name": "USPS COLLECTION BOX - BLUE BOX", "address": {"city": "CLEVELAND", "state": "TN", "street": "399 N OCOEE ST", "postcode": "37311"}}},
{"geometry": {"type": "Point", "coordinates": [-84.8763761436, 35.160086284]}, "type": "Feature", "properties": {"collection_times": [{"days": "Mon-Sat", "time": "3:00pm"}, {"days": "Sun", "time": "Closed"}], "id": "3731100046", "name": "USPS COLLECTION BOX - BLUE BOX", "address": {"city": "CLEVELAND", "state": "TN", "street": "80 BROAD ST NW", "postcode": "37311"}}},
{"geometry": {"type": "Point", "coordinates": [-84.8763761436, 35.160086284]}, "type": "Feature", "properties": {"collection_times": [{"days": "Mon-Sat", "time": "3:00pm"}, {"days": "Sun", "time": "Closed"}], "id": "3731100047", "name": "USPS COLLECTION BOX - BLUE BOX", "address": {"city": "CLEVELAND", "state": "TN", "street": "80 BROAD ST NW", "postcode": "37311"}}},
{"geometry": {"type": "Point", "coordinates": [-84.868912336, 35.1738344444]}, "type": "Feature", "properties": {"collection_times": [{"days": "Mon-Sat", "time": "2:00pm"}, {"days": "Sun", "time": "Closed"}], "id": "3731100052", "name": "USPS COLLECTION BOX - BLUE BOX", "address": {"city": "CLEVELAND", "state": "TN", "street": "2121 N OCOEE ST", "postcode": "37311"}}},
{"geometry": {"type": "Point", "coordinates": [-84.865419009, 35.1904399782]}, "type": "Feature", "properties": {"collection_times": [{"days": "Mon-Sat", "time": "9:00am"}, {"days": "Sun", "time": "Closed"}], "id": "3731100062", "name": "USPS COLLECTION BOX - BLUE BOX", "address": {"city": "CLEVELAND", "state": "TN", "street": "3430 KEITH ST NW", "postcode": "37311"}}},
{"geometry": {"type": "Point", "coordinates": [-84.8744307904, 35.1599468449]}, "type": "Feature", "properties": {"collection_times": [{"days": "Mon-Sat", "time": "3:00pm"}, {"days": "Sun", "time": "Closed"}], "id": "3731100064", "name": "USPS COLLECTION BOX - BLUE BOX", "address": {"city": "CLEVELAND", "state": "TN", "street": "190 CHURCH ST NE", "postcode": "37311"}}},
{"geometry": {"type": "Point", "coordinates": [-85.6949769089, 35.3828683194]}, "type": "Feature", "properties": {"collection_times": [{"days": "Mon-Fri", "time": "3:30pm"}, {"days": "Sat", "time": "11:30am"}, {"days": "Sun", "time": "Closed"}], "id": "3731300001", "name": "USPS COLLECTION BOX - BLUE BOX", "address": {"city": "COALMONT", "state": "TN", "street": "655 HEIDENBURG ST", "postcode": "37313"}}},
{"geometry": {"type": "Point", "coordinates": [-85.6949769089, 35.3828683194]}, "type": "Feature", "properties": {"collection_times": [{"days": "Mon-Fri", "time": "3:30pm"}, {"days": "Sat", "time": "11:30am"}, {"days": "Sun", "time": "Closed"}], "id": "3731300002", "name": "USPS COLLECTION BOX - PO LOBBY", "address": {"city": "COALMONT", "state": "TN", "street": "655 HEIDENBURG ST", "postcode": "37313"}}},
{"geometry": {"type": "Point", "coordinates": [-85.6949769089, 35.3828683194]}, "type": "Feature", "properties": {"collection_times": [{"days": "Mon-Fri", "time": "3:30pm"}, {"days": "Sat", "time": "11:30am"}, {"days": "Sun", "time": "Closed"}], "id": "3731300003", "name": "USPS COLLECTION BOX - PO LOBBY", "address": {"city": "COALMONT", "state": "TN", "street": "655 HEIDENBURG ST", "postcode": "37313"}}},
{"geometry": {"type": "Point", "coordinates": [-85.0489590054, 35.0499837105]}, "type": "Feature", "properties": {"collection_times": [{"days": "Mon-Fri", "time": "12:30pm"}, {"days": "Sat-Sun", "time": "Closed"}], "id": "3731500001", "name": "USPS COLLECTION BOX - BLUE BOX", "address": {"city": "COLLEGEDALE", "state": "TN", "street": "5006 UNIVERSITY DR W", "postcode": "37315"}}},
{"geometry": {"type": "Point", "coordinates": [-85.0489590054, 35.0499837105]}, "type": "Feature", "properties": {"collection_times": [{"days": "Mon-Fri", "time": "12:30pm"}, {"days": "Sat-Sun", "time": "Closed"}], "id": "3731500002", "name": "USPS COLLECTION BOX - BLUE BOX", "address": {"city": "COLLEGEDALE", "state": "TN", "street": "5006 UNIVERSITY DR W", "postcode": "37315"}}},
{"geometry": {"type": "Point", "coordinates": [-85.0489590054, 35.0499837105]}, "type": "Feature", "properties": {"collection_times": [{"days": "Mon-Fri", "time": "12:30pm"}, {"days": "Sat-Sun", "time": "Closed"}], "id": "3731500005", "name": "USPS COLLECTION BOX - PO LOBBY", "address": {"city": "COLLEGEDALE", "state": "TN", "street": "5006 UNIVERSITY DR W", "postcode": "37315"}}},
{"geometry": {"type": "Point", "coordinates": [-84.3708156804, 34.9885810596]}, "type": "Feature", "properties": {"collection_times": [{"days": "Mon-Fri", "time": "4:00pm"}, {"days": "Sat", "time": "11:00am"}, {"days": "Sun", "time": "Closed"}], "id": "3731700000", "name": "USPS COLLECTION BOX - BLUE BOX", "address": {"city": "COPPERHILL", "state": "TN", "street": "121 OCOEE ST", "postcode": "37317"}}},
{"geometry": {"type": "Point", "coordinates": [-84.3708156804, 34.9885810596]}, "type": "Feature", "properties": {"collection_times": [{"days": "Mon-Fri", "time": "4:00pm"}, {"days": "Sat", "time": "11:00am"}, {"days": "Sun", "time": "Closed"}], "id": "3731700001", "name": "USPS COLLECTION BOX - PO LOBBY", "address": {"city": "COPPERHILL", "state": "TN", "street": "121 OCOEE ST", "postcode": "37317"}}},
{"geometry": {"type": "Point", "coordinates": [-86.013352925, 35.1619081909]}, "type": "Feature", "properties": {"collection_times": [{"days": "Mon-Fri", "time": "4:15pm"}, {"days": "Sat", "time": "11:15am"}, {"days": "Sun", "time": "Closed"}], "id": "3731800001", "name": "USPS COLLECTION BOX - BLUE BOX", "address": {"city": "COWAN", "state": "TN", "street": "211 CUMBERLAND ST E", "postcode": "37318"}}},
{"geometry": {"type": "Point", "coordinates": [-86.013352925, 35.1619081909]}, "type": "Feature", "properties": {"collection_times": [{"days": "Mon-Fri", "time": "4:15pm"}, {"days": "Sat", "time": "11:15am"}, {"days": "Sun", "time": "Closed"}], "id": "3731800003", "name": "USPS COLLECTION BOX - PO LOBBY", "address": {"city": "COWAN", "state": "TN", "street": "211 CUMBERLAND ST E", "postcode": "37318"}}},
{"geometry": {"type": "Point", "coordinates": [-85.0146480995, 35.4943362215]}, "type": "Feature", "properties": {"collection_times": [{"days": "Mon-Fri", "time": "4:00pm"}, {"days": "Sat", "time": "2:00pm"}, {"days": "Sun", "time": "Closed"}], "id": "3732100001", "name": "USPS COLLECTION BOX - BLUE BOX", "address": {"city": "DAYTON", "state": "TN", "street": "426 1ST AVE", "postcode": "37321"}}},
{"geometry": {"type": "Point", "coordinates": [-85.0146480995, 35.4943362215]}, "type": "Feature", "properties": {"collection_times": [{"days": "Mon-Fri", "time": "4:00pm"}, {"days": "Sat", "time": "2:00pm"}, {"days": "Sun", "time": "Closed"}], "id": "3732100002", "name": "USPS COLLECTION BOX - BLUE BOX", "address": {"city": "DAYTON", "state": "TN", "street": "426 1ST AVE", "postcode": "37321"}}},
{"geometry": {"type": "Point", "coordinates": [-85.0146480995, 35.4943362215]}, "type": "Feature", "properties": {"collection_times": [{"days": "Mon-Fri", "time": "4:00pm"}, {"days": "Sat", "time": "2:00pm"}, {"days": "Sun", "time": "Closed"}], "id": "3732100007", "name": "USPS COLLECTION BOX - PO LOBBY", "address": {"city": "DAYTON", "state": "TN", "street": "426 1ST AVE", "postcode": "37321"}}},
{"geometry": {"type": "Point", "coordinates": [-85.012355525, 35.4947904777]}, "type": "Feature", "properties": {"collection_times": [{"days": "Mon-Sat", "time": "2:00pm"}, {"days": "Sun", "time": "Closed"}], "id": "3732100014", "name": "USPS COLLECTION BOX - BLUE BOX", "address": {"city": "DAYTON", "state": "TN", "street": "1475 MARKET ST", "postcode": "37321"}}},
{"geometry": {"type": "Point", "coordinates": [-85.0146480995, 35.4943362215]}, "type": "Feature", "properties": {"collection_times": [{"days": "Mon-Fri", "time": "4:00pm"}, {"days": "Sat", "time": "2:00pm"}, {"days": "Sun", "time": "Closed"}], "id": "3732100016", "name": "USPS COLLECTION BOX - PO LOBBY", "address": {"city": "DAYTON", "state": "TN", "street": "426 1ST AVE", "postcode": "37321"}}},
{"geometry": {"type": "Point", "coordinates": [-85.0146480995, 35.4943362215]}, "type": "Feature", "properties": {"collection_times": [{"days": "Mon-Fri", "time": "4:00pm"}, {"days": "Sat", "time": "2:00pm"}, {"days": "Sun", "time": "Closed"}], "id": "3732100017", "name": "USPS COLLECTION BOX - PO LOBBY", "address": {"city": "DAYTON", "state": "TN", "street": "426 1ST AVE", "postcode": "37321"}}},
{"geometry": {"type": "Point", "coordinates": [-84.7918543399, 35.519345157]}, "type": "Feature", "properties": {"collection_times": [{"days": "Mon-Sat", "time": "12:00pm"}, {"days": "Sun", "time": "Closed"}], "id": "3732200001", "name": "USPS COLLECTION BOX - PO LOBBY", "address": {"city": "DECATUR", "state": "TN", "street": "200 RIVER RD", "postcode": "37322"}}},
{"geometry": {"type": "Point", "coordinates": [-84.7918543399, 35.519345157]}, "type": "Feature", "properties": {"collection_times": [{"days": "Mon-Sat", "time": "12:00pm"}, {"days": "Sun", "time": "Closed"}], "id": "3732200003", "name": "USPS COLLECTION BOX - BLUE BOX", "address": {"city": "DECATUR", "state": "TN", "street": "200 RIVER RD", "postcode": "37322"}}},
{"geometry": {"type": "Point", "coordinates": [-84.8183383483, 35.4939836529]}, "type": "Feature", "properties": {"collection_times": [{"days": "Mon-Sat", "time": "11:00am"}, {"days": "Sun", "time": "Closed"}], "id": "3732200004", "name": "USPS COLLECTION BOX - BLUE BOX", "address": {"city": "DECATUR", "state": "TN", "street": "1 COURT HOUSE SQ", "postcode": "37322"}}},
{"geometry": {"type": "Point", "coordinates": [-84.7918543399, 35.519345157]}, "type": "Feature", "properties": {"collection_times": [{"days": "Mon-Sat", "time": "12:00pm"}, {"days": "Sun", "time": "Closed"}], "id": "3732200005", "name": "USPS COLLECTION BOX - PO LOBBY", "address": {"city": "DECATUR", "state": "TN", "street": "200 RIVER RD", "postcode": "37322"}}},
{"geometry": {"type": "Point", "coordinates": [-86.0754258789, 35.2112544788]}, "type": "Feature", "properties": {"collection_times": [{"days": "Mon-Fri", "time": "12:00pm"}, {"days": "Sat", "time": "10:45am"}, {"days": "Sun", "time": "Closed"}], "id": "3732400001", "name": "USPS COLLECTION BOX - BLUE BOX", "address": {"city": "DECHERD", "state": "TN", "street": "305 E MAIN ST", "postcode": "37324"}}},
{"geometry": {"type": "Point", "coordinates": [-86.0754258789, 35.2112544788]}, "type": "Feature", "properties": {"collection_times": [{"days": "Mon-Fri", "time": "12:00pm"}, {"days": "Sat", "time": "10:45am"}, {"days": "Sun", "time": "Closed"}], "id": "3732400006", "name": "USPS COLLECTION BOX - PO LOBBY", "address": {"city": "DECHERD", "state": "TN", "street": "305 E MAIN ST", "postcode": "37324"}}},
{"geometry": {"type": "Point", "coordinates": [-84.5510452982, 35.2611619969]}, "type": "Feature", "properties": {"collection_times": [{"days": "Mon-Fri", "time": "2:30pm"}, {"days": "Sat", "time": "10:45am"}, {"days": "Sun", "time": "Closed"}], "id": "3732500001", "name": "USPS COLLECTION BOX - BLUE BOX", "address": {"city": "DELANO", "state": "TN", "street": "9673 HIGHWAY 411", "postcode": "37325"}}},
{"geometry": {"type": "Point", "coordinates": [-84.5510452982, 35.2611619969]}, "type": "Feature", "properties": {"collection_times": [{"days": "Mon-Fri", "time": "2:30pm"}, {"days": "Sat", "time": "10:45am"}, {"days": "Sun", "time": "Closed"}], "id": "3732500002", "name": "USPS COLLECTION BOX - PO LOBBY", "address": {"city": "DELANO", "state": "TN", "street": "9673 HIGHWAY 411", "postcode": "37325"}}},
{"geometry": {"type": "Point", "coordinates": [-84.5510452982, 35.2611619969]}, "type": "Feature", "properties": {"collection_times": [{"days": "Mon-Fri", "time": "2:30pm"}, {"days": "Sat", "time": "10:45am"}, {"days": "Sun", "time": "Closed"}], "id": "3732500003", "name": "USPS COLLECTION BOX - PO LOBBY", "address": {"city": "DELANO", "state": "TN", "street": "9673 HIGHWAY 411", "postcode": "37325"}}},
{"geometry": {"type": "Point", "coordinates": [-84.3825731236, 35.0349956136]}, "type": "Feature", "properties": {"collection_times": [{"days": "Mon-Fri", "time": "4:00pm"}, {"days": "Sat", "time": "12:00pm"}, {"days": "Sun", "time": "Closed"}], "id": "3732600001", "name": "USPS COLLECTION BOX - BLUE BOX", "address": {"city": "DUCKTOWN", "state": "TN", "street": "1656 N HIGHWAY 68", "postcode": "37326"}}},
{"geometry": {"type": "Point", "coordinates": [-84.3825731236, 35.0349956136]}, "type": "Feature", "properties": {"collection_times": [{"days": "Mon-Fri", "time": "4:00pm"}, {"days": "Sat", "time": "12:00pm"}, {"days": "Sun", "time": "Closed"}], "id": "3732600002", "name": "USPS COLLECTION BOX - PO LOBBY", "address": {"city": "DUCKTOWN", "state": "TN", "street": "1656 N HIGHWAY 68", "postcode": "37326"}}},
{"geometry": {"type": "Point", "coordinates": [-85.3930222563, 35.3660455047]}, "type": "Feature", "properties": {"collection_times": [{"days": "Mon-Sat", "time": "12:00pm"}, {"days": "Sun", "time": "Closed"}], "id": "3732700001", "name": "USPS COLLECTION BOX - BLUE BOX", "address": {"city": "DUNLAP", "state": "TN", "street": "15198 RANKIN AVE", "postcode": "37327"}}},
{"geometry": {"type": "Point", "coordinates": [-85.3930222563, 35.3660455047]}, "type": "Feature", "properties": {"collection_times": [{"days": "Mon-Sat", "time": "12:00pm"}, {"days": "Sun", "time": "Closed"}], "id": "3732700002", "name": "USPS COLLECTION BOX - PO LOBBY", "address": {"city": "DUNLAP", "state": "TN", "street": "15198 RANKIN AVE", "postcode": "37327"}}},
{"geometry": {"type": "Point", "coordinates": [-85.3930222563, 35.3660455047]}, "type": "Feature", "properties": {"collection_times": [{"days": "Mon-Sat", "time": "12:00pm"}, {"days": "Sun", "time": "Closed"}], "id": "3732700003", "name": "USPS COLLECTION BOX - PO LOBBY", "address": {"city": "DUNLAP", "state": "TN", "street": "15198 RANKIN AVE", "postcode": "37327"}}},
{"geometry": {"type": "Point", "coordinates": [-86.3568665504, 35.0135552951]}, "type": "Feature", "properties": {"collection_times": [{"days": "Mon-Fri", "time": "4:00pm"}, {"days": "Sat", "time": "10:30am"}, {"days": "Sun", "time": "Closed"}], "id": "3732800001", "name": "USPS COLLECTION BOX - BLUE BOX", "address": {"city": "ELORA", "state": "TN", "street": "68 OLD HUNTLAND RD", "postcode": "37328"}}},
{"geometry": {"type": "Point", "coordinates": [-86.3568665504, 35.0135552951]}, "type": "Feature", "properties": {"collection_times": [{"days": "Mon-Fri", "time": "4:00pm"}, {"days": "Sat", "time": "10:30am"}, {"days": "Sun", "time": "Closed"}], "id": "3732800002", "name": "USPS COLLECTION BOX - PO LOBBY", "address": {"city": "ELORA", "state": "TN", "street": "68 OLD HUNTLAND RD", "postcode": "37328"}}},
{"geometry": {"type": "Point", "coordinates": [-86.3568665504, 35.0135552951]}, "type": "Feature", "properties": {"collection_times": [{"days": "Mon-Fri", "time": "4:00pm"}, {"days": "Sat", "time": "10:30am"}, {"days": "Sun", "time": "Closed"}], "id": "3732800003", "name": "USPS COLLECTION BOX - PO LOBBY", "address": {"city": "ELORA", "state": "TN", "street": "68 OLD HUNTLAND RD", "postcode": "37328"}}},
{"geometry": {"type": "Point", "coordinates": [-84.4873382261, 35.4254761801]}, "type": "Feature", "properties": {"collection_times": [{"days": "Mon-Fri", "time": "12:30pm"}, {"days": "Sat", "time": "11:00am"}, {"days": "Sun", "time": "Closed"}], "id": "3732900000", "name": "USPS COLLECTION BOX - BLUE BOX", "address": {"city": "ENGLEWOOD", "state": "TN", "street": "111 S NIOTA RD", "postcode": "37329"}}},
{"geometry": {"type": "Point", "coordinates": [-84.487887119, 35.4265337454]}, "type": "Feature", "properties": {"collection_times": [{"days": "Mon-Fri", "time": "4:00pm"}, {"days": "Sat", "time": "11:00am"}, {"days": "Sun", "time": "Closed"}], "id": "3732900001", "name": "USPS COLLECTION BOX - PO LOBBY", "address": {"city": "ENGLEWOOD", "state": "TN", "street": "17 S NIOTA RD", "postcode": "37329"}}},
{"geometry": {"type": "Point", "coordinates": [-86.1269422994, 35.2689485323]}, "type": "Feature", "properties": {"collection_times": [{"days": "Mon-Sat", "time": "11:00am"}, {"days": "Sun", "time": "Closed"}], "id": "3733000001", "name": "USPS COLLECTION BOX - BLUE BOX", "address": {"city": "ESTILL SPRINGS", "state": "TN", "street": "316 S MAIN ST", "postcode": "37330"}}},
{"geometry": {"type": "Point", "coordinates": [-86.1269422994, 35.2689485323]}, "type": "Feature", "properties": {"collection_times": [{"days": "Mon-Sat", "time": "11:00am"}, {"days": "Sun", "time": "Closed"}], "id": "3733000002", "name": "USPS COLLECTION BOX - PO LOBBY", "address": {"city": "ESTILL SPRINGS", "state": "TN", "street": "316 S MAIN ST", "postcode": "37330"}}},
{"geometry": {"type": "Point", "coordinates": [-86.1269422994, 35.2689485323]}, "type": "Feature", "properties": {"collection_times": [{"days": "Mon-Sat", "time": "11:00am"}, {"days": "Sun", "time": "Closed"}], "id": "3733000003", "name": "USPS COLLECTION BOX - BLUE BOX", "address": {"city": "ESTILL SPRINGS", "state": "TN", "street": "316 S MAIN ST", "postcode": "37330"}}},
{"geometry": {"type": "Point", "coordinates": [-84.5234779489, 35.326641238]}, "type": "Feature", "properties": {"collection_times": [{"days": "Mon-Fri", "time": "1:00pm"}, {"days": "Sat", "time": "10:00am"}, {"days": "Sun", "time": "Closed"}], "id": "3733100001", "name": "USPS COLLECTION BOX - BLUE BOX", "address": {"city": "ETOWAH", "state": "TN", "street": "517 TENNESSEE AVE", "postcode": "37331"}}},
{"geometry": {"type": "Point", "coordinates": [-84.5234779489, 35.326641238]}, "type": "Feature", "properties": {"collection_times": [{"days": "Mon-Fri", "time": "1:00pm"}, {"days": "Sat", "time": "10:00am"}, {"days": "Sun", "time": "Closed"}], "id": "3733100002", "name": "USPS COLLECTION BOX - PO LOBBY", "address": {"city": "ETOWAH", "state": "TN", "street": "517 TENNESSEE AVE", "postcode": "37331"}}},
{"geometry": {"type": "Point", "coordinates": [-84.5234779489, 35.326641238]}, "type": "Feature", "properties": {"collection_times": [{"days": "Mon-Fri", "time": "1:00pm"}, {"days": "Sat", "time": "10:00am"}, {"days": "Sun", "time": "Closed"}], "id": "3733100003", "name": "USPS COLLECTION BOX - PO LOBBY", "address": {"city": "ETOWAH", "state": "TN", "street": "517 TENNESSEE AVE", "postcode": "37331"}}},
{"geometry": {"type": "Point", "coordinates": [-84.5298905751, 35.3102889378]}, "type": "Feature", "properties": {"collection_times": [{"days": "Mon-Sat", "time": "12:00pm"}, {"days": "Sun", "time": "Closed"}], "id": "3733100019", "name": "USPS COLLECTION BOX - BLUE BOX", "address": {"city": "ETOWAH", "state": "TN", "street": "NA HIGHWAY 411 NORTH", "postcode": "37331"}}},
{"geometry": {"type": "Point", "coordinates": [-84.9394970824, 35.5801977491]}, "type": "Feature", "properties": {"collection_times": [{"days": "Mon-Fri", "time": "2:45pm"}, {"days": "Sat", "time": "11:30am"}, {"days": "Sun", "time": "Closed"}], "id": "3733200001", "name": "USPS COLLECTION BOX - PO LOBBY", "address": {"city": "EVENSVILLE", "state": "TN", "street": "13602 N RHEA CO. HWY", "postcode": "37332"}}},
{"geometry": {"type": "Point", "coordinates": [-84.939775498, 35.5797621315]}, "type": "Feature", "properties": {"collection_times": [{"days": "Mon-Fri", "time": "3:00pm"}, {"days": "Sat", "time": "11:00am"}, {"days": "Sun", "time": "Closed"}], "id": "3733200002", "name": "USPS COLLECTION BOX - BLUE BOX", "address": {"city": "EVENSVILLE", "state": "TN", "street": "13602 RHEA COUNTY HWY", "postcode": "37332"}}},
{"geometry": {"type": "Point", "coordinates": [-84.9394970824, 35.5801977491]}, "type": "Feature", "properties": {"collection_times": [{"days": "Mon-Fri", "time": "2:45pm"}, {"days": "Sat", "time": "11:30am"}, {"days": "Sun", "time": "Closed"}], "id": "3733200003", "name": "USPS COLLECTION BOX - PO LOBBY", "address": {"city": "EVENSVILLE", "state": "TN", "street": "13602 N RHEA CO HWY", "postcode": "37332"}}},
{"geometry": {"type": "Point", "coordinates": [-84.3155697128, 35.15046259]}, "type": "Feature", "properties": {"collection_times": [{"days": "Mon-Fri", "time": "12:00pm"}, {"days": "Sat", "time": "11:00am"}, {"days": "Sun", "time": "Closed"}], "id": "3733300001", "name": "USPS COLLECTION BOX - PO LOBBY", "address": {"city": "FARNER", "state": "TN", "street": "110 UNDERWOOD DR", "postcode": "37333"}}},
{"geometry": {"type": "Point", "coordinates": [-84.3155697128, 35.15046259]}, "type": "Feature", "properties": {"collection_times": [{"days": "Mon-Fri", "time": "3:30pm"}, {"days": "Sat", "time": "11:00am"}, {"days": "Sun", "time": "Closed"}], "id": "3733300002", "name": "USPS COLLECTION BOX - BLUE BOX", "address": {"city": "FARNER", "state": "TN", "street": "110 UNDERWOOD DR", "postcode": "37333"}}},
{"geometry": {"type": "Point", "coordinates": [-86.5678782065, 35.1524133052]}, "type": "Feature", "properties": {"collection_times": [{"days": "Mon-Fri", "time": "4:45pm"}, {"days": "Sat", "time": "12:00pm"}, {"days": "Sun", "time": "Closed"}], "id": "3733400001", "name": "USPS COLLECTION BOX - BLUE BOX", "address": {"city": "FAYETTEVILLE", "state": "TN", "street": "104 FRANKLIN AVE N", "postcode": "37334"}}},
{"geometry": {"type": "Point", "coordinates": [-86.5678782065, 35.1524133052]}, "type": "Feature", "properties": {"collection_times": [{"days": "Mon-Fri", "time": "4:45pm"}, {"days": "Sat", "time": "12:00pm"}, {"days": "Sun", "time": "Closed"}], "id": "3733400002", "name": "USPS COLLECTION BOX - BLUE BOX", "address": {"city": "FAYETTEVILLE", "state": "TN", "street": "104 FRANKLIN AVE N", "postcode": "37334"}}},
{"geometry": {"type": "Point", "coordinates": [-86.5678782065, 35.1524133052]}, "type": "Feature", "properties": {"collection_times": [{"days": "Mon-Fri", "time": "4:45pm"}, {"days": "Sat", "time": "12:00pm"}, {"days": "Sun", "time": "Closed"}], "id": "3733400003", "name": "USPS COLLECTION BOX - BLUE BOX", "address": {"city": "FAYETTEVILLE", "state": "TN", "street": "104 FRANKLIN AVE N", "postcode": "37334"}}},
{"geometry": {"type": "Point", "coordinates": [-86.5705620863, 35.1524161282]}, "type": "Feature", "properties": {"collection_times": [{"days": "Mon-Fri", "time": "3:00pm"}, {"days": "Sat", "time": "12:00pm"}, {"days": "Sun", "time": "Closed"}], "id": "3733400004", "name": "USPS COLLECTION BOX - BLUE BOX", "address": {"city": "FAYETTEVILLE", "state": "TN", "street": "100 MAIN AVE N", "postcode": "37334"}}},
{"geometry": {"type": "Point", "coordinates": [-86.5695518393, 35.1511846679]}, "type": "Feature", "properties": {"collection_times": [{"days": "Mon-Fri", "time": "2:00pm"}, {"days": "Sat", "time": "12:00pm"}, {"days": "Sun", "time": "Closed"}], "id": "3733400009", "name": "USPS COLLECTION BOX - BLUE BOX", "address": {"city": "FAYETTEVILLE", "state": "TN", "street": "131 MARKET ST E", "postcode": "37334"}}},
{"geometry": {"type": "Point", "coordinates": [-86.5735537895, 35.152593572]}, "type": "Feature", "properties": {"collection_times": [{"days": "Mon-Fri", "time": "2:00pm"}, {"days": "Sat", "time": "12:00pm"}, {"days": "Sun", "time": "Closed"}], "id": "3733400011", "name": "USPS COLLECTION BOX - BLUE BOX", "address": {"city": "FAYETTEVILLE", "state": "TN", "street": "304 COLLEGE ST W", "postcode": "37334"}}},
{"geometry": {"type": "Point", "coordinates": [-86.5688705555, 35.1521175257]}, "type": "Feature", "properties": {"collection_times": [{"days": "Mon-Fri", "time": "4:45pm"}, {"days": "Sat", "time": "12:00pm"}, {"days": "Sun", "time": "Closed"}], "id": "3733400015", "name": "USPS COLLECTION BOX - PO LOBBY", "address": {"city": "FAYETTEVILLE", "state": "TN", "street": "226 COLLEGE ST E", "postcode": "37334"}}},
{"geometry": {"type": "Point", "coordinates": [-86.4206090834, 35.0621772881]}, "type": "Feature", "properties": {"collection_times": [{"days": "Mon-Fri", "time": "3:00pm"}, {"days": "Sat", "time": "10:30am"}, {"days": "Sun", "time": "Closed"}], "id": "3733500001", "name": "USPS COLLECTION BOX - PO LOBBY", "address": {"city": "FLINTVILLE", "state": "TN", "street": "241 FLINTVILLE RD", "postcode": "37335"}}},
{"geometry": {"type": "Point", "coordinates": [-86.4206090834, 35.0621772881]}, "type": "Feature", "properties": {"collection_times": [{"days": "Mon-Fri", "time": "3:00pm"}, {"days": "Sat", "time": "10:30am"}, {"days": "Sun", "time": "Closed"}], "id": "3733500002", "name": "USPS COLLECTION BOX - BLUE BOX", "address": {"city": "FLINTVILLE", "state": "TN", "street": "241 FLINTVILLE RD", "postcode": "37335"}}},
{"geometry": {"type": "Point", "coordinates": [-86.4206090834, 35.0621772881]}, "type": "Feature", "properties": {"collection_times": [{"days": "Mon-Fri", "time": "3:00pm"}, {"days": "Sat", "time": "10:30am"}, {"days": "Sun", "time": "Closed"}], "id": "3733500003", "name": "USPS COLLECTION BOX - PO LOBBY", "address": {"city": "FLINTVILLE", "state": "TN", "street": "241 FLINTVILLE RD", "postcode": "37335"}}},
{"geometry": {"type": "Point", "coordinates": [-84.9474512985, 35.2903420457]}, "type": "Feature", "properties": {"collection_times": [{"days": "Mon-Fri", "time": "4:00pm"}, {"days": "Sat", "time": "10:00am"}, {"days": "Sun", "time": "Closed"}], "id": "3733600000", "name": "USPS COLLECTION BOX - BLUE BOX", "address": {"city": "GEORGETOWN", "state": "TN", "street": "8405 HIGHWAY 60", "postcode": "37336"}}},
{"geometry": {"type": "Point", "coordinates": [-84.9474512985, 35.2903420457]}, "type": "Feature", "properties": {"collection_times": [{"days": "Mon-Fri", "time": "4:00pm"}, {"days": "Sat", "time": "10:00am"}, {"days": "Sun", "time": "Closed"}], "id": "3733600001", "name": "USPS COLLECTION BOX - PO LOBBY", "address": {"city": "GEORGETOWN", "state": "TN", "street": "8405 HIGHWAY 60", "postcode": "37336"}}},
{"geometry": {"type": "Point", "coordinates": [-85.0799450685, 35.4468557975]}, "type": "Feature", "properties": {"collection_times": [{"days": "Mon-Fri", "time": "3:00pm"}, {"days": "Sat", "time": "11:30am"}, {"days": "Sun", "time": "Closed"}], "id": "3733800000", "name": "USPS COLLECTION BOX - BLUE BOX", "address": {"city": "GRAYSVILLE", "state": "TN", "street": "4397 DAYTON AVE", "postcode": "37338"}}},
{"geometry": {"type": "Point", "coordinates": [-85.0799450685, 35.4468557975]}, "type": "Feature", "properties": {"collection_times": [{"days": "Mon-Fri", "time": "2:45pm"}, {"days": "Sat", "time": "11:30am"}, {"days": "Sun", "time": "Closed"}], "id": "3733800001", "name": "USPS COLLECTION BOX - PO LOBBY", "address": {"city": "GRAYSVILLE", "state": "TN", "street": "4397 DAYTON AVE", "postcode": "37338"}}},
{"geometry": {"type": "Point", "coordinates": [-85.6355803732, 35.3686969966]}, "type": "Feature", "properties": {"collection_times": [{"days": "Mon-Fri", "time": "3:30pm"}, {"days": "Sat", "time": "12:00pm"}, {"days": "Sun", "time": "Closed"}], "id": "3733900000", "name": "USPS COLLECTION BOX - PO LOBBY", "address": {"city": "GRUETLI LAAGER", "state": "TN", "street": "29434 STATE ROUTE 108", "postcode": "37339"}}},
{"geometry": {"type": "Point", "coordinates": [-85.6355803732, 35.3686969966]}, "type": "Feature", "properties": {"collection_times": [{"days": "Mon-Fri", "time": "3:30pm"}, {"days": "Sat", "time": "12:00pm"}, {"days": "Sun", "time": "Closed"}], "id": "3733900001", "name": "USPS COLLECTION BOX - BLUE BOX", "address": {"city": "GRUETLI LAAGER", "state": "TN", "street": "29434 STATE ROUTE 108", "postcode": "37339"}}},
{"geometry": {"type": "Point", "coordinates": [-85.6355803732, 35.3686969966]}, "type": "Feature", "properties": {"collection_times": [{"days": "Mon-Fri", "time": "3:30pm"}, {"days": "Sat", "time": "12:00pm"}, {"days": "Sun", "time": "Closed"}], "id": "3733900002", "name": "USPS COLLECTION BOX - PO LOBBY", "address": {"city": "GRUETLI LAAGER", "state": "TN", "street": "29434 STATE ROUTE 108", "postcode": "37339"}}},
{"geometry": {"type": "Point", "coordinates": [-85.5348315743, 35.0315812043]}, "type": "Feature", "properties": {"collection_times": [{"days": "Mon-Fri", "time": "4:00pm"}, {"days": "Sat", "time": "11:15am"}, {"days": "Sun", "time": "Closed"}], "id": "3734000000", "name": "USPS COLLECTION BOX - BLUE BOX", "address": {"city": "GUILD", "state": "TN", "street": "11360 HIGHWAY 41", "postcode": "37340"}}},
{"geometry": {"type": "Point", "coordinates": [-85.5348315743, 35.0315812043]}, "type": "Feature", "properties": {"collection_times": [{"days": "Mon-Fri", "time": "4:00pm"}, {"days": "Sat", "time": "11:15am"}, {"days": "Sun", "time": "Closed"}], "id": "3734000001", "name": "USPS COLLECTION BOX - PO LOBBY", "address": {"city": "GUILD", "state": "TN", "street": "11360 HIGHWAY 41", "postcode": "37340"}}},
{"geometry": {"type": "Point", "coordinates": [-85.5348315743, 35.0315812043]}, "type": "Feature", "properties": {"collection_times": [{"days": "Mon-Fri", "time": "4:00pm"}, {"days": "Sat", "time": "11:15am"}, {"days": "Sun", "time": "Closed"}], "id": "3734000002", "name": "USPS COLLECTION BOX - PO LOBBY", "address": {"city": "GUILD", "state": "TN", "street": "11360 HIGHWAY 41", "postcode": "37340"}}},
{"geometry": {"type": "Point", "coordinates": [-85.1252606775, 35.1242498752]}, "type": "Feature", "properties": {"collection_times": [{"days": "Mon-Sat", "time": "12:00pm"}, {"days": "Sun", "time": "Closed"}], "id": "3734100000", "name": "USPS COLLECTION BOX - BLUE BOX", "address": {"city": "HARRISON", "state": "TN", "street": "6301 HIGHWAY 58", "postcode": "37341"}}},
{"geometry": {"type": "Point", "coordinates": [-85.1252606775, 35.1242498752]}, "type": "Feature", "properties": {"collection_times": [{"days": "Mon-Sat", "time": "12:00pm"}, {"days": "Sun", "time": "Closed"}], "id": "3734100001", "name": "USPS COLLECTION BOX - PO LOBBY", "address": {"city": "HARRISON", "state": "TN", "street": "6301 HIGHWAY 58", "postcode": "37341"}}},
{"geometry": {"type": "Point", "coordinates": [-85.9703559155, 35.4116201818]}, "type": "Feature", "properties": {"collection_times": [{"days": "Mon-Fri", "time": "2:30pm"}, {"days": "Sat", "time": "11:00am"}, {"days": "Sun", "time": "Closed"}], "id": "3734200000", "name": "USPS COLLECTION BOX - BLUE BOX", "address": {"city": "HILLSBORO", "state": "TN", "street": "7746 HILLSBORO HWY", "postcode": "37342"}}},
{"geometry": {"type": "Point", "coordinates": [-85.9703559155, 35.4116201818]}, "type": "Feature", "properties": {"collection_times": [{"days": "Mon-Fri", "time": "2:30pm"}, {"days": "Sat", "time": "11:00am"}, {"days": "Sun", "time": "Closed"}], "id": "3734200001", "name": "USPS COLLECTION BOX - PO LOBBY", "address": {"city": "HILLSBORO", "state": "TN", "street": "7746 HILLSBORO HWY", "postcode": "37342"}}},
{"geometry": {"type": "Point", "coordinates": [-85.9703559155, 35.4116201818]}, "type": "Feature", "properties": {"collection_times": [{"days": "Mon-Fri", "time": "2:30pm"}, {"days": "Sat", "time": "11:00am"}, {"days": "Sun", "time": "Closed"}], "id": "3734200003", "name": "USPS COLLECTION BOX - PO LOBBY", "address": {"city": "HILLSBORO", "state": "TN", "street": "7746 HILLSBORO HWY", "postcode": "37342"}}},
{"geometry": {"type": "Point", "coordinates": [-85.2083168394, 35.1695942812]}, "type": "Feature", "properties": {"collection_times": [{"days": "Mon-Fri", "time": "4:45pm"}, {"days": "Sat", "time": "4:00pm"}, {"days": "Sun", "time": "Closed"}], "id": "3734300001", "name": "USPS COLLECTION BOX - BLUE BOX", "address": {"city": "HIXSON", "state": "TN", "street": "302 NORTHGATE MALL DR", "postcode": "37343"}}},
{"geometry": {"type": "Point", "coordinates": [-85.2083168394, 35.1695942812]}, "type": "Feature", "properties": {"collection_times": [{"days": "Mon-Fri", "time": "4:45pm"}, {"days": "Sat", "time": "4:00pm"}, {"days": "Sun", "time": "Closed"}], "id": "3734300002", "name": "USPS COLLECTION BOX - BLUE BOX", "address": {"city": "HIXSON", "state": "TN", "street": "302 NORTHGATE MALL DR", "postcode": "37343"}}},
{"geometry": {"type": "Point", "coordinates": [-85.237227586, 35.130438439]}, "type": "Feature", "properties": {"collection_times": [{"days": "Mon-Fri", "time": "4:45pm"}, {"days": "Sat", "time": "4:00pm"}, {"days": "Sun", "time": "Closed"}], "id": "3734300003", "name": "USPS COLLECTION BOX - BLUE BOX", "address": {"city": "HIXSON", "state": "TN", "street": "302 NORTHGATE MALL DR", "postcode": "37343"}}},
{"geometry": {"type": "Point", "coordinates": [-85.2083168394, 35.1695942812]}, "type": "Feature", "properties": {"collection_times": [{"days": "Mon-Fri", "time": "4:45pm"}, {"days": "Sat", "time": "4:00pm"}, {"days": "Sun", "time": "Closed"}], "id": "3734300004", "name": "USPS COLLECTION BOX - PO LOBBY", "address": {"city": "HIXSON", "state": "TN", "street": "302 NORTHGATE MALL DR", "postcode": "37343"}}},
{"geometry": {"type": "Point", "coordinates": [-85.247738334, 35.1382549264]}, "type": "Feature", "properties": {"collection_times": [{"days": "Mon-Sat", "time": "11:00am"}, {"days": "Sun", "time": "Closed"}], "id": "3734300008", "name": "USPS COLLECTION BOX - BLUE BOX", "address": {"city": "HIXSON", "state": "TN", "street": "5450 HIGHWAY 153", "postcode": "37343"}}},
{"geometry": {"type": "Point", "coordinates": [-85.2479358881, 35.1388546866]}, "type": "Feature", "properties": {"collection_times": [{"days": "Mon-Sat", "time": "2:30pm"}, {"days": "Sun", "time": "Closed"}], "id": "3734300009", "name": "USPS COLLECTION BOX - BLUE BOX", "address": {"city": "HIXSON", "state": "TN", "street": "5425 HIGHWAY 153", "postcode": "37343"}}},
{"geometry": {"type": "Point", "coordinates": [-85.1984721451, 35.154944079]}, "type": "Feature", "properties": {"collection_times": [{"days": "Mon-Sat", "time": "10:30am"}, {"days": "Sun", "time": "Closed"}], "id": "3734300012", "name": "USPS COLLECTION BOX - BLUE BOX", "address": {"city": "HIXSON", "state": "TN", "street": "6322 HIXSON PIKE", "postcode": "37343"}}},
{"geometry": {"type": "Point", "coordinates": [-85.1598799716, 35.200130778]}, "type": "Feature", "properties": {"collection_times": [{"days": "Mon-Sat", "time": "11:00am"}, {"days": "Sun", "time": "Closed"}], "id": "3734300013", "name": "USPS COLLECTION BOX - BLUE BOX", "address": {"city": "HIXSON", "state": "TN", "street": "8530 HIXSON PIKE", "postcode": "37343"}}},
{"geometry": {"type": "Point", "coordinates": [-85.2008529384, 35.1522327695]}, "type": "Feature", "properties": {"collection_times": [{"days": "Mon-Fri", "time": "10:00am"}, {"days": "Sat", "time": "9:30am"}, {"days": "Sun", "time": "Closed"}], "id": "3734300014", "name": "USPS COLLECTION BOX - BLUE BOX", "address": {"city": "HIXSON", "state": "TN", "street": "6210 HIXSON PIKE", "postcode": "37343"}}},
{"geometry": {"type": "Point", "coordinates": [-85.205446025, 35.1735053384]}, "type": "Feature", "properties": {"collection_times": [{"days": "Mon-Sat", "time": "12:00pm"}, {"days": "Sun", "time": "Closed"}], "id": "3734300015", "name": "USPS COLLECTION BOX - BLUE BOX", "address": {"city": "HIXSON", "state": "TN", "street": "6921 MIDDLE VALLEY RD", "postcode": "37343"}}},
{"geometry": {"type": "Point", "coordinates": [-85.2372266776, 35.1304390557]}, "type": "Feature", "properties": {"collection_times": [{"days": "Mon-Fri", "time": "4:45pm"}, {"days": "Sat", "time": "4:00pm"}, {"days": "Sun", "time": "Closed"}], "id": "3734300018", "name": "USPS COLLECTION BOX - BLUE BOX", "address": {"city": "HIXSON", "state": "TN", "street": "302 NORTHGATE MALL DR", "postcode": "37343"}}},
{"geometry": {"type": "Point", "coordinates": [-86.2683628626, 35.050421538]}, "type": "Feature", "properties": {"collection_times": [{"days": "Mon-Fri", "time": "2:45pm"}, {"days": "Sat", "time": "11:45am"}, {"days": "Sun", "time": "Closed"}], "id": "3734500000", "name": "USPS COLLECTION BOX - BLUE BOX", "address": {"city": "HUNTLAND", "state": "TN", "street": "104 ALABAMA ST", "postcode": "37345"}}},
{"geometry": {"type": "Point", "coordinates": [-86.2683628626, 35.050421538]}, "type": "Feature", "properties": {"collection_times": [{"days": "Mon-Fri", "time": "2:45pm"}, {"days": "Sat", "time": "11:45am"}, {"days": "Sun", "time": "Closed"}], "id": "3734500001", "name": "USPS COLLECTION BOX - PO LOBBY", "address": {"city": "HUNTLAND", "state": "TN", "street": "104 ALABAMA ST", "postcode": "37345"}}},
{"geometry": {"type": "Point", "coordinates": [-85.6352969842, 35.0699910964]}, "type": "Feature", "properties": {"collection_times": [{"days": "Mon-Fri", "time": "4:30pm"}, {"days": "Sat", "time": "12:00pm"}, {"days": "Sun", "time": "Closed"}], "id": "3734700000", "name": "USPS COLLECTION BOX - BLUE BOX", "address": {"city": "JASPER", "state": "TN", "street": "3739 MAIN ST", "postcode": "37347"}}},
{"geometry": {"type": "Point", "coordinates": [-85.6352969842, 35.0699910964]}, "type": "Feature", "properties": {"collection_times": [{"days": "Mon-Fri", "time": "4:30pm"}, {"days": "Sat", "time": "12:00pm"}, {"days": "Sun", "time": "Closed"}], "id": "3734700005", "name": "USPS COLLECTION BOX - PO LOBBY", "address": {"city": "JASPER", "state": "TN", "street": "3739 MAIN ST", "postcode": "37347"}}},
{"geometry": {"type": "Point", "coordinates": [-86.4673500995, 35.1252743177]}, "type": "Feature", "properties": {"collection_times": [{"days": "Mon-Fri", "time": "11:30am"}, {"days": "Sat", "time": "9:30am"}, {"days": "Sun", "time": "Closed"}], "id": "3734800000", "name": "USPS COLLECTION BOX - BLUE BOX", "address": {"city": "KELSO", "state": "TN", "street": "36 TEAL HOLLOW RD", "postcode": "37348"}}},
{"geometry": {"type": "Point", "coordinates": [-86.4673500995, 35.1252743177]}, "type": "Feature", "properties": {"collection_times": [{"days": "Mon-Fri", "time": "11:30am"}, {"days": "Sat", "time": "9:30am"}, {"days": "Sun", "time": "Closed"}], "id": "3734800001", "name": "USPS COLLECTION BOX - PO LOBBY", "address": {"city": "KELSO", "state": "TN", "street": "36 TEAL HOLLOW RD", "postcode": "37348"}}},
{"geometry": {"type": "Point", "coordinates": [-85.3536734922, 34.9906405749]}, "type": "Feature", "properties": {"collection_times": [{"days": "Mon-Sat", "time": "11:30am"}, {"days": "Sun", "time": "Closed"}], "id": "3735000002", "name": "USPS COLLECTION BOX - BLUE BOX", "address": {"city": "LOOKOUT MTN", "state": "TN", "street": "824 SCENIC HWY", "postcode": "37350"}}},
{"geometry": {"type": "Point", "coordinates": [-85.3536734922, 34.9906405749]}, "type": "Feature", "properties": {"collection_times": [{"days": "Mon-Fri", "time": "1:45pm"}, {"days": "Sat", "time": "12:15pm"}, {"days": "Sun", "time": "Closed"}], "id": "3735000004", "name": "USPS COLLECTION BOX - PO LOBBY", "address": {"city": "LOOKOUT MTN", "state": "TN", "street": "824 SCENIC HWY", "postcode": "37350"}}},
{"geometry": {"type": "Point", "coordinates": [-86.3739644677, 35.282801031]}, "type": "Feature", "properties": {"collection_times": [{"days": "Mon-Sat", "time": "11:00am"}, {"days": "Sun", "time": "Closed"}], "id": "3735200001", "name": "USPS COLLECTION BOX - BLUE BOX", "address": {"city": "LYNCHBURG", "state": "TN", "street": "13 HILES ST", "postcode": "37352"}}},
{"geometry": {"type": "Point", "coordinates": [-86.3739644677, 35.282801031]}, "type": "Feature", "properties": {"collection_times": [{"days": "Mon-Sat", "time": "11:00am"}, {"days": "Sun", "time": "Closed"}], "id": "3735200002", "name": "USPS COLLECTION BOX - PO LOBBY", "address": {"city": "LYNCHBURG", "state": "TN", "street": "13 HILES ST", "postcode": "37352"}}},
{"geometry": {"type": "Point", "coordinates": [-86.3739644677, 35.282801031]}, "type": "Feature", "properties": {"collection_times": [{"days": "Mon-Sat", "time": "11:00am"}, {"days": "Sun", "time": "Closed"}], "id": "3735200003", "name": "USPS COLLECTION BOX - PO LOBBY", "address": {"city": "LYNCHBURG", "state": "TN", "street": "13 HILES ST", "postcode": "37352"}}},
{"geometry": {"type": "Point", "coordinates": [-84.9886672943, 35.1113089162]}, "type": "Feature", "properties": {"collection_times": [{"days": "Mon-Fri", "time": "4:30pm"}, {"days": "Sat", "time": "11:00am"}, {"days": "Sun", "time": "Closed"}], "id": "3735300000", "name": "USPS COLLECTION BOX - PO LOBBY", "address": {"city": "MCDONALD", "state": "TN", "street": "4980 S LEE HWY", "postcode": "37353"}}},
{"geometry": {"type": "Point", "coordinates": [-84.9886672943, 35.1113089162]}, "type": "Feature", "properties": {"collection_times": [{"days": "Mon-Fri", "time": "4:30pm"}, {"days": "Sat", "time": "11:00am"}, {"days": "Sun", "time": "Closed"}], "id": "3735300001", "name": "USPS COLLECTION BOX - BLUE BOX", "address": {"city": "MCDONALD", "state": "TN", "street": "4980 S LEE HWY", "postcode": "37353"}}},
{"geometry": {"type": "Point", "coordinates": [-84.9886672943, 35.1113089162]}, "type": "Feature", "properties": {"collection_times": [{"days": "Mon-Fri", "time": "4:30pm"}, {"days": "Sat", "time": "11:00am"}, {"days": "Sun", "time": "Closed"}], "id": "3735300004", "name": "USPS COLLECTION BOX - PO LOBBY", "address": {"city": "MCDONALD", "state": "TN", "street": "4980 S LEE HWY", "postcode": "37353"}}},
{"geometry": {"type": "Point", "coordinates": [-84.3594174169, 35.51973706]}, "type": "Feature", "properties": {"collection_times": [{"days": "Mon-Fri", "time": "4:30pm"}, {"days": "Sat", "time": "3:30pm"}, {"days": "Sun", "time": "Closed"}], "id": "3735400000", "name": "USPS COLLECTION BOX - BLUE BOX", "address": {"city": "MADISONVILLE", "state": "TN", "street": "161 WARREN ST", "postcode": "37354"}}},
{"geometry": {"type": "Point", "coordinates": [-84.3635096305, 35.5195438941]}, "type": "Feature", "properties": {"collection_times": [{"days": "Mon-Sat", "time": "2:30pm"}, {"days": "Sun", "time": "Closed"}], "id": "3735400003", "name": "USPS COLLECTION BOX - BLUE BOX", "address": {"city": "MADISONVILLE", "state": "TN", "street": "103 COLLEGE ST S", "postcode": "37354"}}},
{"geometry": {"type": "Point", "coordinates": [-84.3620865309, 35.5134090689]}, "type": "Feature", "properties": {"collection_times": [{"days": "Mon-Fri", "time": "12:30pm"}, {"days": "Sat", "time": "12:00pm"}, {"days": "Sun", "time": "Closed"}], "id": "3735400006", "name": "USPS COLLECTION BOX - BLUE BOX", "address": {"city": "MADISONVILLE", "state": "TN", "street": "4525 HIGHWAY 411", "postcode": "37354"}}},
{"geometry": {"type": "Point", "coordinates": [-84.3594174169, 35.51973706]}, "type": "Feature", "properties": {"collection_times": [{"days": "Mon-Fri", "time": "4:30pm"}, {"days": "Sat", "time": "3:30pm"}, {"days": "Sun", "time": "Closed"}], "id": "3735400007", "name": "USPS COLLECTION BOX - PO LOBBY", "address": {"city": "MADISONVILLE", "state": "TN", "street": "161 WARREN ST", "postcode": "37354"}}},
{"geometry": {"type": "Point", "coordinates": [-86.0707938635, 35.4673233535]}, "type": "Feature", "properties": {"collection_times": [{"days": "Mon-Fri", "time": "5:00pm"}, {"days": "Sat", "time": "7:00pm"}, {"days": "Sun", "time": "Closed"}], "id": "3735500000", "name": "USPS COLLECTION BOX - BLUE BOX", "address": {"city": "MANCHESTER", "state": "TN", "street": "1601 HILLSBORO BLVD", "postcode": "37355"}}},
{"geometry": {"type": "Point", "coordinates": [-86.0856164384, 35.4801838234]}, "type": "Feature", "properties": {"collection_times": [{"days": "Mon-Fri", "time": "2:30pm"}, {"days": "Sat", "time": "12:00pm"}, {"days": "Sun", "time": "Closed"}], "id": "3735500005", "name": "USPS COLLECTION BOX - BLUE BOX", "address": {"city": "MANCHESTER", "state": "TN", "street": "300 HILLSBORO BLVD", "postcode": "37355"}}},
{"geometry": {"type": "Point", "coordinates": [-86.0707938635, 35.4673233535]}, "type": "Feature", "properties": {"collection_times": [{"days": "Mon-Fri", "time": "5:00pm"}, {"days": "Sat", "time": "7:00pm"}, {"days": "Sun", "time": "Closed"}], "id": "3735500007", "name": "USPS COLLECTION BOX - BLUE BOX", "address": {"city": "MANCHESTER", "state": "TN", "street": "1601 HILLSBORO BLVD", "postcode": "37355"}}},
{"geometry": {"type": "Point", "coordinates": [-86.0707938635, 35.4673233535]}, "type": "Feature", "properties": {"collection_times": [{"days": "Mon-Fri", "time": "5:00pm"}, {"days": "Sat", "time": "7:00pm"}, {"days": "Sun", "time": "Closed"}], "id": "3735500012", "name": "USPS COLLECTION BOX - BLUE BOX", "address": {"city": "MANCHESTER", "state": "TN", "street": "1601 HILLSBORO BLVD", "postcode": "37355"}}},
{"geometry": {"type": "Point", "coordinates": [-86.0707938635, 35.4673233535]}, "type": "Feature", "properties": {"collection_times": [{"days": "Mon-Fri", "time": "5:00pm"}, {"days": "Sat", "time": "7:00pm"}, {"days": "Sun", "time": "Closed"}], "id": "3735500013", "name": "USPS COLLECTION BOX - PO LOBBY", "address": {"city": "MANCHESTER", "state": "TN", "street": "1601 HILLSBORO BLVD", "postcode": "37355"}}},
{"geometry": {"type": "Point", "coordinates": [-86.0707938635, 35.4673233535]}, "type": "Feature", "properties": {"collection_times": [{"days": "Mon-Fri", "time": "5:00pm"}, {"days": "Sat", "time": "7:00pm"}, {"days": "Sun", "time": "Closed"}], "id": "3735500014", "name": "USPS COLLECTION BOX - PO LOBBY", "address": {"city": "MANCHESTER", "state": "TN", "street": "1601 HILLSBORO BLVD", "postcode": "37355"}}},
{"geometry": {"type": "Point", "coordinates": [-85.8274495297, 35.2385441259]}, "type": "Feature", "properties": {"collection_times": [{"days": "Mon-Fri", "time": "3:45pm"}, {"days": "Sat", "time": "12:00pm"}, {"days": "Sun", "time": "Closed"}], "id": "3735600001", "name": "USPS COLLECTION BOX - PO LOBBY", "address": {"city": "MONTEAGLE", "state": "TN", "street": "320 MOFFAT ST", "postcode": "37356"}}},
{"geometry": {"type": "Point", "coordinates": [-85.8274495297, 35.2385441259]}, "type": "Feature", "properties": {"collection_times": [{"days": "Mon-Fri", "time": "3:45pm"}, {"days": "Sat", "time": "12:00pm"}, {"days": "Sun", "time": "Closed"}], "id": "3735600002", "name": "USPS COLLECTION BOX - BLUE BOX", "address": {"city": "MONTEAGLE", "state": "TN", "street": "320 MOFFAT ST", "postcode": "37356"}}},
{"geometry": {"type": "Point", "coordinates": [-85.9190616318, 35.6032666319]}, "type": "Feature", "properties": {"collection_times": [{"days": "Mon-Fri", "time": "3:30pm"}, {"days": "Sat", "time": "11:00am"}, {"days": "Sun", "time": "Closed"}], "id": "3735700001", "name": "USPS COLLECTION BOX - PO LOBBY", "address": {"city": "MORRISON", "state": "TN", "street": "140 E MAPLE ST", "postcode": "37357"}}},
{"geometry": {"type": "Point", "coordinates": [-85.9190616318, 35.6032666319]}, "type": "Feature", "properties": {"collection_times": [{"days": "Mon-Fri", "time": "3:30pm"}, {"days": "Sat", "time": "11:00am"}, {"days": "Sun", "time": "Closed"}], "id": "3735700002", "name": "USPS COLLECTION BOX - BLUE BOX", "address": {"city": "MORRISON", "state": "TN", "street": "140 E MAPLE ST", "postcode": "37357"}}},
{"geometry": {"type": "Point", "coordinates": [-85.9190616318, 35.6032666319]}, "type": "Feature", "properties": {"collection_times": [{"days": "Mon-Fri", "time": "3:30pm"}, {"days": "Sat", "time": "11:00am"}, {"days": "Sun", "time": "Closed"}], "id": "3735700003", "name": "USPS COLLECTION BOX - PO LOBBY", "address": {"city": "MORRISON", "state": "TN", "street": "140 E MAPLE ST", "postcode": "37357"}}},
{"geometry": {"type": "Point", "coordinates": [-86.4667404349, 35.2095861296]}, "type": "Feature", "properties": {"collection_times": [{"days": "Mon-Fri", "time": "4:00pm"}, {"days": "Sat", "time": "10:00am"}, {"days": "Sun", "time": "Closed"}], "id": "3735900001", "name": "USPS COLLECTION BOX - BLUE BOX", "address": {"city": "MULBERRY", "state": "TN", "street": "27 OLD LYNCHBURG HWY NE", "postcode": "37359"}}},
{"geometry": {"type": "Point", "coordinates": [-86.4667404349, 35.2095861296]}, "type": "Feature", "properties": {"collection_times": [{"days": "Mon-Fri", "time": "4:00pm"}, {"days": "Sat", "time": "10:00am"}, {"days": "Sun", "time": "Closed"}], "id": "3735900002", "name": "USPS COLLECTION BOX - PO LOBBY", "address": {"city": "MULBERRY", "state": "TN", "street": "27 OLD LYNCHBURG HWY NE", "postcode": "37359"}}},
{"geometry": {"type": "Point", "coordinates": [-86.259489009, 35.4517969832]}, "type": "Feature", "properties": {"collection_times": [{"days": "Mon-Sat", "time": "1:00pm"}, {"days": "Sun", "time": "Closed"}], "id": "3736000001", "name": "USPS COLLECTION BOX - BLUE BOX", "address": {"city": "NORMANDY", "state": "TN", "street": "1 CASCADE HOLLOW RD", "postcode": "37360"}}},
{"geometry": {"type": "Point", "coordinates": [-86.259489009, 35.4517969832]}, "type": "Feature", "properties": {"collection_times": [{"days": "Mon-Sat", "time": "1:00pm"}, {"days": "Sun", "time": "Closed"}], "id": "3736000002", "name": "USPS COLLECTION BOX - PO LOBBY", "address": {"city": "NORMANDY", "state": "TN", "street": "1 CASCADE HOLLOW RD", "postcode": "37360"}}},
{"geometry": {"type": "Point", "coordinates": [-84.7226122028, 35.1179234107]}, "type": "Feature", "properties": {"collection_times": [{"days": "Mon-Fri", "time": "2:30pm"}, {"days": "Sat", "time": "10:30am"}, {"days": "Sun", "time": "Closed"}], "id": "3736100003", "name": "USPS COLLECTION BOX - PO LOBBY", "address": {"city": "OCOEE", "state": "TN", "street": "3754 HIGHWAY 411", "postcode": "37361"}}},
{"geometry": {"type": "Point", "coordinates": [-84.7226122028, 35.1179234107]}, "type": "Feature", "properties": {"collection_times": [{"days": "Mon-Fri", "time": "2:30pm"}, {"days": "Sat", "time": "10:30am"}, {"days": "Sun", "time": "Closed"}], "id": "3736100004", "name": "USPS COLLECTION BOX - BLUE BOX", "address": {"city": "OCOEE", "state": "TN", "street": "3754 HIGHWAY 411", "postcode": "37361"}}},
{"geometry": {"type": "Point", "coordinates": [-84.7338144039, 35.0674512109]}, "type": "Feature", "properties": {"collection_times": [{"days": "Mon-Fri", "time": "2:45pm"}, {"days": "Sat", "time": "10:15am"}, {"days": "Sun", "time": "Closed"}], "id": "3736200001", "name": "USPS COLLECTION BOX - PO LOBBY", "address": {"city": "OLD FORT", "state": "TN", "street": "2314 411 HWY", "postcode": "37362"}}},
{"geometry": {"type": "Point", "coordinates": [-84.7338144039, 35.0674512109]}, "type": "Feature", "properties": {"collection_times": [{"days": "Mon-Fri", "time": "2:45pm"}, {"days": "Sat", "time": "10:15am"}, {"days": "Sun", "time": "Closed"}], "id": "3736200002", "name": "USPS COLLECTION BOX - BLUE BOX", "address": {"city": "OLD FORT", "state": "TN", "street": "2314 411 HWY", "postcode": "37362"}}},
{"geometry": {"type": "Point", "coordinates": [-85.0589842186, 35.0830012791]}, "type": "Feature", "properties": {"collection_times": [{"days": "Mon-Sat", "time": "9:45am"}, {"days": "Sun", "time": "Closed"}], "id": "3736300001", "name": "USPS COLLECTION BOX - BLUE BOX", "address": {"city": "OOLTEWAH", "state": "TN", "street": "9231 LEE HWY", "postcode": "37363"}}},
{"geometry": {"type": "Point", "coordinates": [-85.0607054239, 35.0746330273]}, "type": "Feature", "properties": {"collection_times": [{"days": "Mon-Fri", "time": "4:30pm"}, {"days": "Sat", "time": "2:30pm"}, {"days": "Sun", "time": "Closed"}], "id": "3736300002", "name": "USPS COLLECTION BOX - BLUE BOX", "address": {"city": "OOLTEWAH", "state": "TN", "street": "9301 OCOEE ST", "postcode": "37363"}}},
{"geometry": {"type": "Point", "coordinates": [-85.0607054239, 35.0746330273]}, "type": "Feature", "properties": {"collection_times": [{"days": "Mon-Fri", "time": "4:30pm"}, {"days": "Sat", "time": "2:30pm"}, {"days": "Sun", "time": "Closed"}], "id": "3736300003", "name": "USPS COLLECTION BOX - PO LOBBY", "address": {"city": "OOLTEWAH", "state": "TN", "street": "9301 OCOEE ST", "postcode": "37363"}}},
{"geometry": {"type": "Point", "coordinates": [-85.0676458441, 35.0599548725]}, "type": "Feature", "properties": {"collection_times": [{"days": "Mon-Fri", "time": "11:15am"}, {"days": "Sat", "time": "10:15am"}, {"days": "Sun", "time": "Closed"}], "id": "3736300004", "name": "USPS COLLECTION BOX - BLUE BOX", "address": {"city": "OOLTEWAH", "state": "TN", "street": "9413 APISON PIKE", "postcode": "37363"}}},
{"geometry": {"type": "Point", "coordinates": [-85.0623674812, 35.0842090802]}, "type": "Feature", "properties": {"collection_times": [{"days": "Mon-Sat", "time": "10:00am"}, {"days": "Sun", "time": "Closed"}], "id": "3736300005", "name": "USPS COLLECTION BOX - BLUE BOX", "address": {"city": "OOLTEWAH", "state": "TN", "street": "9213 LEE HWY", "postcode": "37363"}}},
{"geometry": {"type": "Point", "coordinates": [-85.0707460305, 35.0848019119]}, "type": "Feature", "properties": {"collection_times": [{"days": "Mon-Sat", "time": "10:00am"}, {"days": "Sun", "time": "Closed"}], "id": "3736300006", "name": "USPS COLLECTION BOX - BLUE BOX", "address": {"city": "OOLTEWAH", "state": "TN", "street": "8935 LEE HWY", "postcode": "37363"}}},
{"geometry": {"type": "Point", "coordinates": [-85.0278325619, 35.1742557738]}, "type": "Feature", "properties": {"collection_times": [{"days": "Mon-Fri", "time": "11:00am"}, {"days": "Sat", "time": "10:30am"}, {"days": "Sun", "time": "Closed"}], "id": "3736300007", "name": "USPS COLLECTION BOX - BLUE BOX", "address": {"city": "OOLTEWAH", "state": "TN", "street": "9080 OOLTEWAH GEORGETOWN RD", "postcode": "37363"}}},
{"geometry": {"type": "Point", "coordinates": [-85.0714608868, 35.0604647278]}, "type": "Feature", "properties": {"collection_times": [{"days": "Mon-Sat", "time": "10:00am"}, {"days": "Sun", "time": "Closed"}], "id": "3736300009", "name": "USPS COLLECTION BOX - BLUE BOX", "address": {"city": "OOLTEWAH", "state": "TN", "street": "4910 SWINYAR DR", "postcode": "37363"}}},
{"geometry": {"type": "Point", "coordinates": [-85.0607054239, 35.0746330273]}, "type": "Feature", "properties": {"collection_times": [{"days": "Mon-Fri", "time": "4:30pm"}, {"days": "Sat", "time": "2:30pm"}, {"days": "Sun", "time": "Closed"}], "id": "3736300011", "name": "USPS COLLECTION BOX - BLUE BOX", "address": {"city": "OOLTEWAH", "state": "TN", "street": "9301 OCOEE ST", "postcode": "37363"}}},
{"geometry": {"type": "Point", "coordinates": [-85.5696129478, 35.36963059]}, "type": "Feature", "properties": {"collection_times": [{"days": "Mon-Fri", "time": "3:30pm"}, {"days": "Sat", "time": "11:15am"}, {"days": "Sun", "time": "Closed"}], "id": "3736500002", "name": "USPS COLLECTION BOX - PO LOBBY", "address": {"city": "PALMER", "state": "TN", "street": "739 MAIN ST", "postcode": "37365"}}},
{"geometry": {"type": "Point", "coordinates": [-85.5696129478, 35.36963059]}, "type": "Feature", "properties": {"collection_times": [{"days": "Mon-Fri", "time": "3:30pm"}, {"days": "Sat", "time": "11:15am"}, {"days": "Sun", "time": "Closed"}], "id": "3736500003", "name": "USPS COLLECTION BOX - PO LOBBY", "address": {"city": "PALMER", "state": "TN", "street": "739 MAIN ST", "postcode": "37365"}}},
{"geometry": {"type": "Point", "coordinates": [-85.5696129478, 35.36963059]}, "type": "Feature", "properties": {"collection_times": [{"days": "Mon-Fri", "time": "3:30pm"}, {"days": "Sat", "time": "11:45am"}, {"days": "Sun", "time": "Closed"}], "id": "3736500004", "name": "USPS COLLECTION BOX - BLUE BOX", "address": {"city": "PALMER", "state": "TN", "street": "739 MAIN ST", "postcode": "37365"}}},
{"geometry": {"type": "Point", "coordinates": [-85.880704866, 35.3096262319]}, "type": "Feature", "properties": {"collection_times": [{"days": "Mon-Fri", "time": "3:45pm"}, {"days": "Sat", "time": "10:45am"}, {"days": "Sun", "time": "Closed"}], "id": "3736600001", "name": "USPS COLLECTION BOX - BLUE BOX", "address": {"city": "PELHAM", "state": "TN", "street": "1619 US 41", "postcode": "37366"}}},
{"geometry": {"type": "Point", "coordinates": [-85.880704866, 35.3096262319]}, "type": "Feature", "properties": {"collection_times": [{"days": "Mon-Fri", "time": "3:45pm"}, {"days": "Sat", "time": "10:45am"}, {"days": "Sun", "time": "Closed"}], "id": "3736600002", "name": "USPS COLLECTION BOX - PO LOBBY", "address": {"city": "PELHAM", "state": "TN", "street": "1619 US 41", "postcode": "37366"}}},
{"geometry": {"type": "Point", "coordinates": [-85.1886365211, 35.6090418375]}, "type": "Feature", "properties": {"collection_times": [{"days": "Mon-Sat", "time": "12:00pm"}, {"days": "Sun", "time": "Closed"}], "id": "3736700001", "name": "USPS COLLECTION BOX - BLUE BOX", "address": {"city": "PIKEVILLE", "state": "TN", "street": "3372 MAIN ST", "postcode": "37367"}}},
{"geometry": {"type": "Point", "coordinates": [-85.1886365211, 35.6090418375]}, "type": "Feature", "properties": {"collection_times": [{"days": "Mon-Sat", "time": "12:00pm"}, {"days": "Sun", "time": "Closed"}], "id": "3736700003", "name": "USPS COLLECTION BOX - BLUE BOX", "address": {"city": "PIKEVILLE", "state": "TN", "street": "3372 MAIN ST", "postcode": "37367"}}},
{"geometry": {"type": "Point", "coordinates": [-85.1886365211, 35.6090418375]}, "type": "Feature", "properties": {"collection_times": [{"days": "Mon-Sat", "time": "12:00pm"}, {"days": "Sun", "time": "Closed"}], "id": "3736700005", "name": "USPS COLLECTION BOX - PO LOBBY", "address": {"city": "PIKEVILLE", "state": "TN", "street": "3372 MAIN ST", "postcode": "37367"}}},
{"geometry": {"type": "Point", "coordinates": [-85.1886365211, 35.6090418375]}, "type": "Feature", "properties": {"collection_times": [{"days": "Mon-Sat", "time": "12:00pm"}, {"days": "Sun", "time": "Closed"}], "id": "3736700006", "name": "USPS COLLECTION BOX - PO LOBBY", "address": {"city": "PIKEVILLE", "state": "TN", "street": "3372 MAIN ST", "postcode": "37367"}}},
{"geometry": {"type": "Point", "coordinates": [-84.6950617671, 35.3814425493]}, "type": "Feature", "properties": {"collection_times": [{"days": "Mon-Fri", "time": "12:15pm"}, {"days": "Sat", "time": "11:00am"}, {"days": "Sun", "time": "Closed"}], "id": "3737000001", "name": "USPS COLLECTION BOX - PO LOBBY", "address": {"city": "RICEVILLE", "state": "TN", "street": "3804 HIGHWAY 11 S", "postcode": "37370"}}},
{"geometry": {"type": "Point", "coordinates": [-84.7026693989, 35.3606273508]}, "type": "Feature", "properties": {"collection_times": [{"days": "Mon-Fri", "time": "12:15pm"}, {"days": "Sat", "time": "11:00am"}, {"days": "Sun", "time": "Closed"}], "id": "3737000002", "name": "USPS COLLECTION BOX - BLUE BOX", "address": {"city": "RICEVILLE", "state": "TN", "street": "3804 S 11 HWY", "postcode": "37370"}}},
{"geometry": {"type": "Point", "coordinates": [-85.1085348207, 35.3840075536]}, "type": "Feature", "properties": {"collection_times": [{"days": "Mon-Fri", "time": "4:30pm"}, {"days": "Sat", "time": "11:30am"}, {"days": "Sun", "time": "Closed"}], "id": "3737300001", "name": "USPS COLLECTION BOX - BLUE BOX", "address": {"city": "SALE CREEK", "state": "TN", "street": "15117 DAYTON PIKE", "postcode": "37373"}}},
{"geometry": {"type": "Point", "coordinates": [-85.1085348207, 35.3840075536]}, "type": "Feature", "properties": {"collection_times": [{"days": "Mon-Fri", "time": "4:30pm"}, {"days": "Sat", "time": "11:30am"}, {"days": "Sun", "time": "Closed"}], "id": "3737300002", "name": "USPS COLLECTION BOX - PO LOBBY", "address": {"city": "SALE CREEK", "state": "TN", "street": "15117 DAYTON PIKE", "postcode": "37373"}}},
{"geometry": {"type": "Point", "coordinates": [-85.5934580915, 35.1127881858]}, "type": "Feature", "properties": {"collection_times": [{"days": "Mon-Fri", "time": "3:45pm"}, {"days": "Sat", "time": "10:45am"}, {"days": "Sun", "time": "Closed"}], "id": "3737400004", "name": "USPS COLLECTION BOX - PO LOBBY", "address": {"city": "SEQUATCHIE", "state": "TN", "street": "3670 VALLEY VIEW HWY", "postcode": "37374"}}},
{"geometry": {"type": "Point", "coordinates": [-85.5934580915, 35.1127881858]}, "type": "Feature", "properties": {"collection_times": [{"days": "Mon-Fri", "time": "3:45pm"}, {"days": "Sat", "time": "10:45am"}, {"days": "Sun", "time": "Closed"}], "id": "3737400005", "name": "USPS COLLECTION BOX - BLUE BOX", "address": {"city": "SEQUATCHIE", "state": "TN", "street": "3670 VALLEY VIEW HWY", "postcode": "37374"}}},
{"geometry": {"type": "Point", "coordinates": [-85.5934580915, 35.1127881858]}, "type": "Feature", "properties": {"collection_times": [{"days": "Mon-Fri", "time": "3:45pm"}, {"days": "Sat", "time": "10:45am"}, {"days": "Sun", "time": "Closed"}], "id": "3737400006", "name": "USPS COLLECTION BOX - PO LOBBY", "address": {"city": "SEQUATCHIE", "state": "TN", "street": "3670 VALLEY VIEW HWY", "postcode": "37374"}}},
{"geometry": {"type": "Point", "coordinates": [-85.917975983, 35.1960507221]}, "type": "Feature", "properties": {"collection_times": [{"days": "Mon-Fri", "time": "4:00pm"}, {"days": "Sat", "time": "12:00pm"}, {"days": "Sun", "time": "Closed"}], "id": "3737500001", "name": "USPS COLLECTION BOX - PO LOBBY", "address": {"city": "SEWANEE", "state": "TN", "street": "94 UNIVERSITY AVE", "postcode": "37375"}}},
{"geometry": {"type": "Point", "coordinates": [-85.917975983, 35.1960507221]}, "type": "Feature", "properties": {"collection_times": [{"days": "Mon-Fri", "time": "4:00pm"}, {"days": "Sat", "time": "12:00pm"}, {"days": "Sun", "time": "Closed"}], "id": "3737500002", "name": "USPS COLLECTION BOX - BLUE BOX", "address": {"city": "SEWANEE", "state": "TN", "street": "94 UNIVERSITY AVE", "postcode": "37375"}}},
{"geometry": {"type": "Point", "coordinates": [-85.9237797175, 35.0763446486]}, "type": "Feature", "properties": {"collection_times": [{"days": "Mon-Fri", "time": "3:15pm"}, {"days": "Sat", "time": "11:45am"}, {"days": "Sun", "time": "Closed"}], "id": "3737600001", "name": "USPS COLLECTION BOX - BLUE BOX", "address": {"city": "SHERWOOD", "state": "TN", "street": "9769 SHERWOOD RD", "postcode": "37376"}}},
{"geometry": {"type": "Point", "coordinates": [-85.9237797175, 35.0763446486]}, "type": "Feature", "properties": {"collection_times": [{"days": "Mon-Fri", "time": "3:15pm"}, {"days": "Sat", "time": "11:45am"}, {"days": "Sun", "time": "Closed"}], "id": "3737600002", "name": "USPS COLLECTION BOX - PO LOBBY", "address": {"city": "SHERWOOD", "state": "TN", "street": "9769 SHERWOOD RD", "postcode": "37376"}}},
{"geometry": {"type": "Point", "coordinates": [-85.3311132818, 35.1375948353]}, "type": "Feature", "properties": {"collection_times": [{"days": "Mon-Fri", "time": "4:00pm"}, {"days": "Sat", "time": "12:00pm"}, {"days": "Sun", "time": "Closed"}], "id": "3737700001", "name": "USPS COLLECTION BOX - BLUE BOX", "address": {"city": "SIGNAL MOUNTAIN", "state": "TN", "street": "1155 RIDGEWAY AVE", "postcode": "37377"}}},
{"geometry": {"type": "Point", "coordinates": [-85.3311132818, 35.1375948353]}, "type": "Feature", "properties": {"collection_times": [{"days": "Mon-Fri", "time": "4:00pm"}, {"days": "Sat", "time": "12:00pm"}, {"days": "Sun", "time": "Closed"}], "id": "3737700002", "name": "USPS COLLECTION BOX - BLUE BOX", "address": {"city": "SIGNAL MOUNTAIN", "state": "TN", "street": "1155 RIDGEWAY AVE", "postcode": "37377"}}},
{"geometry": {"type": "Point", "coordinates": [-85.3423289158, 35.1225878179]}, "type": "Feature", "properties": {"collection_times": [{"days": "Mon-Sat", "time": "1:00pm"}, {"days": "Sun", "time": "Closed"}], "id": "3737700004", "name": "USPS COLLECTION BOX - BLUE BOX", "address": {"city": "SIGNAL MOUNTAIN", "state": "TN", "street": "816 RIDGEWAY AVE", "postcode": "37377"}}},
{"geometry": {"type": "Point", "coordinates": [-85.3311132818, 35.1375948353]}, "type": "Feature", "properties": {"collection_times": [{"days": "Mon-Fri", "time": "4:00pm"}, {"days": "Sat", "time": "12:00pm"}, {"days": "Sun", "time": "Closed"}], "id": "3737700006", "name": "USPS COLLECTION BOX - PO LOBBY", "address": {"city": "SIGNAL MOUNTAIN", "state": "TN", "street": "1155 RIDGEWAY AVE", "postcode": "37377"}}},
{"geometry": {"type": "Point", "coordinates": [-85.3311132818, 35.1375948353]}, "type": "Feature", "properties": {"collection_times": [{"days": "Mon-Fri", "time": "4:00pm"}, {"days": "Sat", "time": "12:00pm"}, {"days": "Sun", "time": "Closed"}], "id": "3737700007", "name": "USPS COLLECTION BOX - PO LOBBY", "address": {"city": "SIGNAL MOUNTAIN", "state": "TN", "street": "1155 RIDGEWAY AVE", "postcode": "37377"}}},
{"geometry": {"type": "Point", "coordinates": [-85.8393442948, 35.6386920272]}, "type": "Feature", "properties": {"collection_times": [{"days": "Mon-Fri", "time": "3:45pm"}, {"days": "Sat", "time": "11:00am"}, {"days": "Sun", "time": "Closed"}], "id": "3737800002", "name": "USPS COLLECTION BOX - BLUE BOX", "address": {"city": "SMARTT", "state": "TN", "street": "5174 MANCHESTER HWY", "postcode": "37378"}}},
{"geometry": {"type": "Point", "coordinates": [-85.1753566238, 35.2644151341]}, "type": "Feature", "properties": {"collection_times": [{"days": "Mon-Sat", "time": "12:00pm"}, {"days": "Sun", "time": "Closed"}], "id": "3737900000", "name": "USPS COLLECTION BOX - PO LOBBY", "address": {"city": "SODDY DAISY", "state": "TN", "street": "10575 DAYTON PIKE", "postcode": "37379"}}},
{"geometry": {"type": "Point", "coordinates": [-85.1753566238, 35.2644151341]}, "type": "Feature", "properties": {"collection_times": [{"days": "Mon-Sat", "time": "12:00pm"}, {"days": "Sun", "time": "Closed"}], "id": "3737900001", "name": "USPS COLLECTION BOX - BLUE BOX", "address": {"city": "SODDY DAISY", "state": "TN", "street": "10575 DAYTON PIKE", "postcode": "37379"}}},
{"geometry": {"type": "Point", "coordinates": [-85.2189924952, 35.2234268008]}, "type": "Feature", "properties": {"collection_times": [{"days": "Mon-Sat", "time": "10:00am"}, {"days": "Sun", "time": "Closed"}], "id": "3737900002", "name": "USPS COLLECTION BOX - BLUE BOX", "address": {"city": "SODDY DAISY", "state": "TN", "street": "8640 DAYTON PIKE", "postcode": "37379"}}},
{"geometry": {"type": "Point", "coordinates": [-85.1291277704, 35.3404699319]}, "type": "Feature", "properties": {"collection_times": [{"days": "Mon-Sat", "time": "10:00am"}, {"days": "Sun", "time": "Closed"}], "id": "3737900009", "name": "USPS COLLECTION BOX - BLUE BOX", "address": {"city": "SODDY DAISY", "state": "TN", "street": "13424 DAYTON PIKE", "postcode": "37379"}}},
{"geometry": {"type": "Point", "coordinates": [-85.1753566238, 35.2644151341]}, "type": "Feature", "properties": {"collection_times": [{"days": "Mon-Sat", "time": "12:00pm"}, {"days": "Sun", "time": "Closed"}], "id": "3737900011", "name": "USPS COLLECTION BOX - PO LOBBY", "address": {"city": "SODDY DAISY", "state": "TN", "street": "10575 DAYTON PIKE", "postcode": "37379"}}},
{"geometry": {"type": "Point", "coordinates": [-85.7062413992, 35.0124401427]}, "type": "Feature", "properties": {"collection_times": [{"days": "Mon-Fri", "time": "3:30pm"}, {"days": "Sat", "time": "1:45pm"}, {"days": "Sun", "time": "Closed"}], "id": "3738000001", "name": "USPS COLLECTION BOX - PO LOBBY", "address": {"city": "SOUTH PITTSBURG", "state": "TN", "street": "303 ELM AVE", "postcode": "37380"}}},
{"geometry": {"type": "Point", "coordinates": [-85.7062413992, 35.0124401427]}, "type": "Feature", "properties": {"collection_times": [{"days": "Mon-Fri", "time": "3:30pm"}, {"days": "Sat", "time": "1:45pm"}, {"days": "Sun", "time": "Closed"}], "id": "3738000003", "name": "USPS COLLECTION BOX - BLUE BOX", "address": {"city": "SOUTH PITTSBURG", "state": "TN", "street": "303 ELM AVE", "postcode": "37380"}}},
{"geometry": {"type": "Point", "coordinates": [-85.7062413992, 35.0124401427]}, "type": "Feature", "properties": {"collection_times": [{"days": "Mon-Fri", "time": "3:30pm"}, {"days": "Sat", "time": "1:45pm"}, {"days": "Sun", "time": "Closed"}], "id": "3738000004", "name": "USPS COLLECTION BOX - BLUE BOX", "address": {"city": "SOUTH PITTSBURG", "state": "TN", "street": "303 ELM AVE", "postcode": "37380"}}},
{"geometry": {"type": "Point", "coordinates": [-85.7062413992, 35.0124401427]}, "type": "Feature", "properties": {"collection_times": [{"days": "Mon-Fri", "time": "3:30pm"}, {"days": "Sat", "time": "1:45pm"}, {"days": "Sun", "time": "Closed"}], "id": "3738000006", "name": "USPS COLLECTION BOX - PO LOBBY", "address": {"city": "SOUTH PITTSBURG", "state": "TN", "street": "303 ELM AVE", "postcode": "37380"}}},
{"geometry": {"type": "Point", "coordinates": [-84.8617117666, 35.692118934]}, "type": "Feature", "properties": {"collection_times": [{"days": "Mon-Fri", "time": "4:00pm"}, {"days": "Sat", "time": "12:00pm"}, {"days": "Sun", "time": "Closed"}], "id": "3738100001", "name": "USPS COLLECTION BOX - BLUE BOX", "address": {"city": "SPRING CITY", "state": "TN", "street": "265 FRONT ST", "postcode": "37381"}}},
{"geometry": {"type": "Point", "coordinates": [-84.8617117666, 35.692118934]}, "type": "Feature", "properties": {"collection_times": [{"days": "Mon-Fri", "time": "4:00pm"}, {"days": "Sat", "time": "12:00pm"}, {"days": "Sun", "time": "Closed"}], "id": "3738100002", "name": "USPS COLLECTION BOX - PO LOBBY", "address": {"city": "SPRING CITY", "state": "TN", "street": "265 FRONT ST", "postcode": "37381"}}},
{"geometry": {"type": "Point", "coordinates": [-84.8617117666, 35.692118934]}, "type": "Feature", "properties": {"collection_times": [{"days": "Mon-Fri", "time": "4:00pm"}, {"days": "Sat", "time": "12:00pm"}, {"days": "Sun", "time": "Closed"}], "id": "3738100005", "name": "USPS COLLECTION BOX - PO LOBBY", "address": {"city": "SPRING CITY", "state": "TN", "street": "265 FRONT ST", "postcode": "37381"}}},
{"geometry": {"type": "Point", "coordinates": [-84.8617117666, 35.692118934]}, "type": "Feature", "properties": {"collection_times": [{"days": "Mon-Fri", "time": "4:00pm"}, {"days": "Sat", "time": "12:00pm"}, {"days": "Sun", "time": "Closed"}], "id": "3738100006", "name": "USPS COLLECTION BOX - BLUE BOX", "address": {"city": "SPRING CITY", "state": "TN", "street": "265 FRONT ST", "postcode": "37381"}}},
{"geometry": {"type": "Point", "coordinates": [-85.9817623637, 35.5499242212]}, "type": "Feature", "properties": {"collection_times": [{"days": "Mon-Fri", "time": "3:45pm"}, {"days": "Sat", "time": "10:45am"}, {"days": "Sun", "time": "Closed"}], "id": "3738200001", "name": "USPS COLLECTION BOX - BLUE BOX", "address": {"city": "SUMMITVILLE", "state": "TN", "street": "7881 MCMINNVILLE HWY", "postcode": "37382"}}},
{"geometry": {"type": "Point", "coordinates": [-85.9817623637, 35.5499242212]}, "type": "Feature", "properties": {"collection_times": [{"days": "Mon-Fri", "time": "3:45pm"}, {"days": "Sat", "time": "10:45am"}, {"days": "Sun", "time": "Closed"}], "id": "3738200002", "name": "USPS COLLECTION BOX - PO LOBBY", "address": {"city": "SUMMITVILLE", "state": "TN", "street": "7881 MCMINNVILLE HWY", "postcode": "37382"}}},
{"geometry": {"type": "Point", "coordinates": [-85.9817623637, 35.5499242212]}, "type": "Feature", "properties": {"collection_times": [{"days": "Mon-Fri", "time": "3:45pm"}, {"days": "Sat", "time": "10:45am"}, {"days": "Sun", "time": "Closed"}], "id": "3738200003", "name": "USPS COLLECTION BOX - PO LOBBY", "address": {"city": "SUMMITVILLE", "state": "TN", "street": "7881 MCMINNVILLE HWY", "postcode": "37382"}}},
{"geometry": {"type": "Point", "coordinates": [-84.3015837824, 35.3721273254]}, "type": "Feature", "properties": {"collection_times": [{"days": "Mon-Fri", "time": "3:30pm"}, {"days": "Sat", "time": "3:00pm"}, {"days": "Sun", "time": "Closed"}], "id": "3738500001", "name": "USPS COLLECTION BOX - BLUE BOX", "address": {"city": "TELLICO PLAINS", "state": "TN", "street": "171 BANK ST", "postcode": "37385"}}},
{"geometry": {"type": "Point", "coordinates": [-84.3015837824, 35.3721273254]}, "type": "Feature", "properties": {"collection_times": [{"days": "Mon-Sat", "time": "3:30pm"}, {"days": "Sun", "time": "Closed"}], "id": "3738500003", "name": "USPS COLLECTION BOX - PO LOBBY", "address": {"city": "TELLICO PLAINS", "state": "TN", "street": "171 BANK ST", "postcode": "37385"}}},
{"geometry": {"type": "Point", "coordinates": [-84.3015837824, 35.3721273254]}, "type": "Feature", "properties": {"collection_times": [{"days": "Mon-Sat", "time": "3:30pm"}, {"days": "Sun", "time": "Closed"}], "id": "3738500004", "name": "USPS COLLECTION BOX - PO LOBBY", "address": {"city": "TELLICO PLAINS", "state": "TN", "street": "171 BANK ST", "postcode": "37385"}}},
{"geometry": {"type": "Point", "coordinates": [-85.74357346, 35.259775319]}, "type": "Feature", "properties": {"collection_times": [{"days": "Mon-Fri", "time": "3:30pm"}, {"days": "Sat", "time": "11:00am"}, {"days": "Sun", "time": "Closed"}], "id": "3738700001", "name": "USPS COLLECTION BOX - BLUE BOX", "address": {"city": "TRACY CITY", "state": "TN", "street": "245 NATHURST RD", "postcode": "37387"}}},
{"geometry": {"type": "Point", "coordinates": [-85.74357346, 35.259775319]}, "type": "Feature", "properties": {"collection_times": [{"days": "Mon-Fri", "time": "3:30pm"}, {"days": "Sat", "time": "11:00am"}, {"days": "Sun", "time": "Closed"}], "id": "3738700002", "name": "USPS COLLECTION BOX - PO LOBBY", "address": {"city": "TRACY CITY", "state": "TN", "street": "245 NATHURST RD", "postcode": "37387"}}},
{"geometry": {"type": "Point", "coordinates": [-86.2260297487, 35.3780353991]}, "type": "Feature", "properties": {"collection_times": [{"days": "Mon-Fri", "time": "10:30am"}, {"days": "Sat", "time": "9:30am"}, {"days": "Sun", "time": "Closed"}], "id": "3738800017", "name": "USPS COLLECTION BOX - BLUE BOX", "address": {"city": "TULLAHOMA", "state": "TN", "street": "1600 N JACKSON ST", "postcode": "37388"}}},
{"geometry": {"type": "Point", "coordinates": [-86.2381174943, 35.3905209257]}, "type": "Feature", "properties": {"collection_times": [{"days": "Mon-Sat", "time": "10:00am"}, {"days": "Sun", "time": "Closed"}], "id": "3738800020", "name": "USPS COLLECTION BOX - BLUE BOX", "address": {"city": "TULLAHOMA", "state": "TN", "street": "2111 N JACKSON ST", "postcode": "37388"}}},
{"geometry": {"type": "Point", "coordinates": [-86.2191747724, 35.3564706348]}, "type": "Feature", "properties": {"collection_times": [{"days": "Mon-Fri", "time": "2:15pm"}, {"days": "Sat", "time": "12:00pm"}, {"days": "Sun", "time": "Closed"}], "id": "3738800026", "name": "USPS COLLECTION BOX - BLUE BOX", "address": {"city": "TULLAHOMA", "state": "TN", "street": "100 WESTSIDE DR", "postcode": "37388"}}},
{"geometry": {"type": "Point", "coordinates": [-86.2307310985, 35.3831404447]}, "type": "Feature", "properties": {"collection_times": [{"days": "Mon-Sat", "time": "10:30am"}, {"days": "Sun", "time": "Closed"}], "id": "3738800035", "name": "USPS COLLECTION BOX - BLUE BOX", "address": {"city": "TULLAHOMA", "state": "TN", "street": "1801 N JACKSON ST", "postcode": "37388"}}},
{"geometry": {"type": "Point", "coordinates": [-86.2102718232, 35.3604394622]}, "type": "Feature", "properties": {"collection_times": [{"days": "Mon-Fri", "time": "3:00pm"}, {"days": "Sat", "time": "12:00pm"}, {"days": "Sun", "time": "Closed"}], "id": "3738800039", "name": "USPS COLLECTION BOX - BLUE BOX", "address": {"city": "TULLAHOMA", "state": "TN", "street": "200 S JACKSON ST", "postcode": "37388"}}},
{"geometry": {"type": "Point", "coordinates": [-86.2102718232, 35.3604394622]}, "type": "Feature", "properties": {"collection_times": [{"days": "Mon-Fri", "time": "3:00pm"}, {"days": "Sat", "time": "12:00pm"}, {"days": "Sun", "time": "Closed"}], "id": "3738800040", "name": "USPS COLLECTION BOX - BLUE BOX", "address": {"city": "TULLAHOMA", "state": "TN", "street": "200 S JACKSON ST", "postcode": "37388"}}},
{"geometry": {"type": "Point", "coordinates": [-86.2102718232, 35.3604394622]}, "type": "Feature", "properties": {"collection_times": [{"days": "Mon-Fri", "time": "3:00pm"}, {"days": "Sat", "time": "12:00pm"}, {"days": "Sun", "time": "Closed"}], "id": "3738800042", "name": "USPS COLLECTION BOX - PO LOBBY", "address": {"city": "TULLAHOMA", "state": "TN", "street": "200 S JACKSON ST", "postcode": "37388"}}},
{"geometry": {"type": "Point", "coordinates": [-86.2102718232, 35.3604394622]}, "type": "Feature", "properties": {"collection_times": [{"days": "Mon-Fri", "time": "3:00pm"}, {"days": "Sat", "time": "12:00pm"}, {"days": "Sun", "time": "Closed"}], "id": "3738800044", "name": "USPS COLLECTION BOX - BLUE BOX", "address": {"city": "TULLAHOMA", "state": "TN", "street": "200 S JACKSON ST", "postcode": "37388"}}},
{"geometry": {"type": "Point", "coordinates": [-86.2327610561, 35.3853916156]}, "type": "Feature", "properties": {"collection_times": [{"days": "Mon-Fri", "time": "10:30am"}, {"days": "Sat", "time": "10:00am"}, {"days": "Sun", "time": "Closed"}], "id": "3738800048", "name": "USPS COLLECTION BOX - BLUE BOX", "address": {"city": "TULLAHOMA", "state": "TN", "street": "1905 N JACKSON ST", "postcode": "37388"}}},
{"geometry": {"type": "Point", "coordinates": [-84.3533858677, 35.1267009662]}, "type": "Feature", "properties": {"collection_times": [{"days": "Mon-Sat", "time": "11:00am"}, {"days": "Sun", "time": "Closed"}], "id": "3739100001", "name": "USPS COLLECTION BOX - BLUE BOX", "address": {"city": "TURTLETOWN", "state": "TN", "street": "4600 HIGHWAY 68", "postcode": "37391"}}},
{"geometry": {"type": "Point", "coordinates": [-84.3533858677, 35.1267009662]}, "type": "Feature", "properties": {"collection_times": [{"days": "Mon-Sat", "time": "11:00am"}, {"days": "Sun", "time": "Closed"}], "id": "3739100003", "name": "USPS COLLECTION BOX - PO LOBBY", "address": {"city": "TURTLETOWN", "state": "TN", "street": "4600 HIGHWAY 68", "postcode": "37391"}}},
{"geometry": {"type": "Point", "coordinates": [-85.8590011751, 35.538364527]}, "type": "Feature", "properties": {"collection_times": [{"days": "Mon-Fri", "time": "3:45pm"}, {"days": "Sat", "time": "10:45am"}, {"days": "Sun", "time": "Closed"}], "id": "3739400001", "name": "USPS COLLECTION BOX - BLUE BOX", "address": {"city": "VIOLA", "state": "TN", "street": "15 LYNN ST", "postcode": "37394"}}},
{"geometry": {"type": "Point", "coordinates": [-85.8590011751, 35.538364527]}, "type": "Feature", "properties": {"collection_times": [{"days": "Mon-Fri", "time": "3:45pm"}, {"days": "Sat", "time": "10:45am"}, {"days": "Sun", "time": "Closed"}], "id": "3739400002", "name": "USPS COLLECTION BOX - PO LOBBY", "address": {"city": "VIOLA", "state": "TN", "street": "15 LYNN ST", "postcode": "37394"}}},
{"geometry": {"type": "Point", "coordinates": [-85.3989847673, 35.0527560257]}, "type": "Feature", "properties": {"collection_times": [{"days": "Mon-Sat", "time": "11:00am"}, {"days": "Sun", "time": "Closed"}], "id": "3739600001", "name": "USPS COLLECTION BOX - BLUE BOX", "address": {"city": "WHITESIDE", "state": "TN", "street": "3725 HIGHWAY 134", "postcode": "37396"}}},
{"geometry": {"type": "Point", "coordinates": [-85.3989847673, 35.0527560257]}, "type": "Feature", "properties": {"collection_times": [{"days": "Mon-Sat", "time": "11:00am"}, {"days": "Sun", "time": "Closed"}], "id": "3739600002", "name": "USPS COLLECTION BOX - PO LOBBY", "address": {"city": "WHITESIDE", "state": "TN", "street": "3725 HIGHWAY 134", "postcode": "37396"}}},
{"geometry": {"type": "Point", "coordinates": [-85.5204745773, 35.1917526261]}, "type": "Feature", "properties": {"collection_times": [{"days": "Mon-Fri", "time": "3:45pm"}, {"days": "Sat", "time": "11:30am"}, {"days": "Sun", "time": "Closed"}], "id": "3739700001", "name": "USPS COLLECTION BOX - BLUE BOX", "address": {"city": "WHITWELL", "state": "TN", "street": "13190 HIGHWAY 28", "postcode": "37397"}}},
{"geometry": {"type": "Point", "coordinates": [-85.5204745773, 35.1917526261]}, "type": "Feature", "properties": {"collection_times": [{"days": "Mon-Fri", "time": "3:45pm"}, {"days": "Sat", "time": "11:30am"}, {"days": "Sun", "time": "Closed"}], "id": "3739700002", "name": "USPS COLLECTION BOX - PO LOBBY", "address": {"city": "WHITWELL", "state": "TN", "street": "13190 HIGHWAY 28", "postcode": "37397"}}},
{"geometry": {"type": "Point", "coordinates": [-86.1130368966, 35.1854801388]}, "type": "Feature", "properties": {"collection_times": [{"days": "Mon-Sat", "time": "9:00am"}, {"days": "Sun", "time": "Closed"}], "id": "3739800005", "name": "USPS COLLECTION BOX - BLUE BOX", "address": {"city": "WINCHESTER", "state": "TN", "street": "7 S HIGH ST", "postcode": "37398"}}},
{"geometry": {"type": "Point", "coordinates": [-86.1121231675, 35.1861748055]}, "type": "Feature", "properties": {"collection_times": [{"days": "Mon-Sat", "time": "9:00am"}, {"days": "Sun", "time": "Closed"}], "id": "3739800007", "name": "USPS COLLECTION BOX - BLUE BOX", "address": {"city": "WINCHESTER", "state": "TN", "street": "1 S JEFFERSON ST", "postcode": "37398"}}},
{"geometry": {"type": "Point", "coordinates": [-86.1109039943, 35.184571033]}, "type": "Feature", "properties": {"collection_times": [{"days": "Mon-Fri", "time": "4:00pm"}, {"days": "Sat", "time": "12:00pm"}, {"days": "Sun", "time": "Closed"}], "id": "3739800008", "name": "USPS COLLECTION BOX - BLUE BOX", "address": {"city": "WINCHESTER", "state": "TN", "street": "200 S JEFFERSON ST", "postcode": "37398"}}},
{"geometry": {"type": "Point", "coordinates": [-86.100608866, 35.2183100564]}, "type": "Feature", "properties": {"collection_times": [{"days": "Mon-Sat", "time": "9:00am"}, {"days": "Sun", "time": "Closed"}], "id": "3739800014", "name": "USPS COLLECTION BOX - BLUE BOX", "address": {"city": "WINCHESTER", "state": "TN", "street": "2675 DECHERD BLVD", "postcode": "37398"}}},
{"geometry": {"type": "Point", "coordinates": [-86.1112644386, 35.1849573262]}, "type": "Feature", "properties": {"collection_times": [{"days": "Mon-Fri", "time": "4:00pm"}, {"days": "Sat", "time": "12:00pm"}, {"days": "Sun", "time": "Closed"}], "id": "3739800021", "name": "USPS COLLECTION BOX - BLUE BOX", "address": {"city": "WINCHESTER", "state": "TN", "street": "200 S JEFFERSON ST", "postcode": "37398"}}},
{"geometry": {"type": "Point", "coordinates": [-86.1112644386, 35.1849573262]}, "type": "Feature", "properties": {"collection_times": [{"days": "Mon-Fri", "time": "4:00pm"}, {"days": "Sat", "time": "12:00pm"}, {"days": "Sun", "time": "Closed"}], "id": "3739800022", "name": "USPS COLLECTION BOX - BLUE BOX", "address": {"city": "WINCHESTER", "state": "TN", "street": "200 S JEFFERSON ST", "postcode": "37398"}}},
{"geometry": {"type": "Point", "coordinates": [-86.1112644386, 35.1849573262]}, "type": "Feature", "properties": {"collection_times": [{"days": "Mon-Fri", "time": "4:00pm"}, {"days": "Sat", "time": "12:00pm"}, {"days": "Sun", "time": "Closed"}], "id": "3739800023", "name": "USPS COLLECTION BOX - PO LOBBY", "address": {"city": "WINCHESTER", "state": "TN", "street": "200 S JEFFERSON ST", "postcode": "37398"}}}
]}
