{"type": "FeatureCollection", "features": [
{"geometry": {"type": "Point", "coordinates": [-85.2965898074, 35.0440227812]}, "type": "Feature", "properties": {"collection_times": [{"days": "Mon-Fri", "time": "3:00pm"}, {"days": "Sat-Sun", "time": "Closed"}], "id": "3740200011", "name": "USPS COLLECTION BOX - BLUE BOX", "address": {"city": "CHATTANOOGA", "state": "TN", "street": "744 MCCALLIE AVE", "postcode": "37402"}}},
{"geometry": {"type": "Point", "coordinates": [-85.3073849167, 35.0496934441]}, "type": "Feature", "properties": {"collection_times": [{"days": "Mon-Fri", "time": "1:00pm"}, {"days": "Sat", "time": "2:00pm"}, {"days": "Sun", "time": "Closed"}], "id": "3740200031", "name": "USPS COLLECTION BOX - BLUE BOX", "address": {"city": "CHATTANOOGA", "state": "TN", "street": "600 WALNUT ST", "postcode": "37402"}}},
{"geometry": {"type": "Point", "coordinates": [-85.3073073019, 35.0367679045]}, "type": "Feature", "properties": {"collection_times": [{"days": "Mon-Fri", "time": "3:00pm"}, {"days": "Sat-Sun", "time": "Closed"}], "id": "3740200054", "name": "USPS COLLECTION BOX - BLUE BOX", "address": {"city": "CHATTANOOGA", "state": "TN", "street": "1434 MARKET ST", "postcode": "37402"}}},
{"geometry": {"type": "Point", "coordinates": [-85.3049379488, 35.0485665265]}, "type": "Feature", "properties": {"collection_times": [{"days": "Mon-Fri", "time": "1:00pm"}, {"days": "Sat", "time": "2:00pm"}, {"days": "Sun", "time": "Closed"}], "id": "3740200066", "name": "USPS COLLECTION BOX - BLUE BOX", "address": {"city": "CHATTANOOGA", "state": "TN", "street": "620 LINDSAY ST", "postcode": "37402"}}},
{"geometry": {"type": "Point", "coordinates": [-85.3130979998, 35.043019632]}, "type": "Feature", "properties": {"collection_times": [{"days": "Mon-Fri", "time": "4:00pm"}, {"days": "Sat", "time": "2:00pm"}, {"days": "Sun", "time": "Closed"}], "id": "3740200101", "name": "USPS COLLECTION BOX - BLUE BOX", "address": {"city": "CHATTANOOGA", "state": "TN", "street": "1100 CARTER ST", "postcode": "37402"}}},
{"geometry": {"type": "Point", "coordinates": [-85.3105096319, 35.0504052521]}, "type": "Feature", "properties": {"collection_times": [{"days": "Mon-Fri", "time": "3:00pm"}, {"days": "Sat", "time": "2:00pm"}, {"days": "Sun", "time": "Closed"}], "id": "3740200104", "name": "USPS COLLECTION BOX - BLUE BOX", "address": {"city": "CHATTANOOGA", "state": "TN", "street": "538 BROAD ST", "postcode": "37402"}}},
{"geometry": {"type": "Point", "coordinates": [-85.3105096319, 35.0504052521]}, "type": "Feature", "properties": {"collection_times": [{"days": "Mon-Fri", "time": "3:00pm"}, {"days": "Sat", "time": "2:00pm"}, {"days": "Sun", "time": "Closed"}], "id": "3740200105", "name": "USPS COLLECTION BOX - BLUE BOX", "address": {"city": "CHATTANOOGA", "state": "TN", "street": "538 BROAD ST", "postcode": "37402"}}},
{"geometry": {"type": "Point", "coordinates": [-85.3133842758, 35.0495838713]}, "type": "Feature", "properties": {"collection_times": [{"days": "Mon-Fri", "time": "1:00pm"}, {"days": "Sat-Sun", "time": "Closed"}], "id": "3740200112", "name": "USPS COLLECTION BOX - BLUE BOX", "address": {"city": "CHATTANOOGA", "state": "TN", "street": "301 W 6TH ST", "postcode": "37402"}}},
{"geometry": {"type": "Point", "coordinates": [-85.2911636432, 35.0480115974]}, "type": "Feature", "properties": {"collection_times": [{"days": "Mon-Fri", "time": "3:00pm"}, {"days": "Sat-Sun", "time": "Closed"}], "id": "3740200114", "name": "USPS COLLECTION BOX - BLUE BOX", "address": {"city": "CHATTANOOGA", "state": "TN", "street": "966 E 3RD ST", "postcode": "37402"}}},
{"geometry": {"type": "Point", "coordinates": [-85.2912097424, 35.0479582019]}, "type": "Feature", "properties": {"collection_times": [{"days": "Mon-Fri", "time": "3:00pm"}, {"days": "Sat-Sun", "time": "Closed"}], "id": "3740200115", "name": "USPS COLLECTION BOX - BLUE BOX", "address": {"city": "CHATTANOOGA", "state": "TN", "street": "966 E 3RD ST", "postcode": "37402"}}},
{"geometry": {"type": "Point", "coordinates": [-85.3072037244, 35.0475419106]}, "type": "Feature", "properties": {"collection_times": [{"days": "Mon-Fri", "time": "4:30pm"}, {"days": "Sat-Sun", "time": "Closed"}], "id": "3740200122", "name": "USPS COLLECTION BOX - BLUE BOX", "address": {"city": "CHATTANOOGA", "state": "TN", "street": "736 GEORGIA AVE", "postcode": "37402"}}},
{"geometry": {"type": "Point", "coordinates": [-85.3084040186, 35.0469009203]}, "type": "Feature", "properties": {"collection_times": [{"days": "Mon-Fri", "time": "3:00pm"}, {"days": "Sat-Sun", "time": "Closed"}], "id": "3740200138", "name": "USPS COLLECTION BOX - BLUE BOX", "address": {"city": "CHATTANOOGA", "state": "TN", "street": "800 CHERRY ST", "postcode": "37402"}}},
{"geometry": {"type": "Point", "coordinates": [-85.3079591487, 35.0433335442]}, "type": "Feature", "properties": {"collection_times": [{"days": "Mon-Fri", "time": "3:00pm"}, {"days": "Sat-Sun", "time": "Closed"}], "id": "3740200139", "name": "USPS COLLECTION BOX - BLUE BOX", "address": {"city": "CHATTANOOGA", "state": "TN", "street": "100 E 11TH ST STE 400 STE 400", "postcode": "37402"}}},
{"geometry": {"type": "Point", "coordinates": [-85.3082249349, 35.0457364789]}, "type": "Feature", "properties": {"collection_times": [{"days": "Mon-Fri", "time": "5:30pm"}, {"days": "Sat", "time": "2:00pm"}, {"days": "Sun", "time": "Closed"}], "id": "3740200143", "name": "USPS COLLECTION BOX - BLUE BOX", "address": {"city": "CHATTANOOGA", "state": "TN", "street": "900 GEORGIA AVE", "postcode": "37402"}}},
{"geometry": {"type": "Point", "coordinates": [-85.3082249349, 35.0457364789]}, "type": "Feature", "properties": {"collection_times": [{"days": "Mon-Fri", "time": "5:30pm"}, {"days": "Sat", "time": "2:00pm"}, {"days": "Sun", "time": "Closed"}], "id": "3740200144", "name": "USPS COLLECTION BOX - BLUE BOX", "address": {"city": "CHATTANOOGA", "state": "TN", "street": "900 GEORGIA AVE", "postcode": "37402"}}},
{"geometry": {"type": "Point", "coordinates": [-85.3082249349, 35.0457364789]}, "type": "Feature", "properties": {"collection_times": [{"days": "Mon-Fri", "time": "5:30pm"}, {"days": "Sat", "time": "2:00pm"}, {"days": "Sun", "time": "Closed"}], "id": "3740200145", "name": "USPS COLLECTION BOX - BLUE BOX", "address": {"city": "CHATTANOOGA", "state": "TN", "street": "900 GEORGIA AVE", "postcode": "37402"}}},
{"geometry": {"type": "Point", "coordinates": [-85.308830204, 35.0447257444]}, "type": "Feature", "properties": {"collection_times": [{"days": "Mon-Fri", "time": "5:30pm"}, {"days": "Sat-Sun", "time": "Closed"}], "id": "3740200148", "name": "USPS COLLECTION BOX - BLUE BOX", "address": {"city": "CHATTANOOGA", "state": "TN", "street": "101 E 10TH ST", "postcode": "37402"}}},
{"geometry": {"type": "Point", "coordinates": [-85.308830204, 35.0447257444]}, "type": "Feature", "properties": {"collection_times": [{"days": "Mon-Fri", "time": "5:30pm"}, {"days": "Sat-Sun", "time": "Closed"}], "id": "3740200182", "name": "USPS COLLECTION BOX - BLUE BOX", "address": {"city": "CHATTANOOGA", "state": "TN", "street": "101 E 10TH ST", "postcode": "37402"}}},
{"geometry": {"type": "Point", "coordinates": [-85.3104209636, 35.0436773571]}, "type": "Feature", "properties": {"collection_times": [{"days": "Mon-Fri", "time": "3:00pm"}, {"days": "Sat-Sun", "time": "Closed"}], "id": "3740200185", "name": "USPS COLLECTION BOX - BLUE BOX", "address": {"city": "CHATTANOOGA", "state": "TN", "street": "1101 BROAD ST", "postcode": "37402"}}},
{"geometry": {"type": "Point", "coordinates": [-85.3093977041, 35.0433189206]}, "type": "Feature", "properties": {"collection_times": [{"days": "Mon-Fri", "time": "1:00pm"}, {"days": "Sat-Sun", "time": "Closed"}], "id": "3740200197", "name": "USPS COLLECTION BOX - BLUE BOX", "address": {"city": "CHATTANOOGA", "state": "TN", "street": "1101 MARKET ST", "postcode": "37402"}}},
{"geometry": {"type": "Point", "coordinates": [-85.2911636432, 35.0480115974]}, "type": "Feature", "properties": {"collection_times": [{"days": "Mon-Fri", "time": "3:00pm"}, {"days": "Sat-Sun", "time": "Closed"}], "id": "3740200198", "name": "USPS COLLECTION BOX - BLUE BOX", "address": {"city": "CHATTANOOGA", "state": "TN", "street": "966 E 3RD ST", "postcode": "37402"}}},
{"geometry": {"type": "Point", "coordinates": [-85.3082249349, 35.0457364789]}, "type": "Feature", "properties": {"collection_times": [{"days": "Mon-Fri", "time": "5:30pm"}, {"days": "Sat", "time": "2:00pm"}, {"days": "Sun", "time": "Closed"}], "id": "3740200204", "name": "USPS COLLECTION BOX - BLUE BOX", "address": {"city": "CHATTANOOGA", "state": "TN", "street": "900 GEORGIA AVE", "postcode": "37402"}}},
{"geometry": {"type": "Point", "coordinates": [-85.3082249349, 35.0457364789]}, "type": "Feature", "properties": {"collection_times": [{"days": "Mon-Fri", "time": "5:30pm"}, {"days": "Sat", "time": "2:00pm"}, {"days": "Sun", "time": "Closed"}], "id": "3740200205", "name": "USPS COLLECTION BOX - BLUE BOX", "address": {"city": "CHATTANOOGA", "state": "TN", "street": "900 GEORGIA AVE", "postcode": "37402"}}},
{"geometry": {"type": "Point", "coordinates": [-85.3094994386, 35.0481915285]}, "type": "Feature", "properties": {"collection_times": [{"days": "Mon-Fri", "time": "4:00pm"}, {"days": "Sat", "time": "2:00pm"}, {"days": "Sun", "time": "Closed"}], "id": "3740200207", "name": "USPS COLLECTION BOX - BLUE BOX", "address": {"city": "CHATTANOOGA", "state": "TN", "street": "701 MARKET ST", "postcode": "37402"}}},
{"geometry": {"type": "Point", "coordinates": [-85.3059765868, 35.0498476711]}, "type": "Feature", "properties": {"collection_times": [{"days": "Mon-Fri", "time": "3:00pm"}, {"days": "Sat-Sun", "time": "Closed"}], "id": "3740200209", "name": "USPS COLLECTION BOX - BLUE BOX", "address": {"city": "CHATTANOOGA", "state": "TN", "street": "600 GEORGIA AVE", "postcode": "37402"}}},
{"geometry": {"type": "Point", "coordinates": [-85.3104571605, 35.0448277704]}, "type": "Feature", "properties": {"collection_times": [{"days": "Mon-Fri", "time": "3:00pm"}, {"days": "Sat", "time": "1:00pm"}, {"days": "Sun", "time": "Closed"}], "id": "3740200210", "name": "USPS COLLECTION BOX - BLUE BOX", "address": {"city": "CHATTANOOGA", "state": "TN", "street": "1001 BROAD ST", "postcode": "37402"}}},
{"geometry": {"type": "Point", "coordinates": [-85.2701459666, 35.044632097]}, "type": "Feature", "properties": {"collection_times": [{"days": "Mon-Fri", "time": "1:00pm"}, {"days": "Sat-Sun", "time": "Closed"}], "id": "3740400001", "name": "USPS COLLECTION BOX - BLUE BOX", "address": {"city": "CHATTANOOGA", "state": "TN", "street": "701 N ORCHARD KNOB AVE", "postcode": "37404"}}},
{"geometry": {"type": "Point", "coordinates": [-85.2601951396, 35.0304818902]}, "type": "Feature", "properties": {"collection_times": [{"days": "Mon-Fri", "time": "5:00pm"}, {"days": "Sat", "time": "1:00pm"}, {"days": "Sun", "time": "Closed"}], "id": "3740400002", "name": "USPS COLLECTION BOX - BLUE BOX", "address": {"city": "CHATTANOOGA", "state": "TN", "street": "2850 MCCALLIE AVE", "postcode": "37404"}}},
{"geometry": {"type": "Point", "coordinates": [-85.2771016659, 35.0347061531]}, "type": "Feature", "properties": {"collection_times": [{"days": "Mon-Fri", "time": "5:00pm"}, {"days": "Sat", "time": "1:00pm"}, {"days": "Sun", "time": "Closed"}], "id": "3740400016", "name": "USPS COLLECTION BOX - BLUE BOX", "address": {"city": "CHATTANOOGA", "state": "TN", "street": "511 S HAWTHORNE ST", "postcode": "37404"}}},
{"geometry": {"type": "Point", "coordinates": [-85.2589927405, 35.041400415]}, "type": "Feature", "properties": {"collection_times": [{"days": "Mon-Fri", "time": "4:00pm"}, {"days": "Sat", "time": "2:00pm"}, {"days": "Sun", "time": "Closed"}], "id": "3740400018", "name": "USPS COLLECTION BOX - BLUE BOX", "address": {"city": "CHATTANOOGA", "state": "TN", "street": "726 GLENWOOD DR", "postcode": "37404"}}},
{"geometry": {"type": "Point", "coordinates": [-85.2771016659, 35.0347061531]}, "type": "Feature", "properties": {"collection_times": [{"days": "Mon-Fri", "time": "5:00pm"}, {"days": "Sat", "time": "1:00pm"}, {"days": "Sun", "time": "Closed"}], "id": "3740400031", "name": "USPS COLLECTION BOX - BLUE BOX", "address": {"city": "CHATTANOOGA", "state": "TN", "street": "511 S HAWTHORNE ST", "postcode": "37404"}}},
{"geometry": {"type": "Point", "coordinates": [-85.2685989789, 35.0337053773]}, "type": "Feature", "properties": {"collection_times": [{"days": "Mon-Sat", "time": "1:00pm"}, {"days": "Sun", "time": "Closed"}], "id": "3740400033", "name": "USPS COLLECTION BOX - BLUE BOX", "address": {"city": "CHATTANOOGA", "state": "TN", "street": "2341 MCCALLIE AVE", "postcode": "37404"}}},
{"geometry": {"type": "Point", "coordinates": [-85.2601951396, 35.0304818902]}, "type": "Feature", "properties": {"collection_times": [{"days": "Mon-Fri", "time": "5:00pm"}, {"days": "Sat", "time": "1:00pm"}, {"days": "Sun", "time": "Closed"}], "id": "3740400039", "name": "USPS COLLECTION BOX - BLUE BOX", "address": {"city": "CHATTANOOGA", "state": "TN", "street": "2850 MCCALLIE AVE", "postcode": "37404"}}},
{"geometry": {"type": "Point", "coordinates": [-85.3161074474, 35.1192991919]}, "type": "Feature", "properties": {"collection_times": [{"days": "Mon-Fri", "time": "4:30pm"}, {"days": "Sat", "time": "2:00pm"}, {"days": "Sun", "time": "Closed"}], "id": "3740500019", "name": "USPS COLLECTION BOX - BLUE BOX", "address": {"city": "CHATTANOOGA", "state": "TN", "street": "1200 MOUNTAIN CREEK RD", "postcode": "37405"}}},
{"geometry": {"type": "Point", "coordinates": [-85.3086937901, 35.0638704447]}, "type": "Feature", "properties": {"collection_times": [{"days": "Mon-Fri", "time": "5:00pm"}, {"days": "Sat", "time": "2:00pm"}, {"days": "Sun", "time": "Closed"}], "id": "3740500021", "name": "USPS COLLECTION BOX - BLUE BOX", "address": {"city": "CHATTANOOGA", "state": "TN", "street": "124 N MARKET ST", "postcode": "37405"}}},
{"geometry": {"type": "Point", "coordinates": [-85.3086937901, 35.0638704447]}, "type": "Feature", "properties": {"collection_times": [{"days": "Mon-Fri", "time": "5:00pm"}, {"days": "Sat", "time": "2:00pm"}, {"days": "Sun", "time": "Closed"}], "id": "3740500022", "name": "USPS COLLECTION BOX - BLUE BOX", "address": {"city": "CHATTANOOGA", "state": "TN", "street": "124 N MARKET ST", "postcode": "37405"}}},
{"geometry": {"type": "Point", "coordinates": [-85.3086937901, 35.0638704447]}, "type": "Feature", "properties": {"collection_times": [{"days": "Mon-Fri", "time": "5:00pm"}, {"days": "Sat", "time": "2:00pm"}, {"days": "Sun", "time": "Closed"}], "id": "3740500023", "name": "USPS COLLECTION BOX - BLUE BOX", "address": {"city": "CHATTANOOGA", "state": "TN", "street": "124 N MARKET ST", "postcode": "37405"}}},
{"geometry": {"type": "Point", "coordinates": [-85.327562039, 35.1010910875]}, "type": "Feature", "properties": {"collection_times": [{"days": "Mon-Fri", "time": "1:00pm"}, {"days": "Sat", "time": "2:00pm"}, {"days": "Sun", "time": "Closed"}], "id": "3740500024", "name": "USPS COLLECTION BOX - BLUE BOX", "address": {"city": "CHATTANOOGA", "state": "TN", "street": "816 MOUNTAIN CREEK RD", "postcode": "37405"}}},
{"geometry": {"type": "Point", "coordinates": [-85.3086937901, 35.0638704447]}, "type": "Feature", "properties": {"collection_times": [{"days": "Mon-Fri", "time": "5:00pm"}, {"days": "Sat", "time": "2:00pm"}, {"days": "Sun", "time": "Closed"}], "id": "3740500029", "name": "USPS COLLECTION BOX - BLUE BOX", "address": {"city": "CHATTANOOGA", "state": "TN", "street": "124 N MARKET ST", "postcode": "37405"}}},
{"geometry": {"type": "Point", "coordinates": [-85.2788454229, 35.0564722413]}, "type": "Feature", "properties": {"collection_times": [{"days": "Mon-Fri", "time": "1:00pm"}, {"days": "Sat-Sun", "time": "Closed"}], "id": "3740600029", "name": "USPS COLLECTION BOX - BLUE BOX", "address": {"city": "CHATTANOOGA", "state": "TN", "street": "1501 RIVERSIDE DR", "postcode": "37406"}}},
{"geometry": {"type": "Point", "coordinates": [-85.270252409, 35.0703885706]}, "type": "Feature", "properties": {"collection_times": [{"days": "Mon-Fri", "time": "5:00pm"}, {"days": "Sat", "time": "2:00pm"}, {"days": "Sun", "time": "Closed"}], "id": "3740600030", "name": "USPS COLLECTION BOX - BLUE BOX", "address": {"city": "CHATTANOOGA", "state": "TN", "street": "2200 AMNICOLA HWY", "postcode": "37406"}}},
{"geometry": {"type": "Point", "coordinates": [-85.270252409, 35.0703885706]}, "type": "Feature", "properties": {"collection_times": [{"days": "Mon-Fri", "time": "5:00pm"}, {"days": "Sat", "time": "2:00pm"}, {"days": "Sun", "time": "Closed"}], "id": "3740600031", "name": "USPS COLLECTION BOX - BLUE BOX", "address": {"city": "CHATTANOOGA", "state": "TN", "street": "2200 AMNICOLA HWY", "postcode": "37406"}}},
{"geometry": {"type": "Point", "coordinates": [-85.270252409, 35.0703885706]}, "type": "Feature", "properties": {"collection_times": [{"days": "Mon-Fri", "time": "5:00pm"}, {"days": "Sat", "time": "2:00pm"}, {"days": "Sun", "time": "Closed"}], "id": "3740600032", "name": "USPS COLLECTION BOX - BLUE BOX", "address": {"city": "CHATTANOOGA", "state": "TN", "street": "2200 AMNICOLA HWY", "postcode": "37406"}}},
{"geometry": {"type": "Point", "coordinates": [-85.2774495313, 35.0571394302]}, "type": "Feature", "properties": {"collection_times": [{"days": "Mon-Fri", "time": "1:00pm"}, {"days": "Sat-Sun", "time": "Closed"}], "id": "3740600034", "name": "USPS COLLECTION BOX - BLUE BOX", "address": {"city": "CHATTANOOGA", "state": "TN", "street": "1548 RIVERSIDE DR", "postcode": "37406"}}},
{"geometry": {"type": "Point", "coordinates": [-85.3280754432, 35.0115541064]}, "type": "Feature", "properties": {"collection_times": [{"days": "Mon-Fri", "time": "1:00pm"}, {"days": "Sat", "time": "2:00pm"}, {"days": "Sun", "time": "Closed"}], "id": "3740900006", "name": "USPS COLLECTION BOX - BLUE BOX", "address": {"city": "CHATTANOOGA", "state": "TN", "street": "3734 SAINT ELMO AVE", "postcode": "37409"}}},
{"geometry": {"type": "Point", "coordinates": [-85.3215509949, 35.0082876752]}, "type": "Feature", "properties": {"collection_times": [{"days": "Mon-Fri", "time": "5:00pm"}, {"days": "Sat", "time": "2:00pm"}, {"days": "Sun", "time": "Closed"}], "id": "3740900007", "name": "USPS COLLECTION BOX - BLUE BOX", "address": {"city": "CHATTANOOGA", "state": "TN", "street": "1101 W 40TH ST", "postcode": "37409"}}},
{"geometry": {"type": "Point", "coordinates": [-85.3215509949, 35.0082876752]}, "type": "Feature", "properties": {"collection_times": [{"days": "Mon-Fri", "time": "5:00pm"}, {"days": "Sat", "time": "2:00pm"}, {"days": "Sun", "time": "Closed"}], "id": "3740900009", "name": "USPS COLLECTION BOX - BLUE BOX", "address": {"city": "CHATTANOOGA", "state": "TN", "street": "1101 W 40TH ST", "postcode": "37409"}}},
{"geometry": {"type": "Point", "coordinates": [-85.2174125741, 35.0106539502]}, "type": "Feature", "properties": {"collection_times": [{"days": "Mon-Fri", "time": "3:00pm"}, {"days": "Sat-Sun", "time": "Closed"}], "id": "3741100021", "name": "USPS COLLECTION BOX - BLUE BOX", "address": {"city": "CHATTANOOGA", "state": "TN", "street": "5600 BRAINERD RD", "postcode": "37411"}}},
{"geometry": {"type": "Point", "coordinates": [-85.2113351377, 35.0068506616]}, "type": "Feature", "properties": {"collection_times": [{"days": "Mon-Fri", "time": "5:00pm"}, {"days": "Sat", "time": "2:00pm"}, {"days": "Sun", "time": "Closed"}], "id": "3741100029", "name": "USPS COLLECTION BOX - BLUE BOX", "address": {"city": "CHATTANOOGA", "state": "TN", "street": "711 EASTGATE LOOP", "postcode": "37411"}}},
{"geometry": {"type": "Point", "coordinates": [-85.2113351377, 35.0068506616]}, "type": "Feature", "properties": {"collection_times": [{"days": "Mon-Fri", "time": "5:00pm"}, {"days": "Sat", "time": "2:00pm"}, {"days": "Sun", "time": "Closed"}], "id": "3741100030", "name": "USPS COLLECTION BOX - BLUE BOX", "address": {"city": "CHATTANOOGA", "state": "TN", "street": "711 EASTGATE LOOP", "postcode": "37411"}}},
{"geometry": {"type": "Point", "coordinates": [-85.2580374226, 35.0007601069]}, "type": "Feature", "properties": {"collection_times": [{"days": "Mon-Fri", "time": "3:00pm"}, {"days": "Sat", "time": "2:00pm"}, {"days": "Sun", "time": "Closed"}], "id": "3741200014", "name": "USPS COLLECTION BOX - BLUE BOX", "address": {"city": "CHATTANOOGA", "state": "TN", "street": "3720 RINGGOLD RD", "postcode": "37412"}}},
{"geometry": {"type": "Point", "coordinates": [-85.2612619209, 35.0055245646]}, "type": "Feature", "properties": {"collection_times": [{"days": "Mon-Fri", "time": "3:00pm"}, {"days": "Sat", "time": "2:00pm"}, {"days": "Sun", "time": "Closed"}], "id": "3741200015", "name": "USPS COLLECTION BOX - BLUE BOX", "address": {"city": "CHATTANOOGA", "state": "TN", "street": "3444 RINGGOLD RD", "postcode": "37412"}}},
{"geometry": {"type": "Point", "coordinates": [-85.2291552316, 34.9911054778]}, "type": "Feature", "properties": {"collection_times": [{"days": "Mon-Fri", "time": "5:00pm"}, {"days": "Sat", "time": "2:00pm"}, {"days": "Sun", "time": "Closed"}], "id": "3741200016", "name": "USPS COLLECTION BOX - BLUE BOX", "address": {"city": "CHATTANOOGA", "state": "TN", "street": "1510 MAXWELL RD", "postcode": "37412"}}},
{"geometry": {"type": "Point", "coordinates": [-85.2182116782, 35.0002521165]}, "type": "Feature", "properties": {"collection_times": [{"days": "Mon-Fri", "time": "1:00pm"}, {"days": "Sat-Sun", "time": "Closed"}], "id": "3741200019", "name": "USPS COLLECTION BOX - BLUE BOX", "address": {"city": "CHATTANOOGA", "state": "TN", "street": "929 SPRING CREEK RD", "postcode": "37412"}}},
{"geometry": {"type": "Point", "coordinates": [-85.2291552316, 34.9911054778]}, "type": "Feature", "properties": {"collection_times": [{"days": "Mon-Fri", "time": "5:00pm"}, {"days": "Sat", "time": "2:00pm"}, {"days": "Sun", "time": "Closed"}], "id": "3741200021", "name": "USPS COLLECTION BOX - BLUE BOX", "address": {"city": "CHATTANOOGA", "state": "TN", "street": "1510 MAXWELL RD", "postcode": "37412"}}},
{"geometry": {"type": "Point", "coordinates": [-85.2291552316, 34.9911054778]}, "type": "Feature", "properties": {"collection_times": [{"days": "Mon-Fri", "time": "5:00pm"}, {"days": "Sat", "time": "2:00pm"}, {"days": "Sun", "time": "Closed"}], "id": "3741200022", "name": "USPS COLLECTION BOX - BLUE BOX", "address": {"city": "CHATTANOOGA", "state": "TN", "street": "1510 MAXWELL RD", "postcode": "37412"}}},
{"geometry": {"type": "Point", "coordinates": [-85.2722220357, 35.1068296215]}, "type": "Feature", "properties": {"collection_times": [{"days": "Mon-Sat", "time": "1:00pm"}, {"days": "Sun", "time": "Closed"}], "id": "3741500010", "name": "USPS COLLECTION BOX - BLUE BOX", "address": {"city": "CHATTANOOGA", "state": "TN", "street": "3600 HIXSON PIKE", "postcode": "37415"}}},
{"geometry": {"type": "Point", "coordinates": [-85.2949951787, 35.1101490043]}, "type": "Feature", "properties": {"collection_times": [{"days": "Mon-Fri", "time": "5:00pm"}, {"days": "Sat", "time": "2:00pm"}, {"days": "Sun", "time": "Closed"}], "id": "3741500017", "name": "USPS COLLECTION BOX - BLUE BOX", "address": {"city": "CHATTANOOGA", "state": "TN", "street": "3317 DAYTON BLVD", "postcode": "37415"}}},
{"geometry": {"type": "Point", "coordinates": [-85.2484540241, 35.1109155617]}, "type": "Feature", "properties": {"collection_times": [{"days": "Mon-Fri", "time": "1:00pm"}, {"days": "Sat-Sun", "time": "Closed"}], "id": "3741500022", "name": "USPS COLLECTION BOX - BLUE BOX", "address": {"city": "CHATTANOOGA", "state": "TN", "street": "4501 N ACCESS RD", "postcode": "37415"}}},
{"geometry": {"type": "Point", "coordinates": [-85.2556286703, 35.114742434]}, "type": "Feature", "properties": {"collection_times": [{"days": "Mon-Sat", "time": "1:00pm"}, {"days": "Sun", "time": "Closed"}], "id": "3741500023", "name": "USPS COLLECTION BOX - BLUE BOX", "address": {"city": "CHATTANOOGA", "state": "TN", "street": "4121 HIXSON PIKE", "postcode": "37415"}}},
{"geometry": {"type": "Point", "coordinates": [-85.2949951787, 35.1101490043]}, "type": "Feature", "properties": {"collection_times": [{"days": "Mon-Fri", "time": "5:00pm"}, {"days": "Sat", "time": "2:00pm"}, {"days": "Sun", "time": "Closed"}], "id": "3741500025", "name": "USPS COLLECTION BOX - BLUE BOX", "address": {"city": "CHATTANOOGA", "state": "TN", "street": "3317 DAYTON BLVD", "postcode": "37415"}}},
{"geometry": {"type": "Point", "coordinates": [-85.2949951787, 35.1101490043]}, "type": "Feature", "properties": {"collection_times": [{"days": "Mon-Fri", "time": "5:00pm"}, {"days": "Sat", "time": "2:00pm"}, {"days": "Sun", "time": "Closed"}], "id": "3741500026", "name": "USPS COLLECTION BOX - BLUE BOX", "address": {"city": "CHATTANOOGA", "state": "TN", "street": "3317 DAYTON BLVD", "postcode": "37415"}}},
{"geometry": {"type": "Point", "coordinates": [-85.2949951787, 35.1101490043]}, "type": "Feature", "properties": {"collection_times": [{"days": "Mon-Fri", "time": "5:00pm"}, {"days": "Sat", "time": "2:00pm"}, {"days": "Sun", "time": "Closed"}], "id": "3741500027", "name": "USPS COLLECTION BOX - BLUE BOX", "address": {"city": "CHATTANOOGA", "state": "TN", "street": "3317 DAYTON BLVD", "postcode": "37415"}}},
{"geometry": {"type": "Point", "coordinates": [-85.1977547688, 35.0847839982]}, "type": "Feature", "properties": {"collection_times": [{"days": "Mon-Fri", "time": "5:00pm"}, {"days": "Sat", "time": "1:00pm"}, {"days": "Sun", "time": "Closed"}], "id": "3741600013", "name": "USPS COLLECTION BOX - BLUE BOX", "address": {"city": "CHATTANOOGA", "state": "TN", "street": "4510 HIGHWAY 58", "postcode": "37416"}}},
{"geometry": {"type": "Point", "coordinates": [-85.1844192724, 35.072192583]}, "type": "Feature", "properties": {"collection_times": [{"days": "Mon-Fri", "time": "3:00pm"}, {"days": "Sat-Sun", "time": "Closed"}], "id": "3741600016", "name": "USPS COLLECTION BOX - BLUE BOX", "address": {"city": "CHATTANOOGA", "state": "TN", "street": "6135 HERITAGE PARK DR", "postcode": "37416"}}},
{"geometry": {"type": "Point", "coordinates": [-85.1847173781, 35.0749630729]}, "type": "Feature", "properties": {"collection_times": [{"days": "Mon-Fri", "time": "3:00pm"}, {"days": "Sat", "time": "1:00pm"}, {"days": "Sun", "time": "Closed"}], "id": "3741600017", "name": "USPS COLLECTION BOX - BLUE BOX", "address": {"city": "CHATTANOOGA", "state": "TN", "street": "6139 PRESERVATION DR", "postcode": "37416"}}},
{"geometry": {"type": "Point", "coordinates": [-85.1838502692, 35.0885174167]}, "type": "Feature", "properties": {"collection_times": [{"days": "Mon-Fri", "time": "5:00pm"}, {"days": "Sat", "time": "1:00pm"}, {"days": "Sun", "time": "Closed"}], "id": "3741600019", "name": "USPS COLLECTION BOX - BLUE BOX", "address": {"city": "CHATTANOOGA", "state": "TN", "street": "4420 OAKWOOD DR", "postcode": "37416"}}},
{"geometry": {"type": "Point", "coordinates": [-85.1838502692, 35.0885174167]}, "type": "Feature", "properties": {"collection_times": [{"days": "Mon-Fri", "time": "5:00pm"}, {"days": "Sat", "time": "1:00pm"}, {"days": "Sun", "time": "Closed"}], "id": "3741600020", "name": "USPS COLLECTION BOX - BLUE BOX", "address": {"city": "CHATTANOOGA", "state": "TN", "street": "4420 OAKWOOD DR", "postcode": "37416"}}},
{"geometry": {"type": "Point", "coordinates": [-85.364980214, 35.0204274816]}, "type": "Feature", "properties": {"collection_times": [{"days": "Mon-Fri", "time": "12:00pm"}, {"days": "Sat-Sun", "time": "Closed"}], "id": "3741900001", "name": "USPS COLLECTION BOX - BLUE BOX", "address": {"city": "CHATTANOOGA", "state": "TN", "street": "2941 CUMMINGS HWY", "postcode": "37419"}}},
{"geometry": {"type": "Point", "coordinates": [-85.3622894824, 35.0307328353]}, "type": "Feature", "properties": {"collection_times": [{"days": "Mon-Fri", "time": "1:00pm"}, {"days": "Sat", "time": "11:00am"}, {"days": "Sun", "time": "Closed"}], "id": "3741900003", "name": "USPS COLLECTION BOX - BLUE BOX", "address": {"city": "CHATTANOOGA", "state": "TN", "street": "321 BROWNS FERRY RD", "postcode": "37419"}}},
{"geometry": {"type": "Point", "coordinates": [-85.14967088, 35.0402379757]}, "type": "Feature", "properties": {"collection_times": [{"days": "Mon-Fri", "time": "5:00pm"}, {"days": "Sat", "time": "1:00pm"}, {"days": "Sun", "time": "Closed"}], "id": "3742100009", "name": "USPS COLLECTION BOX - BLUE BOX", "address": {"city": "CHATTANOOGA", "state": "TN", "street": "7405 SHALLOWFORD RD", "postcode": "37421"}}},
{"geometry": {"type": "Point", "coordinates": [-85.1946305742, 35.0546859733]}, "type": "Feature", "properties": {"collection_times": [{"days": "Mon-Fri", "time": "4:00pm"}, {"days": "Sat-Sun", "time": "Closed"}], "id": "3742100023", "name": "USPS COLLECTION BOX - BLUE BOX", "address": {"city": "CHATTANOOGA", "state": "TN", "street": "5959 SHALLOWFORD RD", "postcode": "37421"}}},
{"geometry": {"type": "Point", "coordinates": [-85.1902216861, 35.0275063081]}, "type": "Feature", "properties": {"collection_times": [{"days": "Mon-Fri", "time": "3:00pm"}, {"days": "Sat", "time": "2:00pm"}, {"days": "Sun", "time": "Closed"}], "id": "3742100031", "name": "USPS COLLECTION BOX - BLUE BOX", "address": {"city": "CHATTANOOGA", "state": "TN", "street": "6025 LEE HWY", "postcode": "37421"}}},
{"geometry": {"type": "Point", "coordinates": [-85.1969696498, 35.0171714687]}, "type": "Feature", "properties": {"collection_times": [{"days": "Mon-Fri", "time": "3:00pm"}, {"days": "Sat", "time": "2:00pm"}, {"days": "Sun", "time": "Closed"}], "id": "3742100061", "name": "USPS COLLECTION BOX - BLUE BOX", "address": {"city": "CHATTANOOGA", "state": "TN", "street": "6337 E BRAINERD RD", "postcode": "37421"}}},
{"geometry": {"type": "Point", "coordinates": [-85.197114788, 35.0251652323]}, "type": "Feature", "properties": {"collection_times": [{"days": "Mon-Fri", "time": "1:00pm"}, {"days": "Sat-Sun", "time": "Closed"}], "id": "3742100087", "name": "USPS COLLECTION BOX - BLUE BOX", "address": {"city": "CHATTANOOGA", "state": "TN", "street": "515 AIRPORT RD", "postcode": "37421"}}},
{"geometry": {"type": "Point", "coordinates": [-85.1599214409, 35.0220107484]}, "type": "Feature", "properties": {"collection_times": [{"days": "Mon-Fri", "time": "5:00pm"}, {"days": "Sat-Sun", "time": "Closed"}], "id": "3742100094", "name": "USPS COLLECTION BOX - BLUE BOX", "address": {"city": "CHATTANOOGA", "state": "TN", "street": "1720 GUNBARREL RD", "postcode": "37421"}}},
{"geometry": {"type": "Point", "coordinates": [-85.150471899, 35.0394317174]}, "type": "Feature", "properties": {"collection_times": [{"days": "Mon-Fri", "time": "5:00pm"}, {"days": "Sat", "time": "1:00pm"}, {"days": "Sun", "time": "Closed"}], "id": "3742100097", "name": "USPS COLLECTION BOX - BLUE BOX", "address": {"city": "CHATTANOOGA", "state": "TN", "street": "2288 GUNBARREL RD", "postcode": "37421"}}},
{"geometry": {"type": "Point", "coordinates": [-85.1618188414, 35.0471718179]}, "type": "Feature", "properties": {"collection_times": [{"days": "Mon-Fri", "time": "3:00pm"}, {"days": "Sat", "time": "1:00pm"}, {"days": "Sun", "time": "Closed"}], "id": "3742100101", "name": "USPS COLLECTION BOX - BLUE BOX", "address": {"city": "CHATTANOOGA", "state": "TN", "street": "118 LEE PARKWAY DR", "postcode": "37421"}}},
{"geometry": {"type": "Point", "coordinates": [-85.1605589901, 35.0441872125]}, "type": "Feature", "properties": {"collection_times": [{"days": "Mon-Fri", "time": "3:00pm"}, {"days": "Sat", "time": "1:00pm"}, {"days": "Sun", "time": "Closed"}], "id": "3742100104", "name": "USPS COLLECTION BOX - BLUE BOX", "address": {"city": "CHATTANOOGA", "state": "TN", "street": "6918 SHALLOWFORD RD", "postcode": "37421"}}},
{"geometry": {"type": "Point", "coordinates": [-85.1580416534, 35.0122768944]}, "type": "Feature", "properties": {"collection_times": [{"days": "Mon-Fri", "time": "5:00pm"}, {"days": "Sat", "time": "1:00pm"}, {"days": "Sun", "time": "Closed"}], "id": "3742100108", "name": "USPS COLLECTION BOX - BLUE BOX", "address": {"city": "CHATTANOOGA", "state": "TN", "street": "7610 E BRAINERD RD", "postcode": "37421"}}},
{"geometry": {"type": "Point", "coordinates": [-85.1580416534, 35.0122768944]}, "type": "Feature", "properties": {"collection_times": [{"days": "Mon-Fri", "time": "5:00pm"}, {"days": "Sat", "time": "1:00pm"}, {"days": "Sun", "time": "Closed"}], "id": "3742100109", "name": "USPS COLLECTION BOX - BLUE BOX", "address": {"city": "CHATTANOOGA", "state": "TN", "street": "7610 E BRAINERD RD", "postcode": "37421"}}},
{"geometry": {"type": "Point", "coordinates": [-85.1580416534, 35.0122768944]}, "type": "Feature", "properties": {"collection_times": [{"days": "Mon-Fri", "time": "5:00pm"}, {"days": "Sat", "time": "1:00pm"}, {"days": "Sun", "time": "Closed"}], "id": "3742100110", "name": "USPS COLLECTION BOX - BLUE BOX", "address": {"city": "CHATTANOOGA", "state": "TN", "street": "7610 E BRAINERD RD", "postcode": "37421"}}},
{"geometry": {"type": "Point", "coordinates": [-85.1633117356, 35.0443256187]}, "type": "Feature", "properties": {"collection_times": [{"days": "Mon-Fri", "time": "3:00pm"}, {"days": "Sat", "time": "1:00pm"}, {"days": "Sun", "time": "Closed"}], "id": "3742100111", "name": "USPS COLLECTION BOX - BLUE BOX", "address": {"city": "CHATTANOOGA", "state": "TN", "street": "6951 LEE HWY", "postcode": "37421"}}},
{"geometry": {"type": "Point", "coordinates": [-85.1857181614, 35.0536224932]}, "type": "Feature", "properties": {"collection_times": [{"days": "Mon-Fri", "time": "7:30pm"}, {"days": "Sat", "time": "7:00pm"}, {"days": "Sun", "time": "Closed"}], "id": "3742100113", "name": "USPS COLLECTION BOX - PO LOBBY", "address": {"city": "CHATTANOOGA", "state": "TN", "street": "6050 SHALLOWFORD RD", "postcode": "37421"}}},
{"geometry": {"type": "Point", "coordinates": [-85.14967088, 35.0402379757]}, "type": "Feature", "properties": {"collection_times": [{"days": "Mon-Fri", "time": "5:00pm"}, {"days": "Sat", "time": "1:00pm"}, {"days": "Sun", "time": "Closed"}], "id": "3742100120", "name": "USPS COLLECTION BOX - BLUE BOX", "address": {"city": "CHATTANOOGA", "state": "TN", "street": "7405 SHALLOWFORD RD", "postcode": "37421"}}},
{"geometry": {"type": "Point", "coordinates": [-85.1857181614, 35.0536224932]}, "type": "Feature", "properties": {"collection_times": [{"days": "Mon-Sat", "time": "7:00pm"}, {"days": "Sun", "time": "Closed"}], "id": "3742100123", "name": "USPS COLLECTION BOX - BLUE BOX", "address": {"city": "CHATTANOOGA", "state": "TN", "street": "6050 SHALLOWFORD RD", "postcode": "37421"}}},
{"geometry": {"type": "Point", "coordinates": [-85.1857181614, 35.0536224932]}, "type": "Feature", "properties": {"collection_times": [{"days": "Mon-Sat", "time": "7:00pm"}, {"days": "Sun", "time": "Closed"}], "id": "3742100124", "name": "USPS COLLECTION BOX - BLUE BOX", "address": {"city": "CHATTANOOGA", "state": "TN", "street": "6050 SHALLOWFORD RD", "postcode": "37421"}}},
{"geometry": {"type": "Point", "coordinates": [-85.1857181614, 35.0536224932]}, "type": "Feature", "properties": {"collection_times": [{"days": "Mon-Sat", "time": "7:00pm"}, {"days": "Sun", "time": "Closed"}], "id": "3742100126", "name": "USPS COLLECTION BOX - BLUE BOX", "address": {"city": "CHATTANOOGA", "state": "TN", "street": "6050 SHALLOWFORD RD", "postcode": "37421"}}},
{"geometry": {"type": "Point", "coordinates": [-85.1408248686, 35.0380405577]}, "type": "Feature", "properties": {"collection_times": [{"days": "Mon-Sat", "time": "1:00pm"}, {"days": "Sun", "time": "Closed"}], "id": "3742100131", "name": "USPS COLLECTION BOX - BLUE BOX", "address": {"city": "CHATTANOOGA", "state": "TN", "street": "2307 ASHFORD DR", "postcode": "37421"}}},
{"geometry": {"type": "Point", "coordinates": [-85.182730007, 35.0532392145]}, "type": "Feature", "properties": {"collection_times": [{"days": "Mon-Sat", "time": "1:00pm"}, {"days": "Sun", "time": "Closed"}], "id": "3742100134", "name": "USPS COLLECTION BOX - BLUE BOX", "address": {"city": "CHATTANOOGA", "state": "TN", "street": "6116 SHALLOWFORD RD", "postcode": "37421"}}},
{"geometry": {"type": "Point", "coordinates": [-85.1634956013, 35.0442850406]}, "type": "Feature", "properties": {"collection_times": [{"days": "Mon-Fri", "time": "3:00pm"}, {"days": "Sat", "time": "1:00pm"}, {"days": "Sun", "time": "Closed"}], "id": "3742100135", "name": "USPS COLLECTION BOX - BLUE BOX", "address": {"city": "CHATTANOOGA", "state": "TN", "street": "6951 LEE HWY", "postcode": "37421"}}},
{"geometry": {"type": "Point", "coordinates": [-85.1580416534, 35.0122768944]}, "type": "Feature", "properties": {"collection_times": [{"days": "Mon-Fri", "time": "5:00pm"}, {"days": "Sat", "time": "1:00pm"}, {"days": "Sun", "time": "Closed"}], "id": "3742100136", "name": "USPS COLLECTION BOX - BLUE BOX", "address": {"city": "CHATTANOOGA", "state": "TN", "street": "7610 E BRAINERD RD", "postcode": "37421"}}},
{"geometry": {"type": "Point", "coordinates": [-85.1903285258, 35.0149624983]}, "type": "Feature", "properties": {"collection_times": [{"days": "Mon-Fri", "time": "3:00pm"}, {"days": "Sat-Sun", "time": "Closed"}], "id": "3742100140", "name": "USPS COLLECTION BOX - BLUE BOX", "address": {"city": "CHATTANOOGA", "state": "TN", "street": "1290 PREMIER DR", "postcode": "37421"}}},
{"geometry": {"type": "Point", "coordinates": [-85.1610191611, 35.0369061]}, "type": "Feature", "properties": {"collection_times": [{"days": "Mon-Fri", "time": "3:00pm"}, {"days": "Sat", "time": "1:00pm"}, {"days": "Sun", "time": "Closed"}], "id": "3742100141", "name": "USPS COLLECTION BOX - BLUE BOX", "address": {"city": "CHATTANOOGA", "state": "TN", "street": "2100 HAMILTON PLACE BLVD", "postcode": "37421"}}},
{"geometry": {"type": "Point", "coordinates": [-85.1610191611, 35.0369061]}, "type": "Feature", "properties": {"collection_times": [{"days": "Mon-Fri", "time": "3:00pm"}, {"days": "Sat", "time": "1:00pm"}, {"days": "Sun", "time": "Closed"}], "id": "3742100142", "name": "USPS COLLECTION BOX - BLUE BOX", "address": {"city": "CHATTANOOGA", "state": "TN", "street": "2100 HAMILTON PLACE BLVD", "postcode": "37421"}}},
{"geometry": {"type": "Point", "coordinates": [-85.1857181614, 35.0536224932]}, "type": "Feature", "properties": {"collection_times": [{"days": "Mon-Fri", "time": "7:00pm"}, {"days": "Sat-Sun", "time": "Closed"}], "id": "3742100143", "name": "USPS COLLECTION BOX - APC", "address": {"city": "CHATTANOOGA", "state": "TN", "street": "6050 SHALLOWFORD RD", "postcode": "37421"}}}
]}
