{"type": "FeatureCollection", "features": [
{"geometry": {"type": "Point", "coordinates": [-82.3433975818, 36.320031385]}, "type": "Feature", "properties": {"collection_times": [{"days": "Mon-Fri", "time": "3:30pm"}, {"days": "Sat", "time": "3:00pm"}, {"days": "Sun", "time": "Closed"}], "id": "3760100001", "name": "USPS COLLECTION BOX - BLUE BOX", "address": {"city": "JOHNSON CITY", "state": "TN", "street": "530 E MAIN ST", "postcode": "37601"}}},
{"geometry": {"type": "Point", "coordinates": [-82.3665282107, 36.3158775635]}, "type": "Feature", "properties": {"collection_times": [{"days": "Mon-Fri", "time": "1:35pm"}, {"days": "Sat-Sun", "time": "Closed"}], "id": "3760100013", "name": "USPS COLLECTION BOX - BLUE BOX", "address": {"city": "JOHNSON CITY", "state": "TN", "street": "601 E MAIN ST", "postcode": "37601"}}},
{"geometry": {"type": "Point", "coordinates": [-82.3710192805, 36.3514577006]}, "type": "Feature", "properties": {"collection_times": [{"days": "Mon-Fri", "time": "12:45pm"}, {"days": "Sat-Sun", "time": "Closed"}], "id": "3760100014", "name": "USPS COLLECTION BOX - BLUE BOX", "address": {"city": "JOHNSON CITY", "state": "TN", "street": "403 PRINCETON RD", "postcode": "37601"}}},
{"geometry": {"type": "Point", "coordinates": [-82.3616059184, 36.3249212848]}, "type": "Feature", "properties": {"collection_times": [{"days": "Mon-Fri", "time": "12:55pm"}, {"days": "Sat", "time": "3:00pm"}, {"days": "Sun", "time": "Closed"}], "id": "3760100018", "name": "USPS COLLECTION BOX - BLUE BOX", "address": {"city": "JOHNSON CITY", "state": "TN", "street": "1121 N ROAN ST", "postcode": "37601"}}},
{"geometry": {"type": "Point", "coordinates": [-82.3719969908, 36.3341259337]}, "type": "Feature", "properties": {"collection_times": [{"days": "Mon-Fri", "time": "12:50pm"}, {"days": "Sat", "time": "3:00pm"}, {"days": "Sun", "time": "Closed"}], "id": "3760100019", "name": "USPS COLLECTION BOX - BLUE BOX", "address": {"city": "JOHNSON CITY", "state": "TN", "street": "1805 N ROAN ST", "postcode": "37601"}}},
{"geometry": {"type": "Point", "coordinates": [-82.3733621646, 36.3370359675]}, "type": "Feature", "properties": {"collection_times": [{"days": "Mon-Fri", "time": "12:50pm"}, {"days": "Sat", "time": "3:00pm"}, {"days": "Sun", "time": "Closed"}], "id": "3760100020", "name": "USPS COLLECTION BOX - BLUE BOX", "address": {"city": "JOHNSON CITY", "state": "TN", "street": "1907 N ROAN ST", "postcode": "37601"}}},
{"geometry": {"type": "Point", "coordinates": [-82.3753885733, 36.3414211964]}, "type": "Feature", "properties": {"collection_times": [{"days": "Mon-Fri", "time": "12:50pm"}, {"days": "Sat", "time": "3:00pm"}, {"days": "Sun", "time": "Closed"}], "id": "3760100024", "name": "USPS COLLECTION BOX - BLUE BOX", "address": {"city": "JOHNSON CITY", "state": "TN", "street": "2112 N ROAN ST", "postcode": "37601"}}},
{"geometry": {"type": "Point", "coordinates": [-82.3867012753, 36.3598470351]}, "type": "Feature", "properties": {"collection_times": [{"days": "Mon-Fri", "time": "12:15pm"}, {"days": "Sat-Sun", "time": "Closed"}], "id": "3760100034", "name": "USPS COLLECTION BOX - BLUE BOX", "address": {"city": "JOHNSON CITY", "state": "TN", "street": "3110 E OAKLAND AVE", "postcode": "37601"}}},
{"geometry": {"type": "Point", "coordinates": [-82.3409341165, 36.3061076555]}, "type": "Feature", "properties": {"collection_times": [{"days": "Mon-Fri", "time": "1:20pm"}, {"days": "Sat-Sun", "time": "Closed"}], "id": "3760100036", "name": "USPS COLLECTION BOX - BLUE BOX", "address": {"city": "JOHNSON CITY", "state": "TN", "street": "1940 S ROAN ST", "postcode": "37601"}}},
{"geometry": {"type": "Point", "coordinates": [-82.3305165738, 36.2934001602]}, "type": "Feature", "properties": {"collection_times": [{"days": "Mon-Fri", "time": "1:20pm"}, {"days": "Sat", "time": "3:00pm"}, {"days": "Sun", "time": "Closed"}], "id": "3760100039", "name": "USPS COLLECTION BOX - BLUE BOX", "address": {"city": "JOHNSON CITY", "state": "TN", "street": "2700 S ROAN ST", "postcode": "37601"}}},
{"geometry": {"type": "Point", "coordinates": [-82.3810664025, 36.3651122525]}, "type": "Feature", "properties": {"collection_times": [{"days": "Mon-Fri", "time": "12:15pm"}, {"days": "Sat-Sun", "time": "Closed"}], "id": "3760100052", "name": "USPS COLLECTION BOX - BLUE BOX", "address": {"city": "JOHNSON CITY", "state": "TN", "street": "3201 BRISTOL HWY", "postcode": "37601"}}},
{"geometry": {"type": "Point", "coordinates": [-82.3737856639, 36.347920373]}, "type": "Feature", "properties": {"collection_times": [{"days": "Mon-Fri", "time": "12:45pm"}, {"days": "Sat", "time": "3:00pm"}, {"days": "Sun", "time": "Closed"}], "id": "3760100054", "name": "USPS COLLECTION BOX - BLUE BOX", "address": {"city": "JOHNSON CITY", "state": "TN", "street": "206 PRINCETON RD", "postcode": "37601"}}},
{"geometry": {"type": "Point", "coordinates": [-82.3684043836, 36.3548371341]}, "type": "Feature", "properties": {"collection_times": [{"days": "Mon-Fri", "time": "12:45pm"}, {"days": "Sat", "time": "3:00pm"}, {"days": "Sun", "time": "Closed"}], "id": "3760100059", "name": "USPS COLLECTION BOX - BLUE BOX", "address": {"city": "JOHNSON CITY", "state": "TN", "street": "508 PRINCETON RD", "postcode": "37601"}}},
{"geometry": {"type": "Point", "coordinates": [-82.3730510464, 36.3442141625]}, "type": "Feature", "properties": {"collection_times": [{"days": "Mon-Fri", "time": "12:50pm"}, {"days": "Sat-Sun", "time": "Closed"}], "id": "3760100060", "name": "USPS COLLECTION BOX - BLUE BOX", "address": {"city": "JOHNSON CITY", "state": "TN", "street": "203 BROYLES DR", "postcode": "37601"}}},
{"geometry": {"type": "Point", "coordinates": [-82.3591075091, 36.3203751735]}, "type": "Feature", "properties": {"collection_times": [{"days": "Mon-Fri", "time": "1:00pm"}, {"days": "Sat", "time": "3:00pm"}, {"days": "Sun", "time": "Closed"}], "id": "3760100061", "name": "USPS COLLECTION BOX - BLUE BOX", "address": {"city": "JOHNSON CITY", "state": "TN", "street": "206 E UNAKA AVE", "postcode": "37601"}}},
{"geometry": {"type": "Point", "coordinates": [-82.3758747694, 36.3423995035]}, "type": "Feature", "properties": {"collection_times": [{"days": "Mon-Fri", "time": "12:50pm"}, {"days": "Sat-Sun", "time": "Closed"}], "id": "3760100062", "name": "USPS COLLECTION BOX - BLUE BOX", "address": {"city": "JOHNSON CITY", "state": "TN", "street": "2116 N ROAN ST", "postcode": "37601"}}},
{"geometry": {"type": "Point", "coordinates": [-82.3543957835, 36.3233136436]}, "type": "Feature", "properties": {"collection_times": [{"days": "Mon-Fri", "time": "12:55pm"}, {"days": "Sat", "time": "3:00pm"}, {"days": "Sun", "time": "Closed"}], "id": "3760100063", "name": "USPS COLLECTION BOX - BLUE BOX", "address": {"city": "JOHNSON CITY", "state": "TN", "street": "208 E WATAUGA AVE", "postcode": "37601"}}},
{"geometry": {"type": "Point", "coordinates": [-82.3433975818, 36.320031385]}, "type": "Feature", "properties": {"collection_times": [{"days": "Mon-Fri", "time": "12:00pm"}, {"days": "Sat", "time": "3:00pm"}, {"days": "Sun", "time": "Closed"}], "id": "3760100064", "name": "USPS COLLECTION BOX - PO LOBBY", "address": {"city": "JOHNSON CITY", "state": "TN", "street": "530 E MAIN ST", "postcode": "37601"}}},
{"geometry": {"type": "Point", "coordinates": [-82.3722419025, 36.3547921816]}, "type": "Feature", "properties": {"collection_times": [{"days": "Mon-Fri", "time": "12:45pm"}, {"days": "Sat-Sun", "time": "Closed"}], "id": "3760100065", "name": "USPS COLLECTION BOX - BLUE BOX", "address": {"city": "JOHNSON CITY", "state": "TN", "street": "2513 WESLEY ST", "postcode": "37601"}}},
{"geometry": {"type": "Point", "coordinates": [-82.3733621646, 36.3370359675]}, "type": "Feature", "properties": {"collection_times": [{"days": "Mon-Fri", "time": "12:50pm"}, {"days": "Sat", "time": "3:00pm"}, {"days": "Sun", "time": "Closed"}], "id": "3760100066", "name": "USPS COLLECTION BOX - BLUE BOX", "address": {"city": "JOHNSON CITY", "state": "TN", "street": "1907 N ROAN ST", "postcode": "37601"}}},
{"geometry": {"type": "Point", "coordinates": [-82.3448528066, 36.333786534]}, "type": "Feature", "properties": {"collection_times": [{"days": "Mon-Fri", "time": "1:00pm"}, {"days": "Sat", "time": "3:00pm"}, {"days": "Sun", "time": "Closed"}], "id": "3760100068", "name": "USPS COLLECTION BOX - BLUE BOX", "address": {"city": "JOHNSON CITY", "state": "TN", "street": "1220 E UNAKA AVE", "postcode": "37601"}}},
{"geometry": {"type": "Point", "coordinates": [-82.3564784589, 36.3191733976]}, "type": "Feature", "properties": {"collection_times": [{"days": "Mon-Fri", "time": "1:00pm"}, {"days": "Sat-Sun", "time": "Closed"}], "id": "3760400001", "name": "USPS COLLECTION BOX - BLUE BOX", "address": {"city": "JOHNSON CITY", "state": "TN", "street": "300 N BOONE ST", "postcode": "37604"}}},
{"geometry": {"type": "Point", "coordinates": [-82.3639723654, 36.2933002882]}, "type": "Feature", "properties": {"collection_times": [{"days": "Mon-Fri", "time": "1:20pm"}, {"days": "Sat", "time": "3:00pm"}, {"days": "Sun", "time": "Closed"}], "id": "3760400005", "name": "USPS COLLECTION BOX - BLUE BOX", "address": {"city": "JOHNSON CITY", "state": "TN", "street": "1310 CHEROKEE RD", "postcode": "37604"}}},
{"geometry": {"type": "Point", "coordinates": [-82.3794810093, 36.3451294805]}, "type": "Feature", "properties": {"collection_times": [{"days": "Mon-Fri", "time": "12:40pm"}, {"days": "Sat", "time": "3:00pm"}, {"days": "Sun", "time": "Closed"}], "id": "3760400006", "name": "USPS COLLECTION BOX - BLUE BOX", "address": {"city": "JOHNSON CITY", "state": "TN", "street": "2311 BROWNS MILL RD", "postcode": "37604"}}},
{"geometry": {"type": "Point", "coordinates": [-82.3794810093, 36.3451294805]}, "type": "Feature", "properties": {"collection_times": [{"days": "Mon-Fri", "time": "12:40pm"}, {"days": "Sat", "time": "3:00pm"}, {"days": "Sun", "time": "Closed"}], "id": "3760400007", "name": "USPS COLLECTION BOX - BLUE BOX", "address": {"city": "JOHNSON CITY", "state": "TN", "street": "2311 BROWNS MILL RD", "postcode": "37604"}}},
{"geometry": {"type": "Point", "coordinates": [-82.3794810093, 36.3451294805]}, "type": "Feature", "properties": {"collection_times": [{"days": "Mon-Fri", "time": "12:40pm"}, {"days": "Sat", "time": "3:00pm"}, {"days": "Sun", "time": "Closed"}], "id": "3760400008", "name": "USPS COLLECTION BOX - BLUE BOX", "address": {"city": "JOHNSON CITY", "state": "TN", "street": "2311 BROWNS MILL RD", "postcode": "37604"}}},
{"geometry": {"type": "Point", "coordinates": [-82.3521777354, 36.3165281909]}, "type": "Feature", "properties": {"collection_times": [{"days": "Mon-Fri", "time": "1:30pm"}, {"days": "Sat-Sun", "time": "Closed"}], "id": "3760400021", "name": "USPS COLLECTION BOX - BLUE BOX", "address": {"city": "JOHNSON CITY", "state": "TN", "street": "202 E MAIN ST", "postcode": "37604"}}},
{"geometry": {"type": "Point", "coordinates": [-82.3854011307, 36.3054920861]}, "type": "Feature", "properties": {"collection_times": [{"days": "Mon-Fri", "time": "1:05pm"}, {"days": "Sat-Sun", "time": "Closed"}], "id": "3760400028", "name": "USPS COLLECTION BOX - BLUE BOX", "address": {"city": "JOHNSON CITY", "state": "TN", "street": "310 N STATE OF FRANKLIN RD", "postcode": "37604"}}},
{"geometry": {"type": "Point", "coordinates": [-82.3543538199, 36.3119355069]}, "type": "Feature", "properties": {"collection_times": [{"days": "Mon-Fri", "time": "1:30pm"}, {"days": "Sat", "time": "3:00pm"}, {"days": "Sun", "time": "Closed"}], "id": "3760400030", "name": "USPS COLLECTION BOX - BLUE BOX", "address": {"city": "JOHNSON CITY", "state": "TN", "street": "428 W WALNUT ST", "postcode": "37604"}}},
{"geometry": {"type": "Point", "coordinates": [-82.3864201678, 36.3082688833]}, "type": "Feature", "properties": {"collection_times": [{"days": "Mon-Fri", "time": "1:05pm"}, {"days": "Sat-Sun", "time": "Closed"}], "id": "3760400033", "name": "USPS COLLECTION BOX - BLUE BOX", "address": {"city": "JOHNSON CITY", "state": "TN", "street": "400 N STATE OF FRANKLIN RD", "postcode": "37604"}}},
{"geometry": {"type": "Point", "coordinates": [-82.3864537014, 36.3085266733]}, "type": "Feature", "properties": {"collection_times": [{"days": "Mon-Fri", "time": "1:05pm"}, {"days": "Sat-Sun", "time": "Closed"}], "id": "3760400035", "name": "USPS COLLECTION BOX - BLUE BOX", "address": {"city": "JOHNSON CITY", "state": "TN", "street": "408 N STATE OF FRANKLIN RD", "postcode": "37604"}}},
{"geometry": {"type": "Point", "coordinates": [-82.374483834, 36.3030407749]}, "type": "Feature", "properties": {"collection_times": [{"days": "Mon-Fri", "time": "1:05pm"}, {"days": "Sat", "time": "3:00pm"}, {"days": "Sun", "time": "Closed"}], "id": "3760400036", "name": "USPS COLLECTION BOX - BLUE BOX", "address": {"city": "JOHNSON CITY", "state": "TN", "street": "1500 W STATE OF FRANKLIN RD", "postcode": "37604"}}},
{"geometry": {"type": "Point", "coordinates": [-82.3766182471, 36.3018393147]}, "type": "Feature", "properties": {"collection_times": [{"days": "Mon-Fri", "time": "1:20pm"}, {"days": "Sat-Sun", "time": "Closed"}], "id": "3760400037", "name": "USPS COLLECTION BOX - BLUE BOX", "address": {"city": "JOHNSON CITY", "state": "TN", "street": "1735 W STATE OF FRANKLIN RD", "postcode": "37604"}}},
{"geometry": {"type": "Point", "coordinates": [-82.3785198657, 36.3414732466]}, "type": "Feature", "properties": {"collection_times": [{"days": "Mon-Fri", "time": "12:35pm"}, {"days": "Sat-Sun", "time": "Closed"}], "id": "3760400038", "name": "USPS COLLECTION BOX - BLUE BOX", "address": {"city": "JOHNSON CITY", "state": "TN", "street": "208 SUNSET DR", "postcode": "37604"}}},
{"geometry": {"type": "Point", "coordinates": [-82.3785198657, 36.3414732466]}, "type": "Feature", "properties": {"collection_times": [{"days": "Mon-Fri", "time": "12:35pm"}, {"days": "Sat-Sun", "time": "Closed"}], "id": "3760400039", "name": "USPS COLLECTION BOX - BLUE BOX", "address": {"city": "JOHNSON CITY", "state": "TN", "street": "208 SUNSET DR", "postcode": "37604"}}},
{"geometry": {"type": "Point", "coordinates": [-82.3874937924, 36.3345020694]}, "type": "Feature", "properties": {"collection_times": [{"days": "Mon-Fri", "time": "12:30pm"}, {"days": "Sat", "time": "3:00pm"}, {"days": "Sun", "time": "Closed"}], "id": "3760400042", "name": "USPS COLLECTION BOX - BLUE BOX", "address": {"city": "JOHNSON CITY", "state": "TN", "street": "805 SUNSET DR", "postcode": "37604"}}},
{"geometry": {"type": "Point", "coordinates": [-82.3498121781, 36.3132868096]}, "type": "Feature", "properties": {"collection_times": [{"days": "Mon-Fri", "time": "1:25pm"}, {"days": "Sat-Sun", "time": "Closed"}], "id": "3760400046", "name": "USPS COLLECTION BOX - BLUE BOX", "address": {"city": "JOHNSON CITY", "state": "TN", "street": "210 W MAPLE ST", "postcode": "37604"}}},
{"geometry": {"type": "Point", "coordinates": [-82.3828705428, 36.3127058687]}, "type": "Feature", "properties": {"collection_times": [{"days": "Mon-Fri", "time": "1:00pm"}, {"days": "Sat-Sun", "time": "Closed"}], "id": "3760400051", "name": "USPS COLLECTION BOX - BLUE BOX", "address": {"city": "JOHNSON CITY", "state": "TN", "street": "1611 W MARKET ST", "postcode": "37604"}}},
{"geometry": {"type": "Point", "coordinates": [-82.3589032497, 36.318989722]}, "type": "Feature", "properties": {"collection_times": [{"days": "Mon-Fri", "time": "1:00pm"}, {"days": "Sat-Sun", "time": "Closed"}], "id": "3760400056", "name": "USPS COLLECTION BOX - BLUE BOX", "address": {"city": "JOHNSON CITY", "state": "TN", "street": "405 MONTGOMERY ST", "postcode": "37604"}}},
{"geometry": {"type": "Point", "coordinates": [-82.4015627234, 36.3511238259]}, "type": "Feature", "properties": {"collection_times": [{"days": "Mon-Fri", "time": "12:25pm"}, {"days": "Sat", "time": "3:00pm"}, {"days": "Sun", "time": "Closed"}], "id": "3760400057", "name": "USPS COLLECTION BOX - BLUE BOX", "address": {"city": "JOHNSON CITY", "state": "TN", "street": "926 W OAKLAND AVE", "postcode": "37604"}}},
{"geometry": {"type": "Point", "coordinates": [-82.3536652517, 36.3196624656]}, "type": "Feature", "properties": {"collection_times": [{"days": "Mon-Fri", "time": "1:00pm"}, {"days": "Sat", "time": "3:00pm"}, {"days": "Sun", "time": "Closed"}], "id": "3760400058", "name": "USPS COLLECTION BOX - BLUE BOX", "address": {"city": "JOHNSON CITY", "state": "TN", "street": "100 W MILLARD ST", "postcode": "37604"}}},
{"geometry": {"type": "Point", "coordinates": [-82.3531341733, 36.3190891748]}, "type": "Feature", "properties": {"collection_times": [{"days": "Mon-Fri", "time": "1:00pm"}, {"days": "Sat-Sun", "time": "Closed"}], "id": "3760400059", "name": "USPS COLLECTION BOX - BLUE BOX", "address": {"city": "JOHNSON CITY", "state": "TN", "street": "103 W KING ST", "postcode": "37604"}}},
{"geometry": {"type": "Point", "coordinates": [-82.4022576759, 36.3619667981]}, "type": "Feature", "properties": {"collection_times": [{"days": "Mon-Fri", "time": "12:15pm"}, {"days": "Sat", "time": "3:00pm"}, {"days": "Sun", "time": "Closed"}], "id": "3760400060", "name": "USPS COLLECTION BOX - BLUE BOX", "address": {"city": "JOHNSON CITY", "state": "TN", "street": "3300 BROWNS MILL RD", "postcode": "37604"}}},
{"geometry": {"type": "Point", "coordinates": [-82.4029818314, 36.3338214227]}, "type": "Feature", "properties": {"collection_times": [{"days": "Mon-Fri", "time": "12:00pm"}, {"days": "Sat", "time": "1:00pm"}, {"days": "Sun", "time": "Closed"}], "id": "3760400064", "name": "USPS COLLECTION BOX - BLUE BOX", "address": {"city": "JOHNSON CITY", "state": "TN", "street": "1100 N STATE OF FRANKLIN RD", "postcode": "37604"}}},
{"geometry": {"type": "Point", "coordinates": [-82.3859629047, 36.3056323528]}, "type": "Feature", "properties": {"collection_times": [{"days": "Mon-Fri", "time": "1:15pm"}, {"days": "Sat-Sun", "time": "Closed"}], "id": "3760400067", "name": "USPS COLLECTION BOX - BLUE BOX", "address": {"city": "JOHNSON CITY", "state": "TN", "street": "325 N STATE OF FRANKLIN RD", "postcode": "37604"}}},
{"geometry": {"type": "Point", "coordinates": [-82.3496632954, 36.2865728345]}, "type": "Feature", "properties": {"collection_times": [{"days": "Mon-Fri", "time": "12:00pm"}, {"days": "Sat", "time": "1:00pm"}, {"days": "Sun", "time": "Closed"}], "id": "3760400071", "name": "USPS COLLECTION BOX - PO LOBBY", "address": {"city": "JOHNSON CITY", "state": "TN", "street": "1100 N STATE OF FRANKLIN RD", "postcode": "37604"}}},
{"geometry": {"type": "Point", "coordinates": [-82.3496632954, 36.2865728345]}, "type": "Feature", "properties": {"collection_times": [{"days": "Mon-Fri", "time": "1:15pm"}, {"days": "Sat-Sun", "time": "Closed"}], "id": "3760400073", "name": "USPS COLLECTION BOX - BLUE BOX", "address": {"city": "JOHNSON CITY", "state": "TN", "street": "2 PROFESSIONAL PARK DR", "postcode": "37604"}}},
{"geometry": {"type": "Point", "coordinates": [-82.3904526481, 36.3314139083]}, "type": "Feature", "properties": {"collection_times": [{"days": "Mon-Fri", "time": "12:30pm"}, {"days": "Sat", "time": "3:00pm"}, {"days": "Sun", "time": "Closed"}], "id": "3760400075", "name": "USPS COLLECTION BOX - BLUE BOX", "address": {"city": "JOHNSON CITY", "state": "TN", "street": "1113 SUNSET CT", "postcode": "37604"}}},
{"geometry": {"type": "Point", "coordinates": [-82.387532141, 36.3124602546]}, "type": "Feature", "properties": {"collection_times": [{"days": "Mon-Fri", "time": "1:15pm"}, {"days": "Sat-Sun", "time": "Closed"}], "id": "3760400076", "name": "USPS COLLECTION BOX - BLUE BOX", "address": {"city": "JOHNSON CITY", "state": "TN", "street": "509 N STATE OF FRANKLIN RD", "postcode": "37604"}}},
{"geometry": {"type": "Point", "coordinates": [-82.4040611327, 36.3492157131]}, "type": "Feature", "properties": {"collection_times": [{"days": "Mon-Fri", "time": "12:25pm"}, {"days": "Sat", "time": "3:00pm"}, {"days": "Sun", "time": "Closed"}], "id": "3760400077", "name": "USPS COLLECTION BOX - BLUE BOX", "address": {"city": "JOHNSON CITY", "state": "TN", "street": "1019 W OAKLAND AVE", "postcode": "37604"}}},
{"geometry": {"type": "Point", "coordinates": [-82.3854011307, 36.3054920861]}, "type": "Feature", "properties": {"collection_times": [{"days": "Mon-Fri", "time": "1:05pm"}, {"days": "Sat-Sun", "time": "Closed"}], "id": "3760400078", "name": "USPS COLLECTION BOX - BLUE BOX", "address": {"city": "JOHNSON CITY", "state": "TN", "street": "310 N STATE OF FRANKLIN RD", "postcode": "37604"}}},
{"geometry": {"type": "Point", "coordinates": [-82.4022760476, 36.3423533681]}, "type": "Feature", "properties": {"collection_times": [{"days": "Mon-Fri", "time": "12:30pm"}, {"days": "Sat", "time": "3:00pm"}, {"days": "Sun", "time": "Closed"}], "id": "3760400080", "name": "USPS COLLECTION BOX - BLUE BOX", "address": {"city": "JOHNSON CITY", "state": "TN", "street": "101 MED TECH PKWY", "postcode": "37604"}}},
{"geometry": {"type": "Point", "coordinates": [-82.3864133387, 36.3018739897]}, "type": "Feature", "properties": {"collection_times": [{"days": "Mon-Fri", "time": "1:15pm"}, {"days": "Sat", "time": "3:00pm"}, {"days": "Sun", "time": "Closed"}], "id": "3760400082", "name": "USPS COLLECTION BOX - BLUE BOX", "address": {"city": "JOHNSON CITY", "state": "TN", "street": "2203 MCKINLEY RD", "postcode": "37604"}}},
{"geometry": {"type": "Point", "coordinates": [-82.4722905101, 36.4103868782]}, "type": "Feature", "properties": {"collection_times": [{"days": "Mon-Fri", "time": "12:00pm"}, {"days": "Sat", "time": "1:00pm"}, {"days": "Sun", "time": "Closed"}], "id": "3761500001", "name": "USPS COLLECTION BOX - BLUE BOX", "address": {"city": "JOHNSON CITY", "state": "TN", "street": "220 OLD GRAY STATION RD", "postcode": "37615"}}},
{"geometry": {"type": "Point", "coordinates": [-82.4722905101, 36.4103868782]}, "type": "Feature", "properties": {"collection_times": [{"days": "Mon-Fri", "time": "12:00pm"}, {"days": "Sat", "time": "1:00pm"}, {"days": "Sun", "time": "Closed"}], "id": "3761500003", "name": "USPS COLLECTION BOX - PO LOBBY", "address": {"city": "JOHNSON CITY", "state": "TN", "street": "220 OLD GRAY STATION RD", "postcode": "37615"}}},
{"geometry": {"type": "Point", "coordinates": [-82.4276540663, 36.3747699926]}, "type": "Feature", "properties": {"collection_times": [{"days": "Mon-Fri", "time": "12:05pm"}, {"days": "Sat", "time": "3:00pm"}, {"days": "Sun", "time": "Closed"}], "id": "3761500009", "name": "USPS COLLECTION BOX - BLUE BOX", "address": {"city": "JOHNSON CITY", "state": "TN", "street": "2695 BOONES CREEK RD", "postcode": "37615"}}},
{"geometry": {"type": "Point", "coordinates": [-82.4201138858, 36.3838480197]}, "type": "Feature", "properties": {"collection_times": [{"days": "Mon-Fri", "time": "12:05pm"}, {"days": "Sat-Sun", "time": "Closed"}], "id": "3761500011", "name": "USPS COLLECTION BOX - BLUE BOX", "address": {"city": "JOHNSON CITY", "state": "TN", "street": "2898 BOONES CREEK RD", "postcode": "37615"}}},
{"geometry": {"type": "Point", "coordinates": [-82.4711128078, 36.4194175085]}, "type": "Feature", "properties": {"collection_times": [{"days": "Mon-Fri", "time": "12:00pm"}, {"days": "Sat", "time": "3:00pm"}, {"days": "Sun", "time": "Closed"}], "id": "3761500013", "name": "USPS COLLECTION BOX - BLUE BOX", "address": {"city": "JOHNSON CITY", "state": "TN", "street": "114 JUDGE GRESHAM RD", "postcode": "37615"}}},
{"geometry": {"type": "Point", "coordinates": [-82.4082186445, 36.3800440578]}, "type": "Feature", "properties": {"collection_times": [{"days": "Mon-Fri", "time": "12:10pm"}, {"days": "Sat", "time": "3:00pm"}, {"days": "Sun", "time": "Closed"}], "id": "3761500014", "name": "USPS COLLECTION BOX - BLUE BOX", "address": {"city": "JOHNSON CITY", "state": "TN", "street": "4307 N ROAN ST", "postcode": "37615"}}},
{"geometry": {"type": "Point", "coordinates": [-82.7375940544, 36.1933464017]}, "type": "Feature", "properties": {"collection_times": [{"days": "Mon-Fri", "time": "12:30pm"}, {"days": "Sat-Sun", "time": "Closed"}], "id": "3761600001", "name": "USPS COLLECTION BOX - PO LOBBY", "address": {"city": "AFTON", "state": "TN", "street": "432 AFTON RD", "postcode": "37616"}}},
{"geometry": {"type": "Point", "coordinates": [-82.7375940544, 36.1933464017]}, "type": "Feature", "properties": {"collection_times": [{"days": "Mon-Fri", "time": "12:30pm"}, {"days": "Sat-Sun", "time": "Closed"}], "id": "3761600002", "name": "USPS COLLECTION BOX - BLUE BOX", "address": {"city": "AFTON", "state": "TN", "street": "432 AFTON RD", "postcode": "37616"}}},
{"geometry": {"type": "Point", "coordinates": [-82.3211990254, 36.5332315171]}, "type": "Feature", "properties": {"collection_times": [{"days": "Mon-Fri", "time": "12:00pm"}, {"days": "Sat", "time": "11:00am"}, {"days": "Sun", "time": "Closed"}], "id": "3761700001", "name": "USPS COLLECTION BOX - BLUE BOX", "address": {"city": "BLOUNTVILLE", "state": "TN", "street": "169 FRANKLIN DR", "postcode": "37617"}}},
{"geometry": {"type": "Point", "coordinates": [-82.3211990254, 36.5332315171]}, "type": "Feature", "properties": {"collection_times": [{"days": "Mon-Fri", "time": "12:00pm"}, {"days": "Sat", "time": "11:00am"}, {"days": "Sun", "time": "Closed"}], "id": "3761700004", "name": "USPS COLLECTION BOX - PO LOBBY", "address": {"city": "BLOUNTVILLE", "state": "TN", "street": "169 FRANKLIN DR", "postcode": "37617"}}},
{"geometry": {"type": "Point", "coordinates": [-82.26915441, 36.4720796825]}, "type": "Feature", "properties": {"collection_times": [{"days": "Mon-Fri", "time": "12:15pm"}, {"days": "Sat", "time": "11:15am"}, {"days": "Sun", "time": "Closed"}], "id": "3761800001", "name": "USPS COLLECTION BOX - PO LOBBY", "address": {"city": "BLUFF CITY", "state": "TN", "street": "4326 BLUFF CITY HWY", "postcode": "37618"}}},
{"geometry": {"type": "Point", "coordinates": [-82.26915441, 36.4720796825]}, "type": "Feature", "properties": {"collection_times": [{"days": "Mon-Fri", "time": "12:15pm"}, {"days": "Sat", "time": "11:15am"}, {"days": "Sun", "time": "Closed"}], "id": "3761800002", "name": "USPS COLLECTION BOX - BLUE BOX", "address": {"city": "BLUFF CITY", "state": "TN", "street": "4326 BLUFF CITY HWY", "postcode": "37618"}}},
{"geometry": {"type": "Point", "coordinates": [-82.26915441, 36.4720796825]}, "type": "Feature", "properties": {"collection_times": [{"days": "Mon-Fri", "time": "12:15pm"}, {"days": "Sat", "time": "11:15am"}, {"days": "Sun", "time": "Closed"}], "id": "3761800003", "name": "USPS COLLECTION BOX - BLUE BOX", "address": {"city": "BLUFF CITY", "state": "TN", "street": "4326 BLUFF CITY HWY", "postcode": "37618"}}},
{"geometry": {"type": "Point", "coordinates": [-82.26915441, 36.4720796825]}, "type": "Feature", "properties": {"collection_times": [{"days": "Mon-Fri", "time": "12:15pm"}, {"days": "Sat", "time": "11:15am"}, {"days": "Sun", "time": "Closed"}], "id": "3761800004", "name": "USPS COLLECTION BOX - PO LOBBY", "address": {"city": "BLUFF CITY", "state": "TN", "street": "4326 BLUFF CITY HWY", "postcode": "37618"}}},
{"geometry": {"type": "Point", "coordinates": [-82.0321299845, 36.3535521639]}, "type": "Feature", "properties": {"collection_times": [{"days": "Mon-Fri", "time": "12:30pm"}, {"days": "Sat", "time": "9:00am"}, {"days": "Sun", "time": "Closed"}], "id": "3764000000", "name": "USPS COLLECTION BOX - PO LOBBY", "address": {"city": "BUTLER", "state": "TN", "street": "211 PIERCETOWN RD", "postcode": "37640"}}},
{"geometry": {"type": "Point", "coordinates": [-82.0321299845, 36.3535521639]}, "type": "Feature", "properties": {"collection_times": [{"days": "Mon-Fri", "time": "12:30pm"}, {"days": "Sat", "time": "9:00am"}, {"days": "Sun", "time": "Closed"}], "id": "3764000001", "name": "USPS COLLECTION BOX - BLUE BOX", "address": {"city": "BUTLER", "state": "TN", "street": "211 PIERCETOWN RD", "postcode": "37640"}}},
{"geometry": {"type": "Point", "coordinates": [-82.7028047947, 36.2201046474]}, "type": "Feature", "properties": {"collection_times": [{"days": "Mon-Fri", "time": "12:30pm"}, {"days": "Sat", "time": "11:15am"}, {"days": "Sun", "time": "Closed"}], "id": "3764100001", "name": "USPS COLLECTION BOX - PO LOBBY", "address": {"city": "CHUCKEY", "state": "TN", "street": "8140 E ANDREW JOHNSON HWY", "postcode": "37641"}}},
{"geometry": {"type": "Point", "coordinates": [-82.7028047947, 36.2201046474]}, "type": "Feature", "properties": {"collection_times": [{"days": "Mon-Fri", "time": "12:30pm"}, {"days": "Sat", "time": "11:15am"}, {"days": "Sun", "time": "Closed"}], "id": "3764100002", "name": "USPS COLLECTION BOX - BLUE BOX", "address": {"city": "CHUCKEY", "state": "TN", "street": "8140 E ANDREW JOHNSON HWY", "postcode": "37641"}}},
{"geometry": {"type": "Point", "coordinates": [-82.7108591743, 36.5226008256]}, "type": "Feature", "properties": {"collection_times": [{"days": "Mon-Fri", "time": "12:30pm"}, {"days": "Sat", "time": "12:00pm"}, {"days": "Sun", "time": "Closed"}], "id": "3764200001", "name": "USPS COLLECTION BOX - PO LOBBY", "address": {"city": "CHURCH HILL", "state": "TN", "street": "131 E MAIN BLVD", "postcode": "37642"}}},
{"geometry": {"type": "Point", "coordinates": [-82.7108591743, 36.5226008256]}, "type": "Feature", "properties": {"collection_times": [{"days": "Mon-Fri", "time": "12:30pm"}, {"days": "Sat", "time": "12:00pm"}, {"days": "Sun", "time": "Closed"}], "id": "3764200006", "name": "USPS COLLECTION BOX - BLUE BOX", "address": {"city": "CHURCH HILL", "state": "TN", "street": "131 E MAIN BLVD", "postcode": "37642"}}},
{"geometry": {"type": "Point", "coordinates": [-82.7129139036, 36.5222671745]}, "type": "Feature", "properties": {"collection_times": [{"days": "Mon-Fri", "time": "12:30pm"}, {"days": "Sat", "time": "12:00pm"}, {"days": "Sun", "time": "Closed"}], "id": "3764200007", "name": "USPS COLLECTION BOX - BLUE BOX", "address": {"city": "CHURCH HILL", "state": "TN", "street": "100 MAIN ST", "postcode": "37642"}}},
{"geometry": {"type": "Point", "coordinates": [-82.211882465, 36.3494767519]}, "type": "Feature", "properties": {"collection_times": [{"days": "Mon-Fri", "time": "1:00pm"}, {"days": "Sat", "time": "3:00pm"}, {"days": "Sun", "time": "Closed"}], "id": "3764300009", "name": "USPS COLLECTION BOX - BLUE BOX", "address": {"city": "ELIZABETHTON", "state": "TN", "street": "710 E SECOND ST", "postcode": "37643"}}},
{"geometry": {"type": "Point", "coordinates": [-82.2366239378, 36.3502176793]}, "type": "Feature", "properties": {"collection_times": [{"days": "Mon-Fri", "time": "1:00pm"}, {"days": "Sat", "time": "3:00pm"}, {"days": "Sun", "time": "Closed"}], "id": "3764300013", "name": "USPS COLLECTION BOX - BLUE BOX", "address": {"city": "ELIZABETHTON", "state": "TN", "street": "601 E ELK AVE", "postcode": "37643"}}},
{"geometry": {"type": "Point", "coordinates": [-82.2401912704, 36.348967908]}, "type": "Feature", "properties": {"collection_times": [{"days": "Mon-Fri", "time": "1:30pm"}, {"days": "Sat", "time": "4:00pm"}, {"days": "Sun", "time": "Closed"}], "id": "3764300025", "name": "USPS COLLECTION BOX - BLUE BOX", "address": {"city": "ELIZABETHTON", "state": "TN", "street": "901 W ELK AVE", "postcode": "37643"}}},
{"geometry": {"type": "Point", "coordinates": [-82.211882465, 36.3494767519]}, "type": "Feature", "properties": {"collection_times": [{"days": "Mon-Fri", "time": "1:00pm"}, {"days": "Sat", "time": "3:00pm"}, {"days": "Sun", "time": "Closed"}], "id": "3764300026", "name": "USPS COLLECTION BOX - BLUE BOX", "address": {"city": "ELIZABETHTON", "state": "TN", "street": "710 E SECOND ST", "postcode": "37643"}}},
{"geometry": {"type": "Point", "coordinates": [-82.2401912704, 36.348967908]}, "type": "Feature", "properties": {"collection_times": [{"days": "Mon-Fri", "time": "1:30pm"}, {"days": "Sat", "time": "4:00pm"}, {"days": "Sun", "time": "Closed"}], "id": "3764300028", "name": "USPS COLLECTION BOX - PO LOBBY", "address": {"city": "ELIZABETHTON", "state": "TN", "street": "901 W ELK AVE", "postcode": "37643"}}},
{"geometry": {"type": "Point", "coordinates": [-82.2401912704, 36.348967908]}, "type": "Feature", "properties": {"collection_times": [{"days": "Mon-Fri", "time": "1:30pm"}, {"days": "Sat", "time": "4:00pm"}, {"days": "Sun", "time": "Closed"}], "id": "3764300029", "name": "USPS COLLECTION BOX - PO LOBBY", "address": {"city": "ELIZABETHTON", "state": "TN", "street": "901 W ELK AVE", "postcode": "37643"}}},
{"geometry": {"type": "Point", "coordinates": [-82.2401912704, 36.348967908]}, "type": "Feature", "properties": {"collection_times": [{"days": "Mon-Fri", "time": "1:30pm"}, {"days": "Sat", "time": "4:00pm"}, {"days": "Sun", "time": "Closed"}], "id": "3764300030", "name": "USPS COLLECTION BOX - BLUE BOX", "address": {"city": "ELIZABETHTON", "state": "TN", "street": "901 W ELK AVE", "postcode": "37643"}}},
{"geometry": {"type": "Point", "coordinates": [-82.2401912704, 36.348967908]}, "type": "Feature", "properties": {"collection_times": [{"days": "Mon-Fri", "time": "1:30pm"}, {"days": "Sat", "time": "4:00pm"}, {"days": "Sun", "time": "Closed"}], "id": "3764300031", "name": "USPS COLLECTION BOX - BLUE BOX", "address": {"city": "ELIZABETHTON", "state": "TN", "street": "901 W ELK AVE", "postcode": "37643"}}},
{"geometry": {"type": "Point", "coordinates": [-82.2153188469, 36.3487945797]}, "type": "Feature", "properties": {"collection_times": [{"days": "Mon-Fri", "time": "1:00pm"}, {"days": "Sat", "time": "3:00pm"}, {"days": "Sun", "time": "Closed"}], "id": "3764300032", "name": "USPS COLLECTION BOX - BLUE BOX", "address": {"city": "ELIZABETHTON", "state": "TN", "street": "524 E E ST", "postcode": "37643"}}},
{"geometry": {"type": "Point", "coordinates": [-82.4164620915, 36.145403713]}, "type": "Feature", "properties": {"collection_times": [{"days": "Mon-Fri", "time": "12:30pm"}, {"days": "Sat", "time": "9:00am"}, {"days": "Sun", "time": "Closed"}], "id": "3765000004", "name": "USPS COLLECTION BOX - BLUE BOX", "address": {"city": "ERWIN", "state": "TN", "street": "100 N MAIN AVE", "postcode": "37650"}}},
{"geometry": {"type": "Point", "coordinates": [-82.4174226542, 36.1446028498]}, "type": "Feature", "properties": {"collection_times": [{"days": "Mon-Fri", "time": "12:30pm"}, {"days": "Sat", "time": "12:00pm"}, {"days": "Sun", "time": "Closed"}], "id": "3765000005", "name": "USPS COLLECTION BOX - PO LOBBY", "address": {"city": "ERWIN", "state": "TN", "street": "201 N MAIN AVE", "postcode": "37650"}}},
{"geometry": {"type": "Point", "coordinates": [-82.4174226542, 36.1446028498]}, "type": "Feature", "properties": {"collection_times": [{"days": "Mon-Fri", "time": "12:30pm"}, {"days": "Sat", "time": "12:00pm"}, {"days": "Sun", "time": "Closed"}], "id": "3765000006", "name": "USPS COLLECTION BOX - PO LOBBY", "address": {"city": "ERWIN", "state": "TN", "street": "201 N MAIN AVE", "postcode": "37650"}}},
{"geometry": {"type": "Point", "coordinates": [-82.4174226542, 36.1446028498]}, "type": "Feature", "properties": {"collection_times": [{"days": "Mon-Fri", "time": "12:30pm"}, {"days": "Sat", "time": "11:45am"}, {"days": "Sun", "time": "Closed"}], "id": "3765000008", "name": "USPS COLLECTION BOX - BLUE BOX", "address": {"city": "ERWIN", "state": "TN", "street": "201 N MAIN AVE", "postcode": "37650"}}},
{"geometry": {"type": "Point", "coordinates": [-82.4174226542, 36.1446028498]}, "type": "Feature", "properties": {"collection_times": [{"days": "Mon-Fri", "time": "12:30pm"}, {"days": "Sat", "time": "11:45am"}, {"days": "Sun", "time": "Closed"}], "id": "3765000009", "name": "USPS COLLECTION BOX - BLUE BOX", "address": {"city": "ERWIN", "state": "TN", "street": "201 N MAIN AVE", "postcode": "37650"}}},
{"geometry": {"type": "Point", "coordinates": [-82.6186321267, 36.4114133065]}, "type": "Feature", "properties": {"collection_times": [{"days": "Mon-Fri", "time": "12:00pm"}, {"days": "Sat", "time": "10:00am"}, {"days": "Sun", "time": "Closed"}], "id": "3765600001", "name": "USPS COLLECTION BOX - PO LOBBY", "address": {"city": "FALL BRANCH", "state": "TN", "street": "134 RURITAN RD", "postcode": "37656"}}},
{"geometry": {"type": "Point", "coordinates": [-82.6186321267, 36.4114133065]}, "type": "Feature", "properties": {"collection_times": [{"days": "Mon-Fri", "time": "12:00pm"}, {"days": "Sat", "time": "10:00am"}, {"days": "Sun", "time": "Closed"}], "id": "3765600002", "name": "USPS COLLECTION BOX - BLUE BOX", "address": {"city": "FALL BRANCH", "state": "TN", "street": "134 RURITAN RD", "postcode": "37656"}}},
{"geometry": {"type": "Point", "coordinates": [-82.5581005011, 36.0159709884]}, "type": "Feature", "properties": {"collection_times": [{"days": "Mon-Fri", "time": "11:00am"}, {"days": "Sat", "time": "9:45am"}, {"days": "Sun", "time": "Closed"}], "id": "3765700002", "name": "USPS COLLECTION BOX - BLUE BOX", "address": {"city": "FLAG POND", "state": "TN", "street": "1305 RICE CREEK RD", "postcode": "37657"}}},
{"geometry": {"type": "Point", "coordinates": [-82.5581005011, 36.0159709884]}, "type": "Feature", "properties": {"collection_times": [{"days": "Mon-Fri", "time": "11:00am"}, {"days": "Sat", "time": "9:45am"}, {"days": "Sun", "time": "Closed"}], "id": "3765700003", "name": "USPS COLLECTION BOX - PO LOBBY", "address": {"city": "FLAG POND", "state": "TN", "street": "1305 RICE CREEK RD", "postcode": "37657"}}},
{"geometry": {"type": "Point", "coordinates": [-82.1657452109, 36.2858824734]}, "type": "Feature", "properties": {"collection_times": [{"days": "Mon-Fri", "time": "12:45pm"}, {"days": "Sat", "time": "10:00am"}, {"days": "Sun", "time": "Closed"}], "id": "3765800007", "name": "USPS COLLECTION BOX - PO LOBBY", "address": {"city": "HAMPTON", "state": "TN", "street": "433 HIGHWAY 321", "postcode": "37658"}}},
{"geometry": {"type": "Point", "coordinates": [-82.1657452109, 36.2858824734]}, "type": "Feature", "properties": {"collection_times": [{"days": "Mon-Fri", "time": "12:45pm"}, {"days": "Sat", "time": "10:00am"}, {"days": "Sun", "time": "Closed"}], "id": "3765800008", "name": "USPS COLLECTION BOX - BLUE BOX", "address": {"city": "HAMPTON", "state": "TN", "street": "433 HIGHWAY 321", "postcode": "37658"}}},
{"geometry": {"type": "Point", "coordinates": [-82.4699634535, 36.2980131749]}, "type": "Feature", "properties": {"collection_times": [{"days": "Mon-Fri", "time": "5:00pm"}, {"days": "Sat", "time": "12:00pm"}, {"days": "Sun", "time": "Closed"}], "id": "3765900001", "name": "USPS COLLECTION BOX - BLUE BOX", "address": {"city": "JONESBOROUGH", "state": "TN", "street": "121 BOONE ST", "postcode": "37659"}}},
{"geometry": {"type": "Point", "coordinates": [-82.4727922315, 36.2936604112]}, "type": "Feature", "properties": {"collection_times": [{"days": "Mon-Sat", "time": "12:00pm"}, {"days": "Sun", "time": "Closed"}], "id": "3765900003", "name": "USPS COLLECTION BOX - BLUE BOX", "address": {"city": "JONESBOROUGH", "state": "TN", "street": "100 COURTHOUSE SQ", "postcode": "37659"}}},
{"geometry": {"type": "Point", "coordinates": [-82.4699634535, 36.2980131749]}, "type": "Feature", "properties": {"collection_times": [{"days": "Mon-Fri", "time": "5:00pm"}, {"days": "Sat", "time": "12:00pm"}, {"days": "Sun", "time": "Closed"}], "id": "3765900006", "name": "USPS COLLECTION BOX - PO LOBBY", "address": {"city": "JONESBOROUGH", "state": "TN", "street": "121 BOONE ST", "postcode": "37659"}}},
{"geometry": {"type": "Point", "coordinates": [-82.4699634535, 36.2980131749]}, "type": "Feature", "properties": {"collection_times": [{"days": "Mon-Fri", "time": "5:00pm"}, {"days": "Sat", "time": "12:00pm"}, {"days": "Sun", "time": "Closed"}], "id": "3765900007", "name": "USPS COLLECTION BOX - PO LOBBY", "address": {"city": "JONESBOROUGH", "state": "TN", "street": "121 BOONE ST", "postcode": "37659"}}},
{"geometry": {"type": "Point", "coordinates": [-82.5590441356, 36.5484993462]}, "type": "Feature", "properties": {"collection_times": [{"days": "Mon-Fri", "time": "12:10pm"}, {"days": "Sat", "time": "12:00pm"}, {"days": "Sun", "time": "Closed"}], "id": "3766000004", "name": "USPS COLLECTION BOX - BLUE BOX", "address": {"city": "KINGSPORT", "state": "TN", "street": "400 BROAD ST", "postcode": "37660"}}},
{"geometry": {"type": "Point", "coordinates": [-82.5617105251, 36.545593999]}, "type": "Feature", "properties": {"collection_times": [{"days": "Mon-Sat", "time": "11:00am"}, {"days": "Sun", "time": "Closed"}], "id": "3766000006", "name": "USPS COLLECTION BOX - BLUE BOX", "address": {"city": "KINGSPORT", "state": "TN", "street": "116 BROAD ST", "postcode": "37660"}}},
{"geometry": {"type": "Point", "coordinates": [-82.5596450787, 36.5457525155]}, "type": "Feature", "properties": {"collection_times": [{"days": "Mon-Fri", "time": "12:10pm"}, {"days": "Sat", "time": "12:00pm"}, {"days": "Sun", "time": "Closed"}], "id": "3766000008", "name": "USPS COLLECTION BOX - BLUE BOX", "address": {"city": "KINGSPORT", "state": "TN", "street": "200 E MARKET ST", "postcode": "37660"}}},
{"geometry": {"type": "Point", "coordinates": [-82.5587271026, 36.5467568477]}, "type": "Feature", "properties": {"collection_times": [{"days": "Mon-Fri", "time": "12:20pm"}, {"days": "Sat", "time": "12:00pm"}, {"days": "Sun", "time": "Closed"}], "id": "3766000009", "name": "USPS COLLECTION BOX - BLUE BOX", "address": {"city": "KINGSPORT", "state": "TN", "street": "201 E CENTER ST", "postcode": "37660"}}},
{"geometry": {"type": "Point", "coordinates": [-82.5583906244, 36.545776343]}, "type": "Feature", "properties": {"collection_times": [{"days": "Mon-Sat", "time": "10:00am"}, {"days": "Sun", "time": "Closed"}], "id": "3766000010", "name": "USPS COLLECTION BOX - BLUE BOX", "address": {"city": "KINGSPORT", "state": "TN", "street": "238 CHEROKEE ST", "postcode": "37660"}}},
{"geometry": {"type": "Point", "coordinates": [-82.5576577077, 36.5425904662]}, "type": "Feature", "properties": {"collection_times": [{"days": "Mon-Fri", "time": "9:00am"}, {"days": "Sat", "time": "10:00am"}, {"days": "Sun", "time": "Closed"}], "id": "3766000012", "name": "USPS COLLECTION BOX - BLUE BOX", "address": {"city": "KINGSPORT", "state": "TN", "street": "500 E MAIN ST", "postcode": "37660"}}},
{"geometry": {"type": "Point", "coordinates": [-82.5576771232, 36.5446608647]}, "type": "Feature", "properties": {"collection_times": [{"days": "Mon-Sat", "time": "10:00am"}, {"days": "Sun", "time": "Closed"}], "id": "3766000013", "name": "USPS COLLECTION BOX - BLUE BOX", "address": {"city": "KINGSPORT", "state": "TN", "street": "402 E MARKET ST", "postcode": "37660"}}},
{"geometry": {"type": "Point", "coordinates": [-82.5571088147, 36.545796285]}, "type": "Feature", "properties": {"collection_times": [{"days": "Mon-Fri", "time": "12:20pm"}, {"days": "Sat", "time": "12:00pm"}, {"days": "Sun", "time": "Closed"}], "id": "3766000016", "name": "USPS COLLECTION BOX - BLUE BOX", "address": {"city": "KINGSPORT", "state": "TN", "street": "338 E CENTER ST", "postcode": "37660"}}},
{"geometry": {"type": "Point", "coordinates": [-82.5583607813, 36.5466140313]}, "type": "Feature", "properties": {"collection_times": [{"days": "Mon-Fri", "time": "12:25pm"}, {"days": "Sat", "time": "12:00pm"}, {"days": "Sun", "time": "Closed"}], "id": "3766000017", "name": "USPS COLLECTION BOX - BLUE BOX", "address": {"city": "KINGSPORT", "state": "TN", "street": "246 E CENTER ST", "postcode": "37660"}}},
{"geometry": {"type": "Point", "coordinates": [-82.5950534065, 36.5436988987]}, "type": "Feature", "properties": {"collection_times": [{"days": "Mon-Fri", "time": "12:00pm"}, {"days": "Sat", "time": "3:00pm"}, {"days": "Sun", "time": "Closed"}], "id": "3766000020", "name": "USPS COLLECTION BOX - BLUE BOX", "address": {"city": "KINGSPORT", "state": "TN", "street": "447 RIDGEFIELDS RD", "postcode": "37660"}}},
{"geometry": {"type": "Point", "coordinates": [-82.5699744818, 36.5287342736]}, "type": "Feature", "properties": {"collection_times": [{"days": "Mon-Fri", "time": "1:00pm"}, {"days": "Sat", "time": "12:00pm"}, {"days": "Sun", "time": "Closed"}], "id": "3766000076", "name": "USPS COLLECTION BOX - BLUE BOX", "address": {"city": "KINGSPORT", "state": "TN", "street": "2004 LAMASA DR", "postcode": "37660"}}},
{"geometry": {"type": "Point", "coordinates": [-82.5699744818, 36.5287342736]}, "type": "Feature", "properties": {"collection_times": [{"days": "Mon-Fri", "time": "1:00pm"}, {"days": "Sat", "time": "12:00pm"}, {"days": "Sun", "time": "Closed"}], "id": "3766000077", "name": "USPS COLLECTION BOX - BLUE BOX", "address": {"city": "KINGSPORT", "state": "TN", "street": "2004 LAMASA DR", "postcode": "37660"}}},
{"geometry": {"type": "Point", "coordinates": [-82.5048906401, 36.5453976278]}, "type": "Feature", "properties": {"collection_times": [{"days": "Mon-Fri", "time": "1:05pm"}, {"days": "Sat", "time": "12:00pm"}, {"days": "Sun", "time": "Closed"}], "id": "3766000078", "name": "USPS COLLECTION BOX - BLUE BOX", "address": {"city": "KINGSPORT", "state": "TN", "street": "2240 E STONE DR", "postcode": "37660"}}},
{"geometry": {"type": "Point", "coordinates": [-82.4953287828, 36.5821095763]}, "type": "Feature", "properties": {"collection_times": [{"days": "Mon-Fri", "time": "1:15pm"}, {"days": "Sat", "time": "12:00pm"}, {"days": "Sun", "time": "Closed"}], "id": "3766000079", "name": "USPS COLLECTION BOX - BLUE BOX", "address": {"city": "KINGSPORT", "state": "TN", "street": "2900 BLOOMINGDALE RD", "postcode": "37660"}}},
{"geometry": {"type": "Point", "coordinates": [-82.5173779549, 36.5520044536]}, "type": "Feature", "properties": {"collection_times": [{"days": "Mon-Sat", "time": "12:00pm"}, {"days": "Sun", "time": "Closed"}], "id": "3766000080", "name": "USPS COLLECTION BOX - BLUE BOX", "address": {"city": "KINGSPORT", "state": "TN", "street": "2000 BROOKSIDE DR", "postcode": "37660"}}},
{"geometry": {"type": "Point", "coordinates": [-82.5179611537, 36.5505908177]}, "type": "Feature", "properties": {"collection_times": [{"days": "Mon-Fri", "time": "1:20pm"}, {"days": "Sat", "time": "12:00pm"}, {"days": "Sun", "time": "Closed"}], "id": "3766000083", "name": "USPS COLLECTION BOX - BLUE BOX", "address": {"city": "KINGSPORT", "state": "TN", "street": "1920 BROOKSIDE RD", "postcode": "37660"}}},
{"geometry": {"type": "Point", "coordinates": [-82.5160684193, 36.5574022954]}, "type": "Feature", "properties": {"collection_times": [{"days": "Mon-Fri", "time": "1:20pm"}, {"days": "Sat", "time": "12:00pm"}, {"days": "Sun", "time": "Closed"}], "id": "3766000085", "name": "USPS COLLECTION BOX - BLUE BOX", "address": {"city": "KINGSPORT", "state": "TN", "street": "2020 BROOKSIDE DR", "postcode": "37660"}}},
{"geometry": {"type": "Point", "coordinates": [-82.5624877291, 36.5489831764]}, "type": "Feature", "properties": {"collection_times": [{"days": "Mon-Fri", "time": "1:30pm"}, {"days": "Sat", "time": "12:00pm"}, {"days": "Sun", "time": "Closed"}], "id": "3766000098", "name": "USPS COLLECTION BOX - BLUE BOX", "address": {"city": "KINGSPORT", "state": "TN", "street": "320 W CENTER ST", "postcode": "37660"}}},
{"geometry": {"type": "Point", "coordinates": [-82.515385852, 36.5528100487]}, "type": "Feature", "properties": {"collection_times": [{"days": "Mon-Fri", "time": "1:25pm"}, {"days": "Sat", "time": "12:00pm"}, {"days": "Sun", "time": "Closed"}], "id": "3766000105", "name": "USPS COLLECTION BOX - BLUE BOX", "address": {"city": "KINGSPORT", "state": "TN", "street": "2204 PAVILION DR", "postcode": "37660"}}},
{"geometry": {"type": "Point", "coordinates": [-82.515385852, 36.5528100487]}, "type": "Feature", "properties": {"collection_times": [{"days": "Mon-Fri", "time": "1:25pm"}, {"days": "Sat", "time": "12:00pm"}, {"days": "Sun", "time": "Closed"}], "id": "3766000106", "name": "USPS COLLECTION BOX - BLUE BOX", "address": {"city": "KINGSPORT", "state": "TN", "street": "2204 PAVILION DR", "postcode": "37660"}}},
{"geometry": {"type": "Point", "coordinates": [-82.5455430249, 36.5421480395]}, "type": "Feature", "properties": {"collection_times": [{"days": "Mon-Fri", "time": "12:45pm"}, {"days": "Sat", "time": "12:00pm"}, {"days": "Sun", "time": "Closed"}], "id": "3766000110", "name": "USPS COLLECTION BOX - BLUE BOX", "address": {"city": "KINGSPORT", "state": "TN", "street": "1200 E CENTER ST", "postcode": "37660"}}},
{"geometry": {"type": "Point", "coordinates": [-82.5559325213, 36.5489814654]}, "type": "Feature", "properties": {"collection_times": [{"days": "Mon-Sat", "time": "9:00am"}, {"days": "Sun", "time": "Closed"}], "id": "3766000124", "name": "USPS COLLECTION BOX - BLUE BOX", "address": {"city": "KINGSPORT", "state": "TN", "street": "613 WATAUGA ST", "postcode": "37660"}}},
{"geometry": {"type": "Point", "coordinates": [-82.5588217393, 36.5253689496]}, "type": "Feature", "properties": {"collection_times": [{"days": "Mon-Sat", "time": "10:00am"}, {"days": "Sun", "time": "Closed"}], "id": "3766000125", "name": "USPS COLLECTION BOX - BLUE BOX", "address": {"city": "KINGSPORT", "state": "TN", "street": "920 S WILCOX DR", "postcode": "37660"}}},
{"geometry": {"type": "Point", "coordinates": [-82.5646919326, 36.5469819623]}, "type": "Feature", "properties": {"collection_times": [{"days": "Mon-Sat", "time": "11:00am"}, {"days": "Sun", "time": "Closed"}], "id": "3766000126", "name": "USPS COLLECTION BOX - BLUE BOX", "address": {"city": "KINGSPORT", "state": "TN", "street": "124 BLOOMINGDALE PIKE", "postcode": "37660"}}},
{"geometry": {"type": "Point", "coordinates": [-82.5419409149, 36.54507468]}, "type": "Feature", "properties": {"collection_times": [{"days": "Mon-Sat", "time": "9:00am"}, {"days": "Sun", "time": "Closed"}], "id": "3766000129", "name": "USPS COLLECTION BOX - BLUE BOX", "address": {"city": "KINGSPORT", "state": "TN", "street": "1249 WATAUGA ST", "postcode": "37660"}}},
{"geometry": {"type": "Point", "coordinates": [-82.4887314087, 36.584834801]}, "type": "Feature", "properties": {"collection_times": [{"days": "Mon-Sat", "time": "10:00am"}, {"days": "Sun", "time": "Closed"}], "id": "3766000131", "name": "USPS COLLECTION BOX - BLUE BOX", "address": {"city": "KINGSPORT", "state": "TN", "street": "3212 BLOOMINGDALE RD", "postcode": "37660"}}},
{"geometry": {"type": "Point", "coordinates": [-82.5506628713, 36.5420605006]}, "type": "Feature", "properties": {"collection_times": [{"days": "Mon-Sat", "time": "9:00am"}, {"days": "Sun", "time": "Closed"}], "id": "3766000132", "name": "USPS COLLECTION BOX - BLUE BOX", "address": {"city": "KINGSPORT", "state": "TN", "street": "818 OAK ST", "postcode": "37660"}}},
{"geometry": {"type": "Point", "coordinates": [-82.5221757145, 36.5515879989]}, "type": "Feature", "properties": {"collection_times": [{"days": "Mon-Sat", "time": "12:00pm"}, {"days": "Sun", "time": "Closed"}], "id": "3766000137", "name": "USPS COLLECTION BOX - BLUE BOX", "address": {"city": "KINGSPORT", "state": "TN", "street": "1920 BOWATER DR", "postcode": "37660"}}},
{"geometry": {"type": "Point", "coordinates": [-82.5040396323, 36.5457625047]}, "type": "Feature", "properties": {"collection_times": [{"days": "Mon-Sat", "time": "9:30am"}, {"days": "Sun", "time": "Closed"}], "id": "3766000139", "name": "USPS COLLECTION BOX - BLUE BOX", "address": {"city": "KINGSPORT", "state": "TN", "street": "2416 E STONE DR", "postcode": "37660"}}},
{"geometry": {"type": "Point", "coordinates": [-82.5041465589, 36.5637725294]}, "type": "Feature", "properties": {"collection_times": [{"days": "Mon-Sat", "time": "9:00am"}, {"days": "Sun", "time": "Closed"}], "id": "3766000148", "name": "USPS COLLECTION BOX - BLUE BOX", "address": {"city": "KINGSPORT", "state": "TN", "street": "2601 N JOHN B DENNIS HWY", "postcode": "37660"}}},
{"geometry": {"type": "Point", "coordinates": [-82.4933520583, 36.5499981552]}, "type": "Feature", "properties": {"collection_times": [{"days": "Mon-Fri", "time": "1:05pm"}, {"days": "Sat", "time": "12:00pm"}, {"days": "Sun", "time": "Closed"}], "id": "3766000149", "name": "USPS COLLECTION BOX - BLUE BOX", "address": {"city": "KINGSPORT", "state": "TN", "street": "2550 E STONE DR", "postcode": "37660"}}},
{"geometry": {"type": "Point", "coordinates": [-82.5178262964, 36.5475364176]}, "type": "Feature", "properties": {"collection_times": [{"days": "Mon-Sat", "time": "9:30am"}, {"days": "Sun", "time": "Closed"}], "id": "3766000150", "name": "USPS COLLECTION BOX - BLUE BOX", "address": {"city": "KINGSPORT", "state": "TN", "street": "1664 E STONE DR", "postcode": "37660"}}},
{"geometry": {"type": "Point", "coordinates": [-82.5613789467, 36.5460439371]}, "type": "Feature", "properties": {"collection_times": [{"days": "Mon-Sat", "time": "11:00am"}, {"days": "Sun", "time": "Closed"}], "id": "3766000158", "name": "USPS COLLECTION BOX - BLUE BOX", "address": {"city": "KINGSPORT", "state": "TN", "street": "158 BROAD ST", "postcode": "37660"}}},
{"geometry": {"type": "Point", "coordinates": [-82.5614029558, 36.5483408297]}, "type": "Feature", "properties": {"collection_times": [{"days": "Mon-Sat", "time": "9:30am"}, {"days": "Sun", "time": "Closed"}], "id": "3766000169", "name": "USPS COLLECTION BOX - BLUE BOX", "address": {"city": "KINGSPORT", "state": "TN", "street": "225 W CENTER ST", "postcode": "37660"}}},
{"geometry": {"type": "Point", "coordinates": [-82.5596450787, 36.5457525155]}, "type": "Feature", "properties": {"collection_times": [{"days": "Mon-Fri", "time": "12:10pm"}, {"days": "Sat", "time": "12:00pm"}, {"days": "Sun", "time": "Closed"}], "id": "3766000182", "name": "USPS COLLECTION BOX - BLUE BOX", "address": {"city": "KINGSPORT", "state": "TN", "street": "200 E MARKET ST", "postcode": "37660"}}},
{"geometry": {"type": "Point", "coordinates": [-82.5551628472, 36.5533553928]}, "type": "Feature", "properties": {"collection_times": [{"days": "Mon-Fri", "time": "12:30pm"}, {"days": "Sat", "time": "12:00pm"}, {"days": "Sun", "time": "Closed"}], "id": "3766000192", "name": "USPS COLLECTION BOX - BLUE BOX", "address": {"city": "KINGSPORT", "state": "TN", "street": "135 W RAVINE RD", "postcode": "37660"}}},
{"geometry": {"type": "Point", "coordinates": [-82.5541972018, 36.5058435974]}, "type": "Feature", "properties": {"collection_times": [{"days": "Mon-Sat", "time": "10:00am"}, {"days": "Sun", "time": "Closed"}], "id": "3766000202", "name": "USPS COLLECTION BOX - BLUE BOX", "address": {"city": "KINGSPORT", "state": "TN", "street": "1328 S JOHN B DENNIS HWY", "postcode": "37660"}}},
{"geometry": {"type": "Point", "coordinates": [-82.5699744818, 36.5287342736]}, "type": "Feature", "properties": {"collection_times": [{"days": "Mon-Fri", "time": "1:10pm"}, {"days": "Sat", "time": "12:00pm"}, {"days": "Sun", "time": "Closed"}], "id": "3766000203", "name": "USPS COLLECTION BOX - BLUE BOX", "address": {"city": "KINGSPORT", "state": "TN", "street": "2323 PRESTON PL N", "postcode": "37660"}}},
{"geometry": {"type": "Point", "coordinates": [-82.5553119, 36.5521984589]}, "type": "Feature", "properties": {"collection_times": [{"days": "Mon-Fri", "time": "12:35pm"}, {"days": "Sat", "time": "12:00pm"}, {"days": "Sun", "time": "Closed"}], "id": "3766000204", "name": "USPS COLLECTION BOX - BLUE BOX", "address": {"city": "KINGSPORT", "state": "TN", "street": "117 W SEVIER AVE", "postcode": "37660"}}},
{"geometry": {"type": "Point", "coordinates": [-82.5520528481, 36.5482946943]}, "type": "Feature", "properties": {"collection_times": [{"days": "Mon-Fri", "time": "12:40pm"}, {"days": "Sat", "time": "12:00pm"}, {"days": "Sun", "time": "Closed"}], "id": "3766000210", "name": "USPS COLLECTION BOX - BLUE BOX", "address": {"city": "KINGSPORT", "state": "TN", "street": "201 W RAVINE RD", "postcode": "37660"}}},
{"geometry": {"type": "Point", "coordinates": [-82.5520528481, 36.5482946943]}, "type": "Feature", "properties": {"collection_times": [{"days": "Mon-Fri", "time": "12:40pm"}, {"days": "Sat", "time": "12:00pm"}, {"days": "Sun", "time": "Closed"}], "id": "3766000211", "name": "USPS COLLECTION BOX - BLUE BOX", "address": {"city": "KINGSPORT", "state": "TN", "street": "201 W RAVINE RD", "postcode": "37660"}}},
{"geometry": {"type": "Point", "coordinates": [-82.5598143866, 36.5473416833]}, "type": "Feature", "properties": {"collection_times": [{"days": "Mon-Fri", "time": "12:15pm"}, {"days": "Sat", "time": "12:00pm"}, {"days": "Sun", "time": "Closed"}], "id": "3766000212", "name": "USPS COLLECTION BOX - BLUE BOX", "address": {"city": "KINGSPORT", "state": "TN", "street": "101 E CENTER ST", "postcode": "37660"}}},
{"geometry": {"type": "Point", "coordinates": [-82.5598143866, 36.5473416833]}, "type": "Feature", "properties": {"collection_times": [{"days": "Mon-Fri", "time": "12:15pm"}, {"days": "Sat", "time": "12:00pm"}, {"days": "Sun", "time": "Closed"}], "id": "3766000213", "name": "USPS COLLECTION BOX - BLUE BOX", "address": {"city": "KINGSPORT", "state": "TN", "street": "101 E CENTER ST", "postcode": "37660"}}},
{"geometry": {"type": "Point", "coordinates": [-82.5591565167, 36.5470123668]}, "type": "Feature", "properties": {"collection_times": [{"days": "Mon-Fri", "time": "12:15pm"}, {"days": "Sat", "time": "12:00pm"}, {"days": "Sun", "time": "Closed"}], "id": "3766000216", "name": "USPS COLLECTION BOX - BLUE BOX", "address": {"city": "KINGSPORT", "state": "TN", "street": "110 E CENTER ST", "postcode": "37660"}}},
{"geometry": {"type": "Point", "coordinates": [-82.6354147834, 36.5529543697]}, "type": "Feature", "properties": {"collection_times": [{"days": "Mon-Sat", "time": "10:00am"}, {"days": "Sun", "time": "Closed"}], "id": "3766000217", "name": "USPS COLLECTION BOX - BLUE BOX", "address": {"city": "KINGSPORT", "state": "TN", "street": "1000 UNIVERSITY BLVD", "postcode": "37660"}}},
{"geometry": {"type": "Point", "coordinates": [-82.5624877291, 36.5489831764]}, "type": "Feature", "properties": {"collection_times": [{"days": "Mon-Sat", "time": "12:00pm"}, {"days": "Sun", "time": "Closed"}], "id": "3766000219", "name": "USPS COLLECTION BOX - PO LOBBY", "address": {"city": "KINGSPORT", "state": "TN", "street": "320 W CENTER ST", "postcode": "37660"}}},
{"geometry": {"type": "Point", "coordinates": [-82.4974888658, 36.4812114573]}, "type": "Feature", "properties": {"collection_times": [{"days": "Mon-Sat", "time": "12:00pm"}, {"days": "Sun", "time": "Closed"}], "id": "3766300003", "name": "USPS COLLECTION BOX - BLUE BOX", "address": {"city": "KINGSPORT", "state": "TN", "street": "4313 FORT HENRY DR", "postcode": "37663"}}},
{"geometry": {"type": "Point", "coordinates": [-82.4216316222, 36.4855777589]}, "type": "Feature", "properties": {"collection_times": [{"days": "Mon-Sat", "time": "10:30am"}, {"days": "Sun", "time": "Closed"}], "id": "3766300005", "name": "USPS COLLECTION BOX - BLUE BOX", "address": {"city": "KINGSPORT", "state": "TN", "street": "10368 WALLACE ALLEY ST", "postcode": "37663"}}},
{"geometry": {"type": "Point", "coordinates": [-82.5294245062, 36.5314005556]}, "type": "Feature", "properties": {"collection_times": [{"days": "Mon-Sat", "time": "9:30am"}, {"days": "Sun", "time": "Closed"}], "id": "3766400009", "name": "USPS COLLECTION BOX - BLUE BOX", "address": {"city": "KINGSPORT", "state": "TN", "street": "1205 N EASTMAN RD", "postcode": "37664"}}},
{"geometry": {"type": "Point", "coordinates": [-82.5153787543, 36.5311737292]}, "type": "Feature", "properties": {"collection_times": [{"days": "Mon-Sat", "time": "9:00am"}, {"days": "Sun", "time": "Closed"}], "id": "3766400015", "name": "USPS COLLECTION BOX - BLUE BOX", "address": {"city": "KINGSPORT", "state": "TN", "street": "2450 MEMORIAL BLVD", "postcode": "37664"}}},
{"geometry": {"type": "Point", "coordinates": [-82.4946852531, 36.5311477041]}, "type": "Feature", "properties": {"collection_times": [{"days": "Mon-Sat", "time": "9:00am"}, {"days": "Sun", "time": "Closed"}], "id": "3766400016", "name": "USPS COLLECTION BOX - BLUE BOX", "address": {"city": "KINGSPORT", "state": "TN", "street": "4001 MEMORIAL BLVD", "postcode": "37664"}}},
{"geometry": {"type": "Point", "coordinates": [-82.5221121567, 36.5270735934]}, "type": "Feature", "properties": {"collection_times": [{"days": "Mon-Sat", "time": "10:30am"}, {"days": "Sun", "time": "Closed"}], "id": "3766400017", "name": "USPS COLLECTION BOX - BLUE BOX", "address": {"city": "KINGSPORT", "state": "TN", "street": "2101 FORT HENRY DR", "postcode": "37664"}}},
{"geometry": {"type": "Point", "coordinates": [-82.5161455223, 36.5096121586]}, "type": "Feature", "properties": {"collection_times": [{"days": "Mon-Sat", "time": "9:00am"}, {"days": "Sun", "time": "Closed"}], "id": "3766400020", "name": "USPS COLLECTION BOX - BLUE BOX", "address": {"city": "KINGSPORT", "state": "TN", "street": "3200 FORT HENRY DR", "postcode": "37664"}}},
{"geometry": {"type": "Point", "coordinates": [-82.5330107576, 36.5296678225]}, "type": "Feature", "properties": {"collection_times": [{"days": "Mon-Fri", "time": "12:00pm"}, {"days": "Sat", "time": "1:00pm"}, {"days": "Sun", "time": "Closed"}], "id": "3766400024", "name": "USPS COLLECTION BOX - BLUE BOX", "address": {"city": "KINGSPORT", "state": "TN", "street": "1001 N EASTMAN RD", "postcode": "37664"}}},
{"geometry": {"type": "Point", "coordinates": [-82.5330107576, 36.5296678225]}, "type": "Feature", "properties": {"collection_times": [{"days": "Mon-Fri", "time": "12:00pm"}, {"days": "Sat", "time": "1:00pm"}, {"days": "Sun", "time": "Closed"}], "id": "3766400025", "name": "USPS COLLECTION BOX - BLUE BOX", "address": {"city": "KINGSPORT", "state": "TN", "street": "1001 N EASTMAN RD", "postcode": "37664"}}},
{"geometry": {"type": "Point", "coordinates": [-82.5052684942, 36.5241503263]}, "type": "Feature", "properties": {"collection_times": [{"days": "Mon-Fri", "time": "12:00pm"}, {"days": "Sat-Sun", "time": "Closed"}], "id": "3766400026", "name": "USPS COLLECTION BOX - PO LOBBY", "address": {"city": "KINGSPORT", "state": "TN", "street": "1001 N EASTMAN RD", "postcode": "37664"}}},
{"geometry": {"type": "Point", "coordinates": [-82.5734590105, 36.5787713904]}, "type": "Feature", "properties": {"collection_times": [{"days": "Mon-Fri", "time": "12:05pm"}, {"days": "Sat", "time": "12:00pm"}, {"days": "Sun", "time": "Closed"}], "id": "3766500001", "name": "USPS COLLECTION BOX - BLUE BOX", "address": {"city": "KINGSPORT", "state": "TN", "street": "1221 LYNN GARDEN DR", "postcode": "37665"}}},
{"geometry": {"type": "Point", "coordinates": [-82.6269151111, 36.2363719507]}, "type": "Feature", "properties": {"collection_times": [{"days": "Mon-Fri", "time": "12:45pm"}, {"days": "Sat", "time": "9:15am"}, {"days": "Sun", "time": "Closed"}], "id": "3768100001", "name": "USPS COLLECTION BOX - PO LOBBY", "address": {"city": "LIMESTONE", "state": "TN", "street": "359 OPIE ARNOLD RD", "postcode": "37681"}}},
{"geometry": {"type": "Point", "coordinates": [-82.2944686392, 36.3000006736]}, "type": "Feature", "properties": {"collection_times": [{"days": "Mon-Fri", "time": "2:15pm"}, {"days": "Sat", "time": "11:00am"}, {"days": "Sun", "time": "Closed"}], "id": "3768200001", "name": "USPS COLLECTION BOX - PO LOBBY", "address": {"city": "MILLIGAN COLL", "state": "TN", "street": "101 NETH DR", "postcode": "37682"}}},
{"geometry": {"type": "Point", "coordinates": [-82.2944686392, 36.3000006736]}, "type": "Feature", "properties": {"collection_times": [{"days": "Mon-Fri", "time": "2:15pm"}, {"days": "Sat", "time": "10:45am"}, {"days": "Sun", "time": "Closed"}], "id": "3768200002", "name": "USPS COLLECTION BOX - BLUE BOX", "address": {"city": "MILLIGAN COLL", "state": "TN", "street": "101 NETH DR", "postcode": "37682"}}},
{"geometry": {"type": "Point", "coordinates": [-81.8058242075, 36.4761584598]}, "type": "Feature", "properties": {"collection_times": [{"days": "Mon-Fri", "time": "12:00pm"}, {"days": "Sat", "time": "3:45pm"}, {"days": "Sun", "time": "Closed"}], "id": "3768300001", "name": "USPS COLLECTION BOX - BLUE BOX", "address": {"city": "MOUNTAIN CITY", "state": "TN", "street": "216 COLLEGE ST", "postcode": "37683"}}},
{"geometry": {"type": "Point", "coordinates": [-81.8058242075, 36.4761584598]}, "type": "Feature", "properties": {"collection_times": [{"days": "Mon-Fri", "time": "12:00pm"}, {"days": "Sat", "time": "3:45pm"}, {"days": "Sun", "time": "Closed"}], "id": "3768300002", "name": "USPS COLLECTION BOX - BLUE BOX", "address": {"city": "MOUNTAIN CITY", "state": "TN", "street": "216 COLLEGE ST", "postcode": "37683"}}},
{"geometry": {"type": "Point", "coordinates": [-81.8041326984, 36.4745072755]}, "type": "Feature", "properties": {"collection_times": [{"days": "Mon-Sat", "time": "9:30am"}, {"days": "Sun", "time": "Closed"}], "id": "3768300003", "name": "USPS COLLECTION BOX - BLUE BOX", "address": {"city": "MOUNTAIN CITY", "state": "TN", "street": "100 N CHURCH ST", "postcode": "37683"}}},
{"geometry": {"type": "Point", "coordinates": [-81.8058242075, 36.4761584598]}, "type": "Feature", "properties": {"collection_times": [{"days": "Mon-Fri", "time": "12:00pm"}, {"days": "Sat", "time": "3:45pm"}, {"days": "Sun", "time": "Closed"}], "id": "3768300008", "name": "USPS COLLECTION BOX - PO LOBBY", "address": {"city": "MOUNTAIN CITY", "state": "TN", "street": "216 COLLEGE ST", "postcode": "37683"}}},
{"geometry": {"type": "Point", "coordinates": [-81.8058242075, 36.4761584598]}, "type": "Feature", "properties": {"collection_times": [{"days": "Mon-Fri", "time": "12:00pm"}, {"days": "Sat", "time": "3:45pm"}, {"days": "Sun", "time": "Closed"}], "id": "3768300009", "name": "USPS COLLECTION BOX - PO LOBBY", "address": {"city": "MOUNTAIN CITY", "state": "TN", "street": "216 COLLEGE ST", "postcode": "37683"}}},
{"geometry": {"type": "Point", "coordinates": [-81.8058242075, 36.4761584598]}, "type": "Feature", "properties": {"collection_times": [{"days": "Mon-Fri", "time": "12:00pm"}, {"days": "Sat", "time": "3:45pm"}, {"days": "Sun", "time": "Closed"}], "id": "3768300011", "name": "USPS COLLECTION BOX - PO LOBBY", "address": {"city": "MOUNTAIN CITY", "state": "TN", "street": "216 COLLEGE ST", "postcode": "37683"}}},
{"geometry": {"type": "Point", "coordinates": [-81.8092984469, 36.4754401975]}, "type": "Feature", "properties": {"collection_times": [{"days": "Mon-Fri,Sun", "time": "Closed"}, {"days": "Sat", "time": "11:00am"}], "id": "3768300013", "name": "USPS COLLECTION BOX - BLUE BOX", "address": {"city": "MOUNTAIN CITY", "state": "TN", "street": "7131 HIGHWAY 91 N", "postcode": "37683"}}},
{"geometry": {"type": "Point", "coordinates": [-82.376939526, 36.3079343371]}, "type": "Feature", "properties": {"collection_times": [{"days": "Mon-Fri", "time": "1:15pm"}, {"days": "Sat", "time": "9:00am"}, {"days": "Sun", "time": "Closed"}], "id": "3768400002", "name": "USPS COLLECTION BOX - BLUE BOX", "address": {"city": "MOUNTAIN HOME", "state": "TN", "street": "53 MEMORIAL DR", "postcode": "37684"}}},
{"geometry": {"type": "Point", "coordinates": [-82.376939526, 36.3079343371]}, "type": "Feature", "properties": {"collection_times": [{"days": "Mon-Fri", "time": "1:15pm"}, {"days": "Sat", "time": "9:00am"}, {"days": "Sun", "time": "Closed"}], "id": "3768400003", "name": "USPS COLLECTION BOX - PO LOBBY", "address": {"city": "MOUNTAIN HOME", "state": "TN", "street": "53 MEMORIAL DR", "postcode": "37684"}}},
{"geometry": {"type": "Point", "coordinates": [-82.3079274696, 36.4322766917]}, "type": "Feature", "properties": {"collection_times": [{"days": "Mon-Fri", "time": "12:45pm"}, {"days": "Sat", "time": "11:00am"}, {"days": "Sun", "time": "Closed"}], "id": "3768600001", "name": "USPS COLLECTION BOX - PO LOBBY", "address": {"city": "PINEY FLATS", "state": "TN", "street": "257 JONESBORO RD", "postcode": "37686"}}},
{"geometry": {"type": "Point", "coordinates": [-82.3079274696, 36.4322766917]}, "type": "Feature", "properties": {"collection_times": [{"days": "Mon-Fri", "time": "12:45pm"}, {"days": "Sat", "time": "11:30am"}, {"days": "Sun", "time": "Closed"}], "id": "3768600002", "name": "USPS COLLECTION BOX - BLUE BOX", "address": {"city": "PINEY FLATS", "state": "TN", "street": "257 JONESBORO RD", "postcode": "37686"}}},
{"geometry": {"type": "Point", "coordinates": [-82.0759857983, 36.2013918716]}, "type": "Feature", "properties": {"collection_times": [{"days": "Mon-Fri", "time": "1:15pm"}, {"days": "Sat", "time": "9:30am"}, {"days": "Sun", "time": "Closed"}], "id": "3768700001", "name": "USPS COLLECTION BOX - PO LOBBY", "address": {"city": "ROAN MOUNTAIN", "state": "TN", "street": "8060 HIGHWAY 19 E", "postcode": "37687"}}},
{"geometry": {"type": "Point", "coordinates": [-82.0759857983, 36.2013918716]}, "type": "Feature", "properties": {"collection_times": [{"days": "Mon-Fri", "time": "1:15pm"}, {"days": "Sat", "time": "9:30am"}, {"days": "Sun", "time": "Closed"}], "id": "3768700002", "name": "USPS COLLECTION BOX - BLUE BOX", "address": {"city": "ROAN MOUNTAIN", "state": "TN", "street": "8060 HIGHWAY 19 E", "postcode": "37687"}}},
{"geometry": {"type": "Point", "coordinates": [-81.9282154295, 36.5196253593]}, "type": "Feature", "properties": {"collection_times": [{"days": "Mon-Fri", "time": "12:00pm"}, {"days": "Sat", "time": "9:30am"}, {"days": "Sun", "time": "Closed"}], "id": "3768800001", "name": "USPS COLLECTION BOX - BLUE BOX", "address": {"city": "SHADY VALLEY", "state": "TN", "street": "136 HIGHWAY 133", "postcode": "37688"}}},
{"geometry": {"type": "Point", "coordinates": [-81.9282154295, 36.5196253593]}, "type": "Feature", "properties": {"collection_times": [{"days": "Mon-Fri", "time": "12:00pm"}, {"days": "Sat", "time": "9:30am"}, {"days": "Sun", "time": "Closed"}], "id": "3768800002", "name": "USPS COLLECTION BOX - PO LOBBY", "address": {"city": "SHADY VALLEY", "state": "TN", "street": "136 HIGHWAY 133", "postcode": "37688"}}},
{"geometry": {"type": "Point", "coordinates": [-82.5542284835, 36.2445598378]}, "type": "Feature", "properties": {"collection_times": [{"days": "Mon-Fri", "time": "11:15am"}, {"days": "Sat", "time": "10:15am"}, {"days": "Sun", "time": "Closed"}], "id": "3769000001", "name": "USPS COLLECTION BOX - PO LOBBY", "address": {"city": "TELFORD", "state": "TN", "street": "1888 OLD STATE ROUTE 34", "postcode": "37690"}}},
{"geometry": {"type": "Point", "coordinates": [-82.5542284835, 36.2445598378]}, "type": "Feature", "properties": {"collection_times": [{"days": "Mon-Fri", "time": "11:15am"}, {"days": "Sat", "time": "10:15am"}, {"days": "Sun", "time": "Closed"}], "id": "3769000002", "name": "USPS COLLECTION BOX - BLUE BOX", "address": {"city": "TELFORD", "state": "TN", "street": "1888 OLD STATE ROUTE 34", "postcode": "37690"}}},
{"geometry": {"type": "Point", "coordinates": [-81.744792808, 36.3500590859]}, "type": "Feature", "properties": {"collection_times": [{"days": "Mon-Fri", "time": "11:45am"}, {"days": "Sat", "time": "9:45am"}, {"days": "Sun", "time": "Closed"}], "id": "3769100001", "name": "USPS COLLECTION BOX - BLUE BOX", "address": {"city": "TRADE", "state": "TN", "street": "164 HIGHWAY 67 N", "postcode": "37691"}}},
{"geometry": {"type": "Point", "coordinates": [-81.744792808, 36.3500590859]}, "type": "Feature", "properties": {"collection_times": [{"days": "Mon-Fri", "time": "11:45am"}, {"days": "Sat", "time": "9:45am"}, {"days": "Sun", "time": "Closed"}], "id": "3769100002", "name": "USPS COLLECTION BOX - PO LOBBY", "address": {"city": "TRADE", "state": "TN", "street": "164 HIGHWAY 67 N", "postcode": "37691"}}},
{"geometry": {"type": "Point", "coordinates": [-82.3498337934, 36.1986258949]}, "type": "Feature", "properties": {"collection_times": [{"days": "Mon-Fri", "time": "11:45am"}, {"days": "Sat", "time": "10:30am"}, {"days": "Sun", "time": "Closed"}], "id": "3769200000", "name": "USPS COLLECTION BOX - PO LOBBY", "address": {"city": "UNICOI", "state": "TN", "street": "4010 UNICOI DR", "postcode": "37692"}}},
{"geometry": {"type": "Point", "coordinates": [-82.3498337934, 36.1986258949]}, "type": "Feature", "properties": {"collection_times": [{"days": "Mon-Fri", "time": "11:45am"}, {"days": "Sat", "time": "10:30am"}, {"days": "Sun", "time": "Closed"}], "id": "3769200001", "name": "USPS COLLECTION BOX - BLUE BOX", "address": {"city": "UNICOI", "state": "TN", "street": "4010 UNICOI DR", "postcode": "37692"}}},
{"geometry": {"type": "Point", "coordinates": [-82.2939560187, 36.3694438384]}, "type": "Feature", "properties": {"collection_times": [{"days": "Mon-Fri", "time": "1:00pm"}, {"days": "Sat", "time": "9:45am"}, {"days": "Sun", "time": "Closed"}], "id": "3769400001", "name": "USPS COLLECTION BOX - PO LOBBY", "address": {"city": "WATAUGA", "state": "TN", "street": "105 N 2ND ST", "postcode": "37694"}}},
{"geometry": {"type": "Point", "coordinates": [-82.2939560187, 36.3694438384]}, "type": "Feature", "properties": {"collection_times": [{"days": "Mon-Fri", "time": "1:00pm"}, {"days": "Sat", "time": "9:30am"}, {"days": "Sun", "time": "Closed"}], "id": "3769400002", "name": "USPS COLLECTION BOX - BLUE BOX", "address": {"city": "WATAUGA", "state": "TN", "street": "105 N 2ND ST", "postcode": "37694"}}}
]}
