{"type": "FeatureCollection", "features": [
{"geometry": {"type": "Point", "coordinates": [-83.9727243868, 35.7666615236]}, "type": "Feature", "properties": {"collection_times": [{"days": "Mon-Fri", "time": "4:30pm"}, {"days": "Sat", "time": "12:00pm"}, {"days": "Sun", "time": "Closed"}], "id": "3770100009", "name": "USPS COLLECTION BOX - BLUE BOX", "address": {"city": "ALCOA", "state": "TN", "street": "108 S HALL RD", "postcode": "37701"}}},
{"geometry": {"type": "Point", "coordinates": [-83.9727243868, 35.7666615236]}, "type": "Feature", "properties": {"collection_times": [{"days": "Mon-Fri", "time": "4:30pm"}, {"days": "Sat", "time": "12:00pm"}, {"days": "Sun", "time": "Closed"}], "id": "3770100010", "name": "USPS COLLECTION BOX - BLUE BOX", "address": {"city": "ALCOA", "state": "TN", "street": "108 S HALL RD", "postcode": "37701"}}},
{"geometry": {"type": "Point", "coordinates": [-83.9727243868, 35.7666615236]}, "type": "Feature", "properties": {"collection_times": [{"days": "Mon-Fri", "time": "4:30pm"}, {"days": "Sat", "time": "12:00pm"}, {"days": "Sun", "time": "Closed"}], "id": "3770100011", "name": "USPS COLLECTION BOX - BLUE BOX", "address": {"city": "ALCOA", "state": "TN", "street": "108 S HALL RD", "postcode": "37701"}}},
{"geometry": {"type": "Point", "coordinates": [-83.9727243868, 35.7666615236]}, "type": "Feature", "properties": {"collection_times": [{"days": "Mon-Fri", "time": "4:30pm"}, {"days": "Sat", "time": "12:00pm"}, {"days": "Sun", "time": "Closed"}], "id": "3770100012", "name": "USPS COLLECTION BOX - BLUE BOX", "address": {"city": "ALCOA", "state": "TN", "street": "108 S HALL RD", "postcode": "37701"}}},
{"geometry": {"type": "Point", "coordinates": [-83.9791840071, 35.8151109233]}, "type": "Feature", "properties": {"collection_times": [{"days": "Mon-Fri", "time": "3:30pm"}, {"days": "Sat", "time": "10:00am"}, {"days": "Sun", "time": "Closed"}], "id": "3770100013", "name": "USPS COLLECTION BOX - BLUE BOX", "address": {"city": "ALCOA", "state": "TN", "street": "186 AIRPORT PLAZA BLVD", "postcode": "37701"}}},
{"geometry": {"type": "Point", "coordinates": [-83.9727243868, 35.7666615236]}, "type": "Feature", "properties": {"collection_times": [{"days": "Mon-Fri", "time": "4:30pm"}, {"days": "Sat", "time": "12:00pm"}, {"days": "Sun", "time": "Closed"}], "id": "3770100014", "name": "USPS COLLECTION BOX - PO LOBBY", "address": {"city": "ALCOA", "state": "TN", "street": "108 S HALL RD", "postcode": "37701"}}},
{"geometry": {"type": "Point", "coordinates": [-83.9727243868, 35.7666615236]}, "type": "Feature", "properties": {"collection_times": [{"days": "Mon-Fri", "time": "4:30pm"}, {"days": "Sat", "time": "12:00pm"}, {"days": "Sun", "time": "Closed"}], "id": "3770100015", "name": "USPS COLLECTION BOX - PO LOBBY", "address": {"city": "ALCOA", "state": "TN", "street": "108 S HALL RD", "postcode": "37701"}}},
{"geometry": {"type": "Point", "coordinates": [-83.9909056498, 35.7728293579]}, "type": "Feature", "properties": {"collection_times": [{"days": "Mon-Sat", "time": "9:00am"}, {"days": "Sun", "time": "Closed"}], "id": "3770100016", "name": "USPS COLLECTION BOX - BLUE BOX", "address": {"city": "ALCOA", "state": "TN", "street": "875 LOUISVILLE RD", "postcode": "37701"}}},
{"geometry": {"type": "Point", "coordinates": [-83.9694528551, 35.8312123753]}, "type": "Feature", "properties": {"collection_times": [{"days": "Mon-Fri", "time": "3:45pm"}, {"days": "Sat", "time": "10:00am"}, {"days": "Sun", "time": "Closed"}], "id": "3770100017", "name": "USPS COLLECTION BOX - BLUE BOX", "address": {"city": "ALCOA", "state": "TN", "street": "3401 RUSS CIR", "postcode": "37701"}}},
{"geometry": {"type": "Point", "coordinates": [-83.9869288618, 35.8055209483]}, "type": "Feature", "properties": {"collection_times": [{"days": "Mon-Fri", "time": "4:00pm"}, {"days": "Sat", "time": "10:00am"}, {"days": "Sun", "time": "Closed"}], "id": "3770100018", "name": "USPS COLLECTION BOX - BLUE BOX", "address": {"city": "ALCOA", "state": "TN", "street": "2055 ALCOA HWY", "postcode": "37701"}}},
{"geometry": {"type": "Point", "coordinates": [-83.976298388, 35.8260691008]}, "type": "Feature", "properties": {"collection_times": [{"days": "Mon-Fri", "time": "4:00pm"}, {"days": "Sat", "time": "10:00am"}, {"days": "Sun", "time": "Closed"}], "id": "3770100020", "name": "USPS COLLECTION BOX - BLUE BOX", "address": {"city": "ALCOA", "state": "TN", "street": "3051 AIRPORT HWY", "postcode": "37701"}}},
{"geometry": {"type": "Point", "coordinates": [-83.9870785678, 35.7840912163]}, "type": "Feature", "properties": {"collection_times": [{"days": "Mon-Fri", "time": "4:00pm"}, {"days": "Sat", "time": "10:00am"}, {"days": "Sun", "time": "Closed"}], "id": "3770100021", "name": "USPS COLLECTION BOX - BLUE BOX", "address": {"city": "ALCOA", "state": "TN", "street": "110 ASSOCIATES BLVD", "postcode": "37701"}}},
{"geometry": {"type": "Point", "coordinates": [-83.976298388, 35.8260691008]}, "type": "Feature", "properties": {"collection_times": [{"days": "Mon-Fri", "time": "4:00pm"}, {"days": "Sat", "time": "10:00am"}, {"days": "Sun", "time": "Closed"}], "id": "3770100024", "name": "USPS COLLECTION BOX - BLUE BOX", "address": {"city": "ALCOA", "state": "TN", "street": "3051 AIRPORT HWY", "postcode": "37701"}}},
{"geometry": {"type": "Point", "coordinates": [-84.0292351521, 36.2033227265]}, "type": "Feature", "properties": {"collection_times": [{"days": "Mon-Fri", "time": "3:45pm"}, {"days": "Sat", "time": "9:45am"}, {"days": "Sun", "time": "Closed"}], "id": "3770500001", "name": "USPS COLLECTION BOX - BLUE BOX", "address": {"city": "ANDERSONVILLE", "state": "TN", "street": "4134 ANDERSONVILLE HWY", "postcode": "37705"}}},
{"geometry": {"type": "Point", "coordinates": [-84.0292351521, 36.2033227265]}, "type": "Feature", "properties": {"collection_times": [{"days": "Mon-Fri", "time": "4:00pm"}, {"days": "Sat", "time": "9:45am"}, {"days": "Sun", "time": "Closed"}], "id": "3770500002", "name": "USPS COLLECTION BOX - PO LOBBY", "address": {"city": "ANDERSONVILLE", "state": "TN", "street": "4134 ANDERSONVILLE HWY", "postcode": "37705"}}},
{"geometry": {"type": "Point", "coordinates": [-83.2940914853, 36.345514557]}, "type": "Feature", "properties": {"collection_times": [{"days": "Mon-Fri", "time": "4:00pm"}, {"days": "Sat", "time": "10:00am"}, {"days": "Sun", "time": "Closed"}], "id": "3770800001", "name": "USPS COLLECTION BOX - PO LOBBY", "address": {"city": "BEAN STATION", "state": "TN", "street": "340 MAIN ST", "postcode": "37708"}}},
{"geometry": {"type": "Point", "coordinates": [-83.2940914853, 36.345514557]}, "type": "Feature", "properties": {"collection_times": [{"days": "Mon-Fri", "time": "3:45pm"}, {"days": "Sat-Sun", "time": "Closed"}], "id": "3770800002", "name": "USPS COLLECTION BOX - BLUE BOX", "address": {"city": "BEAN STATION", "state": "TN", "street": "340 MAIN ST", "postcode": "37708"}}},
{"geometry": {"type": "Point", "coordinates": [-83.7035790335, 36.1552783859]}, "type": "Feature", "properties": {"collection_times": [{"days": "Mon-Fri", "time": "3:00pm"}, {"days": "Sat", "time": "9:00am"}, {"days": "Sun", "time": "Closed"}], "id": "3770900001", "name": "USPS COLLECTION BOX - PO LOBBY", "address": {"city": "BLAINE", "state": "TN", "street": "1006 RUTLEDGE PIKE", "postcode": "37709"}}},
{"geometry": {"type": "Point", "coordinates": [-83.7035790335, 36.1552783859]}, "type": "Feature", "properties": {"collection_times": [{"days": "Mon-Fri", "time": "3:00pm"}, {"days": "Sat", "time": "9:00am"}, {"days": "Sun", "time": "Closed"}], "id": "3770900002", "name": "USPS COLLECTION BOX - BLUE BOX", "address": {"city": "BLAINE", "state": "TN", "street": "1006 RUTLEDGE PIKE", "postcode": "37709"}}},
{"geometry": {"type": "Point", "coordinates": [-84.1843523939, 36.186692847]}, "type": "Feature", "properties": {"collection_times": [{"days": "Mon-Fri", "time": "12:00pm"}, {"days": "Sat", "time": "11:00am"}, {"days": "Sun", "time": "Closed"}], "id": "3771000001", "name": "USPS COLLECTION BOX - BLUE BOX", "address": {"city": "BRICEVILLE", "state": "TN", "street": "1410 BRICEVILLE HWY", "postcode": "37710"}}},
{"geometry": {"type": "Point", "coordinates": [-84.1843523939, 36.186692847]}, "type": "Feature", "properties": {"collection_times": [{"days": "Mon-Fri", "time": "12:00pm"}, {"days": "Sat", "time": "11:15am"}, {"days": "Sun", "time": "Closed"}], "id": "3771000002", "name": "USPS COLLECTION BOX - PO LOBBY", "address": {"city": "BRICEVILLE", "state": "TN", "street": "1410 BRICEVILLE HWY", "postcode": "37710"}}},
{"geometry": {"type": "Point", "coordinates": [-83.0867159945, 36.2567296153]}, "type": "Feature", "properties": {"collection_times": [{"days": "Mon-Fri", "time": "4:15pm"}, {"days": "Sat", "time": "10:15am"}, {"days": "Sun", "time": "Closed"}], "id": "3771100001", "name": "USPS COLLECTION BOX - BLUE BOX", "address": {"city": "BULLS GAP", "state": "TN", "street": "410 HIGHWAY 11 E", "postcode": "37711"}}},
{"geometry": {"type": "Point", "coordinates": [-83.0867159945, 36.2567296153]}, "type": "Feature", "properties": {"collection_times": [{"days": "Mon-Fri", "time": "4:30pm"}, {"days": "Sat", "time": "10:30am"}, {"days": "Sun", "time": "Closed"}], "id": "3771100002", "name": "USPS COLLECTION BOX - PO LOBBY", "address": {"city": "BULLS GAP", "state": "TN", "street": "410 HIGHWAY 11 E", "postcode": "37711"}}},
{"geometry": {"type": "Point", "coordinates": [-83.1782415296, 36.0479491875]}, "type": "Feature", "properties": {"collection_times": [{"days": "Mon-Fri", "time": "11:30am"}, {"days": "Sat", "time": "9:45am"}, {"days": "Sun", "time": "Closed"}], "id": "3771300001", "name": "USPS COLLECTION BOX - BLUE BOX", "address": {"city": "BYBEE", "state": "TN", "street": "1580 HIGHWAY 160", "postcode": "37713"}}},
{"geometry": {"type": "Point", "coordinates": [-83.1782415296, 36.0479491875]}, "type": "Feature", "properties": {"collection_times": [{"days": "Mon-Fri", "time": "11:30am"}, {"days": "Sat", "time": "9:45am"}, {"days": "Sun", "time": "Closed"}], "id": "3771300002", "name": "USPS COLLECTION BOX - PO LOBBY", "address": {"city": "BYBEE", "state": "TN", "street": "1580 HIGHWAY 160", "postcode": "37713"}}},
{"geometry": {"type": "Point", "coordinates": [-84.2180894087, 36.2984387287]}, "type": "Feature", "properties": {"collection_times": [{"days": "Mon-Fri", "time": "4:00pm"}, {"days": "Sat", "time": "11:00am"}, {"days": "Sun", "time": "Closed"}], "id": "3771400001", "name": "USPS COLLECTION BOX - BLUE BOX", "address": {"city": "CARYVILLE", "state": "TN", "street": "107 HILL LN", "postcode": "37714"}}},
{"geometry": {"type": "Point", "coordinates": [-84.2180894087, 36.2984387287]}, "type": "Feature", "properties": {"collection_times": [{"days": "Mon-Fri", "time": "4:00pm"}, {"days": "Sat", "time": "11:00am"}, {"days": "Sun", "time": "Closed"}], "id": "3771400002", "name": "USPS COLLECTION BOX - PO LOBBY", "address": {"city": "CARYVILLE", "state": "TN", "street": "107 HILL LN", "postcode": "37714"}}},
{"geometry": {"type": "Point", "coordinates": [-83.9418610657, 36.5585275731]}, "type": "Feature", "properties": {"collection_times": [{"days": "Mon-Fri", "time": "12:00pm"}, {"days": "Sat", "time": "10:00am"}, {"days": "Sun", "time": "Closed"}], "id": "3771500001", "name": "USPS COLLECTION BOX - BLUE BOX", "address": {"city": "CLAIRFIELD", "state": "TN", "street": "5671 HIGHWAY 90", "postcode": "37715"}}},
{"geometry": {"type": "Point", "coordinates": [-83.9418610657, 36.5585275731]}, "type": "Feature", "properties": {"collection_times": [{"days": "Mon-Fri", "time": "12:00pm"}, {"days": "Sat", "time": "10:00am"}, {"days": "Sun", "time": "Closed"}], "id": "3771500002", "name": "USPS COLLECTION BOX - PO LOBBY", "address": {"city": "CLAIRFIELD", "state": "TN", "street": "5671 HIGHWAY 90", "postcode": "37715"}}},
{"geometry": {"type": "Point", "coordinates": [-84.1178687688, 36.1177398019]}, "type": "Feature", "properties": {"collection_times": [{"days": "Mon-Fri", "time": "5:00pm"}, {"days": "Sat", "time": "12:00pm"}, {"days": "Sun", "time": "Closed"}], "id": "3771600002", "name": "USPS COLLECTION BOX - BLUE BOX", "address": {"city": "CLINTON", "state": "TN", "street": "1121 N CHARLES G SEIVERS BLVD", "postcode": "37716"}}},
{"geometry": {"type": "Point", "coordinates": [-84.1334087333, 36.1002276931]}, "type": "Feature", "properties": {"collection_times": [{"days": "Mon-Fri", "time": "2:00pm"}, {"days": "Sat", "time": "12:00pm"}, {"days": "Sun", "time": "Closed"}], "id": "3771600005", "name": "USPS COLLECTION BOX - BLUE BOX", "address": {"city": "CLINTON", "state": "TN", "street": "100 N MAIN ST", "postcode": "37716"}}},
{"geometry": {"type": "Point", "coordinates": [-84.1334087333, 36.1002276931]}, "type": "Feature", "properties": {"collection_times": [{"days": "Mon-Fri", "time": "2:00pm"}, {"days": "Sat", "time": "12:00pm"}, {"days": "Sun", "time": "Closed"}], "id": "3771600006", "name": "USPS COLLECTION BOX - BLUE BOX", "address": {"city": "CLINTON", "state": "TN", "street": "100 N MAIN ST", "postcode": "37716"}}},
{"geometry": {"type": "Point", "coordinates": [-84.1388352429, 36.091667819]}, "type": "Feature", "properties": {"collection_times": [{"days": "Mon-Fri", "time": "2:00pm"}, {"days": "Sat", "time": "12:00pm"}, {"days": "Sun", "time": "Closed"}], "id": "3771600007", "name": "USPS COLLECTION BOX - BLUE BOX", "address": {"city": "CLINTON", "state": "TN", "street": "507 S CHARLES G SEIVERS BLVD", "postcode": "37716"}}},
{"geometry": {"type": "Point", "coordinates": [-84.1312048808, 36.0826347273]}, "type": "Feature", "properties": {"collection_times": [{"days": "Mon-Sat", "time": "12:00pm"}, {"days": "Sun", "time": "Closed"}], "id": "3771600016", "name": "USPS COLLECTION BOX - BLUE BOX", "address": {"city": "CLINTON", "state": "TN", "street": "512 CLINCH AVE", "postcode": "37716"}}},
{"geometry": {"type": "Point", "coordinates": [-84.1477863211, 36.0284669036]}, "type": "Feature", "properties": {"collection_times": [{"days": "Mon-Sat", "time": "12:00pm"}, {"days": "Sun", "time": "Closed"}], "id": "3771600017", "name": "USPS COLLECTION BOX - BLUE BOX", "address": {"city": "CLINTON", "state": "TN", "street": "1060 EDGEMOOR RD", "postcode": "37716"}}},
{"geometry": {"type": "Point", "coordinates": [-84.1178687688, 36.1177398019]}, "type": "Feature", "properties": {"collection_times": [{"days": "Mon-Fri", "time": "5:00pm"}, {"days": "Sat", "time": "12:00pm"}, {"days": "Sun", "time": "Closed"}], "id": "3771600019", "name": "USPS COLLECTION BOX - PO LOBBY", "address": {"city": "CLINTON", "state": "TN", "street": "1121 N CHARLES G SEIVERS BLVD", "postcode": "37716"}}},
{"geometry": {"type": "Point", "coordinates": [-84.4148581374, 36.0337412999]}, "type": "Feature", "properties": {"collection_times": [{"days": "Mon-Fri", "time": "2:00pm"}, {"days": "Sat", "time": "11:15am"}, {"days": "Sun", "time": "Closed"}], "id": "3771900000", "name": "USPS COLLECTION BOX - BLUE BOX", "address": {"city": "COALFIELD", "state": "TN", "street": "5707 KNOXVILLE HWY", "postcode": "37719"}}},
{"geometry": {"type": "Point", "coordinates": [-83.7788991563, 36.1536478089]}, "type": "Feature", "properties": {"collection_times": [{"days": "Mon-Fri", "time": "3:45pm"}, {"days": "Sat", "time": "10:15am"}, {"days": "Sun", "time": "Closed"}], "id": "3772100001", "name": "USPS COLLECTION BOX - BLUE BOX", "address": {"city": "CORRYTON", "state": "TN", "street": "7713 CORRYTON RD", "postcode": "37721"}}},
{"geometry": {"type": "Point", "coordinates": [-83.7788991563, 36.1536478089]}, "type": "Feature", "properties": {"collection_times": [{"days": "Mon-Fri", "time": "4:00pm"}, {"days": "Sat", "time": "10:00am"}, {"days": "Sun", "time": "Closed"}], "id": "3772100002", "name": "USPS COLLECTION BOX - PO LOBBY", "address": {"city": "CORRYTON", "state": "TN", "street": "7713 CORRYTON RD", "postcode": "37721"}}},
{"geometry": {"type": "Point", "coordinates": [-83.8541072191, 36.1169579708]}, "type": "Feature", "properties": {"collection_times": [{"days": "Mon-Fri", "time": "8:30am"}, {"days": "Sat-Sun", "time": "Closed"}], "id": "3772100003", "name": "USPS COLLECTION BOX - BLUE BOX", "address": {"city": "CORRYTON", "state": "TN", "street": "7335 TAZEWELL PIKE", "postcode": "37721"}}},
{"geometry": {"type": "Point", "coordinates": [-83.2359841226, 35.7937182934]}, "type": "Feature", "properties": {"collection_times": [{"days": "Mon-Fri", "time": "3:45pm"}, {"days": "Sat", "time": "10:30am"}, {"days": "Sun", "time": "Closed"}], "id": "3772200001", "name": "USPS COLLECTION BOX - PO LOBBY", "address": {"city": "COSBY", "state": "TN", "street": "4402 HOOPER HWY", "postcode": "37722"}}},
{"geometry": {"type": "Point", "coordinates": [-83.2359841226, 35.7937182934]}, "type": "Feature", "properties": {"collection_times": [{"days": "Mon-Fri", "time": "3:45pm"}, {"days": "Sat", "time": "10:30am"}, {"days": "Sun", "time": "Closed"}], "id": "3772200003", "name": "USPS COLLECTION BOX - BLUE BOX", "address": {"city": "COSBY", "state": "TN", "street": "4402 HOOPER HWY", "postcode": "37722"}}},
{"geometry": {"type": "Point", "coordinates": [-84.8766090785, 35.9086820003]}, "type": "Feature", "properties": {"collection_times": [{"days": "Mon-Fri", "time": "12:00pm"}, {"days": "Sat", "time": "11:30am"}, {"days": "Sun", "time": "Closed"}], "id": "3772300001", "name": "USPS COLLECTION BOX - BLUE BOX", "address": {"city": "CRAB ORCHARD", "state": "TN", "street": "154 MAIN ST", "postcode": "37723"}}},
{"geometry": {"type": "Point", "coordinates": [-84.8766090785, 35.9086820003]}, "type": "Feature", "properties": {"collection_times": [{"days": "Mon-Fri", "time": "12:00pm"}, {"days": "Sat", "time": "11:45am"}, {"days": "Sun", "time": "Closed"}], "id": "3772300002", "name": "USPS COLLECTION BOX - PO LOBBY", "address": {"city": "CRAB ORCHARD", "state": "TN", "street": "154 MAIN ST", "postcode": "37723"}}},
{"geometry": {"type": "Point", "coordinates": [-84.8156990988, 35.9782916303]}, "type": "Feature", "properties": {"collection_times": [{"days": "Mon-Sat", "time": "11:00am"}, {"days": "Sun", "time": "Closed"}], "id": "3772300004", "name": "USPS COLLECTION BOX - BLUE BOX", "address": {"city": "CRAB ORCHARD", "state": "TN", "street": "52 MAIN ST", "postcode": "37723"}}},
{"geometry": {"type": "Point", "coordinates": [-83.667845769, 36.5994139001]}, "type": "Feature", "properties": {"collection_times": [{"days": "Mon-Fri", "time": "3:15pm"}, {"days": "Sat", "time": "10:00am"}, {"days": "Sun", "time": "Closed"}], "id": "3772400000", "name": "USPS COLLECTION BOX - BLUE BOX", "address": {"city": "CUMBERLAND GAP", "state": "TN", "street": "530 COLWYN AVE", "postcode": "37724"}}},
{"geometry": {"type": "Point", "coordinates": [-83.667845769, 36.5994139001]}, "type": "Feature", "properties": {"collection_times": [{"days": "Mon-Fri", "time": "3:15pm"}, {"days": "Sat", "time": "10:00am"}, {"days": "Sun", "time": "Closed"}], "id": "3772400001", "name": "USPS COLLECTION BOX - PO LOBBY", "address": {"city": "CUMBERLAND GAP", "state": "TN", "street": "530 COLWYN AVE", "postcode": "37724"}}},
{"geometry": {"type": "Point", "coordinates": [-83.4119804381, 36.0169771651]}, "type": "Feature", "properties": {"collection_times": [{"days": "Mon-Fri", "time": "1:00pm"}, {"days": "Sat-Sun", "time": "Closed"}], "id": "3772500001", "name": "USPS COLLECTION BOX - BLUE BOX", "address": {"city": "DANDRIDGE", "state": "TN", "street": "100 MAIN ST", "postcode": "37725"}}},
{"geometry": {"type": "Point", "coordinates": [-83.4175352009, 36.017001798]}, "type": "Feature", "properties": {"collection_times": [{"days": "Mon-Fri", "time": "2:45pm"}, {"days": "Sat", "time": "10:15am"}, {"days": "Sun", "time": "Closed"}], "id": "3772500002", "name": "USPS COLLECTION BOX - BLUE BOX", "address": {"city": "DANDRIDGE", "state": "TN", "street": "1130 ACADEMY CR", "postcode": "37725"}}},
{"geometry": {"type": "Point", "coordinates": [-83.4175352009, 36.017001798]}, "type": "Feature", "properties": {"collection_times": [{"days": "Mon-Fri", "time": "2:45pm"}, {"days": "Sat", "time": "10:15am"}, {"days": "Sun", "time": "Closed"}], "id": "3772500003", "name": "USPS COLLECTION BOX - BLUE BOX", "address": {"city": "DANDRIDGE", "state": "TN", "street": "1130 ACADEMY CR", "postcode": "37725"}}},
{"geometry": {"type": "Point", "coordinates": [-83.4175352009, 36.017001798]}, "type": "Feature", "properties": {"collection_times": [{"days": "Mon-Fri", "time": "2:45pm"}, {"days": "Sat", "time": "10:15am"}, {"days": "Sun", "time": "Closed"}], "id": "3772500004", "name": "USPS COLLECTION BOX - BLUE BOX", "address": {"city": "DANDRIDGE", "state": "TN", "street": "1130 ACADEMY CR", "postcode": "37725"}}},
{"geometry": {"type": "Point", "coordinates": [-83.4175352009, 36.017001798]}, "type": "Feature", "properties": {"collection_times": [{"days": "Mon-Fri", "time": "4:30pm"}, {"days": "Sat", "time": "11:00am"}, {"days": "Sun", "time": "Closed"}], "id": "3772500007", "name": "USPS COLLECTION BOX - PO LOBBY", "address": {"city": "DANDRIDGE", "state": "TN", "street": "1130 ACADEMY CR", "postcode": "37725"}}},
{"geometry": {"type": "Point", "coordinates": [-83.4175352009, 36.017001798]}, "type": "Feature", "properties": {"collection_times": [{"days": "Mon-Fri", "time": "4:30pm"}, {"days": "Sat", "time": "11:00am"}, {"days": "Sun", "time": "Closed"}], "id": "3772500008", "name": "USPS COLLECTION BOX - PO LOBBY", "address": {"city": "DANDRIDGE", "state": "TN", "street": "1130 ACADEMY CR", "postcode": "37725"}}},
{"geometry": {"type": "Point", "coordinates": [-84.7627864017, 36.1970067811]}, "type": "Feature", "properties": {"collection_times": [{"days": "Mon-Fri", "time": "11:30am"}, {"days": "Sat", "time": "10:00am"}, {"days": "Sun", "time": "Closed"}], "id": "3772600001", "name": "USPS COLLECTION BOX - PO LOBBY", "address": {"city": "DEER LODGE", "state": "TN", "street": "2211 DEER LODGE HWY", "postcode": "37726"}}},
{"geometry": {"type": "Point", "coordinates": [-84.7627864017, 36.1970067811]}, "type": "Feature", "properties": {"collection_times": [{"days": "Mon-Fri", "time": "3:45pm"}, {"days": "Sat", "time": "10:00am"}, {"days": "Sun", "time": "Closed"}], "id": "3772600002", "name": "USPS COLLECTION BOX - BLUE BOX", "address": {"city": "DEER LODGE", "state": "TN", "street": "2211 DEER LODGE HWY", "postcode": "37726"}}},
{"geometry": {"type": "Point", "coordinates": [-83.0219728932, 35.9265328166]}, "type": "Feature", "properties": {"collection_times": [{"days": "Mon-Fri", "time": "3:00pm"}, {"days": "Sat", "time": "9:45am"}, {"days": "Sun", "time": "Closed"}], "id": "3772700001", "name": "USPS COLLECTION BOX - BLUE BOX", "address": {"city": "DEL RIO", "state": "TN", "street": "3105 HIGHWAY 25 70 E", "postcode": "37727"}}},
{"geometry": {"type": "Point", "coordinates": [-83.0219728932, 35.9265328166]}, "type": "Feature", "properties": {"collection_times": [{"days": "Mon-Fri", "time": "3:00pm"}, {"days": "Sat", "time": "10:00am"}, {"days": "Sun", "time": "Closed"}], "id": "3772700002", "name": "USPS COLLECTION BOX - PO LOBBY", "address": {"city": "DEL RIO", "state": "TN", "street": "3105 HIGHWAY 25 70 E", "postcode": "37727"}}},
{"geometry": {"type": "Point", "coordinates": [-83.9756792821, 36.5550386873]}, "type": "Feature", "properties": {"collection_times": [{"days": "Mon-Fri", "time": "3:45pm"}, {"days": "Sat", "time": "1:30pm"}, {"days": "Sun", "time": "Closed"}], "id": "3773000001", "name": "USPS COLLECTION BOX - BLUE BOX", "address": {"city": "EAGAN", "state": "TN", "street": "4183 HIGHWAY 90", "postcode": "37730"}}},
{"geometry": {"type": "Point", "coordinates": [-84.6058741576, 36.3330182965]}, "type": "Feature", "properties": {"collection_times": [{"days": "Mon-Fri", "time": "4:00pm"}, {"days": "Sat", "time": "11:00am"}, {"days": "Sun", "time": "Closed"}], "id": "3773200001", "name": "USPS COLLECTION BOX - BLUE BOX", "address": {"city": "ELGIN", "state": "TN", "street": "179 RUGBY HWY", "postcode": "37732"}}},
{"geometry": {"type": "Point", "coordinates": [-84.6058741576, 36.3330182965]}, "type": "Feature", "properties": {"collection_times": [{"days": "Mon-Fri", "time": "4:00pm"}, {"days": "Sat", "time": "11:00am"}, {"days": "Sun", "time": "Closed"}], "id": "3773200002", "name": "USPS COLLECTION BOX - PO LOBBY", "address": {"city": "ELGIN", "state": "TN", "street": "179 RUGBY HWY", "postcode": "37732"}}},
{"geometry": {"type": "Point", "coordinates": [-84.1350807184, 35.7609534376]}, "type": "Feature", "properties": {"collection_times": [{"days": "Mon-Fri", "time": "4:15pm"}, {"days": "Sat-Sun", "time": "Closed"}], "id": "3773700001", "name": "USPS COLLECTION BOX - BLUE BOX", "address": {"city": "FRIENDSVILLE", "state": "TN", "street": "105 S MORGAN ST", "postcode": "37737"}}},
{"geometry": {"type": "Point", "coordinates": [-84.1350807184, 35.7609534376]}, "type": "Feature", "properties": {"collection_times": [{"days": "Mon-Fri", "time": "4:30pm"}, {"days": "Sat-Sun", "time": "Closed"}], "id": "3773700002", "name": "USPS COLLECTION BOX - PO LOBBY", "address": {"city": "FRIENDSVILLE", "state": "TN", "street": "105 S MORGAN ST", "postcode": "37737"}}},
{"geometry": {"type": "Point", "coordinates": [-83.5103456949, 35.714596201]}, "type": "Feature", "properties": {"collection_times": [{"days": "Mon-Fri", "time": "1:45pm"}, {"days": "Sat", "time": "11:00am"}, {"days": "Sun", "time": "Closed"}], "id": "3773800010", "name": "USPS COLLECTION BOX - BLUE BOX", "address": {"city": "GATLINBURG", "state": "TN", "street": "500 PARKWAY", "postcode": "37738"}}},
{"geometry": {"type": "Point", "coordinates": [-83.4821829074, 35.7259980921]}, "type": "Feature", "properties": {"collection_times": [{"days": "Mon-Fri", "time": "4:45pm"}, {"days": "Sat", "time": "11:00am"}, {"days": "Sun", "time": "Closed"}], "id": "3773800013", "name": "USPS COLLECTION BOX - BLUE BOX", "address": {"city": "GATLINBURG", "state": "TN", "street": "1216 E PARKWAY", "postcode": "37738"}}},
{"geometry": {"type": "Point", "coordinates": [-83.5234992454, 35.7067374685]}, "type": "Feature", "properties": {"collection_times": [{"days": "Mon-Fri", "time": "12:00pm"}, {"days": "Sat", "time": "11:00am"}, {"days": "Sun", "time": "Closed"}], "id": "3773800016", "name": "USPS COLLECTION BOX - BLUE BOX", "address": {"city": "GATLINBURG", "state": "TN", "street": "907 RIVER RD", "postcode": "37738"}}},
{"geometry": {"type": "Point", "coordinates": [-83.4821829074, 35.7259980921]}, "type": "Feature", "properties": {"collection_times": [{"days": "Mon-Fri", "time": "5:00pm"}, {"days": "Sat", "time": "11:00am"}, {"days": "Sun", "time": "Closed"}], "id": "3773800018", "name": "USPS COLLECTION BOX - PO LOBBY", "address": {"city": "GATLINBURG", "state": "TN", "street": "1216 E PARKWAY", "postcode": "37738"}}},
{"geometry": {"type": "Point", "coordinates": [-83.5138129813, 35.7128977327]}, "type": "Feature", "properties": {"collection_times": [{"days": "Mon-Fri", "time": "1:45pm"}, {"days": "Sat", "time": "11:00am"}, {"days": "Sun", "time": "Closed"}], "id": "3773800020", "name": "USPS COLLECTION BOX - BLUE BOX", "address": {"city": "GATLINBURG", "state": "TN", "street": "626 PARKWAY", "postcode": "37738"}}},
{"geometry": {"type": "Point", "coordinates": [-83.5184458231, 35.7115119294]}, "type": "Feature", "properties": {"collection_times": [{"days": "Mon-Fri", "time": "12:00pm"}, {"days": "Sat", "time": "11:00am"}, {"days": "Sun", "time": "Closed"}], "id": "3773800021", "name": "USPS COLLECTION BOX - BLUE BOX", "address": {"city": "GATLINBURG", "state": "TN", "street": "811 PARKWAY", "postcode": "37738"}}},
{"geometry": {"type": "Point", "coordinates": [-84.1712291144, 35.661177205]}, "type": "Feature", "properties": {"collection_times": [{"days": "Mon-Fri", "time": "3:30pm"}, {"days": "Sat-Sun", "time": "Closed"}], "id": "3774200001", "name": "USPS COLLECTION BOX - BLUE BOX", "address": {"city": "GREENBACK", "state": "TN", "street": "6726 MORGANTON RD", "postcode": "37742"}}},
{"geometry": {"type": "Point", "coordinates": [-84.1712291144, 35.661177205]}, "type": "Feature", "properties": {"collection_times": [{"days": "Mon-Fri", "time": "4:00pm"}, {"days": "Sat-Sun", "time": "Closed"}], "id": "3774200002", "name": "USPS COLLECTION BOX - PO LOBBY", "address": {"city": "GREENBACK", "state": "TN", "street": "6726 MORGANTON RD", "postcode": "37742"}}},
{"geometry": {"type": "Point", "coordinates": [-82.7941939016, 36.1732825069]}, "type": "Feature", "properties": {"collection_times": [{"days": "Mon-Sat", "time": "10:00am"}, {"days": "Sun", "time": "Closed"}], "id": "3774300009", "name": "USPS COLLECTION BOX - BLUE BOX", "address": {"city": "GREENEVILLE", "state": "TN", "street": "1420 TUSCULUM BLVD", "postcode": "37743"}}},
{"geometry": {"type": "Point", "coordinates": [-82.8339101329, 36.1632254642]}, "type": "Feature", "properties": {"collection_times": [{"days": "Mon-Fri", "time": "4:30pm"}, {"days": "Sat", "time": "3:00pm"}, {"days": "Sun", "time": "Closed"}], "id": "3774300011", "name": "USPS COLLECTION BOX - BLUE BOX", "address": {"city": "GREENEVILLE", "state": "TN", "street": "220 W SUMMER ST", "postcode": "37743"}}},
{"geometry": {"type": "Point", "coordinates": [-82.8469282485, 36.1481205872]}, "type": "Feature", "properties": {"collection_times": [{"days": "Mon-Sat", "time": "10:30am"}, {"days": "Sun", "time": "Closed"}], "id": "3774300013", "name": "USPS COLLECTION BOX - BLUE BOX", "address": {"city": "GREENEVILLE", "state": "TN", "street": "511 ASHEVILLE HWY", "postcode": "37743"}}},
{"geometry": {"type": "Point", "coordinates": [-82.8153810293, 36.1711568596]}, "type": "Feature", "properties": {"collection_times": [{"days": "Mon-Sat", "time": "9:00am"}, {"days": "Sun", "time": "Closed"}], "id": "3774300014", "name": "USPS COLLECTION BOX - BLUE BOX", "address": {"city": "GREENEVILLE", "state": "TN", "street": "901 SNAPP FERRY RD", "postcode": "37743"}}},
{"geometry": {"type": "Point", "coordinates": [-82.8141610235, 36.1698993109]}, "type": "Feature", "properties": {"collection_times": [{"days": "Mon-Sat", "time": "9:00am"}, {"days": "Sun", "time": "Closed"}], "id": "3774300020", "name": "USPS COLLECTION BOX - BLUE BOX", "address": {"city": "GREENEVILLE", "state": "TN", "street": "845 TUSCULUM BLVD", "postcode": "37743"}}},
{"geometry": {"type": "Point", "coordinates": [-82.8502024461, 36.1723858814]}, "type": "Feature", "properties": {"collection_times": [{"days": "Mon-Sat", "time": "11:00am"}, {"days": "Sun", "time": "Closed"}], "id": "3774300025", "name": "USPS COLLECTION BOX - BLUE BOX", "address": {"city": "GREENEVILLE", "state": "TN", "street": "1505 E ANDREW JOHNSON HWY", "postcode": "37743"}}},
{"geometry": {"type": "Point", "coordinates": [-82.8339101329, 36.1632254642]}, "type": "Feature", "properties": {"collection_times": [{"days": "Mon-Fri", "time": "4:30pm"}, {"days": "Sat", "time": "3:00pm"}, {"days": "Sun", "time": "Closed"}], "id": "3774300026", "name": "USPS COLLECTION BOX - BLUE BOX", "address": {"city": "GREENEVILLE", "state": "TN", "street": "220 W SUMMER ST", "postcode": "37743"}}},
{"geometry": {"type": "Point", "coordinates": [-82.8339101329, 36.1632254642]}, "type": "Feature", "properties": {"collection_times": [{"days": "Mon-Fri", "time": "4:30pm"}, {"days": "Sat", "time": "3:00pm"}, {"days": "Sun", "time": "Closed"}], "id": "3774300027", "name": "USPS COLLECTION BOX - BLUE BOX", "address": {"city": "GREENEVILLE", "state": "TN", "street": "220 W SUMMER ST", "postcode": "37743"}}},
{"geometry": {"type": "Point", "coordinates": [-82.8349661547, 36.1634797791]}, "type": "Feature", "properties": {"collection_times": [{"days": "Mon-Sat", "time": "9:00am"}, {"days": "Sun", "time": "Closed"}], "id": "3774300028", "name": "USPS COLLECTION BOX - BLUE BOX", "address": {"city": "GREENEVILLE", "state": "TN", "street": "263 W SUMMER ST", "postcode": "37743"}}},
{"geometry": {"type": "Point", "coordinates": [-82.7956064228, 36.1729716173]}, "type": "Feature", "properties": {"collection_times": [{"days": "Mon-Sat", "time": "10:00am"}, {"days": "Sun", "time": "Closed"}], "id": "3774300029", "name": "USPS COLLECTION BOX - BLUE BOX", "address": {"city": "GREENEVILLE", "state": "TN", "street": "1351 TUSCULUM BLVD", "postcode": "37743"}}},
{"geometry": {"type": "Point", "coordinates": [-82.8309062697, 36.1631576254]}, "type": "Feature", "properties": {"collection_times": [{"days": "Mon-Sat", "time": "9:00am"}, {"days": "Sun", "time": "Closed"}], "id": "3774300036", "name": "USPS COLLECTION BOX - BLUE BOX", "address": {"city": "GREENEVILLE", "state": "TN", "street": "100 E DEPOT ST", "postcode": "37743"}}},
{"geometry": {"type": "Point", "coordinates": [-82.8340205811, 36.1666023376]}, "type": "Feature", "properties": {"collection_times": [{"days": "Mon-Sat", "time": "9:00am"}, {"days": "Sun", "time": "Closed"}], "id": "3774300038", "name": "USPS COLLECTION BOX - BLUE BOX", "address": {"city": "GREENEVILLE", "state": "TN", "street": "204 S CUTLER ST", "postcode": "37743"}}},
{"geometry": {"type": "Point", "coordinates": [-82.8652512455, 36.1673240283]}, "type": "Feature", "properties": {"collection_times": [{"days": "Mon-Sat", "time": "10:30am"}, {"days": "Sun", "time": "Closed"}], "id": "3774300039", "name": "USPS COLLECTION BOX - BLUE BOX", "address": {"city": "GREENEVILLE", "state": "TN", "street": "2321 E ANDREW JOHNSON HWY", "postcode": "37743"}}},
{"geometry": {"type": "Point", "coordinates": [-82.8339101329, 36.1632254642]}, "type": "Feature", "properties": {"collection_times": [{"days": "Mon-Fri", "time": "4:30pm"}, {"days": "Sat", "time": "3:00pm"}, {"days": "Sun", "time": "Closed"}], "id": "3774300040", "name": "USPS COLLECTION BOX - PO LOBBY", "address": {"city": "GREENEVILLE", "state": "TN", "street": "220 W SUMMER ST", "postcode": "37743"}}},
{"geometry": {"type": "Point", "coordinates": [-82.8339101329, 36.1632254642]}, "type": "Feature", "properties": {"collection_times": [{"days": "Mon-Fri", "time": "4:30pm"}, {"days": "Sat", "time": "3:00pm"}, {"days": "Sun", "time": "Closed"}], "id": "3774300041", "name": "USPS COLLECTION BOX - PO LOBBY", "address": {"city": "GREENEVILLE", "state": "TN", "street": "220 W SUMMER ST", "postcode": "37743"}}},
{"geometry": {"type": "Point", "coordinates": [-84.5721283198, 35.9179214273]}, "type": "Feature", "properties": {"collection_times": [{"days": "Mon-Fri", "time": "4:45pm"}, {"days": "Sat", "time": "12:00pm"}, {"days": "Sun", "time": "Closed"}], "id": "3774800017", "name": "USPS COLLECTION BOX - PO LOBBY", "address": {"city": "HARRIMAN", "state": "TN", "street": "1122 S ROANE ST", "postcode": "37748"}}},
{"geometry": {"type": "Point", "coordinates": [-84.5721283198, 35.9179214273]}, "type": "Feature", "properties": {"collection_times": [{"days": "Mon-Fri", "time": "4:45pm"}, {"days": "Sat", "time": "12:00pm"}, {"days": "Sun", "time": "Closed"}], "id": "3774800018", "name": "USPS COLLECTION BOX - PO LOBBY", "address": {"city": "HARRIMAN", "state": "TN", "street": "1122 S ROANE ST", "postcode": "37748"}}},
{"geometry": {"type": "Point", "coordinates": [-84.5721283198, 35.9179214273]}, "type": "Feature", "properties": {"collection_times": [{"days": "Mon-Fri", "time": "4:45pm"}, {"days": "Sat", "time": "12:00pm"}, {"days": "Sun", "time": "Closed"}], "id": "3774800019", "name": "USPS COLLECTION BOX - BLUE BOX", "address": {"city": "HARRIMAN", "state": "TN", "street": "1122 S ROANE ST", "postcode": "37748"}}},
{"geometry": {"type": "Point", "coordinates": [-83.653691665, 36.572604501]}, "type": "Feature", "properties": {"collection_times": [{"days": "Mon-Fri", "time": "4:30pm"}, {"days": "Sat", "time": "12:00pm"}, {"days": "Sun", "time": "Closed"}], "id": "3775200001", "name": "USPS COLLECTION BOX - PO LOBBY", "address": {"city": "HARROGATE", "state": "TN", "street": "6690 CUMBERLAND GAP PKWY", "postcode": "37752"}}},
{"geometry": {"type": "Point", "coordinates": [-83.653691665, 36.572604501]}, "type": "Feature", "properties": {"collection_times": [{"days": "Mon-Fri", "time": "4:30pm"}, {"days": "Sat", "time": "12:00pm"}, {"days": "Sun", "time": "Closed"}], "id": "3775200002", "name": "USPS COLLECTION BOX - PO LOBBY", "address": {"city": "HARROGATE", "state": "TN", "street": "6690 CUMBERLAND GAP PKWY", "postcode": "37752"}}},
{"geometry": {"type": "Point", "coordinates": [-83.653691665, 36.572604501]}, "type": "Feature", "properties": {"collection_times": [{"days": "Mon-Fri", "time": "4:00pm"}, {"days": "Sat", "time": "12:45pm"}, {"days": "Sun", "time": "Closed"}], "id": "3775200003", "name": "USPS COLLECTION BOX - BLUE BOX", "address": {"city": "HARROGATE", "state": "TN", "street": "6690 CUMBERLAND GAP PKWY", "postcode": "37752"}}},
{"geometry": {"type": "Point", "coordinates": [-83.1447697057, 35.8159744834]}, "type": "Feature", "properties": {"collection_times": [{"days": "Mon-Fri", "time": "1:00pm"}, {"days": "Sat", "time": "11:00am"}, {"days": "Sun", "time": "Closed"}], "id": "3775300001", "name": "USPS COLLECTION BOX - BLUE BOX", "address": {"city": "HARTFORD", "state": "TN", "street": "3603 HARTFORD RD", "postcode": "37753"}}},
{"geometry": {"type": "Point", "coordinates": [-83.1447697057, 35.8159744834]}, "type": "Feature", "properties": {"collection_times": [{"days": "Mon-Fri", "time": "1:00pm"}, {"days": "Sat", "time": "11:00am"}, {"days": "Sun", "time": "Closed"}], "id": "3775300002", "name": "USPS COLLECTION BOX - PO LOBBY", "address": {"city": "HARTFORD", "state": "TN", "street": "3603 HARTFORD RD", "postcode": "37753"}}},
{"geometry": {"type": "Point", "coordinates": [-84.0549571346, 36.0827393421]}, "type": "Feature", "properties": {"collection_times": [{"days": "Mon-Fri", "time": "4:15pm"}, {"days": "Sat", "time": "9:45am"}, {"days": "Sun", "time": "Closed"}], "id": "3775400001", "name": "USPS COLLECTION BOX - BLUE BOX", "address": {"city": "HEISKELL", "state": "TN", "street": "9437 HEISKELL RD", "postcode": "37754"}}},
{"geometry": {"type": "Point", "coordinates": [-84.0549571346, 36.0827393421]}, "type": "Feature", "properties": {"collection_times": [{"days": "Mon-Fri", "time": "4:30pm"}, {"days": "Sat", "time": "10:00am"}, {"days": "Sun", "time": "Closed"}], "id": "3775400002", "name": "USPS COLLECTION BOX - PO LOBBY", "address": {"city": "HEISKELL", "state": "TN", "street": "9437 HEISKELL RD", "postcode": "37754"}}},
{"geometry": {"type": "Point", "coordinates": [-84.5394036659, 36.4359029371]}, "type": "Feature", "properties": {"collection_times": [{"days": "Mon-Fri", "time": "4:15pm"}, {"days": "Sat", "time": "10:00am"}, {"days": "Sun", "time": "Closed"}], "id": "3775500000", "name": "USPS COLLECTION BOX - BLUE BOX", "address": {"city": "HELENWOOD", "state": "TN", "street": "13013 SCOTT HWY", "postcode": "37755"}}},
{"geometry": {"type": "Point", "coordinates": [-84.5394036659, 36.4359029371]}, "type": "Feature", "properties": {"collection_times": [{"days": "Mon-Fri", "time": "4:30pm"}, {"days": "Sat", "time": "10:00am"}, {"days": "Sun", "time": "Closed"}], "id": "3775500002", "name": "USPS COLLECTION BOX - PO LOBBY", "address": {"city": "HELENWOOD", "state": "TN", "street": "13013 SCOTT HWY", "postcode": "37755"}}},
{"geometry": {"type": "Point", "coordinates": [-84.4910593268, 36.4106941793]}, "type": "Feature", "properties": {"collection_times": [{"days": "Mon-Fri", "time": "4:00pm"}, {"days": "Sat", "time": "10:00am"}, {"days": "Sun", "time": "Closed"}], "id": "3775600001", "name": "USPS COLLECTION BOX - BLUE BOX", "address": {"city": "HUNTSVILLE", "state": "TN", "street": "215 HUNTSVILLE DR", "postcode": "37756"}}},
{"geometry": {"type": "Point", "coordinates": [-84.4910593268, 36.4106941793]}, "type": "Feature", "properties": {"collection_times": [{"days": "Mon-Fri", "time": "4:00pm"}, {"days": "Sat", "time": "10:00am"}, {"days": "Sun", "time": "Closed"}], "id": "3775600002", "name": "USPS COLLECTION BOX - PO LOBBY", "address": {"city": "HUNTSVILLE", "state": "TN", "street": "215 HUNTSVILLE DR", "postcode": "37756"}}},
{"geometry": {"type": "Point", "coordinates": [-84.4910593268, 36.4106941793]}, "type": "Feature", "properties": {"collection_times": [{"days": "Mon-Fri", "time": "4:00pm"}, {"days": "Sat", "time": "10:00am"}, {"days": "Sun", "time": "Closed"}], "id": "3775600003", "name": "USPS COLLECTION BOX - PO LOBBY", "address": {"city": "HUNTSVILLE", "state": "TN", "street": "215 HUNTSVILLE DR", "postcode": "37756"}}},
{"geometry": {"type": "Point", "coordinates": [-84.1798841724, 36.3315371213]}, "type": "Feature", "properties": {"collection_times": [{"days": "Mon-Fri", "time": "4:30pm"}, {"days": "Sat", "time": "11:30am"}, {"days": "Sun", "time": "Closed"}], "id": "3775700001", "name": "USPS COLLECTION BOX - PO LOBBY", "address": {"city": "JACKSBORO", "state": "TN", "street": "424 MAIN ST", "postcode": "37757"}}},
{"geometry": {"type": "Point", "coordinates": [-84.1798841724, 36.3315371213]}, "type": "Feature", "properties": {"collection_times": [{"days": "Mon-Fri", "time": "4:30pm"}, {"days": "Sat", "time": "11:30am"}, {"days": "Sun", "time": "Closed"}], "id": "3775700003", "name": "USPS COLLECTION BOX - BLUE BOX", "address": {"city": "JACKSBORO", "state": "TN", "street": "424 MAIN ST", "postcode": "37757"}}},
{"geometry": {"type": "Point", "coordinates": [-83.4919809633, 36.1258146974]}, "type": "Feature", "properties": {"collection_times": [{"days": "Mon-Fri", "time": "4:30pm"}, {"days": "Sat", "time": "3:15pm"}, {"days": "Sun", "time": "Closed"}], "id": "3776000003", "name": "USPS COLLECTION BOX - BLUE BOX", "address": {"city": "JEFFERSON CITY", "state": "TN", "street": "101 E OLD ANDREW JOHNSON HWY", "postcode": "37760"}}},
{"geometry": {"type": "Point", "coordinates": [-83.4641469502, 36.1092077167]}, "type": "Feature", "properties": {"collection_times": [{"days": "Mon-Fri", "time": "4:30pm"}, {"days": "Sat", "time": "3:00pm"}, {"days": "Sun", "time": "Closed"}], "id": "3776000005", "name": "USPS COLLECTION BOX - BLUE BOX", "address": {"city": "JEFFERSON CITY", "state": "TN", "street": "112 CITY CENTER DR", "postcode": "37760"}}},
{"geometry": {"type": "Point", "coordinates": [-83.5018707111, 36.114114601]}, "type": "Feature", "properties": {"collection_times": [{"days": "Mon-Fri", "time": "4:30pm"}, {"days": "Sat", "time": "3:00pm"}, {"days": "Sun", "time": "Closed"}], "id": "3776000006", "name": "USPS COLLECTION BOX - BLUE BOX", "address": {"city": "JEFFERSON CITY", "state": "TN", "street": "915 UNIVERSAL ST", "postcode": "37760"}}},
{"geometry": {"type": "Point", "coordinates": [-83.4863633023, 36.1173297308]}, "type": "Feature", "properties": {"collection_times": [{"days": "Mon-Fri", "time": "4:30pm"}, {"days": "Sat", "time": "3:00pm"}, {"days": "Sun", "time": "Closed"}], "id": "3776000007", "name": "USPS COLLECTION BOX - BLUE BOX", "address": {"city": "JEFFERSON CITY", "state": "TN", "street": "1507 ODELL AVE", "postcode": "37760"}}},
{"geometry": {"type": "Point", "coordinates": [-83.4682628472, 36.1283418958]}, "type": "Feature", "properties": {"collection_times": [{"days": "Mon-Fri", "time": "4:30pm"}, {"days": "Sat", "time": "3:00pm"}, {"days": "Sun", "time": "Closed"}], "id": "3776000008", "name": "USPS COLLECTION BOX - BLUE BOX", "address": {"city": "JEFFERSON CITY", "state": "TN", "street": "630 E BROADWAY BLVD", "postcode": "37760"}}},
{"geometry": {"type": "Point", "coordinates": [-83.4919809633, 36.1258146974]}, "type": "Feature", "properties": {"collection_times": [{"days": "Mon-Fri", "time": "4:45pm"}, {"days": "Sat", "time": "3:00pm"}, {"days": "Sun", "time": "Closed"}], "id": "3776000010", "name": "USPS COLLECTION BOX - PO LOBBY", "address": {"city": "JEFFERSON CITY", "state": "TN", "street": "101 E OLD ANDREW JOHNSON HWY", "postcode": "37760"}}},
{"geometry": {"type": "Point", "coordinates": [-83.4919809633, 36.1258146974]}, "type": "Feature", "properties": {"collection_times": [{"days": "Mon-Fri", "time": "4:45pm"}, {"days": "Sat", "time": "3:00pm"}, {"days": "Sun", "time": "Closed"}], "id": "3776000011", "name": "USPS COLLECTION BOX - PO LOBBY", "address": {"city": "JEFFERSON CITY", "state": "TN", "street": "101 E OLD ANDREW JOHNSON HWY", "postcode": "37760"}}},
{"geometry": {"type": "Point", "coordinates": [-83.5184998009, 36.1073877128]}, "type": "Feature", "properties": {"collection_times": [{"days": "Mon-Fri", "time": "4:30pm"}, {"days": "Sat", "time": "3:00pm"}, {"days": "Sun", "time": "Closed"}], "id": "3776000012", "name": "USPS COLLECTION BOX - BLUE BOX", "address": {"city": "JEFFERSON CITY", "state": "TN", "street": "110 HOSPITAL DR", "postcode": "37760"}}},
{"geometry": {"type": "Point", "coordinates": [-83.4802284771, 36.1279006521]}, "type": "Feature", "properties": {"collection_times": [{"days": "Mon-Fri", "time": "4:30pm"}, {"days": "Sat", "time": "3:00pm"}, {"days": "Sun", "time": "Closed"}], "id": "3776000014", "name": "USPS COLLECTION BOX - BLUE BOX", "address": {"city": "JEFFERSON CITY", "state": "TN", "street": "1915 RITTENHOUSE RD", "postcode": "37760"}}},
{"geometry": {"type": "Point", "coordinates": [-84.1291766015, 36.587349197]}, "type": "Feature", "properties": {"collection_times": [{"days": "Mon-Fri", "time": "4:15pm"}, {"days": "Sat", "time": "12:00pm"}, {"days": "Sun", "time": "Closed"}], "id": "3776200003", "name": "USPS COLLECTION BOX - PO LOBBY", "address": {"city": "JELLICO", "state": "TN", "street": "368 N MAIN ST", "postcode": "37762"}}},
{"geometry": {"type": "Point", "coordinates": [-84.1291766015, 36.587349197]}, "type": "Feature", "properties": {"collection_times": [{"days": "Mon-Fri", "time": "4:15pm"}, {"days": "Sat", "time": "12:00pm"}, {"days": "Sun", "time": "Closed"}], "id": "3776200004", "name": "USPS COLLECTION BOX - BLUE BOX", "address": {"city": "JELLICO", "state": "TN", "street": "368 N MAIN ST", "postcode": "37762"}}},
{"geometry": {"type": "Point", "coordinates": [-84.1291766015, 36.587349197]}, "type": "Feature", "properties": {"collection_times": [{"days": "Mon-Fri", "time": "4:15pm"}, {"days": "Sat", "time": "12:00pm"}, {"days": "Sun", "time": "Closed"}], "id": "3776200010", "name": "USPS COLLECTION BOX - BLUE BOX", "address": {"city": "JELLICO", "state": "TN", "street": "368 N MAIN ST", "postcode": "37762"}}},
{"geometry": {"type": "Point", "coordinates": [-84.5155511382, 35.8712156998]}, "type": "Feature", "properties": {"collection_times": [{"days": "Mon-Sat", "time": "2:00pm"}, {"days": "Sun", "time": "Closed"}], "id": "3776300002", "name": "USPS COLLECTION BOX - BLUE BOX", "address": {"city": "KINGSTON", "state": "TN", "street": "119 N 3RD ST", "postcode": "37763"}}},
{"geometry": {"type": "Point", "coordinates": [-84.5144001422, 35.8744606697]}, "type": "Feature", "properties": {"collection_times": [{"days": "Mon-Fri", "time": "4:45pm"}, {"days": "Sat", "time": "2:30pm"}, {"days": "Sun", "time": "Closed"}], "id": "3776300004", "name": "USPS COLLECTION BOX - BLUE BOX", "address": {"city": "KINGSTON", "state": "TN", "street": "424 N KENTUCKY ST", "postcode": "37763"}}},
{"geometry": {"type": "Point", "coordinates": [-84.5144001422, 35.8744606697]}, "type": "Feature", "properties": {"collection_times": [{"days": "Mon-Fri", "time": "4:45pm"}, {"days": "Sat", "time": "2:30pm"}, {"days": "Sun", "time": "Closed"}], "id": "3776300010", "name": "USPS COLLECTION BOX - PO LOBBY", "address": {"city": "KINGSTON", "state": "TN", "street": "424 N KENTUCKY ST", "postcode": "37763"}}},
{"geometry": {"type": "Point", "coordinates": [-83.5932021572, 35.9558884377]}, "type": "Feature", "properties": {"collection_times": [{"days": "Mon-Fri", "time": "3:30pm"}, {"days": "Sat", "time": "10:00am"}, {"days": "Sun", "time": "Closed"}], "id": "3776400001", "name": "USPS COLLECTION BOX - BLUE BOX", "address": {"city": "KODAK", "state": "TN", "street": "2849 WINFIELD DUNN PKWY", "postcode": "37764"}}},
{"geometry": {"type": "Point", "coordinates": [-83.5932021572, 35.9558884377]}, "type": "Feature", "properties": {"collection_times": [{"days": "Mon-Fri", "time": "3:30pm"}, {"days": "Sat", "time": "10:00am"}, {"days": "Sun", "time": "Closed"}], "id": "3776400002", "name": "USPS COLLECTION BOX - PO LOBBY", "address": {"city": "KODAK", "state": "TN", "street": "2849 WINFIELD DUNN PKWY", "postcode": "37764"}}},
{"geometry": {"type": "Point", "coordinates": [-83.5932021572, 35.9558884377]}, "type": "Feature", "properties": {"collection_times": [{"days": "Mon-Fri", "time": "3:30pm"}, {"days": "Sat", "time": "10:00am"}, {"days": "Sun", "time": "Closed"}], "id": "3776400003", "name": "USPS COLLECTION BOX - PO LOBBY", "address": {"city": "KODAK", "state": "TN", "street": "2849 WINFIELD DUNN PKWY", "postcode": "37764"}}},
{"geometry": {"type": "Point", "coordinates": [-83.5932021572, 35.9558884377]}, "type": "Feature", "properties": {"collection_times": [{"days": "Mon-Fri", "time": "3:30pm"}, {"days": "Sat", "time": "10:00am"}, {"days": "Sun", "time": "Closed"}], "id": "3776400004", "name": "USPS COLLECTION BOX - BLUE BOX", "address": {"city": "KODAK", "state": "TN", "street": "2849 WINFIELD DUNN PKWY", "postcode": "37764"}}},
{"geometry": {"type": "Point", "coordinates": [-84.1356717338, 36.367118614]}, "type": "Feature", "properties": {"collection_times": [{"days": "Mon-Fri", "time": "12:00pm"}, {"days": "Sat", "time": "11:30am"}, {"days": "Sun", "time": "Closed"}], "id": "3776600004", "name": "USPS COLLECTION BOX - BLUE BOX", "address": {"city": "LAFOLLETTE", "state": "TN", "street": "1221 JACKSBORO PIKE", "postcode": "37766"}}},
{"geometry": {"type": "Point", "coordinates": [-84.1248428531, 36.3790630931]}, "type": "Feature", "properties": {"collection_times": [{"days": "Mon-Sat", "time": "10:00am"}, {"days": "Sun", "time": "Closed"}], "id": "3776600008", "name": "USPS COLLECTION BOX - BLUE BOX", "address": {"city": "LAFOLLETTE", "state": "TN", "street": "240 W CENTRAL AVE", "postcode": "37766"}}},
{"geometry": {"type": "Point", "coordinates": [-84.1548333031, 36.3522133311]}, "type": "Feature", "properties": {"collection_times": [{"days": "Mon-Fri", "time": "9:30am"}, {"days": "Sat", "time": "9:00am"}, {"days": "Sun", "time": "Closed"}], "id": "3776600013", "name": "USPS COLLECTION BOX - BLUE BOX", "address": {"city": "LAFOLLETTE", "state": "TN", "street": "2010 JACKBORO PIKE", "postcode": "37766"}}},
{"geometry": {"type": "Point", "coordinates": [-84.1639953203, 36.3445891605]}, "type": "Feature", "properties": {"collection_times": [{"days": "Mon-Fri", "time": "11:15am"}, {"days": "Sat", "time": "10:45am"}, {"days": "Sun", "time": "Closed"}], "id": "3776600015", "name": "USPS COLLECTION BOX - BLUE BOX", "address": {"city": "LAFOLLETTE", "state": "TN", "street": "2323 JACKSBORO PIKE", "postcode": "37766"}}},
{"geometry": {"type": "Point", "coordinates": [-84.1601885584, 36.3477109892]}, "type": "Feature", "properties": {"collection_times": [{"days": "Mon-Fri", "time": "11:30am"}, {"days": "Sat", "time": "11:00am"}, {"days": "Sun", "time": "Closed"}], "id": "3776600019", "name": "USPS COLLECTION BOX - BLUE BOX", "address": {"city": "LAFOLLETTE", "state": "TN", "street": "2221 JACKSBORO PIKE STE B", "postcode": "37766"}}},
{"geometry": {"type": "Point", "coordinates": [-84.1221197559, 36.3801725662]}, "type": "Feature", "properties": {"collection_times": [{"days": "Mon-Fri", "time": "2:30pm"}, {"days": "Sat", "time": "12:00pm"}, {"days": "Sun", "time": "Closed"}], "id": "3776600021", "name": "USPS COLLECTION BOX - BLUE BOX", "address": {"city": "LAFOLLETTE", "state": "TN", "street": "119 S TENNESSEE AVE", "postcode": "37766"}}},
{"geometry": {"type": "Point", "coordinates": [-84.1037109844, 36.3884279501]}, "type": "Feature", "properties": {"collection_times": [{"days": "Mon-Fri", "time": "4:30pm"}, {"days": "Sat", "time": "3:30pm"}, {"days": "Sun", "time": "Closed"}], "id": "3776600023", "name": "USPS COLLECTION BOX - BLUE BOX", "address": {"city": "LAFOLLETTE", "state": "TN", "street": "1221 E CENTRAL AVE", "postcode": "37766"}}},
{"geometry": {"type": "Point", "coordinates": [-84.1037109844, 36.3884279501]}, "type": "Feature", "properties": {"collection_times": [{"days": "Mon-Fri", "time": "4:30pm"}, {"days": "Sat", "time": "3:30pm"}, {"days": "Sun", "time": "Closed"}], "id": "3776600025", "name": "USPS COLLECTION BOX - PO LOBBY", "address": {"city": "LAFOLLETTE", "state": "TN", "street": "1221 E CENTRAL AVE", "postcode": "37766"}}},
{"geometry": {"type": "Point", "coordinates": [-84.1037109844, 36.3884279501]}, "type": "Feature", "properties": {"collection_times": [{"days": "Mon-Fri", "time": "4:30pm"}, {"days": "Sat", "time": "3:30pm"}, {"days": "Sun", "time": "Closed"}], "id": "3776600027", "name": "USPS COLLECTION BOX - BLUE BOX", "address": {"city": "LAFOLLETTE", "state": "TN", "street": "1221 E CENTRAL AVE", "postcode": "37766"}}},
{"geometry": {"type": "Point", "coordinates": [-84.1542675622, 36.2201905491]}, "type": "Feature", "properties": {"collection_times": [{"days": "Mon-Fri", "time": "4:15pm"}, {"days": "Sat", "time": "11:00am"}, {"days": "Sun", "time": "Closed"}], "id": "3776900001", "name": "USPS COLLECTION BOX - BLUE BOX", "address": {"city": "LAKE CITY", "state": "TN", "street": "220 2ND ST", "postcode": "37769"}}},
{"geometry": {"type": "Point", "coordinates": [-84.1542675622, 36.2201905491]}, "type": "Feature", "properties": {"collection_times": [{"days": "Mon-Fri", "time": "4:15pm"}, {"days": "Sat", "time": "11:00am"}, {"days": "Sun", "time": "Closed"}], "id": "3776900003", "name": "USPS COLLECTION BOX - PO LOBBY", "address": {"city": "LAKE CITY", "state": "TN", "street": "220 2ND ST", "postcode": "37769"}}},
{"geometry": {"type": "Point", "coordinates": [-84.6541422509, 36.1220251994]}, "type": "Feature", "properties": {"collection_times": [{"days": "Mon-Fri", "time": "3:00pm"}, {"days": "Sat", "time": "8:30am"}, {"days": "Sun", "time": "Closed"}], "id": "3777000001", "name": "USPS COLLECTION BOX - BLUE BOX", "address": {"city": "LANCING", "state": "TN", "street": "1206 NASHVILLE HWY", "postcode": "37770"}}},
{"geometry": {"type": "Point", "coordinates": [-84.6541422509, 36.1220251994]}, "type": "Feature", "properties": {"collection_times": [{"days": "Mon-Fri", "time": "3:00pm"}, {"days": "Sat", "time": "8:30am"}, {"days": "Sun", "time": "Closed"}], "id": "3777000002", "name": "USPS COLLECTION BOX - PO LOBBY", "address": {"city": "LANCING", "state": "TN", "street": "1206 NASHVILLE HWY", "postcode": "37770"}}},
{"geometry": {"type": "Point", "coordinates": [-84.7435679323, 36.1420409008]}, "type": "Feature", "properties": {"collection_times": [{"days": "Mon-Sat", "time": "12:00pm"}, {"days": "Sun", "time": "Closed"}], "id": "3777000004", "name": "USPS COLLECTION BOX - BLUE BOX", "address": {"city": "LANCING", "state": "TN", "street": "3164 NASHVILLE HWY", "postcode": "37770"}}},
{"geometry": {"type": "Point", "coordinates": [-84.2638276633, 35.7923615771]}, "type": "Feature", "properties": {"collection_times": [{"days": "Mon-Fri", "time": "5:00pm"}, {"days": "Sat", "time": "12:00pm"}, {"days": "Sun", "time": "Closed"}], "id": "3777100008", "name": "USPS COLLECTION BOX - BLUE BOX", "address": {"city": "LENOIR CITY", "state": "TN", "street": "100 N HILL ST", "postcode": "37771"}}},
{"geometry": {"type": "Point", "coordinates": [-84.2638276633, 35.7923615771]}, "type": "Feature", "properties": {"collection_times": [{"days": "Mon-Fri", "time": "5:00pm"}, {"days": "Sat", "time": "12:00pm"}, {"days": "Sun", "time": "Closed"}], "id": "3777100010", "name": "USPS COLLECTION BOX - BLUE BOX", "address": {"city": "LENOIR CITY", "state": "TN", "street": "100 N HILL ST", "postcode": "37771"}}},
{"geometry": {"type": "Point", "coordinates": [-84.2638276633, 35.7923615771]}, "type": "Feature", "properties": {"collection_times": [{"days": "Mon-Fri", "time": "5:00pm"}, {"days": "Sat", "time": "12:00pm"}, {"days": "Sun", "time": "Closed"}], "id": "3777100012", "name": "USPS COLLECTION BOX - PO LOBBY", "address": {"city": "LENOIR CITY", "state": "TN", "street": "100 N HILL ST", "postcode": "37771"}}},
{"geometry": {"type": "Point", "coordinates": [-84.2638276633, 35.7923615771]}, "type": "Feature", "properties": {"collection_times": [{"days": "Mon-Fri", "time": "5:00pm"}, {"days": "Sat", "time": "12:00pm"}, {"days": "Sun", "time": "Closed"}], "id": "3777100013", "name": "USPS COLLECTION BOX - PO LOBBY", "address": {"city": "LENOIR CITY", "state": "TN", "street": "100 N HILL ST", "postcode": "37771"}}},
{"geometry": {"type": "Point", "coordinates": [-84.2680957092, 35.8211889665]}, "type": "Feature", "properties": {"collection_times": [{"days": "Mon-Sat", "time": "12:00pm"}, {"days": "Sun", "time": "Closed"}], "id": "3777100014", "name": "USPS COLLECTION BOX - BLUE BOX", "address": {"city": "LENOIR CITY", "state": "TN", "street": "911 HIGHWAY 321 N", "postcode": "37771"}}},
{"geometry": {"type": "Point", "coordinates": [-84.2673551853, 35.8234863243]}, "type": "Feature", "properties": {"collection_times": [{"days": "Mon-Sat", "time": "12:00pm"}, {"days": "Sun", "time": "Closed"}], "id": "3777100015", "name": "USPS COLLECTION BOX - BLUE BOX", "address": {"city": "LENOIR CITY", "state": "TN", "street": "550 MEDICAL PARK DR", "postcode": "37771"}}},
{"geometry": {"type": "Point", "coordinates": [-84.2763995137, 35.826465735]}, "type": "Feature", "properties": {"collection_times": [{"days": "Mon-Sat", "time": "4:00pm"}, {"days": "Sun", "time": "Closed"}], "id": "3777100016", "name": "USPS COLLECTION BOX - BLUE BOX", "address": {"city": "LENOIR CITY", "state": "TN", "street": "501 ADESSA PKWY", "postcode": "37771"}}},
{"geometry": {"type": "Point", "coordinates": [-84.3431641763, 35.7395024125]}, "type": "Feature", "properties": {"collection_times": [{"days": "Mon-Fri", "time": "12:30pm"}, {"days": "Sat-Sun", "time": "Closed"}], "id": "3777400003", "name": "USPS COLLECTION BOX - BLUE BOX", "address": {"city": "LOUDON", "state": "TN", "street": "100 RIVER RD", "postcode": "37774"}}},
{"geometry": {"type": "Point", "coordinates": [-84.2611039159, 35.6939972376]}, "type": "Feature", "properties": {"collection_times": [{"days": "Mon-Sat", "time": "10:30am"}, {"days": "Sun", "time": "Closed"}], "id": "3777400008", "name": "USPS COLLECTION BOX - BLUE BOX", "address": {"city": "LOUDON", "state": "TN", "street": "200 VILLAGE SQUARE DR", "postcode": "37774"}}},
{"geometry": {"type": "Point", "coordinates": [-84.3352621512, 35.7438858789]}, "type": "Feature", "properties": {"collection_times": [{"days": "Mon-Fri", "time": "4:30pm"}, {"days": "Sat", "time": "12:00pm"}, {"days": "Sun", "time": "Closed"}], "id": "3777400009", "name": "USPS COLLECTION BOX - PO LOBBY", "address": {"city": "LOUDON", "state": "TN", "street": "100 GREEN ST", "postcode": "37774"}}},
{"geometry": {"type": "Point", "coordinates": [-84.3352621512, 35.7438858789]}, "type": "Feature", "properties": {"collection_times": [{"days": "Mon-Fri", "time": "4:30pm"}, {"days": "Sat", "time": "12:00pm"}, {"days": "Sun", "time": "Closed"}], "id": "3777400010", "name": "USPS COLLECTION BOX - PO LOBBY", "address": {"city": "LOUDON", "state": "TN", "street": "100 GREEN ST", "postcode": "37774"}}},
{"geometry": {"type": "Point", "coordinates": [-84.3352621512, 35.7438858789]}, "type": "Feature", "properties": {"collection_times": [{"days": "Mon-Fri", "time": "4:30pm"}, {"days": "Sat", "time": "12:00pm"}, {"days": "Sun", "time": "Closed"}], "id": "3777400011", "name": "USPS COLLECTION BOX - BLUE BOX", "address": {"city": "LOUDON", "state": "TN", "street": "100 GREEN ST", "postcode": "37774"}}},
{"geometry": {"type": "Point", "coordinates": [-84.3352621512, 35.7438858789]}, "type": "Feature", "properties": {"collection_times": [{"days": "Mon-Fri", "time": "4:30pm"}, {"days": "Sat", "time": "12:00pm"}, {"days": "Sun", "time": "Closed"}], "id": "3777400012", "name": "USPS COLLECTION BOX - BLUE BOX", "address": {"city": "LOUDON", "state": "TN", "street": "100 GREEN ST", "postcode": "37774"}}},
{"geometry": {"type": "Point", "coordinates": [-84.3352664852, 35.742011157]}, "type": "Feature", "properties": {"collection_times": [{"days": "Mon-Fri", "time": "10:00am"}, {"days": "Sat-Sun", "time": "Closed"}], "id": "3777400013", "name": "USPS COLLECTION BOX - BLUE BOX", "address": {"city": "LOUDON", "state": "TN", "street": "101 MULBERRY ST", "postcode": "37774"}}},
{"geometry": {"type": "Point", "coordinates": [-84.285299242, 35.6613149804]}, "type": "Feature", "properties": {"collection_times": [{"days": "Mon-Sat", "time": "10:00am"}, {"days": "Sun", "time": "Closed"}], "id": "3777400014", "name": "USPS COLLECTION BOX - BLUE BOX", "address": {"city": "LOUDON", "state": "TN", "street": "200 MIALAQUO RD", "postcode": "37774"}}},
{"geometry": {"type": "Point", "coordinates": [-84.3646395215, 35.7196478125]}, "type": "Feature", "properties": {"collection_times": [{"days": "Mon-Sat", "time": "10:00am"}, {"days": "Sun", "time": "Closed"}], "id": "3777400016", "name": "USPS COLLECTION BOX - BLUE BOX", "address": {"city": "LOUDON", "state": "TN", "street": "2111 HIGHWAY 72 N", "postcode": "37774"}}},
{"geometry": {"type": "Point", "coordinates": [-84.0292208054, 35.8175146959]}, "type": "Feature", "properties": {"collection_times": [{"days": "Mon-Fri", "time": "4:30pm"}, {"days": "Sat", "time": "11:30am"}, {"days": "Sun", "time": "Closed"}], "id": "3777700001", "name": "USPS COLLECTION BOX - BLUE BOX", "address": {"city": "LOUISVILLE", "state": "TN", "street": "2948 TOPSIDE RD", "postcode": "37777"}}},
{"geometry": {"type": "Point", "coordinates": [-84.0292208054, 35.8175146959]}, "type": "Feature", "properties": {"collection_times": [{"days": "Mon-Fri", "time": "4:30pm"}, {"days": "Sat", "time": "11:30am"}, {"days": "Sun", "time": "Closed"}], "id": "3777700004", "name": "USPS COLLECTION BOX - PO LOBBY", "address": {"city": "LOUISVILLE", "state": "TN", "street": "2948 TOPSIDE RD", "postcode": "37777"}}},
{"geometry": {"type": "Point", "coordinates": [-83.7442743818, 36.202713343]}, "type": "Feature", "properties": {"collection_times": [{"days": "Mon-Fri", "time": "3:00pm"}, {"days": "Sat", "time": "8:15am"}, {"days": "Sun", "time": "Closed"}], "id": "3777900001", "name": "USPS COLLECTION BOX - BLUE BOX", "address": {"city": "LUTTRELL", "state": "TN", "street": "3333 HIGHWAY 61 E", "postcode": "37779"}}},
{"geometry": {"type": "Point", "coordinates": [-83.7442743818, 36.202713343]}, "type": "Feature", "properties": {"collection_times": [{"days": "Mon-Fri", "time": "2:45pm"}, {"days": "Sat", "time": "8:15am"}, {"days": "Sun", "time": "Closed"}], "id": "3777900002", "name": "USPS COLLECTION BOX - PO LOBBY", "address": {"city": "LUTTRELL", "state": "TN", "street": "3333 HIGHWAY 61 E", "postcode": "37779"}}}
]}
