{"type": "FeatureCollection", "features": [
{"geometry": {"type": "Point", "coordinates": [-83.9744260502, 35.7526956419]}, "type": "Feature", "properties": {"collection_times": [{"days": "Mon-Fri", "time": "5:00pm"}, {"days": "Sat", "time": "3:15pm"}, {"days": "Sun", "time": "Closed"}], "id": "3780100008", "name": "USPS COLLECTION BOX - BLUE BOX", "address": {"city": "MARYVILLE", "state": "TN", "street": "400 W BROADWAY AVE", "postcode": "37801"}}},
{"geometry": {"type": "Point", "coordinates": [-83.9903027523, 35.7380359133]}, "type": "Feature", "properties": {"collection_times": [{"days": "Mon-Fri", "time": "4:45pm"}, {"days": "Sat", "time": "3:00pm"}, {"days": "Sun", "time": "Closed"}], "id": "3780100025", "name": "USPS COLLECTION BOX - BLUE BOX", "address": {"city": "MARYVILLE", "state": "TN", "street": "1620 W BROADWAY AVE", "postcode": "37801"}}},
{"geometry": {"type": "Point", "coordinates": [-83.9924685117, 35.7385100152]}, "type": "Feature", "properties": {"collection_times": [{"days": "Mon-Fri", "time": "5:15pm"}, {"days": "Sat", "time": "3:00pm"}, {"days": "Sun", "time": "Closed"}], "id": "3780100033", "name": "USPS COLLECTION BOX - BLUE BOX", "address": {"city": "MARYVILLE", "state": "TN", "street": "226 KELLER LN", "postcode": "37801"}}},
{"geometry": {"type": "Point", "coordinates": [-83.9924685117, 35.7385100152]}, "type": "Feature", "properties": {"collection_times": [{"days": "Mon-Fri", "time": "5:15pm"}, {"days": "Sat", "time": "5:00pm"}, {"days": "Sun", "time": "Closed"}], "id": "3780100034", "name": "USPS COLLECTION BOX - PO LOBBY", "address": {"city": "MARYVILLE", "state": "TN", "street": "226 KELLER LN", "postcode": "37801"}}},
{"geometry": {"type": "Point", "coordinates": [-83.9924685117, 35.7385100152]}, "type": "Feature", "properties": {"collection_times": [{"days": "Mon-Fri", "time": "5:15pm"}, {"days": "Sat", "time": "5:00pm"}, {"days": "Sun", "time": "Closed"}], "id": "3780100035", "name": "USPS COLLECTION BOX - PO LOBBY", "address": {"city": "MARYVILLE", "state": "TN", "street": "226 KELLER LN", "postcode": "37801"}}},
{"geometry": {"type": "Point", "coordinates": [-83.9924685117, 35.7385100152]}, "type": "Feature", "properties": {"collection_times": [{"days": "Mon-Fri", "time": "5:15pm"}, {"days": "Sat", "time": "5:00pm"}, {"days": "Sun", "time": "Closed"}], "id": "3780100036", "name": "USPS COLLECTION BOX - PO LOBBY", "address": {"city": "MARYVILLE", "state": "TN", "street": "226 KELLER LN", "postcode": "37801"}}},
{"geometry": {"type": "Point", "coordinates": [-83.9551072433, 35.7743473403]}, "type": "Feature", "properties": {"collection_times": [{"days": "Mon-Sat", "time": "10:30am"}, {"days": "Sun", "time": "Closed"}], "id": "3780400000", "name": "USPS COLLECTION BOX - BLUE BOX", "address": {"city": "MARYVILLE", "state": "TN", "street": "1905 E BROADWAY AVE", "postcode": "37804"}}},
{"geometry": {"type": "Point", "coordinates": [-83.969670798, 35.7558024986]}, "type": "Feature", "properties": {"collection_times": [{"days": "Mon-Fri", "time": "5:00pm"}, {"days": "Sat", "time": "3:15pm"}, {"days": "Sun", "time": "Closed"}], "id": "3780400010", "name": "USPS COLLECTION BOX - BLUE BOX", "address": {"city": "MARYVILLE", "state": "TN", "street": "301 COURT ST", "postcode": "37804"}}},
{"geometry": {"type": "Point", "coordinates": [-83.9693483279, 35.7569257284]}, "type": "Feature", "properties": {"collection_times": [{"days": "Mon-Fri", "time": "5:00pm"}, {"days": "Sat", "time": "3:15pm"}, {"days": "Sun", "time": "Closed"}], "id": "3780400012", "name": "USPS COLLECTION BOX - BLUE BOX", "address": {"city": "MARYVILLE", "state": "TN", "street": "333 E CHURCH AVE", "postcode": "37804"}}},
{"geometry": {"type": "Point", "coordinates": [-83.9693483279, 35.7569257284]}, "type": "Feature", "properties": {"collection_times": [{"days": "Mon-Fri", "time": "5:00pm"}, {"days": "Sat", "time": "3:15pm"}, {"days": "Sun", "time": "Closed"}], "id": "3780400013", "name": "USPS COLLECTION BOX - BLUE BOX", "address": {"city": "MARYVILLE", "state": "TN", "street": "333 E CHURCH AVE", "postcode": "37804"}}},
{"geometry": {"type": "Point", "coordinates": [-83.9693483279, 35.7569257284]}, "type": "Feature", "properties": {"collection_times": [{"days": "Mon-Fri", "time": "5:00pm"}, {"days": "Sat", "time": "3:15pm"}, {"days": "Sun", "time": "Closed"}], "id": "3780400014", "name": "USPS COLLECTION BOX - BLUE BOX", "address": {"city": "MARYVILLE", "state": "TN", "street": "333 E CHURCH AVE", "postcode": "37804"}}},
{"geometry": {"type": "Point", "coordinates": [-83.7430204432, 36.0630223112]}, "type": "Feature", "properties": {"collection_times": [{"days": "Mon-Fri", "time": "2:00pm"}, {"days": "Sat", "time": "9:00am"}, {"days": "Sun", "time": "Closed"}], "id": "3780600002", "name": "USPS COLLECTION BOX - BLUE BOX", "address": {"city": "MASCOT", "state": "TN", "street": "1925 LIBRARY DR", "postcode": "37806"}}},
{"geometry": {"type": "Point", "coordinates": [-83.8351385322, 36.2322408592]}, "type": "Feature", "properties": {"collection_times": [{"days": "Mon-Fri", "time": "3:45pm"}, {"days": "Sat", "time": "11:00am"}, {"days": "Sun", "time": "Closed"}], "id": "3780700000", "name": "USPS COLLECTION BOX - BLUE BOX", "address": {"city": "MAYNARDVILLE", "state": "TN", "street": "3009 MAYNARDVILLE HWY", "postcode": "37807"}}},
{"geometry": {"type": "Point", "coordinates": [-83.8351385322, 36.2322408592]}, "type": "Feature", "properties": {"collection_times": [{"days": "Mon-Fri", "time": "3:45pm"}, {"days": "Sat", "time": "11:00am"}, {"days": "Sun", "time": "Closed"}], "id": "3780700001", "name": "USPS COLLECTION BOX - BLUE BOX", "address": {"city": "MAYNARDVILLE", "state": "TN", "street": "3009 MAYNARDVILLE HWY", "postcode": "37807"}}},
{"geometry": {"type": "Point", "coordinates": [-83.9038638269, 36.1746618371]}, "type": "Feature", "properties": {"collection_times": [{"days": "Mon-Sat", "time": "11:00am"}, {"days": "Sun", "time": "Closed"}], "id": "3780700002", "name": "USPS COLLECTION BOX - BLUE BOX", "address": {"city": "MAYNARDVILLE", "state": "TN", "street": "509 MAYNARDVILLE HWY", "postcode": "37807"}}},
{"geometry": {"type": "Point", "coordinates": [-83.7986017723, 36.2496342274]}, "type": "Feature", "properties": {"collection_times": [{"days": "Mon-Sat", "time": "10:30am"}, {"days": "Sun", "time": "Closed"}], "id": "3780700003", "name": "USPS COLLECTION BOX - BLUE BOX", "address": {"city": "MAYNARDVILLE", "state": "TN", "street": "901 MAIN ST", "postcode": "37807"}}},
{"geometry": {"type": "Point", "coordinates": [-83.8351385322, 36.2322408592]}, "type": "Feature", "properties": {"collection_times": [{"days": "Mon-Fri", "time": "3:45pm"}, {"days": "Sat", "time": "11:00am"}, {"days": "Sun", "time": "Closed"}], "id": "3780700004", "name": "USPS COLLECTION BOX - PO LOBBY", "address": {"city": "MAYNARDVILLE", "state": "TN", "street": "3009 MAYNARDVILLE HWY", "postcode": "37807"}}},
{"geometry": {"type": "Point", "coordinates": [-83.0527849575, 36.2016148552]}, "type": "Feature", "properties": {"collection_times": [{"days": "Mon-Fri", "time": "12:00pm"}, {"days": "Sat", "time": "9:45am"}, {"days": "Sun", "time": "Closed"}], "id": "3781000001", "name": "USPS COLLECTION BOX - BLUE BOX", "address": {"city": "MOHAWK", "state": "TN", "street": "2250 PHILLIPI RD", "postcode": "37810"}}},
{"geometry": {"type": "Point", "coordinates": [-83.0527849575, 36.2016148552]}, "type": "Feature", "properties": {"collection_times": [{"days": "Mon-Fri", "time": "12:00pm"}, {"days": "Sat", "time": "9:45am"}, {"days": "Sun", "time": "Closed"}], "id": "3781000002", "name": "USPS COLLECTION BOX - PO LOBBY", "address": {"city": "MOHAWK", "state": "TN", "street": "2250 PHILLIPI RD", "postcode": "37810"}}},
{"geometry": {"type": "Point", "coordinates": [-83.2420803086, 36.3453536915]}, "type": "Feature", "properties": {"collection_times": [{"days": "Mon-Fri", "time": "3:15pm"}, {"days": "Sat", "time": "9:45am"}, {"days": "Sun", "time": "Closed"}], "id": "3781100001", "name": "USPS COLLECTION BOX - BLUE BOX", "address": {"city": "MOORESBURG", "state": "TN", "street": "110 LORETTA LN", "postcode": "37811"}}},
{"geometry": {"type": "Point", "coordinates": [-83.2420803086, 36.3453536915]}, "type": "Feature", "properties": {"collection_times": [{"days": "Mon-Fri", "time": "3:30pm"}, {"days": "Sat", "time": "10:00am"}, {"days": "Sun", "time": "Closed"}], "id": "3781100002", "name": "USPS COLLECTION BOX - PO LOBBY", "address": {"city": "MOORESBURG", "state": "TN", "street": "110 LORETTA LN", "postcode": "37811"}}},
{"geometry": {"type": "Point", "coordinates": [-83.24169466, 36.347203714]}, "type": "Feature", "properties": {"collection_times": [{"days": "Mon-Fri", "time": "3:30pm"}, {"days": "Sat", "time": "10:00am"}, {"days": "Sun", "time": "Closed"}], "id": "3781100004", "name": "USPS COLLECTION BOX - BLUE BOX", "address": {"city": "MOORESBURG", "state": "TN", "street": "129 BIG HILL RD", "postcode": "37811"}}},
{"geometry": {"type": "Point", "coordinates": [-83.28748779, 36.2062385607]}, "type": "Feature", "properties": {"collection_times": [{"days": "Mon-Sat", "time": "4:45pm"}, {"days": "Sun", "time": "Closed"}], "id": "3781300003", "name": "USPS COLLECTION BOX - BLUE BOX", "address": {"city": "MORRISTOWN", "state": "TN", "street": "803 S CUMBERLAND ST", "postcode": "37813"}}},
{"geometry": {"type": "Point", "coordinates": [-83.28748779, 36.2062385607]}, "type": "Feature", "properties": {"collection_times": [{"days": "Mon-Sat", "time": "4:45pm"}, {"days": "Sun", "time": "Closed"}], "id": "3781300005", "name": "USPS COLLECTION BOX - BLUE BOX", "address": {"city": "MORRISTOWN", "state": "TN", "street": "803 S CUMBERLAND ST", "postcode": "37813"}}},
{"geometry": {"type": "Point", "coordinates": [-83.2573684406, 36.2168238713]}, "type": "Feature", "properties": {"collection_times": [{"days": "Mon-Fri", "time": "3:40pm"}, {"days": "Sat-Sun", "time": "Closed"}], "id": "3781300008", "name": "USPS COLLECTION BOX - BLUE BOX", "address": {"city": "MORRISTOWN", "state": "TN", "street": "500 S DAVY CROCKETT PKWY", "postcode": "37813"}}},
{"geometry": {"type": "Point", "coordinates": [-83.28748779, 36.2062385607]}, "type": "Feature", "properties": {"collection_times": [{"days": "Mon-Sat", "time": "4:45pm"}, {"days": "Sun", "time": "Closed"}], "id": "3781300011", "name": "USPS COLLECTION BOX - PO LOBBY", "address": {"city": "MORRISTOWN", "state": "TN", "street": "803 S CUMBERLAND ST", "postcode": "37813"}}},
{"geometry": {"type": "Point", "coordinates": [-83.28748779, 36.2062385607]}, "type": "Feature", "properties": {"collection_times": [{"days": "Mon-Sat", "time": "4:45pm"}, {"days": "Sun", "time": "Closed"}], "id": "3781300012", "name": "USPS COLLECTION BOX - PO LOBBY", "address": {"city": "MORRISTOWN", "state": "TN", "street": "803 S CUMBERLAND ST", "postcode": "37813"}}},
{"geometry": {"type": "Point", "coordinates": [-83.2944151977, 36.2135433323]}, "type": "Feature", "properties": {"collection_times": [{"days": "Mon-Fri", "time": "2:15pm"}, {"days": "Sat-Sun", "time": "Closed"}], "id": "3781300013", "name": "USPS COLLECTION BOX - PO LOBBY", "address": {"city": "MORRISTOWN", "state": "TN", "street": "134 N HENRY ST", "postcode": "37813"}}},
{"geometry": {"type": "Point", "coordinates": [-83.340071499, 36.1999972692]}, "type": "Feature", "properties": {"collection_times": [{"days": "Mon-Fri", "time": "4:30pm"}, {"days": "Sat", "time": "12:00pm"}, {"days": "Sun", "time": "Closed"}], "id": "3781400009", "name": "USPS COLLECTION BOX - BLUE BOX", "address": {"city": "MORRISTOWN", "state": "TN", "street": "3336 W ANDREW JOHNSON HWY", "postcode": "37814"}}},
{"geometry": {"type": "Point", "coordinates": [-83.2956396216, 36.2120000709]}, "type": "Feature", "properties": {"collection_times": [{"days": "Mon-Fri", "time": "4:10pm"}, {"days": "Sat", "time": "12:00pm"}, {"days": "Sun", "time": "Closed"}], "id": "3781400010", "name": "USPS COLLECTION BOX - BLUE BOX", "address": {"city": "MORRISTOWN", "state": "TN", "street": "100 HAMILTON AVE", "postcode": "37814"}}},
{"geometry": {"type": "Point", "coordinates": [-83.2956396216, 36.2120000709]}, "type": "Feature", "properties": {"collection_times": [{"days": "Mon-Fri", "time": "4:10pm"}, {"days": "Sat", "time": "12:00pm"}, {"days": "Sun", "time": "Closed"}], "id": "3781400011", "name": "USPS COLLECTION BOX - BLUE BOX", "address": {"city": "MORRISTOWN", "state": "TN", "street": "100 HAMILTON AVE", "postcode": "37814"}}},
{"geometry": {"type": "Point", "coordinates": [-83.2956396216, 36.2120000709]}, "type": "Feature", "properties": {"collection_times": [{"days": "Mon-Fri", "time": "4:10pm"}, {"days": "Sat", "time": "12:00pm"}, {"days": "Sun", "time": "Closed"}], "id": "3781400012", "name": "USPS COLLECTION BOX - BLUE BOX", "address": {"city": "MORRISTOWN", "state": "TN", "street": "100 HAMILTON AVE", "postcode": "37814"}}},
{"geometry": {"type": "Point", "coordinates": [-83.2956396216, 36.2120000709]}, "type": "Feature", "properties": {"collection_times": [{"days": "Mon-Fri", "time": "4:10pm"}, {"days": "Sat", "time": "12:00pm"}, {"days": "Sun", "time": "Closed"}], "id": "3781400013", "name": "USPS COLLECTION BOX - BLUE BOX", "address": {"city": "MORRISTOWN", "state": "TN", "street": "100 HAMILTON AVE", "postcode": "37814"}}},
{"geometry": {"type": "Point", "coordinates": [-83.2956396216, 36.2120000709]}, "type": "Feature", "properties": {"collection_times": [{"days": "Mon-Fri", "time": "4:10pm"}, {"days": "Sat", "time": "12:00pm"}, {"days": "Sun", "time": "Closed"}], "id": "3781400014", "name": "USPS COLLECTION BOX - BLUE BOX", "address": {"city": "MORRISTOWN", "state": "TN", "street": "100 HAMILTON AVE", "postcode": "37814"}}},
{"geometry": {"type": "Point", "coordinates": [-83.2956396216, 36.2120000709]}, "type": "Feature", "properties": {"collection_times": [{"days": "Mon-Fri", "time": "4:10pm"}, {"days": "Sat", "time": "12:00pm"}, {"days": "Sun", "time": "Closed"}], "id": "3781400015", "name": "USPS COLLECTION BOX - BLUE BOX", "address": {"city": "MORRISTOWN", "state": "TN", "street": "100 HAMILTON AVE", "postcode": "37814"}}},
{"geometry": {"type": "Point", "coordinates": [-83.2944151977, 36.2135433323]}, "type": "Feature", "properties": {"collection_times": [{"days": "Mon-Fri", "time": "4:05pm"}, {"days": "Sat", "time": "12:00pm"}, {"days": "Sun", "time": "Closed"}], "id": "3781400016", "name": "USPS COLLECTION BOX - BLUE BOX", "address": {"city": "MORRISTOWN", "state": "TN", "street": "134 N HENRY ST", "postcode": "37814"}}},
{"geometry": {"type": "Point", "coordinates": [-83.2944151977, 36.2135433323]}, "type": "Feature", "properties": {"collection_times": [{"days": "Mon-Fri", "time": "4:05pm"}, {"days": "Sat", "time": "12:00pm"}, {"days": "Sun", "time": "Closed"}], "id": "3781400017", "name": "USPS COLLECTION BOX - BLUE BOX", "address": {"city": "MORRISTOWN", "state": "TN", "street": "134 N HENRY ST", "postcode": "37814"}}},
{"geometry": {"type": "Point", "coordinates": [-83.3045673515, 36.2118422373]}, "type": "Feature", "properties": {"collection_times": [{"days": "Mon-Fri", "time": "2:30pm"}, {"days": "Sat", "time": "12:00pm"}, {"days": "Sun", "time": "Closed"}], "id": "3781400018", "name": "USPS COLLECTION BOX - BLUE BOX", "address": {"city": "MORRISTOWN", "state": "TN", "street": "908 W 4TH NORTH ST", "postcode": "37814"}}},
{"geometry": {"type": "Point", "coordinates": [-83.3055870622, 36.2084069245]}, "type": "Feature", "properties": {"collection_times": [{"days": "Mon-Fri", "time": "11:45am"}, {"days": "Sat-Sun", "time": "Closed"}], "id": "3781400019", "name": "USPS COLLECTION BOX - BLUE BOX", "address": {"city": "MORRISTOWN", "state": "TN", "street": "1112 W 1ST NORTH ST", "postcode": "37814"}}},
{"geometry": {"type": "Point", "coordinates": [-83.3362812984, 36.2006928491]}, "type": "Feature", "properties": {"collection_times": [{"days": "Mon-Fri", "time": "4:20pm"}, {"days": "Sat", "time": "12:00pm"}, {"days": "Sun", "time": "Closed"}], "id": "3781400022", "name": "USPS COLLECTION BOX - BLUE BOX", "address": {"city": "MORRISTOWN", "state": "TN", "street": "3004 W ANDREW JOHNSON HWY", "postcode": "37814"}}},
{"geometry": {"type": "Point", "coordinates": [-83.3362812984, 36.2006928491]}, "type": "Feature", "properties": {"collection_times": [{"days": "Mon-Fri", "time": "4:20pm"}, {"days": "Sat", "time": "12:00pm"}, {"days": "Sun", "time": "Closed"}], "id": "3781400023", "name": "USPS COLLECTION BOX - BLUE BOX", "address": {"city": "MORRISTOWN", "state": "TN", "street": "3004 W ANDREW JOHNSON HWY", "postcode": "37814"}}},
{"geometry": {"type": "Point", "coordinates": [-83.3362812984, 36.2006928491]}, "type": "Feature", "properties": {"collection_times": [{"days": "Mon-Fri", "time": "4:20pm"}, {"days": "Sat", "time": "12:00pm"}, {"days": "Sun", "time": "Closed"}], "id": "3781400024", "name": "USPS COLLECTION BOX - BLUE BOX", "address": {"city": "MORRISTOWN", "state": "TN", "street": "3004 W ANDREW JOHNSON HWY", "postcode": "37814"}}},
{"geometry": {"type": "Point", "coordinates": [-83.2657858469, 36.2264273676]}, "type": "Feature", "properties": {"collection_times": [{"days": "Mon-Fri", "time": "3:20pm"}, {"days": "Sat", "time": "12:00pm"}, {"days": "Sun", "time": "Closed"}], "id": "3781400025", "name": "USPS COLLECTION BOX - BLUE BOX", "address": {"city": "MORRISTOWN", "state": "TN", "street": "2344 E ANDREW JOHNSON HWY", "postcode": "37814"}}},
{"geometry": {"type": "Point", "coordinates": [-83.2657858469, 36.2264273676]}, "type": "Feature", "properties": {"collection_times": [{"days": "Mon-Fri", "time": "3:10pm"}, {"days": "Sat", "time": "12:00pm"}, {"days": "Sun", "time": "Closed"}], "id": "3781400026", "name": "USPS COLLECTION BOX - BLUE BOX", "address": {"city": "MORRISTOWN", "state": "TN", "street": "2344 E ANDREW JOHNSON HWY", "postcode": "37814"}}},
{"geometry": {"type": "Point", "coordinates": [-83.351013165, 36.1956046706]}, "type": "Feature", "properties": {"collection_times": [{"days": "Mon-Sat", "time": "12:00pm"}, {"days": "Sun", "time": "Closed"}], "id": "3781400031", "name": "USPS COLLECTION BOX - BLUE BOX", "address": {"city": "MORRISTOWN", "state": "TN", "street": "3980 W ANDREW JOHNSON HWY", "postcode": "37814"}}},
{"geometry": {"type": "Point", "coordinates": [-83.2989009781, 36.2125555616]}, "type": "Feature", "properties": {"collection_times": [{"days": "Mon-Fri", "time": "2:00pm"}, {"days": "Sat", "time": "3:00pm"}, {"days": "Sun", "time": "Closed"}], "id": "3781400038", "name": "USPS COLLECTION BOX - BLUE BOX", "address": {"city": "MORRISTOWN", "state": "TN", "street": "511 W 2ND NORTH ST", "postcode": "37814"}}},
{"geometry": {"type": "Point", "coordinates": [-82.9756828515, 36.187772065]}, "type": "Feature", "properties": {"collection_times": [{"days": "Mon-Fri", "time": "4:30pm"}, {"days": "Sat", "time": "11:45am"}, {"days": "Sun", "time": "Closed"}], "id": "3781800001", "name": "USPS COLLECTION BOX - BLUE BOX", "address": {"city": "MOSHEIM", "state": "TN", "street": "9280 W ANDREW JOHNSON HWY", "postcode": "37818"}}},
{"geometry": {"type": "Point", "coordinates": [-82.9756828515, 36.187772065]}, "type": "Feature", "properties": {"collection_times": [{"days": "Mon-Fri", "time": "4:30pm"}, {"days": "Sat", "time": "11:45am"}, {"days": "Sun", "time": "Closed"}], "id": "3781800003", "name": "USPS COLLECTION BOX - PO LOBBY", "address": {"city": "MOSHEIM", "state": "TN", "street": "9280 W ANDREW JOHNSON HWY", "postcode": "37818"}}},
{"geometry": {"type": "Point", "coordinates": [-83.5493336948, 36.1020792271]}, "type": "Feature", "properties": {"collection_times": [{"days": "Mon-Fri", "time": "4:15pm"}, {"days": "Sat", "time": "10:15am"}, {"days": "Sun", "time": "Closed"}], "id": "3782000001", "name": "USPS COLLECTION BOX - BLUE BOX", "address": {"city": "NEW MARKET", "state": "TN", "street": "911 W HIGHWAY 11E", "postcode": "37820"}}},
{"geometry": {"type": "Point", "coordinates": [-83.5493336948, 36.1020792271]}, "type": "Feature", "properties": {"collection_times": [{"days": "Mon-Fri", "time": "4:30pm"}, {"days": "Sat", "time": "10:30am"}, {"days": "Sun", "time": "Closed"}], "id": "3782000002", "name": "USPS COLLECTION BOX - PO LOBBY", "address": {"city": "NEW MARKET", "state": "TN", "street": "911 W HIGHWAY 11E", "postcode": "37820"}}},
{"geometry": {"type": "Point", "coordinates": [-83.185753319, 35.9677682289]}, "type": "Feature", "properties": {"collection_times": [{"days": "Mon-Fri", "time": "3:00pm"}, {"days": "Sat", "time": "2:00pm"}, {"days": "Sun", "time": "Closed"}], "id": "3782100004", "name": "USPS COLLECTION BOX - BLUE BOX", "address": {"city": "NEWPORT", "state": "TN", "street": "300 E MAIN ST", "postcode": "37821"}}},
{"geometry": {"type": "Point", "coordinates": [-83.1837848753, 35.9670087692]}, "type": "Feature", "properties": {"collection_times": [{"days": "Mon-Fri", "time": "3:00pm"}, {"days": "Sat", "time": "2:00pm"}, {"days": "Sun", "time": "Closed"}], "id": "3782100005", "name": "USPS COLLECTION BOX - BLUE BOX", "address": {"city": "NEWPORT", "state": "TN", "street": "111 COURT AVE", "postcode": "37821"}}},
{"geometry": {"type": "Point", "coordinates": [-83.1867079669, 35.9668088491]}, "type": "Feature", "properties": {"collection_times": [{"days": "Mon-Fri", "time": "3:00pm"}, {"days": "Sat", "time": "2:00pm"}, {"days": "Sun", "time": "Closed"}], "id": "3782100008", "name": "USPS COLLECTION BOX - BLUE BOX", "address": {"city": "NEWPORT", "state": "TN", "street": "262 E BROADWAY", "postcode": "37821"}}},
{"geometry": {"type": "Point", "coordinates": [-83.1816517439, 35.9650202892]}, "type": "Feature", "properties": {"collection_times": [{"days": "Mon-Fri", "time": "3:00pm"}, {"days": "Sat", "time": "2:00pm"}, {"days": "Sun", "time": "Closed"}], "id": "3782100014", "name": "USPS COLLECTION BOX - BLUE BOX", "address": {"city": "NEWPORT", "state": "TN", "street": "435 2ND ST", "postcode": "37821"}}},
{"geometry": {"type": "Point", "coordinates": [-83.1937761467, 35.9645553123]}, "type": "Feature", "properties": {"collection_times": [{"days": "Mon-Fri", "time": "4:30pm"}, {"days": "Sat", "time": "2:00pm"}, {"days": "Sun", "time": "Closed"}], "id": "3782100015", "name": "USPS COLLECTION BOX - PO LOBBY", "address": {"city": "NEWPORT", "state": "TN", "street": "265 COSBY HWY", "postcode": "37821"}}},
{"geometry": {"type": "Point", "coordinates": [-83.2074192125, 35.9721877636]}, "type": "Feature", "properties": {"collection_times": [{"days": "Mon-Fri", "time": "3:00pm"}, {"days": "Sat", "time": "2:00pm"}, {"days": "Sun", "time": "Closed"}], "id": "3782100019", "name": "USPS COLLECTION BOX - BLUE BOX", "address": {"city": "NEWPORT", "state": "TN", "street": "181 WESTERN PLAZA WAY", "postcode": "37821"}}},
{"geometry": {"type": "Point", "coordinates": [-83.2119511283, 35.9427344513]}, "type": "Feature", "properties": {"collection_times": [{"days": "Mon-Fri", "time": "3:00pm"}, {"days": "Sat", "time": "2:00pm"}, {"days": "Sun", "time": "Closed"}], "id": "3782100020", "name": "USPS COLLECTION BOX - BLUE BOX", "address": {"city": "NEWPORT", "state": "TN", "street": "1075 COSBY HWY", "postcode": "37821"}}},
{"geometry": {"type": "Point", "coordinates": [-83.1832359823, 35.9675446496]}, "type": "Feature", "properties": {"collection_times": [{"days": "Mon-Fri", "time": "3:00pm"}, {"days": "Sat", "time": "2:00pm"}, {"days": "Sun", "time": "Closed"}], "id": "3782100022", "name": "USPS COLLECTION BOX - BLUE BOX", "address": {"city": "NEWPORT", "state": "TN", "street": "360 E MAIN ST", "postcode": "37821"}}},
{"geometry": {"type": "Point", "coordinates": [-83.1937761467, 35.9645553123]}, "type": "Feature", "properties": {"collection_times": [{"days": "Mon-Fri", "time": "4:30pm"}, {"days": "Sat", "time": "2:00pm"}, {"days": "Sun", "time": "Closed"}], "id": "3782100024", "name": "USPS COLLECTION BOX - BLUE BOX", "address": {"city": "NEWPORT", "state": "TN", "street": "265 COSBY HWY", "postcode": "37821"}}},
{"geometry": {"type": "Point", "coordinates": [-83.1832359823, 35.9675446496]}, "type": "Feature", "properties": {"collection_times": [{"days": "Mon-Fri", "time": "3:00pm"}, {"days": "Sat", "time": "2:00pm"}, {"days": "Sun", "time": "Closed"}], "id": "3782100025", "name": "USPS COLLECTION BOX - BLUE BOX", "address": {"city": "NEWPORT", "state": "TN", "street": "360 E MAIN ST", "postcode": "37821"}}},
{"geometry": {"type": "Point", "coordinates": [-83.5872637872, 36.4461804935]}, "type": "Feature", "properties": {"collection_times": [{"days": "Mon-Fri", "time": "4:45pm"}, {"days": "Sat", "time": "12:00pm"}, {"days": "Sun", "time": "Closed"}], "id": "3782500001", "name": "USPS COLLECTION BOX - BLUE BOX", "address": {"city": "NEW TAZEWELL", "state": "TN", "street": "855 MAIN ST", "postcode": "37825"}}},
{"geometry": {"type": "Point", "coordinates": [-83.5872637872, 36.4461804935]}, "type": "Feature", "properties": {"collection_times": [{"days": "Mon-Fri", "time": "4:45pm"}, {"days": "Sat", "time": "12:00pm"}, {"days": "Sun", "time": "Closed"}], "id": "3782500002", "name": "USPS COLLECTION BOX - BLUE BOX", "address": {"city": "NEW TAZEWELL", "state": "TN", "street": "855 MAIN ST", "postcode": "37825"}}},
{"geometry": {"type": "Point", "coordinates": [-83.5872637872, 36.4461804935]}, "type": "Feature", "properties": {"collection_times": [{"days": "Mon-Fri", "time": "4:45pm"}, {"days": "Sat", "time": "12:00pm"}, {"days": "Sun", "time": "Closed"}], "id": "3782500003", "name": "USPS COLLECTION BOX - BLUE BOX", "address": {"city": "NEW TAZEWELL", "state": "TN", "street": "855 MAIN ST", "postcode": "37825"}}},
{"geometry": {"type": "Point", "coordinates": [-83.5872637872, 36.4461804935]}, "type": "Feature", "properties": {"collection_times": [{"days": "Mon-Fri", "time": "4:45pm"}, {"days": "Sat", "time": "12:00pm"}, {"days": "Sun", "time": "Closed"}], "id": "3782500004", "name": "USPS COLLECTION BOX - PO LOBBY", "address": {"city": "NEW TAZEWELL", "state": "TN", "street": "855 MAIN ST", "postcode": "37825"}}},
{"geometry": {"type": "Point", "coordinates": [-83.5872637872, 36.4461804935]}, "type": "Feature", "properties": {"collection_times": [{"days": "Mon-Fri", "time": "4:45pm"}, {"days": "Sat", "time": "12:00pm"}, {"days": "Sun", "time": "Closed"}], "id": "3782500005", "name": "USPS COLLECTION BOX - PO LOBBY", "address": {"city": "NEW TAZEWELL", "state": "TN", "street": "855 MAIN ST", "postcode": "37825"}}},
{"geometry": {"type": "Point", "coordinates": [-84.5470859345, 35.5147765694]}, "type": "Feature", "properties": {"collection_times": [{"days": "Mon-Fri", "time": "4:00pm"}, {"days": "Sat", "time": "10:00am"}, {"days": "Sun", "time": "Closed"}], "id": "3782600001", "name": "USPS COLLECTION BOX - BLUE BOX", "address": {"city": "NIOTA", "state": "TN", "street": "102 E MAIN ST", "postcode": "37826"}}},
{"geometry": {"type": "Point", "coordinates": [-84.5470859345, 35.5147765694]}, "type": "Feature", "properties": {"collection_times": [{"days": "Mon-Fri", "time": "4:00pm"}, {"days": "Sat", "time": "10:00am"}, {"days": "Sun", "time": "Closed"}], "id": "3782600004", "name": "USPS COLLECTION BOX - PO LOBBY", "address": {"city": "NIOTA", "state": "TN", "street": "102 E MAIN ST", "postcode": "37826"}}},
{"geometry": {"type": "Point", "coordinates": [-84.5470859345, 35.5147765694]}, "type": "Feature", "properties": {"collection_times": [{"days": "Mon-Fri", "time": "4:00pm"}, {"days": "Sat", "time": "10:00am"}, {"days": "Sun", "time": "Closed"}], "id": "3782600005", "name": "USPS COLLECTION BOX - PO LOBBY", "address": {"city": "NIOTA", "state": "TN", "street": "102 E MAIN ST", "postcode": "37826"}}},
{"geometry": {"type": "Point", "coordinates": [-84.0703035729, 36.1971847474]}, "type": "Feature", "properties": {"collection_times": [{"days": "Mon-Fri", "time": "4:45pm"}, {"days": "Sat", "time": "11:15am"}, {"days": "Sun", "time": "Closed"}], "id": "3782800001", "name": "USPS COLLECTION BOX - BLUE BOX", "address": {"city": "NORRIS", "state": "TN", "street": "1 W NORRIS RD", "postcode": "37828"}}},
{"geometry": {"type": "Point", "coordinates": [-84.0703035729, 36.1971847474]}, "type": "Feature", "properties": {"collection_times": [{"days": "Mon-Fri", "time": "4:45pm"}, {"days": "Sat", "time": "11:30am"}, {"days": "Sun", "time": "Closed"}], "id": "3782800002", "name": "USPS COLLECTION BOX - PO LOBBY", "address": {"city": "NORRIS", "state": "TN", "street": "1 W NORRIS RD", "postcode": "37828"}}},
{"geometry": {"type": "Point", "coordinates": [-84.5546054579, 35.9854691738]}, "type": "Feature", "properties": {"collection_times": [{"days": "Mon-Fri", "time": "11:30am"}, {"days": "Sat", "time": "9:15am"}, {"days": "Sun", "time": "Closed"}], "id": "3782900001", "name": "USPS COLLECTION BOX - PO LOBBY", "address": {"city": "OAKDALE", "state": "TN", "street": "320 E MAIN ST", "postcode": "37829"}}},
{"geometry": {"type": "Point", "coordinates": [-84.5546054579, 35.9854691738]}, "type": "Feature", "properties": {"collection_times": [{"days": "Mon-Fri", "time": "11:30am"}, {"days": "Sat", "time": "9:15am"}, {"days": "Sun", "time": "Closed"}], "id": "3782900002", "name": "USPS COLLECTION BOX - BLUE BOX", "address": {"city": "OAKDALE", "state": "TN", "street": "320 E MAIN ST", "postcode": "37829"}}},
{"geometry": {"type": "Point", "coordinates": [-84.2438657936, 36.023510103]}, "type": "Feature", "properties": {"collection_times": [{"days": "Mon-Sat", "time": "10:00am"}, {"days": "Sun", "time": "Closed"}], "id": "3783000001", "name": "USPS COLLECTION BOX - BLUE BOX", "address": {"city": "OAK RIDGE", "state": "TN", "street": "988 OAK RIDGE TPKE", "postcode": "37830"}}},
{"geometry": {"type": "Point", "coordinates": [-84.2486348513, 36.022508472]}, "type": "Feature", "properties": {"collection_times": [{"days": "Mon-Fri", "time": "11:00am"}, {"days": "Sat-Sun", "time": "Closed"}], "id": "3783000005", "name": "USPS COLLECTION BOX - BLUE BOX", "address": {"city": "OAK RIDGE", "state": "TN", "street": "200 NEW YORK AVE", "postcode": "37830"}}},
{"geometry": {"type": "Point", "coordinates": [-84.2488809068, 36.0184272636]}, "type": "Feature", "properties": {"collection_times": [{"days": "Mon-Sat", "time": "9:15am"}, {"days": "Sun", "time": "Closed"}], "id": "3783000006", "name": "USPS COLLECTION BOX - BLUE BOX", "address": {"city": "OAK RIDGE", "state": "TN", "street": "1188 OAK RIDGE TPKE", "postcode": "37830"}}},
{"geometry": {"type": "Point", "coordinates": [-84.331750021, 35.9807001884]}, "type": "Feature", "properties": {"collection_times": [{"days": "Mon-Sat", "time": "1:00pm"}, {"days": "Sun", "time": "Closed"}], "id": "3783000026", "name": "USPS COLLECTION BOX - BLUE BOX", "address": {"city": "OAK RIDGE", "state": "TN", "street": "99 GRAND COVE LN", "postcode": "37830"}}},
{"geometry": {"type": "Point", "coordinates": [-84.2243262275, 36.0220636794]}, "type": "Feature", "properties": {"collection_times": [{"days": "Mon-Sat", "time": "10:00am"}, {"days": "Sun", "time": "Closed"}], "id": "3783000039", "name": "USPS COLLECTION BOX - BLUE BOX", "address": {"city": "OAK RIDGE", "state": "TN", "street": "677 EMORY VALLEY RD", "postcode": "37830"}}},
{"geometry": {"type": "Point", "coordinates": [-84.2253577678, 36.0197947642]}, "type": "Feature", "properties": {"collection_times": [{"days": "Mon-Sat", "time": "12:00pm"}, {"days": "Sun", "time": "Closed"}], "id": "3783000040", "name": "USPS COLLECTION BOX - BLUE BOX", "address": {"city": "OAK RIDGE", "state": "TN", "street": "301 BRIARCLIFF AVE", "postcode": "37830"}}},
{"geometry": {"type": "Point", "coordinates": [-84.2391431831, 36.0287065168]}, "type": "Feature", "properties": {"collection_times": [{"days": "Mon-Fri", "time": "3:00pm"}, {"days": "Sat", "time": "12:30pm"}, {"days": "Sun", "time": "Closed"}], "id": "3783000042", "name": "USPS COLLECTION BOX - BLUE BOX", "address": {"city": "OAK RIDGE", "state": "TN", "street": "43 E TENNESSEE AVE", "postcode": "37830"}}},
{"geometry": {"type": "Point", "coordinates": [-84.2391431831, 36.0287065168]}, "type": "Feature", "properties": {"collection_times": [{"days": "Mon-Fri", "time": "3:00pm"}, {"days": "Sat", "time": "12:30pm"}, {"days": "Sun", "time": "Closed"}], "id": "3783000044", "name": "USPS COLLECTION BOX - BLUE BOX", "address": {"city": "OAK RIDGE", "state": "TN", "street": "43 E TENNESSEE AVE", "postcode": "37830"}}},
{"geometry": {"type": "Point", "coordinates": [-84.2369342042, 36.0271752451]}, "type": "Feature", "properties": {"collection_times": [{"days": "Mon-Fri", "time": "9:30am"}, {"days": "Sat-Sun", "time": "Closed"}], "id": "3783000048", "name": "USPS COLLECTION BOX - BLUE BOX", "address": {"city": "OAK RIDGE", "state": "TN", "street": "800 OAK RIDGE TPKE", "postcode": "37830"}}},
{"geometry": {"type": "Point", "coordinates": [-84.2422301535, 36.0014575338]}, "type": "Feature", "properties": {"collection_times": [{"days": "Mon-Fri", "time": "1:00pm"}, {"days": "Sat", "time": "10:30am"}, {"days": "Sun", "time": "Closed"}], "id": "3783000053", "name": "USPS COLLECTION BOX - BLUE BOX", "address": {"city": "OAK RIDGE", "state": "TN", "street": "704 S ILLINOIS AVE", "postcode": "37830"}}},
{"geometry": {"type": "Point", "coordinates": [-84.2569297596, 36.0093823593]}, "type": "Feature", "properties": {"collection_times": [{"days": "Mon-Fri", "time": "5:40pm"}, {"days": "Sat", "time": "12:30pm"}, {"days": "Sun", "time": "Closed"}], "id": "3783000054", "name": "USPS COLLECTION BOX - BLUE BOX", "address": {"city": "OAK RIDGE", "state": "TN", "street": "301 S TULANE AVE", "postcode": "37830"}}},
{"geometry": {"type": "Point", "coordinates": [-84.2569297596, 36.0093823593]}, "type": "Feature", "properties": {"collection_times": [{"days": "Mon-Fri", "time": "5:40pm"}, {"days": "Sat", "time": "12:30pm"}, {"days": "Sun", "time": "Closed"}], "id": "3783000055", "name": "USPS COLLECTION BOX - BLUE BOX", "address": {"city": "OAK RIDGE", "state": "TN", "street": "301 S TULANE AVE", "postcode": "37830"}}},
{"geometry": {"type": "Point", "coordinates": [-84.2569297596, 36.0093823593]}, "type": "Feature", "properties": {"collection_times": [{"days": "Mon-Fri", "time": "5:40pm"}, {"days": "Sat", "time": "12:30pm"}, {"days": "Sun", "time": "Closed"}], "id": "3783000056", "name": "USPS COLLECTION BOX - BLUE BOX", "address": {"city": "OAK RIDGE", "state": "TN", "street": "301 S TULANE AVE", "postcode": "37830"}}},
{"geometry": {"type": "Point", "coordinates": [-84.2569297596, 36.0093823593]}, "type": "Feature", "properties": {"collection_times": [{"days": "Mon-Fri", "time": "5:40pm"}, {"days": "Sat", "time": "12:30pm"}, {"days": "Sun", "time": "Closed"}], "id": "3783000057", "name": "USPS COLLECTION BOX - BLUE BOX", "address": {"city": "OAK RIDGE", "state": "TN", "street": "301 S TULANE AVE", "postcode": "37830"}}},
{"geometry": {"type": "Point", "coordinates": [-84.2524794119, 36.0058506894]}, "type": "Feature", "properties": {"collection_times": [{"days": "Mon-Sat", "time": "10:00am"}, {"days": "Sun", "time": "Closed"}], "id": "3783000062", "name": "USPS COLLECTION BOX - BLUE BOX", "address": {"city": "OAK RIDGE", "state": "TN", "street": "380 S ILLINOIS AVE", "postcode": "37830"}}},
{"geometry": {"type": "Point", "coordinates": [-84.2384034392, 36.0248767559]}, "type": "Feature", "properties": {"collection_times": [{"days": "Mon-Fri", "time": "5:15pm"}, {"days": "Sat", "time": "12:30pm"}, {"days": "Sun", "time": "Closed"}], "id": "3783000067", "name": "USPS COLLECTION BOX - BLUE BOX", "address": {"city": "OAK RIDGE", "state": "TN", "street": "108 ADMINISTRATION RD", "postcode": "37830"}}},
{"geometry": {"type": "Point", "coordinates": [-84.2384034392, 36.0248767559]}, "type": "Feature", "properties": {"collection_times": [{"days": "Mon-Fri", "time": "5:15pm"}, {"days": "Sat", "time": "12:30pm"}, {"days": "Sun", "time": "Closed"}], "id": "3783000068", "name": "USPS COLLECTION BOX - BLUE BOX", "address": {"city": "OAK RIDGE", "state": "TN", "street": "108 ADMINISTRATION RD", "postcode": "37830"}}},
{"geometry": {"type": "Point", "coordinates": [-84.2384034392, 36.0248767559]}, "type": "Feature", "properties": {"collection_times": [{"days": "Mon-Fri", "time": "5:15pm"}, {"days": "Sat", "time": "12:30pm"}, {"days": "Sun", "time": "Closed"}], "id": "3783000069", "name": "USPS COLLECTION BOX - PO LOBBY", "address": {"city": "OAK RIDGE", "state": "TN", "street": "108 ADMINISTRATION RD", "postcode": "37830"}}},
{"geometry": {"type": "Point", "coordinates": [-84.2384034392, 36.0248767559]}, "type": "Feature", "properties": {"collection_times": [{"days": "Mon-Fri", "time": "5:15pm"}, {"days": "Sat", "time": "12:30pm"}, {"days": "Sun", "time": "Closed"}], "id": "3783000070", "name": "USPS COLLECTION BOX - PO LOBBY", "address": {"city": "OAK RIDGE", "state": "TN", "street": "108 ADMINISTRATION RD", "postcode": "37830"}}},
{"geometry": {"type": "Point", "coordinates": [-84.2384034392, 36.0248767559]}, "type": "Feature", "properties": {"collection_times": [{"days": "Mon-Fri", "time": "5:15pm"}, {"days": "Sat", "time": "12:30pm"}, {"days": "Sun", "time": "Closed"}], "id": "3783000071", "name": "USPS COLLECTION BOX - BLUE BOX", "address": {"city": "OAK RIDGE", "state": "TN", "street": "108 ADMINISTRATION RD", "postcode": "37830"}}},
{"geometry": {"type": "Point", "coordinates": [-84.2384034392, 36.0248767559]}, "type": "Feature", "properties": {"collection_times": [{"days": "Mon-Fri", "time": "5:15pm"}, {"days": "Sat", "time": "12:30pm"}, {"days": "Sun", "time": "Closed"}], "id": "3783000072", "name": "USPS COLLECTION BOX - BLUE BOX", "address": {"city": "OAK RIDGE", "state": "TN", "street": "108 ADMINISTRATION RD", "postcode": "37830"}}},
{"geometry": {"type": "Point", "coordinates": [-84.2384034392, 36.0248767559]}, "type": "Feature", "properties": {"collection_times": [{"days": "Mon-Fri", "time": "5:15pm"}, {"days": "Sat", "time": "12:30pm"}, {"days": "Sun", "time": "Closed"}], "id": "3783000080", "name": "USPS COLLECTION BOX - APC", "address": {"city": "OAK RIDGE", "state": "TN", "street": "108 ADMINISTRATION RD", "postcode": "37830"}}},
{"geometry": {"type": "Point", "coordinates": [-84.2391431831, 36.0287065168]}, "type": "Feature", "properties": {"collection_times": [{"days": "Mon-Fri", "time": "3:00pm"}, {"days": "Sat", "time": "12:30pm"}, {"days": "Sun", "time": "Closed"}], "id": "3783000081", "name": "USPS COLLECTION BOX - BLUE BOX", "address": {"city": "OAK RIDGE", "state": "TN", "street": "43 E TENNESSEE AVE", "postcode": "37830"}}},
{"geometry": {"type": "Point", "coordinates": [-84.2742132702, 36.008269637]}, "type": "Feature", "properties": {"collection_times": [{"days": "Mon-Sat", "time": "1:00pm"}, {"days": "Sun", "time": "Closed"}], "id": "3783000083", "name": "USPS COLLECTION BOX - BLUE BOX", "address": {"city": "OAK RIDGE", "state": "TN", "street": "100 VILLANOVA RD", "postcode": "37830"}}},
{"geometry": {"type": "Point", "coordinates": [-84.340334602, 36.0449072053]}, "type": "Feature", "properties": {"collection_times": [{"days": "Mon-Fri", "time": "4:30pm"}, {"days": "Sat", "time": "10:00am"}, {"days": "Sun", "time": "Closed"}], "id": "3784000000", "name": "USPS COLLECTION BOX - PO LOBBY", "address": {"city": "OLIVER SPRINGS", "state": "TN", "street": "200 W SPRING ST", "postcode": "37840"}}},
{"geometry": {"type": "Point", "coordinates": [-84.340334602, 36.0449072053]}, "type": "Feature", "properties": {"collection_times": [{"days": "Mon-Fri", "time": "4:30pm"}, {"days": "Sat", "time": "10:00am"}, {"days": "Sun", "time": "Closed"}], "id": "3784000001", "name": "USPS COLLECTION BOX - BLUE BOX", "address": {"city": "OLIVER SPRINGS", "state": "TN", "street": "200 W SPRING ST", "postcode": "37840"}}},
{"geometry": {"type": "Point", "coordinates": [-84.315085736, 36.024120875]}, "type": "Feature", "properties": {"collection_times": [{"days": "Mon-Sat", "time": "11:00am"}, {"days": "Sun", "time": "Closed"}], "id": "3784000003", "name": "USPS COLLECTION BOX - BLUE BOX", "address": {"city": "OLIVER SPRINGS", "state": "TN", "street": "1049 E TRI COUNTY BLVD", "postcode": "37840"}}},
{"geometry": {"type": "Point", "coordinates": [-84.5148560102, 36.5006568904]}, "type": "Feature", "properties": {"collection_times": [{"days": "Mon-Fri", "time": "4:30pm"}, {"days": "Sat", "time": "12:00pm"}, {"days": "Sun", "time": "Closed"}], "id": "3784100001", "name": "USPS COLLECTION BOX - BLUE BOX", "address": {"city": "ONEIDA", "state": "TN", "street": "108 S THOMPSON ST", "postcode": "37841"}}},
{"geometry": {"type": "Point", "coordinates": [-84.5148560102, 36.5006568904]}, "type": "Feature", "properties": {"collection_times": [{"days": "Mon-Fri", "time": "4:30pm"}, {"days": "Sat", "time": "12:00pm"}, {"days": "Sun", "time": "Closed"}], "id": "3784100002", "name": "USPS COLLECTION BOX - BLUE BOX", "address": {"city": "ONEIDA", "state": "TN", "street": "108 S THOMPSON ST", "postcode": "37841"}}},
{"geometry": {"type": "Point", "coordinates": [-84.5158063221, 36.5008892918]}, "type": "Feature", "properties": {"collection_times": [{"days": "Mon-Fri", "time": "4:30pm"}, {"days": "Sat", "time": "12:00pm"}, {"days": "Sun", "time": "Closed"}], "id": "3784100003", "name": "USPS COLLECTION BOX - PO LOBBY", "address": {"city": "ONEIDA", "state": "TN", "street": "103 E 2ND AVE", "postcode": "37841"}}},
{"geometry": {"type": "Point", "coordinates": [-84.5874522591, 36.5206841057]}, "type": "Feature", "properties": {"collection_times": [{"days": "Mon-Fri", "time": "10:00am"}, {"days": "Sat-Sun", "time": "Closed"}], "id": "3784100007", "name": "USPS COLLECTION BOX - BLUE BOX", "address": {"city": "ONEIDA", "state": "TN", "street": "24001 ALBERTA ST", "postcode": "37841"}}},
{"geometry": {"type": "Point", "coordinates": [-83.0911923112, 36.0089245542]}, "type": "Feature", "properties": {"collection_times": [{"days": "Mon-Fri", "time": "2:30pm"}, {"days": "Sat", "time": "9:45am"}, {"days": "Sun", "time": "Closed"}], "id": "3784300001", "name": "USPS COLLECTION BOX - BLUE BOX", "address": {"city": "PARROTTSVILLE", "state": "TN", "street": "2053 HIGHWAY 321", "postcode": "37843"}}},
{"geometry": {"type": "Point", "coordinates": [-83.0911923112, 36.0089245542]}, "type": "Feature", "properties": {"collection_times": [{"days": "Mon-Fri", "time": "2:30pm"}, {"days": "Sat", "time": "10:00am"}, {"days": "Sun", "time": "Closed"}], "id": "3784300002", "name": "USPS COLLECTION BOX - PO LOBBY", "address": {"city": "PARROTTSVILLE", "state": "TN", "street": "2053 HIGHWAY 321", "postcode": "37843"}}},
{"geometry": {"type": "Point", "coordinates": [-84.4418431071, 36.0957443579]}, "type": "Feature", "properties": {"collection_times": [{"days": "Mon-Fri", "time": "12:30pm"}, {"days": "Sat", "time": "11:00am"}, {"days": "Sun", "time": "Closed"}], "id": "3784500001", "name": "USPS COLLECTION BOX - PO LOBBY", "address": {"city": "PETROS", "state": "TN", "street": "208 MAIN ST", "postcode": "37845"}}},
{"geometry": {"type": "Point", "coordinates": [-84.4418431071, 36.0957443579]}, "type": "Feature", "properties": {"collection_times": [{"days": "Mon-Fri", "time": "12:30pm"}, {"days": "Sat", "time": "11:00am"}, {"days": "Sun", "time": "Closed"}], "id": "3784500002", "name": "USPS COLLECTION BOX - BLUE BOX", "address": {"city": "PETROS", "state": "TN", "street": "208 MAIN ST", "postcode": "37845"}}},
{"geometry": {"type": "Point", "coordinates": [-84.4021034219, 35.6765763696]}, "type": "Feature", "properties": {"collection_times": [{"days": "Mon-Fri", "time": "2:00pm"}, {"days": "Sat", "time": "9:45am"}, {"days": "Sun", "time": "Closed"}], "id": "3784600001", "name": "USPS COLLECTION BOX - BLUE BOX", "address": {"city": "PHILADELPHIA", "state": "TN", "street": "22730 W LEE HWY", "postcode": "37846"}}},
{"geometry": {"type": "Point", "coordinates": [-84.4021034219, 35.6765763696]}, "type": "Feature", "properties": {"collection_times": [{"days": "Mon-Fri", "time": "2:00pm"}, {"days": "Sat", "time": "10:00am"}, {"days": "Sun", "time": "Closed"}], "id": "3784600002", "name": "USPS COLLECTION BOX - PO LOBBY", "address": {"city": "PHILADELPHIA", "state": "TN", "street": "22730 W LEE HWY", "postcode": "37846"}}},
{"geometry": {"type": "Point", "coordinates": [-84.4021034219, 35.6765763696]}, "type": "Feature", "properties": {"collection_times": [{"days": "Mon-Fri", "time": "2:00pm"}, {"days": "Sat", "time": "10:00am"}, {"days": "Sun", "time": "Closed"}], "id": "3784600003", "name": "USPS COLLECTION BOX - PO LOBBY", "address": {"city": "PHILADELPHIA", "state": "TN", "street": "22730 W LEE HWY", "postcode": "37846"}}},
{"geometry": {"type": "Point", "coordinates": [-84.2652192684, 36.3944982869]}, "type": "Feature", "properties": {"collection_times": [{"days": "Mon-Fri", "time": "12:00pm"}, {"days": "Sat", "time": "9:45am"}, {"days": "Sun", "time": "Closed"}], "id": "3784700001", "name": "USPS COLLECTION BOX - BLUE BOX", "address": {"city": "PIONEER", "state": "TN", "street": "2444 HOWARD BAKER HWY", "postcode": "37847"}}},
{"geometry": {"type": "Point", "coordinates": [-84.2652192684, 36.3944982869]}, "type": "Feature", "properties": {"collection_times": [{"days": "Mon-Fri", "time": "12:00pm"}, {"days": "Sat", "time": "9:45am"}, {"days": "Sun", "time": "Closed"}], "id": "3784700002", "name": "USPS COLLECTION BOX - PO LOBBY", "address": {"city": "PIONEER", "state": "TN", "street": "2444 HOWARD BAKER HWY", "postcode": "37847"}}},
{"geometry": {"type": "Point", "coordinates": [-84.0491583365, 36.0243383764]}, "type": "Feature", "properties": {"collection_times": [{"days": "Mon-Fri", "time": "4:30pm"}, {"days": "Sat", "time": "1:30pm"}, {"days": "Sun", "time": "Closed"}], "id": "3784900000", "name": "USPS COLLECTION BOX - PO LOBBY", "address": {"city": "POWELL", "state": "TN", "street": "3239 SHROPSHIRE BLVD", "postcode": "37849"}}},
{"geometry": {"type": "Point", "coordinates": [-84.0491583365, 36.0243383764]}, "type": "Feature", "properties": {"collection_times": [{"days": "Mon-Fri", "time": "4:15pm"}, {"days": "Sat", "time": "1:30pm"}, {"days": "Sun", "time": "Closed"}], "id": "3784900001", "name": "USPS COLLECTION BOX - BLUE BOX", "address": {"city": "POWELL", "state": "TN", "street": "3239 SHROPSHIRE BLVD", "postcode": "37849"}}},
{"geometry": {"type": "Point", "coordinates": [-83.9994385193, 36.049203394]}, "type": "Feature", "properties": {"collection_times": [{"days": "Mon-Fri", "time": "10:00am"}, {"days": "Sat", "time": "9:30am"}, {"days": "Sun", "time": "Closed"}], "id": "3784900006", "name": "USPS COLLECTION BOX - BLUE BOX", "address": {"city": "POWELL", "state": "TN", "street": "430 E EMORY RD", "postcode": "37849"}}},
{"geometry": {"type": "Point", "coordinates": [-84.036081281, 36.0142791958]}, "type": "Feature", "properties": {"collection_times": [{"days": "Mon-Sat", "time": "9:00am"}, {"days": "Sun", "time": "Closed"}], "id": "3784900007", "name": "USPS COLLECTION BOX - BLUE BOX", "address": {"city": "POWELL", "state": "TN", "street": "7221 CLINTON HWY", "postcode": "37849"}}},
{"geometry": {"type": "Point", "coordinates": [-83.9994385193, 36.049203394]}, "type": "Feature", "properties": {"collection_times": [{"days": "Mon-Fri", "time": "10:00am"}, {"days": "Sat", "time": "9:30am"}, {"days": "Sun", "time": "Closed"}], "id": "3784900010", "name": "USPS COLLECTION BOX - BLUE BOX", "address": {"city": "POWELL", "state": "TN", "street": "430 E EMORY RD", "postcode": "37849"}}},
{"geometry": {"type": "Point", "coordinates": [-84.0491583365, 36.0243383764]}, "type": "Feature", "properties": {"collection_times": [{"days": "Mon-Fri", "time": "4:30pm"}, {"days": "Sat", "time": "1:30pm"}, {"days": "Sun", "time": "Closed"}], "id": "3784900011", "name": "USPS COLLECTION BOX - PO LOBBY", "address": {"city": "POWELL", "state": "TN", "street": "3239 SHROPSHIRE BLVD", "postcode": "37849"}}},
{"geometry": {"type": "Point", "coordinates": [-84.5888978922, 36.3565601153]}, "type": "Feature", "properties": {"collection_times": [{"days": "Mon-Fri", "time": "2:30pm"}, {"days": "Sat", "time": "10:15am"}, {"days": "Sun", "time": "Closed"}], "id": "3785200001", "name": "USPS COLLECTION BOX - BLUE BOX", "address": {"city": "ROBBINS", "state": "TN", "street": "5900 SCOTT HWY", "postcode": "37852"}}},
{"geometry": {"type": "Point", "coordinates": [-84.5888978922, 36.3565601153]}, "type": "Feature", "properties": {"collection_times": [{"days": "Mon-Fri", "time": "2:30pm"}, {"days": "Sat", "time": "10:15am"}, {"days": "Sun", "time": "Closed"}], "id": "3785200002", "name": "USPS COLLECTION BOX - PO LOBBY", "address": {"city": "ROBBINS", "state": "TN", "street": "5900 SCOTT HWY", "postcode": "37852"}}},
{"geometry": {"type": "Point", "coordinates": [-83.9442666074, 35.8345291947]}, "type": "Feature", "properties": {"collection_times": [{"days": "Mon-Fri", "time": "4:00pm"}, {"days": "Sat", "time": "9:30am"}, {"days": "Sun", "time": "Closed"}], "id": "3785300001", "name": "USPS COLLECTION BOX - BLUE BOX", "address": {"city": "ALCOA", "state": "TN", "street": "3902 LITTLE RIVER RD", "postcode": "37853"}}},
{"geometry": {"type": "Point", "coordinates": [-83.9442666074, 35.8345291947]}, "type": "Feature", "properties": {"collection_times": [{"days": "Mon-Fri", "time": "4:00pm"}, {"days": "Sat", "time": "9:30am"}, {"days": "Sun", "time": "Closed"}], "id": "3785300002", "name": "USPS COLLECTION BOX - PO LOBBY", "address": {"city": "ALCOA", "state": "TN", "street": "3902 LITTLE RIVER RD", "postcode": "37853"}}},
{"geometry": {"type": "Point", "coordinates": [-84.6884361664, 35.8696195483]}, "type": "Feature", "properties": {"collection_times": [{"days": "Mon-Fri", "time": "4:15pm"}, {"days": "Sat", "time": "3:30pm"}, {"days": "Sun", "time": "Closed"}], "id": "3785400004", "name": "USPS COLLECTION BOX - BLUE BOX", "address": {"city": "ROCKWOOD", "state": "TN", "street": "100 N WILDER AVE", "postcode": "37854"}}},
{"geometry": {"type": "Point", "coordinates": [-84.6879776652, 35.8689955558]}, "type": "Feature", "properties": {"collection_times": [{"days": "Mon-Fri", "time": "4:15pm"}, {"days": "Sat", "time": "3:30pm"}, {"days": "Sun", "time": "Closed"}], "id": "3785400006", "name": "USPS COLLECTION BOX - BLUE BOX", "address": {"city": "ROCKWOOD", "state": "TN", "street": "340 W ROCKWOOD ST", "postcode": "37854"}}},
{"geometry": {"type": "Point", "coordinates": [-84.6879776652, 35.8689955558]}, "type": "Feature", "properties": {"collection_times": [{"days": "Mon-Fri", "time": "4:15pm"}, {"days": "Sat", "time": "3:30pm"}, {"days": "Sun", "time": "Closed"}], "id": "3785400008", "name": "USPS COLLECTION BOX - PO LOBBY", "address": {"city": "ROCKWOOD", "state": "TN", "street": "340 W ROCKWOOD ST", "postcode": "37854"}}},
{"geometry": {"type": "Point", "coordinates": [-84.6879776652, 35.8689955558]}, "type": "Feature", "properties": {"collection_times": [{"days": "Mon-Fri", "time": "4:15pm"}, {"days": "Sat", "time": "3:30pm"}, {"days": "Sun", "time": "Closed"}], "id": "3785400009", "name": "USPS COLLECTION BOX - PO LOBBY", "address": {"city": "ROCKWOOD", "state": "TN", "street": "340 W ROCKWOOD ST", "postcode": "37854"}}},
{"geometry": {"type": "Point", "coordinates": [-83.0061927514, 36.4060062768]}, "type": "Feature", "properties": {"collection_times": [{"days": "Mon-Fri", "time": "3:00pm"}, {"days": "Sat", "time": "9:30am"}, {"days": "Sun", "time": "Closed"}], "id": "3785700001", "name": "USPS COLLECTION BOX - BLUE BOX", "address": {"city": "ROGERSVILLE", "state": "TN", "street": "100 E WASHINGTON ST", "postcode": "37857"}}},
{"geometry": {"type": "Point", "coordinates": [-83.0123480962, 36.3956231932]}, "type": "Feature", "properties": {"collection_times": [{"days": "Mon-Fri", "time": "3:00pm"}, {"days": "Sat", "time": "9:30am"}, {"days": "Sun", "time": "Closed"}], "id": "3785700003", "name": "USPS COLLECTION BOX - BLUE BOX", "address": {"city": "ROGERSVILLE", "state": "TN", "street": "4017 HIGHWAY 66 S", "postcode": "37857"}}},
{"geometry": {"type": "Point", "coordinates": [-83.0063637861, 36.405958017]}, "type": "Feature", "properties": {"collection_times": [{"days": "Mon-Fri", "time": "3:00pm"}, {"days": "Sat", "time": "9:30am"}, {"days": "Sun", "time": "Closed"}], "id": "3785700005", "name": "USPS COLLECTION BOX - BLUE BOX", "address": {"city": "ROGERSVILLE", "state": "TN", "street": "111 W WASHINGTON ST", "postcode": "37857"}}},
{"geometry": {"type": "Point", "coordinates": [-83.0049676152, 36.4074563318]}, "type": "Feature", "properties": {"collection_times": [{"days": "Mon-Fri", "time": "3:00pm"}, {"days": "Sat", "time": "9:30am"}, {"days": "Sun", "time": "Closed"}], "id": "3785700007", "name": "USPS COLLECTION BOX - BLUE BOX", "address": {"city": "ROGERSVILLE", "state": "TN", "street": "210 E MAIN ST", "postcode": "37857"}}},
{"geometry": {"type": "Point", "coordinates": [-83.0083248527, 36.4064910373]}, "type": "Feature", "properties": {"collection_times": [{"days": "Mon-Fri", "time": "4:45pm"}, {"days": "Sat", "time": "11:00am"}, {"days": "Sun", "time": "Closed"}], "id": "3785700011", "name": "USPS COLLECTION BOX - BLUE BOX", "address": {"city": "ROGERSVILLE", "state": "TN", "street": "203 W MAIN ST", "postcode": "37857"}}},
{"geometry": {"type": "Point", "coordinates": [-83.0149708031, 36.403053193]}, "type": "Feature", "properties": {"collection_times": [{"days": "Mon-Fri", "time": "3:00pm"}, {"days": "Sat", "time": "9:30am"}, {"days": "Sun", "time": "Closed"}], "id": "3785700023", "name": "USPS COLLECTION BOX - BLUE BOX", "address": {"city": "ROGERSVILLE", "state": "TN", "street": "809 W MAIN ST", "postcode": "37857"}}},
{"geometry": {"type": "Point", "coordinates": [-83.0083248527, 36.4064910373]}, "type": "Feature", "properties": {"collection_times": [{"days": "Mon-Fri", "time": "4:45pm"}, {"days": "Sat", "time": "11:00am"}, {"days": "Sun", "time": "Closed"}], "id": "3785700024", "name": "USPS COLLECTION BOX - PO LOBBY", "address": {"city": "ROGERSVILLE", "state": "TN", "street": "203 W MAIN ST", "postcode": "37857"}}},
{"geometry": {"type": "Point", "coordinates": [-83.0357072148, 36.3917370107]}, "type": "Feature", "properties": {"collection_times": [{"days": "Mon-Sat", "time": "9:30am"}, {"days": "Sun", "time": "Closed"}], "id": "3785700025", "name": "USPS COLLECTION BOX - BLUE BOX", "address": {"city": "ROGERSVILLE", "state": "TN", "street": "7142 HIGHWAY 11W", "postcode": "37857"}}},
{"geometry": {"type": "Point", "coordinates": [-83.0357072148, 36.3917370107]}, "type": "Feature", "properties": {"collection_times": [{"days": "Mon-Sat", "time": "9:30am"}, {"days": "Sun", "time": "Closed"}], "id": "3785700026", "name": "USPS COLLECTION BOX - BLUE BOX", "address": {"city": "ROGERSVILLE", "state": "TN", "street": "1287 E MAIN ST", "postcode": "37857"}}},
{"geometry": {"type": "Point", "coordinates": [-83.2046037701, 36.2531866532]}, "type": "Feature", "properties": {"collection_times": [{"days": "Mon-Fri", "time": "4:15pm"}, {"days": "Sat", "time": "10:30am"}, {"days": "Sun", "time": "Closed"}], "id": "3786000001", "name": "USPS COLLECTION BOX - BLUE BOX", "address": {"city": "RUSSELLVILLE", "state": "TN", "street": "5645 E ANDREW JOHNSON HWY", "postcode": "37860"}}},
{"geometry": {"type": "Point", "coordinates": [-83.2046037701, 36.2531866532]}, "type": "Feature", "properties": {"collection_times": [{"days": "Mon-Fri", "time": "4:30pm"}, {"days": "Sat", "time": "10:30am"}, {"days": "Sun", "time": "Closed"}], "id": "3786000002", "name": "USPS COLLECTION BOX - PO LOBBY", "address": {"city": "RUSSELLVILLE", "state": "TN", "street": "5645 E ANDREW JOHNSON HWY", "postcode": "37860"}}},
{"geometry": {"type": "Point", "coordinates": [-83.5224640178, 36.2796513619]}, "type": "Feature", "properties": {"collection_times": [{"days": "Mon-Fri", "time": "4:25pm"}, {"days": "Sat", "time": "10:00am"}, {"days": "Sun", "time": "Closed"}], "id": "3786100001", "name": "USPS COLLECTION BOX - PO LOBBY", "address": {"city": "RUTLEDGE", "state": "TN", "street": "7841 RUTLEDGE PIKE", "postcode": "37861"}}},
{"geometry": {"type": "Point", "coordinates": [-83.5224640178, 36.2796513619]}, "type": "Feature", "properties": {"collection_times": [{"days": "Mon-Fri", "time": "4:15pm"}, {"days": "Sat", "time": "10:00am"}, {"days": "Sun", "time": "Closed"}], "id": "3786100002", "name": "USPS COLLECTION BOX - BLUE BOX", "address": {"city": "RUTLEDGE", "state": "TN", "street": "7841 RUTLEDGE PIKE", "postcode": "37861"}}},
{"geometry": {"type": "Point", "coordinates": [-83.5011168248, 36.1758330239]}, "type": "Feature", "properties": {"collection_times": [{"days": "Mon-Fri", "time": "10:00am"}, {"days": "Sat-Sun", "time": "Closed"}], "id": "3786100003", "name": "USPS COLLECTION BOX - BLUE BOX", "address": {"city": "RUTLEDGE", "state": "TN", "street": "6680 HIGHWAY 92", "postcode": "37861"}}},
{"geometry": {"type": "Point", "coordinates": [-83.5655825153, 35.8672510227]}, "type": "Feature", "properties": {"collection_times": [{"days": "Mon-Fri", "time": "11:00am"}, {"days": "Sat", "time": "9:00am"}, {"days": "Sun", "time": "Closed"}], "id": "3786200000", "name": "USPS COLLECTION BOX - BLUE BOX", "address": {"city": "SEVIERVILLE", "state": "TN", "street": "101 BRUCE ST", "postcode": "37862"}}},
{"geometry": {"type": "Point", "coordinates": [-83.5511255738, 35.8656232711]}, "type": "Feature", "properties": {"collection_times": [{"days": "Mon-Fri", "time": "4:00pm"}, {"days": "Sat", "time": "2:00pm"}, {"days": "Sun", "time": "Closed"}], "id": "3786200001", "name": "USPS COLLECTION BOX - BLUE BOX", "address": {"city": "SEVIERVILLE", "state": "TN", "street": "711 DOLLY PARTON PKWY", "postcode": "37862"}}},
{"geometry": {"type": "Point", "coordinates": [-83.5477161466, 35.8647778018]}, "type": "Feature", "properties": {"collection_times": [{"days": "Mon-Fri", "time": "3:00pm"}, {"days": "Sat", "time": "2:00pm"}, {"days": "Sun", "time": "Closed"}], "id": "3786200004", "name": "USPS COLLECTION BOX - BLUE BOX", "address": {"city": "SEVIERVILLE", "state": "TN", "street": "801 DOLLY PARTON PKWY", "postcode": "37862"}}},
{"geometry": {"type": "Point", "coordinates": [-83.5678161753, 35.8672069217]}, "type": "Feature", "properties": {"collection_times": [{"days": "Mon-Sat", "time": "10:00am"}, {"days": "Sun", "time": "Closed"}], "id": "3786200005", "name": "USPS COLLECTION BOX - BLUE BOX", "address": {"city": "SEVIERVILLE", "state": "TN", "street": "219 FORKS OF THE RIVER PKWY", "postcode": "37862"}}},
{"geometry": {"type": "Point", "coordinates": [-83.5721718, 35.8705908133]}, "type": "Feature", "properties": {"collection_times": [{"days": "Mon-Fri", "time": "1:00pm"}, {"days": "Sat", "time": "12:00pm"}, {"days": "Sun", "time": "Closed"}], "id": "3786200008", "name": "USPS COLLECTION BOX - BLUE BOX", "address": {"city": "SEVIERVILLE", "state": "TN", "street": "328 W MAIN ST", "postcode": "37862"}}},
{"geometry": {"type": "Point", "coordinates": [-83.5728494478, 35.832713521]}, "type": "Feature", "properties": {"collection_times": [{"days": "Mon-Sat", "time": "9:45am"}, {"days": "Sun", "time": "Closed"}], "id": "3786200010", "name": "USPS COLLECTION BOX - BLUE BOX", "address": {"city": "SEVIERVILLE", "state": "TN", "street": "1645 PARKWAY", "postcode": "37862"}}},
{"geometry": {"type": "Point", "coordinates": [-83.5637974303, 35.8637849529]}, "type": "Feature", "properties": {"collection_times": [{"days": "Mon-Fri", "time": "11:00am"}, {"days": "Sat", "time": "10:00am"}, {"days": "Sun", "time": "Closed"}], "id": "3786200011", "name": "USPS COLLECTION BOX - BLUE BOX", "address": {"city": "SEVIERVILLE", "state": "TN", "street": "400 PARK RD", "postcode": "37862"}}},
{"geometry": {"type": "Point", "coordinates": [-83.5511255738, 35.8656232711]}, "type": "Feature", "properties": {"collection_times": [{"days": "Mon-Fri", "time": "4:00pm"}, {"days": "Sat", "time": "2:00pm"}, {"days": "Sun", "time": "Closed"}], "id": "3786200014", "name": "USPS COLLECTION BOX - PO LOBBY", "address": {"city": "SEVIERVILLE", "state": "TN", "street": "711 DOLLY PARTON PKWY", "postcode": "37862"}}},
{"geometry": {"type": "Point", "coordinates": [-83.5655825153, 35.8672510227]}, "type": "Feature", "properties": {"collection_times": [{"days": "Mon-Fri", "time": "11:00am"}, {"days": "Sat", "time": "9:00am"}, {"days": "Sun", "time": "Closed"}], "id": "3786200015", "name": "USPS COLLECTION BOX - BLUE BOX", "address": {"city": "SEVIERVILLE", "state": "TN", "street": "101 BRUCE ST", "postcode": "37862"}}},
{"geometry": {"type": "Point", "coordinates": [-83.5623494544, 35.8382772338]}, "type": "Feature", "properties": {"collection_times": [{"days": "Mon-Sat", "time": "10:00am"}, {"days": "Sun", "time": "Closed"}], "id": "3786200016", "name": "USPS COLLECTION BOX - BLUE BOX", "address": {"city": "SEVIERVILLE", "state": "TN", "street": "212 COLLIER DR", "postcode": "37862"}}},
{"geometry": {"type": "Point", "coordinates": [-83.5710990336, 35.8397637716]}, "type": "Feature", "properties": {"collection_times": [{"days": "Mon-Sat", "time": "9:30am"}, {"days": "Sun", "time": "Closed"}], "id": "3786200018", "name": "USPS COLLECTION BOX - BLUE BOX", "address": {"city": "SEVIERVILLE", "state": "TN", "street": "1414 PARKWAY", "postcode": "37862"}}},
{"geometry": {"type": "Point", "coordinates": [-83.5479393332, 35.7861342723]}, "type": "Feature", "properties": {"collection_times": [{"days": "Mon-Sat", "time": "12:00pm"}, {"days": "Sun", "time": "Closed"}], "id": "3786300003", "name": "USPS COLLECTION BOX - BLUE BOX", "address": {"city": "PIGEON FORGE", "state": "TN", "street": "2910 MIDDLE CREEK RD", "postcode": "37863"}}},
{"geometry": {"type": "Point", "coordinates": [-83.5518464743, 35.784236889]}, "type": "Feature", "properties": {"collection_times": [{"days": "Mon-Sat", "time": "11:30am"}, {"days": "Sun", "time": "Closed"}], "id": "3786300004", "name": "USPS COLLECTION BOX - BLUE BOX", "address": {"city": "PIGEON FORGE", "state": "TN", "street": "3601 PARKWAY", "postcode": "37863"}}},
{"geometry": {"type": "Point", "coordinates": [-83.5500412891, 35.7822503585]}, "type": "Feature", "properties": {"collection_times": [{"days": "Mon-Sat", "time": "10:30am"}, {"days": "Sun", "time": "Closed"}], "id": "3786300005", "name": "USPS COLLECTION BOX - BLUE BOX", "address": {"city": "PIGEON FORGE", "state": "TN", "street": "3685 PARKWAY", "postcode": "37863"}}},
{"geometry": {"type": "Point", "coordinates": [-83.554603317, 35.7944783199]}, "type": "Feature", "properties": {"collection_times": [{"days": "Mon-Sat", "time": "9:00am"}, {"days": "Sun", "time": "Closed"}], "id": "3786300006", "name": "USPS COLLECTION BOX - BLUE BOX", "address": {"city": "PIGEON FORGE", "state": "TN", "street": "2701 TEASTER LN", "postcode": "37863"}}},
{"geometry": {"type": "Point", "coordinates": [-83.5817996998, 35.8032777848]}, "type": "Feature", "properties": {"collection_times": [{"days": "Mon-Sat", "time": "11:30am"}, {"days": "Sun", "time": "Closed"}], "id": "3786300012", "name": "USPS COLLECTION BOX - BLUE BOX", "address": {"city": "PIGEON FORGE", "state": "TN", "street": "220 WEARS VALLEY RD", "postcode": "37863"}}},
{"geometry": {"type": "Point", "coordinates": [-83.5781379928, 35.809617742]}, "type": "Feature", "properties": {"collection_times": [{"days": "Mon-Sat", "time": "11:00am"}, {"days": "Sun", "time": "Closed"}], "id": "3786300013", "name": "USPS COLLECTION BOX - BLUE BOX", "address": {"city": "PIGEON FORGE", "state": "TN", "street": "2470 PARKWAY", "postcode": "37863"}}},
{"geometry": {"type": "Point", "coordinates": [-83.5612904572, 35.7879889654]}, "type": "Feature", "properties": {"collection_times": [{"days": "Mon-Fri", "time": "3:45pm"}, {"days": "Sat", "time": "12:00pm"}, {"days": "Sun", "time": "Closed"}], "id": "3786300015", "name": "USPS COLLECTION BOX - BLUE BOX", "address": {"city": "PIGEON FORGE", "state": "TN", "street": "3235 RENA ST", "postcode": "37863"}}},
{"geometry": {"type": "Point", "coordinates": [-83.5612904572, 35.7879889654]}, "type": "Feature", "properties": {"collection_times": [{"days": "Mon-Fri", "time": "4:00pm"}, {"days": "Sat", "time": "12:00pm"}, {"days": "Sun", "time": "Closed"}], "id": "3786300016", "name": "USPS COLLECTION BOX - PO LOBBY", "address": {"city": "PIGEON FORGE", "state": "TN", "street": "3235 RENA ST", "postcode": "37863"}}},
{"geometry": {"type": "Point", "coordinates": [-83.7782217552, 35.8798483527]}, "type": "Feature", "properties": {"collection_times": [{"days": "Mon-Fri", "time": "5:00pm"}, {"days": "Sat", "time": "12:15pm"}, {"days": "Sun", "time": "Closed"}], "id": "3786500000", "name": "USPS COLLECTION BOX - BLUE BOX", "address": {"city": "SEYMOUR", "state": "TN", "street": "10615 CHAPMAN HWY", "postcode": "37865"}}},
{"geometry": {"type": "Point", "coordinates": [-83.7782217552, 35.8798483527]}, "type": "Feature", "properties": {"collection_times": [{"days": "Mon-Fri", "time": "5:00pm"}, {"days": "Sat", "time": "12:15pm"}, {"days": "Sun", "time": "Closed"}], "id": "3786500001", "name": "USPS COLLECTION BOX - PO LOBBY", "address": {"city": "SEYMOUR", "state": "TN", "street": "10615 CHAPMAN HWY", "postcode": "37865"}}},
{"geometry": {"type": "Point", "coordinates": [-83.7782217552, 35.8798483527]}, "type": "Feature", "properties": {"collection_times": [{"days": "Mon-Fri", "time": "5:00pm"}, {"days": "Sat", "time": "12:15pm"}, {"days": "Sun", "time": "Closed"}], "id": "3786500004", "name": "USPS COLLECTION BOX - PO LOBBY", "address": {"city": "SEYMOUR", "state": "TN", "street": "10615 CHAPMAN HWY", "postcode": "37865"}}},
{"geometry": {"type": "Point", "coordinates": [-83.8053529191, 36.3450919181]}, "type": "Feature", "properties": {"collection_times": [{"days": "Mon-Fri", "time": "2:30pm"}, {"days": "Sat", "time": "9:45am"}, {"days": "Sun", "time": "Closed"}], "id": "3786600001", "name": "USPS COLLECTION BOX - BLUE BOX", "address": {"city": "SHARPS CHAPEL", "state": "TN", "street": "111 DR DAVIS RD", "postcode": "37866"}}},
{"geometry": {"type": "Point", "coordinates": [-83.8053529191, 36.3450919181]}, "type": "Feature", "properties": {"collection_times": [{"days": "Mon-Fri", "time": "2:30pm"}, {"days": "Sat", "time": "9:45am"}, {"days": "Sun", "time": "Closed"}], "id": "3786600002", "name": "USPS COLLECTION BOX - PO LOBBY", "address": {"city": "SHARPS CHAPEL", "state": "TN", "street": "111 DR DAVIS RD", "postcode": "37866"}}},
{"geometry": {"type": "Point", "coordinates": [-83.2764271512, 36.5253130233]}, "type": "Feature", "properties": {"collection_times": [{"days": "Mon-Fri", "time": "3:45pm"}, {"days": "Sat", "time": "9:45am"}, {"days": "Sun", "time": "Closed"}], "id": "3786900001", "name": "USPS COLLECTION BOX - BLUE BOX", "address": {"city": "SNEEDVILLE", "state": "TN", "street": "1314 MAIN ST", "postcode": "37869"}}},
{"geometry": {"type": "Point", "coordinates": [-83.2764271512, 36.5253130233]}, "type": "Feature", "properties": {"collection_times": [{"days": "Mon-Fri", "time": "3:45pm"}, {"days": "Sat", "time": "9:45am"}, {"days": "Sun", "time": "Closed"}], "id": "3786900002", "name": "USPS COLLECTION BOX - PO LOBBY", "address": {"city": "SNEEDVILLE", "state": "TN", "street": "1314 MAIN ST", "postcode": "37869"}}},
{"geometry": {"type": "Point", "coordinates": [-83.8781209884, 36.459283691]}, "type": "Feature", "properties": {"collection_times": [{"days": "Mon-Fri", "time": "4:00pm"}, {"days": "Sat", "time": "11:15am"}, {"days": "Sun", "time": "Closed"}], "id": "3787000002", "name": "USPS COLLECTION BOX - PO LOBBY", "address": {"city": "SPEEDWELL", "state": "TN", "street": "7669 HIGHWAY 63", "postcode": "37870"}}},
{"geometry": {"type": "Point", "coordinates": [-83.6697796227, 36.0672063248]}, "type": "Feature", "properties": {"collection_times": [{"days": "Mon-Fri", "time": "3:45pm"}, {"days": "Sat", "time": "11:45am"}, {"days": "Sun", "time": "Closed"}], "id": "3787100001", "name": "USPS COLLECTION BOX - BLUE BOX", "address": {"city": "STRAWBERRY PLAIN", "state": "TN", "street": "2704 W HWY 11 E", "postcode": "37871"}}},
{"geometry": {"type": "Point", "coordinates": [-83.6697796227, 36.0672063248]}, "type": "Feature", "properties": {"collection_times": [{"days": "Mon-Fri", "time": "4:00pm"}, {"days": "Sat", "time": "11:45am"}, {"days": "Sun", "time": "Closed"}], "id": "3787100004", "name": "USPS COLLECTION BOX - PO LOBBY", "address": {"city": "STRAWBERRY PLAIN", "state": "TN", "street": "2704 W HWY 11 E", "postcode": "37871"}}},
{"geometry": {"type": "Point", "coordinates": [-84.6706815237, 36.2449301675]}, "type": "Feature", "properties": {"collection_times": [{"days": "Mon-Fri", "time": "2:30pm"}, {"days": "Sat", "time": "9:45am"}, {"days": "Sun", "time": "Closed"}], "id": "3787200001", "name": "USPS COLLECTION BOX - BLUE BOX", "address": {"city": "SUNBRIGHT", "state": "TN", "street": "8129 MORGAN CO HWY", "postcode": "37872"}}},
{"geometry": {"type": "Point", "coordinates": [-84.6706815237, 36.2449301675]}, "type": "Feature", "properties": {"collection_times": [{"days": "Mon-Fri", "time": "2:30pm"}, {"days": "Sat", "time": "9:45am"}, {"days": "Sun", "time": "Closed"}], "id": "3787200002", "name": "USPS COLLECTION BOX - PO LOBBY", "address": {"city": "SUNBRIGHT", "state": "TN", "street": "8129 MORGAN CO HWY", "postcode": "37872"}}},
{"geometry": {"type": "Point", "coordinates": [-82.8528063538, 36.4685958195]}, "type": "Feature", "properties": {"collection_times": [{"days": "Mon-Fri", "time": "4:00pm"}, {"days": "Sat", "time": "10:00am"}, {"days": "Sun", "time": "Closed"}], "id": "3787300001", "name": "USPS COLLECTION BOX - PO LOBBY", "address": {"city": "SURGOINSVILLE", "state": "TN", "street": "111 BELLAMY AVE", "postcode": "37873"}}},
{"geometry": {"type": "Point", "coordinates": [-82.8528063538, 36.4685958195]}, "type": "Feature", "properties": {"collection_times": [{"days": "Mon-Fri", "time": "4:00pm"}, {"days": "Sat", "time": "10:00am"}, {"days": "Sun", "time": "Closed"}], "id": "3787300002", "name": "USPS COLLECTION BOX - BLUE BOX", "address": {"city": "SURGOINSVILLE", "state": "TN", "street": "111 BELLAMY AVE", "postcode": "37873"}}},
{"geometry": {"type": "Point", "coordinates": [-84.4609144717, 35.6014945593]}, "type": "Feature", "properties": {"collection_times": [{"days": "Mon-Fri", "time": "4:15pm"}, {"days": "Sat", "time": "12:00pm"}, {"days": "Sun", "time": "Closed"}], "id": "3787400004", "name": "USPS COLLECTION BOX - BLUE BOX", "address": {"city": "SWEETWATER", "state": "TN", "street": "701 N MAIN ST", "postcode": "37874"}}},
{"geometry": {"type": "Point", "coordinates": [-84.4643769926, 35.5995379452]}, "type": "Feature", "properties": {"collection_times": [{"days": "Mon-Sat", "time": "12:00pm"}, {"days": "Sun", "time": "Closed"}], "id": "3787400011", "name": "USPS COLLECTION BOX - BLUE BOX", "address": {"city": "SWEETWATER", "state": "TN", "street": "203 MONROE ST", "postcode": "37874"}}},
{"geometry": {"type": "Point", "coordinates": [-84.4609144717, 35.6014945593]}, "type": "Feature", "properties": {"collection_times": [{"days": "Mon-Fri", "time": "4:30pm"}, {"days": "Sat", "time": "12:00pm"}, {"days": "Sun", "time": "Closed"}], "id": "3787400021", "name": "USPS COLLECTION BOX - PO LOBBY", "address": {"city": "SWEETWATER", "state": "TN", "street": "701 N MAIN ST", "postcode": "37874"}}},
{"geometry": {"type": "Point", "coordinates": [-84.4681549664, 35.5929856598]}, "type": "Feature", "properties": {"collection_times": [{"days": "Mon-Sat", "time": "8:00am"}, {"days": "Sun", "time": "Closed"}], "id": "3787400023", "name": "USPS COLLECTION BOX - BLUE BOX", "address": {"city": "SWEETWATER", "state": "TN", "street": "520 S MAIN ST", "postcode": "37874"}}},
{"geometry": {"type": "Point", "coordinates": [-83.4174547597, 36.160739593]}, "type": "Feature", "properties": {"collection_times": [{"days": "Mon-Fri", "time": "3:15pm"}, {"days": "Sat", "time": "10:30am"}, {"days": "Sun", "time": "Closed"}], "id": "3787700002", "name": "USPS COLLECTION BOX - BLUE BOX", "address": {"city": "TALBOTT", "state": "TN", "street": "7225 W ANDREW JOHNSON HWY", "postcode": "37877"}}},
{"geometry": {"type": "Point", "coordinates": [-83.4174547597, 36.160739593]}, "type": "Feature", "properties": {"collection_times": [{"days": "Mon-Fri", "time": "3:15pm"}, {"days": "Sat", "time": "10:30am"}, {"days": "Sun", "time": "Closed"}], "id": "3787700004", "name": "USPS COLLECTION BOX - PO LOBBY", "address": {"city": "TALBOTT", "state": "TN", "street": "7225 W ANDREW JOHNSON HWY", "postcode": "37877"}}},
{"geometry": {"type": "Point", "coordinates": [-83.4174547597, 36.160739593]}, "type": "Feature", "properties": {"collection_times": [{"days": "Mon-Fri", "time": "3:15pm"}, {"days": "Sat", "time": "10:30am"}, {"days": "Sun", "time": "Closed"}], "id": "3787700005", "name": "USPS COLLECTION BOX - PO LOBBY", "address": {"city": "TALBOTT", "state": "TN", "street": "7225 W ANDREW JOHNSON HWY", "postcode": "37877"}}},
{"geometry": {"type": "Point", "coordinates": [-83.5697240547, 36.4528405525]}, "type": "Feature", "properties": {"collection_times": [{"days": "Mon-Fri", "time": "4:00pm"}, {"days": "Sat-Sun", "time": "Closed"}], "id": "3787900001", "name": "USPS COLLECTION BOX - PO LOBBY", "address": {"city": "TAZEWELL", "state": "TN", "street": "1710 MAIN ST", "postcode": "37879"}}},
{"geometry": {"type": "Point", "coordinates": [-83.5697240547, 36.4528405525]}, "type": "Feature", "properties": {"collection_times": [{"days": "Mon-Fri", "time": "4:00pm"}, {"days": "Sat-Sun", "time": "Closed"}], "id": "3787900002", "name": "USPS COLLECTION BOX - BLUE BOX", "address": {"city": "TAZEWELL", "state": "TN", "street": "1710 MAIN ST", "postcode": "37879"}}},
{"geometry": {"type": "Point", "coordinates": [-84.7354579542, 35.6600143564]}, "type": "Feature", "properties": {"collection_times": [{"days": "Mon-Fri", "time": "3:00pm"}, {"days": "Sat", "time": "8:30am"}, {"days": "Sun", "time": "Closed"}], "id": "3788000001", "name": "USPS COLLECTION BOX - BLUE BOX", "address": {"city": "TEN MILE", "state": "TN", "street": "2640 STATE HIGHWAY 304", "postcode": "37880"}}},
{"geometry": {"type": "Point", "coordinates": [-84.7354579542, 35.6600143564]}, "type": "Feature", "properties": {"collection_times": [{"days": "Mon-Fri", "time": "3:00pm"}, {"days": "Sat", "time": "8:30am"}, {"days": "Sun", "time": "Closed"}], "id": "3788000002", "name": "USPS COLLECTION BOX - PO LOBBY", "address": {"city": "TEN MILE", "state": "TN", "street": "2640 STATE HIGHWAY 304", "postcode": "37880"}}},
{"geometry": {"type": "Point", "coordinates": [-83.4143717896, 36.3599306622]}, "type": "Feature", "properties": {"collection_times": [{"days": "Mon-Fri", "time": "11:00am"}, {"days": "Sat", "time": "9:45am"}, {"days": "Sun", "time": "Closed"}], "id": "3788100001", "name": "USPS COLLECTION BOX - BLUE BOX", "address": {"city": "THORN HILL", "state": "TN", "street": "108 OLD MOUNTAIN RD", "postcode": "37881"}}},
{"geometry": {"type": "Point", "coordinates": [-83.4143717896, 36.3599306622]}, "type": "Feature", "properties": {"collection_times": [{"days": "Mon-Fri", "time": "11:00am"}, {"days": "Sat", "time": "10:00am"}, {"days": "Sun", "time": "Closed"}], "id": "3788100002", "name": "USPS COLLECTION BOX - PO LOBBY", "address": {"city": "THORN HILL", "state": "TN", "street": "108 OLD MOUNTAIN RD", "postcode": "37881"}}},
{"geometry": {"type": "Point", "coordinates": [-83.7404829983, 35.6800986337]}, "type": "Feature", "properties": {"collection_times": [{"days": "Mon-Fri", "time": "4:00pm"}, {"days": "Sat", "time": "11:00am"}, {"days": "Sun", "time": "Closed"}], "id": "3788200001", "name": "USPS COLLECTION BOX - PO LOBBY", "address": {"city": "TOWNSEND", "state": "TN", "street": "118 TOWN SQUARE DR", "postcode": "37882"}}},
{"geometry": {"type": "Point", "coordinates": [-83.7404829983, 35.6800986337]}, "type": "Feature", "properties": {"collection_times": [{"days": "Mon-Fri", "time": "4:00pm"}, {"days": "Sat", "time": "11:00am"}, {"days": "Sun", "time": "Closed"}], "id": "3788200002", "name": "USPS COLLECTION BOX - BLUE BOX", "address": {"city": "TOWNSEND", "state": "TN", "street": "118 TOWN SQUARE DR", "postcode": "37882"}}},
{"geometry": {"type": "Point", "coordinates": [-84.2378753121, 35.5896802012]}, "type": "Feature", "properties": {"collection_times": [{"days": "Mon-Fri", "time": "4:00pm"}, {"days": "Sat", "time": "11:00am"}, {"days": "Sun", "time": "Closed"}], "id": "3788500001", "name": "USPS COLLECTION BOX - BLUE BOX", "address": {"city": "VONORE", "state": "TN", "street": "1117 HIGHWAY 411", "postcode": "37885"}}},
{"geometry": {"type": "Point", "coordinates": [-84.2378753121, 35.5896802012]}, "type": "Feature", "properties": {"collection_times": [{"days": "Mon-Fri", "time": "4:00pm"}, {"days": "Sat", "time": "11:00am"}, {"days": "Sun", "time": "Closed"}], "id": "3788500002", "name": "USPS COLLECTION BOX - PO LOBBY", "address": {"city": "VONORE", "state": "TN", "street": "1117 HIGHWAY 411", "postcode": "37885"}}},
{"geometry": {"type": "Point", "coordinates": [-84.2378753121, 35.5896802012]}, "type": "Feature", "properties": {"collection_times": [{"days": "Mon-Fri", "time": "4:00pm"}, {"days": "Sat", "time": "11:00am"}, {"days": "Sun", "time": "Closed"}], "id": "3788500003", "name": "USPS COLLECTION BOX - PO LOBBY", "address": {"city": "VONORE", "state": "TN", "street": "1117 HIGHWAY 411", "postcode": "37885"}}},
{"geometry": {"type": "Point", "coordinates": [-83.8167096836, 35.730323168]}, "type": "Feature", "properties": {"collection_times": [{"days": "Mon-Fri", "time": "4:00pm"}, {"days": "Sat", "time": "10:00am"}, {"days": "Sun", "time": "Closed"}], "id": "3788600001", "name": "USPS COLLECTION BOX - PO LOBBY", "address": {"city": "WALLAND", "state": "TN", "street": "5319 E LAMAR ALEXANDER PKWY", "postcode": "37886"}}},
{"geometry": {"type": "Point", "coordinates": [-83.8167096836, 35.730323168]}, "type": "Feature", "properties": {"collection_times": [{"days": "Mon-Fri", "time": "4:00pm"}, {"days": "Sat", "time": "10:00am"}, {"days": "Sun", "time": "Closed"}], "id": "3788600002", "name": "USPS COLLECTION BOX - BLUE BOX", "address": {"city": "WALLAND", "state": "TN", "street": "5319 E LAMAR ALEXANDER PKWY", "postcode": "37886"}}},
{"geometry": {"type": "Point", "coordinates": [-84.5982556979, 36.1051059592]}, "type": "Feature", "properties": {"collection_times": [{"days": "Mon-Fri", "time": "4:30pm"}, {"days": "Sat", "time": "10:00am"}, {"days": "Sun", "time": "Closed"}], "id": "3788700001", "name": "USPS COLLECTION BOX - PO LOBBY", "address": {"city": "WARTBURG", "state": "TN", "street": "110 N MAIDEN ST", "postcode": "37887"}}},
{"geometry": {"type": "Point", "coordinates": [-84.5982556979, 36.1051059592]}, "type": "Feature", "properties": {"collection_times": [{"days": "Mon-Fri", "time": "4:15pm"}, {"days": "Sat", "time": "9:45am"}, {"days": "Sun", "time": "Closed"}], "id": "3788700002", "name": "USPS COLLECTION BOX - BLUE BOX", "address": {"city": "WARTBURG", "state": "TN", "street": "110 N MAIDEN ST", "postcode": "37887"}}},
{"geometry": {"type": "Point", "coordinates": [-84.5982556979, 36.1051059592]}, "type": "Feature", "properties": {"collection_times": [{"days": "Mon-Fri", "time": "4:15pm"}, {"days": "Sat", "time": "9:45am"}, {"days": "Sun", "time": "Closed"}], "id": "3788700003", "name": "USPS COLLECTION BOX - BLUE BOX", "address": {"city": "WARTBURG", "state": "TN", "street": "110 N MAIDEN ST", "postcode": "37887"}}},
{"geometry": {"type": "Point", "coordinates": [-84.5982556979, 36.1051059592]}, "type": "Feature", "properties": {"collection_times": [{"days": "Mon-Fri", "time": "4:15pm"}, {"days": "Sat", "time": "9:45am"}, {"days": "Sun", "time": "Closed"}], "id": "3788700004", "name": "USPS COLLECTION BOX - BLUE BOX", "address": {"city": "WARTBURG", "state": "TN", "street": "110 N MAIDEN ST", "postcode": "37887"}}},
{"geometry": {"type": "Point", "coordinates": [-84.5982556979, 36.1051059592]}, "type": "Feature", "properties": {"collection_times": [{"days": "Mon-Fri", "time": "4:30pm"}, {"days": "Sat", "time": "10:00am"}, {"days": "Sun", "time": "Closed"}], "id": "3788700005", "name": "USPS COLLECTION BOX - PO LOBBY", "address": {"city": "WARTBURG", "state": "TN", "street": "110 N MAIDEN ST", "postcode": "37887"}}},
{"geometry": {"type": "Point", "coordinates": [-83.5916991005, 36.2939905037]}, "type": "Feature", "properties": {"collection_times": [{"days": "Mon-Fri", "time": "2:00pm"}, {"days": "Sat", "time": "10:00am"}, {"days": "Sun", "time": "Closed"}], "id": "3788800001", "name": "USPS COLLECTION BOX - BLUE BOX", "address": {"city": "WASHBURN", "state": "TN", "street": "8110 HIGHWAY 131", "postcode": "37888"}}},
{"geometry": {"type": "Point", "coordinates": [-83.5916991005, 36.2939905037]}, "type": "Feature", "properties": {"collection_times": [{"days": "Mon-Fri", "time": "2:00pm"}, {"days": "Sat", "time": "10:00am"}, {"days": "Sun", "time": "Closed"}], "id": "3788800002", "name": "USPS COLLECTION BOX - PO LOBBY", "address": {"city": "WASHBURN", "state": "TN", "street": "8110 HIGHWAY 131", "postcode": "37888"}}},
{"geometry": {"type": "Point", "coordinates": [-83.2882271394, 36.1053546372]}, "type": "Feature", "properties": {"collection_times": [{"days": "Mon-Fri", "time": "4:15pm"}, {"days": "Sat", "time": "10:15am"}, {"days": "Sun", "time": "Closed"}], "id": "3789000001", "name": "USPS COLLECTION BOX - PO LOBBY", "address": {"city": "WHITE PINE", "state": "TN", "street": "1559 MAIN ST", "postcode": "37890"}}},
{"geometry": {"type": "Point", "coordinates": [-83.2882271394, 36.1053546372]}, "type": "Feature", "properties": {"collection_times": [{"days": "Mon-Fri", "time": "4:15pm"}, {"days": "Sat", "time": "10:15am"}, {"days": "Sun", "time": "Closed"}], "id": "3789000002", "name": "USPS COLLECTION BOX - BLUE BOX", "address": {"city": "WHITE PINE", "state": "TN", "street": "1559 MAIN ST", "postcode": "37890"}}},
{"geometry": {"type": "Point", "coordinates": [-83.2730056143, 36.0504362178]}, "type": "Feature", "properties": {"collection_times": [{"days": "Mon-Sat", "time": "11:00am"}, {"days": "Sun", "time": "Closed"}], "id": "3789000003", "name": "USPS COLLECTION BOX - BLUE BOX", "address": {"city": "WHITE PINE", "state": "TN", "street": "500 HARRISON FERRY RD", "postcode": "37890"}}},
{"geometry": {"type": "Point", "coordinates": [-83.2882271394, 36.1053546372]}, "type": "Feature", "properties": {"collection_times": [{"days": "Mon-Fri", "time": "4:15pm"}, {"days": "Sat", "time": "10:15am"}, {"days": "Sun", "time": "Closed"}], "id": "3789000004", "name": "USPS COLLECTION BOX - PO LOBBY", "address": {"city": "WHITE PINE", "state": "TN", "street": "1559 MAIN ST", "postcode": "37890"}}},
{"geometry": {"type": "Point", "coordinates": [-83.142051266, 36.2714550884]}, "type": "Feature", "properties": {"collection_times": [{"days": "Mon-Fri", "time": "3:00pm"}, {"days": "Sat", "time": "10:15am"}, {"days": "Sun", "time": "Closed"}], "id": "3789100001", "name": "USPS COLLECTION BOX - BLUE BOX", "address": {"city": "WHITESBURG", "state": "TN", "street": "7800 E ANDREW JOHNSON HWY", "postcode": "37891"}}},
{"geometry": {"type": "Point", "coordinates": [-83.142051266, 36.2714550884]}, "type": "Feature", "properties": {"collection_times": [{"days": "Mon-Fri", "time": "2:45pm"}, {"days": "Sat", "time": "10:15am"}, {"days": "Sun", "time": "Closed"}], "id": "3789100002", "name": "USPS COLLECTION BOX - PO LOBBY", "address": {"city": "WHITESBURG", "state": "TN", "street": "7800 E ANDREW JOHNSON HWY", "postcode": "37891"}}},
{"geometry": {"type": "Point", "coordinates": [-84.454944362, 36.5459916379]}, "type": "Feature", "properties": {"collection_times": [{"days": "Mon-Fri", "time": "2:45pm"}, {"days": "Sat", "time": "9:45am"}, {"days": "Sun", "time": "Closed"}], "id": "3789200001", "name": "USPS COLLECTION BOX - BLUE BOX", "address": {"city": "WINFIELD", "state": "TN", "street": "24588 SCOTT HWY", "postcode": "37892"}}},
{"geometry": {"type": "Point", "coordinates": [-84.454944362, 36.5459916379]}, "type": "Feature", "properties": {"collection_times": [{"days": "Mon-Fri", "time": "2:45pm"}, {"days": "Sat", "time": "9:45am"}, {"days": "Sun", "time": "Closed"}], "id": "3789200002", "name": "USPS COLLECTION BOX - PO LOBBY", "address": {"city": "WINFIELD", "state": "TN", "street": "24588 SCOTT HWY", "postcode": "37892"}}}
]}
