{"type": "FeatureCollection", "features": [
{"geometry": {"type": "Point", "coordinates": [-83.9184310222, 35.9609789316]}, "type": "Feature", "properties": {"collection_times": [{"days": "Mon-Fri", "time": "5:30pm"}, {"days": "Sat", "time": "2:00pm"}, {"days": "Sun", "time": "Closed"}], "id": "3790100000", "name": "USPS COLLECTION BOX - PO LOBBY", "address": {"city": "KNOXVILLE", "state": "TN", "street": "501 W MAIN ST", "postcode": "37901"}}},
{"geometry": {"type": "Point", "coordinates": [-83.9184310222, 35.9609789316]}, "type": "Feature", "properties": {"collection_times": [{"days": "Mon-Fri", "time": "5:30pm"}, {"days": "Sat-Sun", "time": "Closed"}], "id": "3790100001", "name": "USPS COLLECTION BOX - PO LOBBY", "address": {"city": "KNOXVILLE", "state": "TN", "street": "501 W MAIN ST", "postcode": "37901"}}},
{"geometry": {"type": "Point", "coordinates": [-83.9187575241, 35.9617821389]}, "type": "Feature", "properties": {"collection_times": [{"days": "Mon-Fri", "time": "5:30pm"}, {"days": "Sat", "time": "12:30pm"}, {"days": "Sun", "time": "Closed"}], "id": "3790200001", "name": "USPS COLLECTION BOX - BLUE BOX", "address": {"city": "KNOXVILLE", "state": "TN", "street": "800 WALNUT ST", "postcode": "37902"}}},
{"geometry": {"type": "Point", "coordinates": [-83.9187575241, 35.9617821389]}, "type": "Feature", "properties": {"collection_times": [{"days": "Mon-Fri", "time": "5:30pm"}, {"days": "Sat", "time": "12:30pm"}, {"days": "Sun", "time": "Closed"}], "id": "3790200002", "name": "USPS COLLECTION BOX - BLUE BOX", "address": {"city": "KNOXVILLE", "state": "TN", "street": "800 WALNUT ST", "postcode": "37902"}}},
{"geometry": {"type": "Point", "coordinates": [-83.9187575241, 35.9617821389]}, "type": "Feature", "properties": {"collection_times": [{"days": "Mon-Fri", "time": "5:30pm"}, {"days": "Sat", "time": "12:30pm"}, {"days": "Sun", "time": "Closed"}], "id": "3790200003", "name": "USPS COLLECTION BOX - BLUE BOX", "address": {"city": "KNOXVILLE", "state": "TN", "street": "800 WALNUT ST", "postcode": "37902"}}},
{"geometry": {"type": "Point", "coordinates": [-83.9193385772, 35.9625601097]}, "type": "Feature", "properties": {"collection_times": [{"days": "Mon-Fri", "time": "2:00pm"}, {"days": "Sat-Sun", "time": "Closed"}], "id": "3790200004", "name": "USPS COLLECTION BOX - BLUE BOX", "address": {"city": "KNOXVILLE", "state": "TN", "street": "707 WALNUT ST", "postcode": "37902"}}},
{"geometry": {"type": "Point", "coordinates": [-83.9203734227, 35.9643348152]}, "type": "Feature", "properties": {"collection_times": [{"days": "Mon-Fri", "time": "2:00pm"}, {"days": "Sat-Sun", "time": "Closed"}], "id": "3790200005", "name": "USPS COLLECTION BOX - BLUE BOX", "address": {"city": "KNOXVILLE", "state": "TN", "street": "503 UNION AVE", "postcode": "37902"}}},
{"geometry": {"type": "Point", "coordinates": [-83.916512746, 35.9616056003]}, "type": "Feature", "properties": {"collection_times": [{"days": "Mon-Fri", "time": "2:30pm"}, {"days": "Sat-Sun", "time": "Closed"}], "id": "3790200019", "name": "USPS COLLECTION BOX - BLUE BOX", "address": {"city": "KNOXVILLE", "state": "TN", "street": "330 W MAIN ST", "postcode": "37902"}}},
{"geometry": {"type": "Point", "coordinates": [-83.9209532152, 35.962958977]}, "type": "Feature", "properties": {"collection_times": [{"days": "Mon-Fri", "time": "2:15pm"}, {"days": "Sat-Sun", "time": "Closed"}], "id": "3790200022", "name": "USPS COLLECTION BOX - BLUE BOX", "address": {"city": "KNOXVILLE", "state": "TN", "street": "601 LOCUST ST", "postcode": "37902"}}},
{"geometry": {"type": "Point", "coordinates": [-83.9186915229, 35.9703242381]}, "type": "Feature", "properties": {"collection_times": [{"days": "Mon-Fri", "time": "2:45pm"}, {"days": "Sat-Sun", "time": "Closed"}], "id": "3790200024", "name": "USPS COLLECTION BOX - BLUE BOX", "address": {"city": "KNOXVILLE", "state": "TN", "street": "119 W JACKSON AVE", "postcode": "37902"}}},
{"geometry": {"type": "Point", "coordinates": [-83.9178306435, 35.960059997]}, "type": "Feature", "properties": {"collection_times": [{"days": "Mon-Fri", "time": "2:30pm"}, {"days": "Sat-Sun", "time": "Closed"}], "id": "3790200027", "name": "USPS COLLECTION BOX - BLUE BOX", "address": {"city": "KNOXVILLE", "state": "TN", "street": "500 W HILL AVE", "postcode": "37902"}}},
{"geometry": {"type": "Point", "coordinates": [-83.9223489422, 35.9627320574]}, "type": "Feature", "properties": {"collection_times": [{"days": "Mon-Fri", "time": "4:00pm"}, {"days": "Sat-Sun", "time": "Closed"}], "id": "3790200031", "name": "USPS COLLECTION BOX - BLUE BOX", "address": {"city": "KNOXVILLE", "state": "TN", "street": "531 HENLEY ST", "postcode": "37902"}}},
{"geometry": {"type": "Point", "coordinates": [-83.917654496, 35.9640959722]}, "type": "Feature", "properties": {"collection_times": [{"days": "Mon-Fri", "time": "3:00pm"}, {"days": "Sat-Sun", "time": "Closed"}], "id": "3790200041", "name": "USPS COLLECTION BOX - BLUE BOX", "address": {"city": "KNOXVILLE", "state": "TN", "street": "621 S GAY ST", "postcode": "37902"}}},
{"geometry": {"type": "Point", "coordinates": [-83.9174992341, 35.9640889559]}, "type": "Feature", "properties": {"collection_times": [{"days": "Mon-Fri", "time": "3:45pm"}, {"days": "Sat-Sun", "time": "Closed"}], "id": "3790200043", "name": "USPS COLLECTION BOX - BLUE BOX", "address": {"city": "KNOXVILLE", "state": "TN", "street": "626 S GAY ST", "postcode": "37902"}}},
{"geometry": {"type": "Point", "coordinates": [-83.9180553136, 35.9650052216]}, "type": "Feature", "properties": {"collection_times": [{"days": "Mon-Fri", "time": "5:15pm"}, {"days": "Sat", "time": "12:30pm"}, {"days": "Sun", "time": "Closed"}], "id": "3790200050", "name": "USPS COLLECTION BOX - BLUE BOX", "address": {"city": "KNOXVILLE", "state": "TN", "street": "530 S GAY ST", "postcode": "37902"}}},
{"geometry": {"type": "Point", "coordinates": [-83.9180553136, 35.9650052216]}, "type": "Feature", "properties": {"collection_times": [{"days": "Mon-Fri", "time": "5:15pm"}, {"days": "Sat", "time": "12:30pm"}, {"days": "Sun", "time": "Closed"}], "id": "3790200051", "name": "USPS COLLECTION BOX - BLUE BOX", "address": {"city": "KNOXVILLE", "state": "TN", "street": "530 S GAY ST", "postcode": "37902"}}},
{"geometry": {"type": "Point", "coordinates": [-83.9183186946, 35.9651898491]}, "type": "Feature", "properties": {"collection_times": [{"days": "Mon-Fri", "time": "5:15pm"}, {"days": "Sat-Sun", "time": "Closed"}], "id": "3790200053", "name": "USPS COLLECTION BOX - BLUE BOX", "address": {"city": "KNOXVILLE", "state": "TN", "street": "507 S GAY ST", "postcode": "37902"}}},
{"geometry": {"type": "Point", "coordinates": [-83.9183186946, 35.9651898491]}, "type": "Feature", "properties": {"collection_times": [{"days": "Mon-Fri", "time": "5:15pm"}, {"days": "Sat-Sun", "time": "Closed"}], "id": "3790200054", "name": "USPS COLLECTION BOX - BLUE BOX", "address": {"city": "KNOXVILLE", "state": "TN", "street": "507 S GAY ST", "postcode": "37902"}}},
{"geometry": {"type": "Point", "coordinates": [-83.9194255953, 35.9670205811]}, "type": "Feature", "properties": {"collection_times": [{"days": "Mon-Fri", "time": "2:45pm"}, {"days": "Sat-Sun", "time": "Closed"}], "id": "3790200055", "name": "USPS COLLECTION BOX - BLUE BOX", "address": {"city": "KNOXVILLE", "state": "TN", "street": "323 S GAY ST", "postcode": "37902"}}},
{"geometry": {"type": "Point", "coordinates": [-83.9180074359, 35.9620610862]}, "type": "Feature", "properties": {"collection_times": [{"days": "Mon-Fri", "time": "5:30pm"}, {"days": "Sat", "time": "12:30pm"}, {"days": "Sun", "time": "Closed"}], "id": "3790200058", "name": "USPS COLLECTION BOX - BLUE BOX", "address": {"city": "KNOXVILLE", "state": "TN", "street": "422 CUMBERLAND AVE", "postcode": "37902"}}},
{"geometry": {"type": "Point", "coordinates": [-83.9180074359, 35.9620610862]}, "type": "Feature", "properties": {"collection_times": [{"days": "Mon-Fri", "time": "5:30pm"}, {"days": "Sat", "time": "12:30pm"}, {"days": "Sun", "time": "Closed"}], "id": "3790200059", "name": "USPS COLLECTION BOX - BLUE BOX", "address": {"city": "KNOXVILLE", "state": "TN", "street": "422 CUMBERLAND AVE", "postcode": "37902"}}},
{"geometry": {"type": "Point", "coordinates": [-83.9180074359, 35.9620610862]}, "type": "Feature", "properties": {"collection_times": [{"days": "Mon-Fri", "time": "5:30pm"}, {"days": "Sat", "time": "12:30pm"}, {"days": "Sun", "time": "Closed"}], "id": "3790200060", "name": "USPS COLLECTION BOX - BLUE BOX", "address": {"city": "KNOXVILLE", "state": "TN", "street": "422 CUMBERLAND AVE", "postcode": "37902"}}},
{"geometry": {"type": "Point", "coordinates": [-83.9186932803, 35.9638468271]}, "type": "Feature", "properties": {"collection_times": [{"days": "Mon-Fri", "time": "2:45pm"}, {"days": "Sat-Sun", "time": "Closed"}], "id": "3790200061", "name": "USPS COLLECTION BOX - BLUE BOX", "address": {"city": "KNOXVILLE", "state": "TN", "street": "428 W CLINCH AVE", "postcode": "37902"}}},
{"geometry": {"type": "Point", "coordinates": [-83.9188365618, 35.9637598427]}, "type": "Feature", "properties": {"collection_times": [{"days": "Mon-Fri", "time": "2:45pm"}, {"days": "Sat-Sun", "time": "Closed"}], "id": "3790200062", "name": "USPS COLLECTION BOX - BLUE BOX", "address": {"city": "KNOXVILLE", "state": "TN", "street": "607 MARKET ST", "postcode": "37902"}}},
{"geometry": {"type": "Point", "coordinates": [-83.9183186946, 35.9651898491]}, "type": "Feature", "properties": {"collection_times": [{"days": "Mon-Fri", "time": "5:15pm"}, {"days": "Sat-Sun", "time": "Closed"}], "id": "3790200066", "name": "USPS COLLECTION BOX - BLUE BOX", "address": {"city": "KNOXVILLE", "state": "TN", "street": "507 S GAY ST", "postcode": "37902"}}},
{"geometry": {"type": "Point", "coordinates": [-83.917654496, 35.9640959722]}, "type": "Feature", "properties": {"collection_times": [{"days": "Mon-Fri", "time": "3:00pm"}, {"days": "Sat-Sun", "time": "Closed"}], "id": "3790200076", "name": "USPS COLLECTION BOX - BLUE BOX", "address": {"city": "KNOXVILLE", "state": "TN", "street": "621 S GAY ST", "postcode": "37902"}}},
{"geometry": {"type": "Point", "coordinates": [-83.9180553136, 35.9650052216]}, "type": "Feature", "properties": {"collection_times": [{"days": "Mon-Fri", "time": "5:15pm"}, {"days": "Sat", "time": "12:30pm"}, {"days": "Sun", "time": "Closed"}], "id": "3790200079", "name": "USPS COLLECTION BOX - BLUE BOX", "address": {"city": "KNOXVILLE", "state": "TN", "street": "530 S GAY ST", "postcode": "37902"}}},
{"geometry": {"type": "Point", "coordinates": [-83.917654496, 35.9640959722]}, "type": "Feature", "properties": {"collection_times": [{"days": "Mon-Fri", "time": "3:00pm"}, {"days": "Sat-Sun", "time": "Closed"}], "id": "3790200082", "name": "USPS COLLECTION BOX - BLUE BOX", "address": {"city": "KNOXVILLE", "state": "TN", "street": "621 S GAY ST", "postcode": "37902"}}},
{"geometry": {"type": "Point", "coordinates": [-83.9178306435, 35.960059997]}, "type": "Feature", "properties": {"collection_times": [{"days": "Mon-Fri", "time": "2:30pm"}, {"days": "Sat-Sun", "time": "Closed"}], "id": "3790200083", "name": "USPS COLLECTION BOX - BLUE BOX", "address": {"city": "KNOXVILLE", "state": "TN", "street": "500 W HILL AVE", "postcode": "37902"}}},
{"geometry": {"type": "Point", "coordinates": [-83.9178306435, 35.960059997]}, "type": "Feature", "properties": {"collection_times": [{"days": "Mon-Fri", "time": "2:30pm"}, {"days": "Sat-Sun", "time": "Closed"}], "id": "3790200084", "name": "USPS COLLECTION BOX - BLUE BOX", "address": {"city": "KNOXVILLE", "state": "TN", "street": "500 W HILL AVE", "postcode": "37902"}}},
{"geometry": {"type": "Point", "coordinates": [-83.9818612524, 35.9534517348]}, "type": "Feature", "properties": {"collection_times": [{"days": "Mon-Fri", "time": "4:00pm"}, {"days": "Sat-Sun", "time": "Closed"}], "id": "3790900002", "name": "USPS COLLECTION BOX - BLUE BOX", "address": {"city": "KNOXVILLE", "state": "TN", "street": "4317 PAPERMILL DR", "postcode": "37909"}}},
{"geometry": {"type": "Point", "coordinates": [-84.0010883384, 35.9474981305]}, "type": "Feature", "properties": {"collection_times": [{"days": "Mon-Fri", "time": "4:15pm"}, {"days": "Sat-Sun", "time": "Closed"}], "id": "3790900004", "name": "USPS COLLECTION BOX - BLUE BOX", "address": {"city": "KNOXVILLE", "state": "TN", "street": "5500 LONAS DR", "postcode": "37909"}}},
{"geometry": {"type": "Point", "coordinates": [-84.0311698685, 35.9475359794]}, "type": "Feature", "properties": {"collection_times": [{"days": "Mon-Fri", "time": "1:30pm"}, {"days": "Sat", "time": "11:45am"}, {"days": "Sun", "time": "Closed"}], "id": "3790900007", "name": "USPS COLLECTION BOX - BLUE BOX", "address": {"city": "KNOXVILLE", "state": "TN", "street": "3100 LAKE BROOK BLVD", "postcode": "37909"}}},
{"geometry": {"type": "Point", "coordinates": [-84.013801361, 35.9544626042]}, "type": "Feature", "properties": {"collection_times": [{"days": "Mon-Fri", "time": "3:45pm"}, {"days": "Sat-Sun", "time": "Closed"}], "id": "3790900013", "name": "USPS COLLECTION BOX - BLUE BOX", "address": {"city": "KNOXVILLE", "state": "TN", "street": "1471 AMHERST RD", "postcode": "37909"}}},
{"geometry": {"type": "Point", "coordinates": [-84.0107357999, 35.9424146052]}, "type": "Feature", "properties": {"collection_times": [{"days": "Mon-Fri", "time": "4:45pm"}, {"days": "Sat-Sun", "time": "Closed"}], "id": "3790900021", "name": "USPS COLLECTION BOX - BLUE BOX", "address": {"city": "KNOXVILLE", "state": "TN", "street": "1016 E WEISGARBER RD", "postcode": "37909"}}},
{"geometry": {"type": "Point", "coordinates": [-84.0113840149, 35.9417763332]}, "type": "Feature", "properties": {"collection_times": [{"days": "Mon-Fri", "time": "1:15pm"}, {"days": "Sat", "time": "11:45am"}, {"days": "Sun", "time": "Closed"}], "id": "3790900024", "name": "USPS COLLECTION BOX - BLUE BOX", "address": {"city": "KNOXVILLE", "state": "TN", "street": "801 N WEISGARBER RD", "postcode": "37909"}}},
{"geometry": {"type": "Point", "coordinates": [-84.0133016322, 35.9469111052]}, "type": "Feature", "properties": {"collection_times": [{"days": "Mon-Fri", "time": "1:15pm"}, {"days": "Sat-Sun", "time": "Closed"}], "id": "3790900026", "name": "USPS COLLECTION BOX - BLUE BOX", "address": {"city": "KNOXVILLE", "state": "TN", "street": "1225 E WEISGARBER RD", "postcode": "37909"}}},
{"geometry": {"type": "Point", "coordinates": [-83.9925871888, 35.9501623772]}, "type": "Feature", "properties": {"collection_times": [{"days": "Mon-Fri", "time": "4:15pm"}, {"days": "Sat-Sun", "time": "Closed"}], "id": "3790900027", "name": "USPS COLLECTION BOX - BLUE BOX", "address": {"city": "KNOXVILLE", "state": "TN", "street": "1508 COLEMAN RD", "postcode": "37909"}}},
{"geometry": {"type": "Point", "coordinates": [-84.0338007554, 35.9451013646]}, "type": "Feature", "properties": {"collection_times": [{"days": "Mon-Fri", "time": "4:00pm"}, {"days": "Sat-Sun", "time": "Closed"}], "id": "3790900028", "name": "USPS COLLECTION BOX - BLUE BOX", "address": {"city": "KNOXVILLE", "state": "TN", "street": "1338 PAPERMILL POINTE WAY", "postcode": "37909"}}},
{"geometry": {"type": "Point", "coordinates": [-83.9841599479, 36.0072436594]}, "type": "Feature", "properties": {"collection_times": [{"days": "Mon-Fri", "time": "4:00pm"}, {"days": "Sat-Sun", "time": "Closed"}], "id": "3791200002", "name": "USPS COLLECTION BOX - BLUE BOX", "address": {"city": "KNOXVILLE", "state": "TN", "street": "314 MERCHANT DR", "postcode": "37912"}}},
{"geometry": {"type": "Point", "coordinates": [-83.9613768544, 36.0113430833]}, "type": "Feature", "properties": {"collection_times": [{"days": "Mon-Fri", "time": "4:15pm"}, {"days": "Sat-Sun", "time": "Closed"}], "id": "3791200003", "name": "USPS COLLECTION BOX - BLUE BOX", "address": {"city": "KNOXVILLE", "state": "TN", "street": "400 E INSKIP DR", "postcode": "37912"}}},
{"geometry": {"type": "Point", "coordinates": [-83.9873425249, 36.0057866209]}, "type": "Feature", "properties": {"collection_times": [{"days": "Mon-Fri", "time": "3:45pm"}, {"days": "Sat", "time": "2:30pm"}, {"days": "Sun", "time": "Closed"}], "id": "3791200004", "name": "USPS COLLECTION BOX - BLUE BOX", "address": {"city": "KNOXVILLE", "state": "TN", "street": "5727 CLINTON HWY", "postcode": "37912"}}},
{"geometry": {"type": "Point", "coordinates": [-83.9873425249, 36.0057866209]}, "type": "Feature", "properties": {"collection_times": [{"days": "Mon-Fri", "time": "3:45pm"}, {"days": "Sat", "time": "2:30pm"}, {"days": "Sun", "time": "Closed"}], "id": "3791200005", "name": "USPS COLLECTION BOX - BLUE BOX", "address": {"city": "KNOXVILLE", "state": "TN", "street": "5727 CLINTON HWY", "postcode": "37912"}}},
{"geometry": {"type": "Point", "coordinates": [-83.9772033202, 36.00287628]}, "type": "Feature", "properties": {"collection_times": [{"days": "Mon-Fri", "time": "3:30pm"}, {"days": "Sat", "time": "2:30pm"}, {"days": "Sun", "time": "Closed"}], "id": "3791200008", "name": "USPS COLLECTION BOX - BLUE BOX", "address": {"city": "KNOXVILLE", "state": "TN", "street": "5094 CLINTON HWY", "postcode": "37912"}}},
{"geometry": {"type": "Point", "coordinates": [-83.9772033202, 36.00287628]}, "type": "Feature", "properties": {"collection_times": [{"days": "Mon-Fri", "time": "3:30pm"}, {"days": "Sat", "time": "2:30pm"}, {"days": "Sun", "time": "Closed"}], "id": "3791200009", "name": "USPS COLLECTION BOX - BLUE BOX", "address": {"city": "KNOXVILLE", "state": "TN", "street": "5094 CLINTON HWY", "postcode": "37912"}}},
{"geometry": {"type": "Point", "coordinates": [-83.9734325721, 36.0013845046]}, "type": "Feature", "properties": {"collection_times": [{"days": "Mon-Fri", "time": "3:30pm"}, {"days": "Sat-Sun", "time": "Closed"}], "id": "3791200010", "name": "USPS COLLECTION BOX - BLUE BOX", "address": {"city": "KNOXVILLE", "state": "TN", "street": "4803 CLINTON HWY", "postcode": "37912"}}},
{"geometry": {"type": "Point", "coordinates": [-83.9914224791, 36.025981487]}, "type": "Feature", "properties": {"collection_times": [{"days": "Mon-Fri", "time": "4:00pm"}, {"days": "Sat", "time": "12:45pm"}, {"days": "Sun", "time": "Closed"}], "id": "3791200020", "name": "USPS COLLECTION BOX - BLUE BOX", "address": {"city": "KNOXVILLE", "state": "TN", "street": "6712 CENTRAL AVENUE PIKE", "postcode": "37912"}}},
{"geometry": {"type": "Point", "coordinates": [-83.9873425249, 36.0057866209]}, "type": "Feature", "properties": {"collection_times": [{"days": "Mon-Fri", "time": "3:45pm"}, {"days": "Sat", "time": "2:30pm"}, {"days": "Sun", "time": "Closed"}], "id": "3791200025", "name": "USPS COLLECTION BOX - BLUE BOX", "address": {"city": "KNOXVILLE", "state": "TN", "street": "5727 CLINTON HWY", "postcode": "37912"}}},
{"geometry": {"type": "Point", "coordinates": [-83.9873425249, 36.0057866209]}, "type": "Feature", "properties": {"collection_times": [{"days": "Mon-Fri", "time": "5:30pm"}, {"days": "Sat", "time": "2:00pm"}, {"days": "Sun", "time": "Closed"}], "id": "3791200026", "name": "USPS COLLECTION BOX - PO LOBBY", "address": {"city": "KNOXVILLE", "state": "TN", "street": "5727 CLINTON HWY", "postcode": "37912"}}},
{"geometry": {"type": "Point", "coordinates": [-83.9873425249, 36.0057866209]}, "type": "Feature", "properties": {"collection_times": [{"days": "Mon-Fri", "time": "5:30pm"}, {"days": "Sat", "time": "2:00pm"}, {"days": "Sun", "time": "Closed"}], "id": "3791200027", "name": "USPS COLLECTION BOX - PO LOBBY", "address": {"city": "KNOXVILLE", "state": "TN", "street": "5727 CLINTON HWY", "postcode": "37912"}}},
{"geometry": {"type": "Point", "coordinates": [-83.8699783306, 36.0029812714]}, "type": "Feature", "properties": {"collection_times": [{"days": "Mon-Fri", "time": "4:15pm"}, {"days": "Sat-Sun", "time": "Closed"}], "id": "3791400001", "name": "USPS COLLECTION BOX - BLUE BOX", "address": {"city": "KNOXVILLE", "state": "TN", "street": "4216 ASHEVILLE HWY", "postcode": "37914"}}},
{"geometry": {"type": "Point", "coordinates": [-83.7671181314, 36.022598158]}, "type": "Feature", "properties": {"collection_times": [{"days": "Mon-Fri", "time": "3:00pm"}, {"days": "Sat-Sun", "time": "Closed"}], "id": "3791400005", "name": "USPS COLLECTION BOX - BLUE BOX", "address": {"city": "KNOXVILLE", "state": "TN", "street": "7741 ASHEVILLE HWY", "postcode": "37914"}}},
{"geometry": {"type": "Point", "coordinates": [-83.8607912885, 36.0047698904]}, "type": "Feature", "properties": {"collection_times": [{"days": "Mon-Fri", "time": "4:00pm"}, {"days": "Sat", "time": "2:00pm"}, {"days": "Sun", "time": "Closed"}], "id": "3791400008", "name": "USPS COLLECTION BOX - BLUE BOX", "address": {"city": "KNOXVILLE", "state": "TN", "street": "300 MACEDONIA LN", "postcode": "37914"}}},
{"geometry": {"type": "Point", "coordinates": [-83.8607912885, 36.0047698904]}, "type": "Feature", "properties": {"collection_times": [{"days": "Mon-Fri", "time": "4:00pm"}, {"days": "Sat", "time": "2:00pm"}, {"days": "Sun", "time": "Closed"}], "id": "3791400009", "name": "USPS COLLECTION BOX - BLUE BOX", "address": {"city": "KNOXVILLE", "state": "TN", "street": "300 MACEDONIA LN", "postcode": "37914"}}},
{"geometry": {"type": "Point", "coordinates": [-83.8904847277, 35.9906660506]}, "type": "Feature", "properties": {"collection_times": [{"days": "Mon-Fri", "time": "4:15pm"}, {"days": "Sat-Sun", "time": "Closed"}], "id": "3791400012", "name": "USPS COLLECTION BOX - BLUE BOX", "address": {"city": "KNOXVILLE", "state": "TN", "street": "2817 E MAGNOLIA AVE", "postcode": "37914"}}},
{"geometry": {"type": "Point", "coordinates": [-83.8808732822, 36.029878682]}, "type": "Feature", "properties": {"collection_times": [{"days": "Mon-Fri", "time": "3:15pm"}, {"days": "Sat", "time": "2:15pm"}, {"days": "Sun", "time": "Closed"}], "id": "3791400015", "name": "USPS COLLECTION BOX - BLUE BOX", "address": {"city": "KNOXVILLE", "state": "TN", "street": "3000 MALL RD", "postcode": "37914"}}},
{"geometry": {"type": "Point", "coordinates": [-83.837968855, 35.9471681817]}, "type": "Feature", "properties": {"collection_times": [{"days": "Mon-Fri", "time": "2:30pm"}, {"days": "Sat-Sun", "time": "Closed"}], "id": "3791400019", "name": "USPS COLLECTION BOX - BLUE BOX", "address": {"city": "KNOXVILLE", "state": "TN", "street": "5005 N NATIONAL DR", "postcode": "37914"}}},
{"geometry": {"type": "Point", "coordinates": [-83.837968855, 35.9471681817]}, "type": "Feature", "properties": {"collection_times": [{"days": "Mon-Fri", "time": "2:30pm"}, {"days": "Sat-Sun", "time": "Closed"}], "id": "3791400020", "name": "USPS COLLECTION BOX - BLUE BOX", "address": {"city": "KNOXVILLE", "state": "TN", "street": "5005 N NATIONAL DR", "postcode": "37914"}}},
{"geometry": {"type": "Point", "coordinates": [-83.7743133912, 36.0044840072]}, "type": "Feature", "properties": {"collection_times": [{"days": "Mon-Fri", "time": "2:45pm"}, {"days": "Sat-Sun", "time": "Closed"}], "id": "3791400023", "name": "USPS COLLECTION BOX - BLUE BOX", "address": {"city": "KNOXVILLE", "state": "TN", "street": "7401 STRAWBERRY PLAINS PIKE", "postcode": "37914"}}},
{"geometry": {"type": "Point", "coordinates": [-83.8607912885, 36.0047698904]}, "type": "Feature", "properties": {"collection_times": [{"days": "Mon-Fri", "time": "5:15pm"}, {"days": "Sat", "time": "12:15pm"}, {"days": "Sun", "time": "Closed"}], "id": "3791400034", "name": "USPS COLLECTION BOX - PO LOBBY", "address": {"city": "KNOXVILLE", "state": "TN", "street": "300 MACEDONIA LN", "postcode": "37914"}}},
{"geometry": {"type": "Point", "coordinates": [-83.8607912885, 36.0047698904]}, "type": "Feature", "properties": {"collection_times": [{"days": "Mon-Fri", "time": "5:15pm"}, {"days": "Sat", "time": "12:15pm"}, {"days": "Sun", "time": "Closed"}], "id": "3791400035", "name": "USPS COLLECTION BOX - PO LOBBY", "address": {"city": "KNOXVILLE", "state": "TN", "street": "300 MACEDONIA LN", "postcode": "37914"}}},
{"geometry": {"type": "Point", "coordinates": [-83.9069077345, 35.9667106033]}, "type": "Feature", "properties": {"collection_times": [{"days": "Mon-Fri", "time": "2:30pm"}, {"days": "Sat-Sun", "time": "Closed"}], "id": "3791500008", "name": "USPS COLLECTION BOX - BLUE BOX", "address": {"city": "KNOXVILLE", "state": "TN", "street": "900 E HILL AVE", "postcode": "37915"}}},
{"geometry": {"type": "Point", "coordinates": [-83.9300219977, 35.951404927]}, "type": "Feature", "properties": {"collection_times": [{"days": "Mon-Fri", "time": "3:00pm"}, {"days": "Sat-Sun", "time": "Closed"}], "id": "3791600002", "name": "USPS COLLECTION BOX - BLUE BOX", "address": {"city": "KNOXVILLE", "state": "TN", "street": "1720 VOLUNTEER BLVD", "postcode": "37916"}}},
{"geometry": {"type": "Point", "coordinates": [-83.9386841776, 35.9561862919]}, "type": "Feature", "properties": {"collection_times": [{"days": "Mon-Fri", "time": "3:00pm"}, {"days": "Sat-Sun", "time": "Closed"}], "id": "3791600018", "name": "USPS COLLECTION BOX - BLUE BOX", "address": {"city": "KNOXVILLE", "state": "TN", "street": "2100 W CLINCH AVE", "postcode": "37916"}}},
{"geometry": {"type": "Point", "coordinates": [-83.9264740033, 35.9534482796]}, "type": "Feature", "properties": {"collection_times": [{"days": "Mon-Fri", "time": "3:00pm"}, {"days": "Sat-Sun", "time": "Closed"}], "id": "3791600021", "name": "USPS COLLECTION BOX - BLUE BOX", "address": {"city": "KNOXVILLE", "state": "TN", "street": "1331 CIRCLE PARK DR", "postcode": "37916"}}},
{"geometry": {"type": "Point", "coordinates": [-83.9381702669, 35.9574022467]}, "type": "Feature", "properties": {"collection_times": [{"days": "Mon-Fri", "time": "2:30pm"}, {"days": "Sat-Sun", "time": "Closed"}], "id": "3791600023", "name": "USPS COLLECTION BOX - BLUE BOX", "address": {"city": "KNOXVILLE", "state": "TN", "street": "501 20TH ST", "postcode": "37916"}}},
{"geometry": {"type": "Point", "coordinates": [-83.9362562539, 35.9572031077]}, "type": "Feature", "properties": {"collection_times": [{"days": "Mon-Fri", "time": "2:30pm"}, {"days": "Sat-Sun", "time": "Closed"}], "id": "3791600026", "name": "USPS COLLECTION BOX - BLUE BOX", "address": {"city": "KNOXVILLE", "state": "TN", "street": "1901 W CLINCH AVE", "postcode": "37916"}}},
{"geometry": {"type": "Point", "coordinates": [-83.9367506091, 35.9580153706]}, "type": "Feature", "properties": {"collection_times": [{"days": "Mon-Fri", "time": "2:30pm"}, {"days": "Sat-Sun", "time": "Closed"}], "id": "3791600028", "name": "USPS COLLECTION BOX - BLUE BOX", "address": {"city": "KNOXVILLE", "state": "TN", "street": "1901 LAUREL AVE", "postcode": "37916"}}},
{"geometry": {"type": "Point", "coordinates": [-83.9257035434, 35.9626587337]}, "type": "Feature", "properties": {"collection_times": [{"days": "Mon-Fri", "time": "4:00pm"}, {"days": "Sat-Sun", "time": "Closed"}], "id": "3791600029", "name": "USPS COLLECTION BOX - BLUE BOX", "address": {"city": "KNOXVILLE", "state": "TN", "street": "1050 WORLDS FAIR PARK DR", "postcode": "37916"}}},
{"geometry": {"type": "Point", "coordinates": [-83.9281097835, 35.9921885562]}, "type": "Feature", "properties": {"collection_times": [{"days": "Mon-Fri", "time": "3:00pm"}, {"days": "Sat-Sun", "time": "Closed"}], "id": "3791700019", "name": "USPS COLLECTION BOX - BLUE BOX", "address": {"city": "KNOXVILLE", "state": "TN", "street": "900 E OAK HILL AVE", "postcode": "37917"}}},
{"geometry": {"type": "Point", "coordinates": [-83.9281097835, 35.9921885562]}, "type": "Feature", "properties": {"collection_times": [{"days": "Mon-Fri", "time": "3:00pm"}, {"days": "Sat-Sun", "time": "Closed"}], "id": "3791700021", "name": "USPS COLLECTION BOX - BLUE BOX", "address": {"city": "KNOXVILLE", "state": "TN", "street": "900 E OAK HILL AVE", "postcode": "37917"}}},
{"geometry": {"type": "Point", "coordinates": [-83.8844541297, 36.0291858904]}, "type": "Feature", "properties": {"collection_times": [{"days": "Mon-Fri", "time": "3:30pm"}, {"days": "Sat", "time": "2:00pm"}, {"days": "Sun", "time": "Closed"}], "id": "3791700034", "name": "USPS COLLECTION BOX - BLUE BOX", "address": {"city": "KNOXVILLE", "state": "TN", "street": "4710 CENTERLINE DR", "postcode": "37917"}}},
{"geometry": {"type": "Point", "coordinates": [-83.9237819964, 36.0129303033]}, "type": "Feature", "properties": {"collection_times": [{"days": "Mon-Fri", "time": "3:15pm"}, {"days": "Sat", "time": "1:15pm"}, {"days": "Sun", "time": "Closed"}], "id": "3791700035", "name": "USPS COLLECTION BOX - BLUE BOX", "address": {"city": "KNOXVILLE", "state": "TN", "street": "4434 N BROADWAY ST", "postcode": "37917"}}},
{"geometry": {"type": "Point", "coordinates": [-83.9223847002, 35.9958846033]}, "type": "Feature", "properties": {"collection_times": [{"days": "Mon-Fri", "time": "4:30pm"}, {"days": "Sat", "time": "1:15pm"}, {"days": "Sun", "time": "Closed"}], "id": "3791700038", "name": "USPS COLLECTION BOX - BLUE BOX", "address": {"city": "KNOXVILLE", "state": "TN", "street": "2600 N BROADWAY ST", "postcode": "37917"}}},
{"geometry": {"type": "Point", "coordinates": [-83.9223847002, 35.9958846033]}, "type": "Feature", "properties": {"collection_times": [{"days": "Mon-Fri", "time": "4:30pm"}, {"days": "Sat", "time": "1:15pm"}, {"days": "Sun", "time": "Closed"}], "id": "3791700039", "name": "USPS COLLECTION BOX - BLUE BOX", "address": {"city": "KNOXVILLE", "state": "TN", "street": "2600 N BROADWAY ST", "postcode": "37917"}}},
{"geometry": {"type": "Point", "coordinates": [-83.9223847002, 35.9958846033]}, "type": "Feature", "properties": {"collection_times": [{"days": "Mon-Fri", "time": "4:30pm"}, {"days": "Sat", "time": "1:15pm"}, {"days": "Sun", "time": "Closed"}], "id": "3791700040", "name": "USPS COLLECTION BOX - BLUE BOX", "address": {"city": "KNOXVILLE", "state": "TN", "street": "2600 N BROADWAY ST", "postcode": "37917"}}},
{"geometry": {"type": "Point", "coordinates": [-83.920087271, 35.990918501]}, "type": "Feature", "properties": {"collection_times": [{"days": "Mon-Fri", "time": "3:00pm"}, {"days": "Sat-Sun", "time": "Closed"}], "id": "3791700041", "name": "USPS COLLECTION BOX - BLUE BOX", "address": {"city": "KNOXVILLE", "state": "TN", "street": "2021 N BROADWAY ST", "postcode": "37917"}}},
{"geometry": {"type": "Point", "coordinates": [-83.922769959, 35.9828753118]}, "type": "Feature", "properties": {"collection_times": [{"days": "Mon-Fri", "time": "4:45pm"}, {"days": "Sat-Sun", "time": "Closed"}], "id": "3791700053", "name": "USPS COLLECTION BOX - BLUE BOX", "address": {"city": "KNOXVILLE", "state": "TN", "street": "1127 N BROADWAY ST", "postcode": "37917"}}},
{"geometry": {"type": "Point", "coordinates": [-83.9223847002, 35.9958846033]}, "type": "Feature", "properties": {"collection_times": [{"days": "Mon-Fri", "time": "5:15pm"}, {"days": "Sat", "time": "3:00pm"}, {"days": "Sun", "time": "Closed"}], "id": "3791700054", "name": "USPS COLLECTION BOX - PO LOBBY", "address": {"city": "KNOXVILLE", "state": "TN", "street": "2600 N BROADWAY ST", "postcode": "37917"}}},
{"geometry": {"type": "Point", "coordinates": [-83.8844541297, 36.0291858904]}, "type": "Feature", "properties": {"collection_times": [{"days": "Mon-Fri", "time": "3:30pm"}, {"days": "Sat", "time": "2:00pm"}, {"days": "Sun", "time": "Closed"}], "id": "3791700055", "name": "USPS COLLECTION BOX - BLUE BOX", "address": {"city": "KNOXVILLE", "state": "TN", "street": "4710 CENTERLINE DR", "postcode": "37917"}}},
{"geometry": {"type": "Point", "coordinates": [-83.9223847002, 35.9958846033]}, "type": "Feature", "properties": {"collection_times": [{"days": "Mon-Fri", "time": "5:15pm"}, {"days": "Sat", "time": "3:00pm"}, {"days": "Sun", "time": "Closed"}], "id": "3791700056", "name": "USPS COLLECTION BOX - PO LOBBY", "address": {"city": "KNOXVILLE", "state": "TN", "street": "2600 N BROADWAY ST", "postcode": "37917"}}},
{"geometry": {"type": "Point", "coordinates": [-83.9234924291, 36.0246945765]}, "type": "Feature", "properties": {"collection_times": [{"days": "Mon-Fri", "time": "1:15pm"}, {"days": "Sat-Sun", "time": "Closed"}], "id": "3791800001", "name": "USPS COLLECTION BOX - BLUE BOX", "address": {"city": "KNOXVILLE", "state": "TN", "street": "2910 TAZEWELL PIKE", "postcode": "37918"}}},
{"geometry": {"type": "Point", "coordinates": [-83.9278972852, 36.07597398]}, "type": "Feature", "properties": {"collection_times": [{"days": "Mon-Fri", "time": "2:15pm"}, {"days": "Sat", "time": "1:45pm"}, {"days": "Sun", "time": "Closed"}], "id": "3791800006", "name": "USPS COLLECTION BOX - BLUE BOX", "address": {"city": "KNOXVILLE", "state": "TN", "street": "7043 MAYNARDVILLE PIKE", "postcode": "37918"}}},
{"geometry": {"type": "Point", "coordinates": [-83.9278972852, 36.07597398]}, "type": "Feature", "properties": {"collection_times": [{"days": "Mon-Fri", "time": "2:15pm"}, {"days": "Sat", "time": "1:45pm"}, {"days": "Sun", "time": "Closed"}], "id": "3791800007", "name": "USPS COLLECTION BOX - BLUE BOX", "address": {"city": "KNOXVILLE", "state": "TN", "street": "7043 MAYNARDVILLE PIKE", "postcode": "37918"}}},
{"geometry": {"type": "Point", "coordinates": [-83.9276853767, 36.0753066493]}, "type": "Feature", "properties": {"collection_times": [{"days": "Mon-Fri", "time": "1:45pm"}, {"days": "Sat", "time": "1:30pm"}, {"days": "Sun", "time": "Closed"}], "id": "3791800009", "name": "USPS COLLECTION BOX - BLUE BOX", "address": {"city": "KNOXVILLE", "state": "TN", "street": "7018 MAYNARDVILLE PIKE", "postcode": "37918"}}},
{"geometry": {"type": "Point", "coordinates": [-83.9306966361, 36.0356640538]}, "type": "Feature", "properties": {"collection_times": [{"days": "Mon-Fri", "time": "4:45pm"}, {"days": "Sat", "time": "1:30pm"}, {"days": "Sun", "time": "Closed"}], "id": "3791800014", "name": "USPS COLLECTION BOX - BLUE BOX", "address": {"city": "KNOXVILLE", "state": "TN", "street": "131 LYNNWOOD DR", "postcode": "37918"}}},
{"geometry": {"type": "Point", "coordinates": [-83.9306966361, 36.0356640538]}, "type": "Feature", "properties": {"collection_times": [{"days": "Mon-Fri", "time": "4:45pm"}, {"days": "Sat", "time": "1:30pm"}, {"days": "Sun", "time": "Closed"}], "id": "3791800015", "name": "USPS COLLECTION BOX - BLUE BOX", "address": {"city": "KNOXVILLE", "state": "TN", "street": "131 LYNNWOOD DR", "postcode": "37918"}}},
{"geometry": {"type": "Point", "coordinates": [-83.9306966361, 36.0356640538]}, "type": "Feature", "properties": {"collection_times": [{"days": "Mon-Fri", "time": "4:45pm"}, {"days": "Sat", "time": "1:30pm"}, {"days": "Sun", "time": "Closed"}], "id": "3791800016", "name": "USPS COLLECTION BOX - BLUE BOX", "address": {"city": "KNOXVILLE", "state": "TN", "street": "131 LYNNWOOD DR", "postcode": "37918"}}},
{"geometry": {"type": "Point", "coordinates": [-83.9224641181, 36.0278723906]}, "type": "Feature", "properties": {"collection_times": [{"days": "Mon-Fri", "time": "1:15pm"}, {"days": "Sat-Sun", "time": "Closed"}], "id": "3791800017", "name": "USPS COLLECTION BOX - BLUE BOX", "address": {"city": "KNOXVILLE", "state": "TN", "street": "4901 JACKSBORO PIKE", "postcode": "37918"}}},
{"geometry": {"type": "Point", "coordinates": [-83.9306473041, 36.033070877]}, "type": "Feature", "properties": {"collection_times": [{"days": "Mon-Fri", "time": "2:30pm"}, {"days": "Sat-Sun", "time": "Closed"}], "id": "3791800022", "name": "USPS COLLECTION BOX - BLUE BOX", "address": {"city": "KNOXVILLE", "state": "TN", "street": "5201 N BROADWAY ST", "postcode": "37918"}}},
{"geometry": {"type": "Point", "coordinates": [-83.9328753509, 36.0827484112]}, "type": "Feature", "properties": {"collection_times": [{"days": "Mon-Fri", "time": "2:15pm"}, {"days": "Sat-Sun", "time": "Closed"}], "id": "3791800028", "name": "USPS COLLECTION BOX - BLUE BOX", "address": {"city": "KNOXVILLE", "state": "TN", "street": "7340 NORRIS FWY", "postcode": "37918"}}},
{"geometry": {"type": "Point", "coordinates": [-83.9234924291, 36.0246945765]}, "type": "Feature", "properties": {"collection_times": [{"days": "Mon-Fri", "time": "1:15pm"}, {"days": "Sat-Sun", "time": "Closed"}], "id": "3791800036", "name": "USPS COLLECTION BOX - BLUE BOX", "address": {"city": "KNOXVILLE", "state": "TN", "street": "2910 TAZEWELL PIKE", "postcode": "37918"}}},
{"geometry": {"type": "Point", "coordinates": [-83.9256183568, 36.0782178665]}, "type": "Feature", "properties": {"collection_times": [{"days": "Mon-Fri", "time": "1:45pm"}, {"days": "Sat-Sun", "time": "Closed"}], "id": "3791800037", "name": "USPS COLLECTION BOX - BLUE BOX", "address": {"city": "KNOXVILLE", "state": "TN", "street": "7117 REGAL LN", "postcode": "37918"}}},
{"geometry": {"type": "Point", "coordinates": [-83.9306966361, 36.0356640538]}, "type": "Feature", "properties": {"collection_times": [{"days": "Mon-Fri", "time": "5:15pm"}, {"days": "Sat", "time": "2:30pm"}, {"days": "Sun", "time": "Closed"}], "id": "3791800045", "name": "USPS COLLECTION BOX - PO LOBBY", "address": {"city": "KNOXVILLE", "state": "TN", "street": "131 LYNNWOOD DR", "postcode": "37918"}}},
{"geometry": {"type": "Point", "coordinates": [-83.9306966361, 36.0356640538]}, "type": "Feature", "properties": {"collection_times": [{"days": "Mon-Fri", "time": "5:15pm"}, {"days": "Sat", "time": "2:30pm"}, {"days": "Sun", "time": "Closed"}], "id": "3791800046", "name": "USPS COLLECTION BOX - PO LOBBY", "address": {"city": "KNOXVILLE", "state": "TN", "street": "131 LYNNWOOD DR", "postcode": "37918"}}},
{"geometry": {"type": "Point", "coordinates": [-84.0004368659, 35.9356594859]}, "type": "Feature", "properties": {"collection_times": [{"days": "Mon-Fri", "time": "1:30pm"}, {"days": "Sat-Sun", "time": "Closed"}], "id": "3791900004", "name": "USPS COLLECTION BOX - BLUE BOX", "address": {"city": "KNOXVILLE", "state": "TN", "street": "5900 TOOLE DR", "postcode": "37919"}}},
{"geometry": {"type": "Point", "coordinates": [-83.9938231533, 35.9365842145]}, "type": "Feature", "properties": {"collection_times": [{"days": "Mon-Fri", "time": "4:30pm"}, {"days": "Sat", "time": "3:15pm"}, {"days": "Sun", "time": "Closed"}], "id": "3791900005", "name": "USPS COLLECTION BOX - BLUE BOX", "address": {"city": "KNOXVILLE", "state": "TN", "street": "4434 SUTHERLAND AVE", "postcode": "37919"}}},
{"geometry": {"type": "Point", "coordinates": [-83.9938231533, 35.9365842145]}, "type": "Feature", "properties": {"collection_times": [{"days": "Mon-Fri", "time": "4:30pm"}, {"days": "Sat", "time": "3:15pm"}, {"days": "Sun", "time": "Closed"}], "id": "3791900006", "name": "USPS COLLECTION BOX - BLUE BOX", "address": {"city": "KNOXVILLE", "state": "TN", "street": "4434 SUTHERLAND AVE", "postcode": "37919"}}},
{"geometry": {"type": "Point", "coordinates": [-83.9938231533, 35.9365842145]}, "type": "Feature", "properties": {"collection_times": [{"days": "Mon-Fri", "time": "4:30pm"}, {"days": "Sat", "time": "3:15pm"}, {"days": "Sun", "time": "Closed"}], "id": "3791900007", "name": "USPS COLLECTION BOX - BLUE BOX", "address": {"city": "KNOXVILLE", "state": "TN", "street": "4434 SUTHERLAND AVE", "postcode": "37919"}}},
{"geometry": {"type": "Point", "coordinates": [-83.9539566373, 35.955985129]}, "type": "Feature", "properties": {"collection_times": [{"days": "Mon-Fri", "time": "1:15pm"}, {"days": "Sat", "time": "11:45am"}, {"days": "Sun", "time": "Closed"}], "id": "3791900010", "name": "USPS COLLECTION BOX - BLUE BOX", "address": {"city": "KNOXVILLE", "state": "TN", "street": "2408 SUTHERLAND AVE", "postcode": "37919"}}},
{"geometry": {"type": "Point", "coordinates": [-83.9809552933, 35.9401115823]}, "type": "Feature", "properties": {"collection_times": [{"days": "Mon-Fri", "time": "2:00pm"}, {"days": "Sat-Sun", "time": "Closed"}], "id": "3791900014", "name": "USPS COLLECTION BOX - BLUE BOX", "address": {"city": "KNOXVILLE", "state": "TN", "street": "4711 OLD KINGSTON PIKE", "postcode": "37919"}}},
{"geometry": {"type": "Point", "coordinates": [-84.0150081179, 35.9075436026]}, "type": "Feature", "properties": {"collection_times": [{"days": "Mon-Fri", "time": "4:30pm"}, {"days": "Sat", "time": "12:30pm"}, {"days": "Sun", "time": "Closed"}], "id": "3791900015", "name": "USPS COLLECTION BOX - BLUE BOX", "address": {"city": "KNOXVILLE", "state": "TN", "street": "7505 S NORTHSHORE DR", "postcode": "37919"}}},
{"geometry": {"type": "Point", "coordinates": [-84.0076283389, 35.9266854603]}, "type": "Feature", "properties": {"collection_times": [{"days": "Mon-Fri", "time": "2:45pm"}, {"days": "Sat", "time": "12:15pm"}, {"days": "Sun", "time": "Closed"}], "id": "3791900020", "name": "USPS COLLECTION BOX - BLUE BOX", "address": {"city": "KNOXVILLE", "state": "TN", "street": "322 NANCY LYNN LN", "postcode": "37919"}}},
{"geometry": {"type": "Point", "coordinates": [-84.0076283389, 35.9266854603]}, "type": "Feature", "properties": {"collection_times": [{"days": "Mon-Fri", "time": "2:45pm"}, {"days": "Sat", "time": "12:15pm"}, {"days": "Sun", "time": "Closed"}], "id": "3791900021", "name": "USPS COLLECTION BOX - BLUE BOX", "address": {"city": "KNOXVILLE", "state": "TN", "street": "322 NANCY LYNN LN", "postcode": "37919"}}},
{"geometry": {"type": "Point", "coordinates": [-84.0449338463, 35.9258654067]}, "type": "Feature", "properties": {"collection_times": [{"days": "Mon-Fri", "time": "3:45pm"}, {"days": "Sat", "time": "1:30pm"}, {"days": "Sun", "time": "Closed"}], "id": "3791900030", "name": "USPS COLLECTION BOX - BLUE BOX", "address": {"city": "KNOXVILLE", "state": "TN", "street": "7923 KINGSTON PIKE", "postcode": "37919"}}},
{"geometry": {"type": "Point", "coordinates": [-84.0361748852, 35.9283719996]}, "type": "Feature", "properties": {"collection_times": [{"days": "Mon-Fri", "time": "4:15pm"}, {"days": "Sat", "time": "12:45pm"}, {"days": "Sun", "time": "Closed"}], "id": "3791900031", "name": "USPS COLLECTION BOX - BLUE BOX", "address": {"city": "KNOXVILLE", "state": "TN", "street": "7600 KINGSTON PIKE", "postcode": "37919"}}},
{"geometry": {"type": "Point", "coordinates": [-84.0327452555, 35.929543524]}, "type": "Feature", "properties": {"collection_times": [{"days": "Mon-Fri", "time": "4:15pm"}, {"days": "Sat", "time": "12:45pm"}, {"days": "Sun", "time": "Closed"}], "id": "3791900036", "name": "USPS COLLECTION BOX - BLUE BOX", "address": {"city": "KNOXVILLE", "state": "TN", "street": "7428 KINGSTON PIKE", "postcode": "37919"}}},
{"geometry": {"type": "Point", "coordinates": [-84.0292267087, 35.9303646774]}, "type": "Feature", "properties": {"collection_times": [{"days": "Mon-Fri", "time": "4:30pm"}, {"days": "Sat", "time": "1:00pm"}, {"days": "Sun", "time": "Closed"}], "id": "3791900037", "name": "USPS COLLECTION BOX - BLUE BOX", "address": {"city": "KNOXVILLE", "state": "TN", "street": "7240 KINGSTON PIKE", "postcode": "37919"}}},
{"geometry": {"type": "Point", "coordinates": [-84.0227578592, 35.932077219]}, "type": "Feature", "properties": {"collection_times": [{"days": "Mon-Fri", "time": "3:30pm"}, {"days": "Sat", "time": "1:15pm"}, {"days": "Sun", "time": "Closed"}], "id": "3791900038", "name": "USPS COLLECTION BOX - BLUE BOX", "address": {"city": "KNOXVILLE", "state": "TN", "street": "7013 KINGSTON PIKE", "postcode": "37919"}}},
{"geometry": {"type": "Point", "coordinates": [-83.978438971, 35.9410361544]}, "type": "Feature", "properties": {"collection_times": [{"days": "Mon-Fri", "time": "1:45pm"}, {"days": "Sat", "time": "12:00pm"}, {"days": "Sun", "time": "Closed"}], "id": "3791900046", "name": "USPS COLLECTION BOX - BLUE BOX", "address": {"city": "KNOXVILLE", "state": "TN", "street": "4499 KINGSTON PIKE", "postcode": "37919"}}},
{"geometry": {"type": "Point", "coordinates": [-83.9638439389, 35.9335849579]}, "type": "Feature", "properties": {"collection_times": [{"days": "Mon-Fri", "time": "1:45pm"}, {"days": "Sat", "time": "11:45am"}, {"days": "Sun", "time": "Closed"}], "id": "3791900048", "name": "USPS COLLECTION BOX - BLUE BOX", "address": {"city": "KNOXVILLE", "state": "TN", "street": "3708 KEOWEE AVE", "postcode": "37919"}}},
{"geometry": {"type": "Point", "coordinates": [-83.9911978962, 35.9360624649]}, "type": "Feature", "properties": {"collection_times": [{"days": "Mon-Fri", "time": "2:15pm"}, {"days": "Sat-Sun", "time": "Closed"}], "id": "3791900049", "name": "USPS COLLECTION BOX - BLUE BOX", "address": {"city": "KNOXVILLE", "state": "TN", "street": "5410 HOMBERG DR", "postcode": "37919"}}},
{"geometry": {"type": "Point", "coordinates": [-84.0508006376, 35.9214586072]}, "type": "Feature", "properties": {"collection_times": [{"days": "Mon-Fri", "time": "4:00pm"}, {"days": "Sat", "time": "1:30pm"}, {"days": "Sun", "time": "Closed"}], "id": "3791900054", "name": "USPS COLLECTION BOX - BLUE BOX", "address": {"city": "KNOXVILLE", "state": "TN", "street": "1701 DOWNTOWN WEST BLVD", "postcode": "37919"}}},
{"geometry": {"type": "Point", "coordinates": [-84.0508006376, 35.9214586072]}, "type": "Feature", "properties": {"collection_times": [{"days": "Mon-Fri", "time": "4:00pm"}, {"days": "Sat", "time": "1:30pm"}, {"days": "Sun", "time": "Closed"}], "id": "3791900055", "name": "USPS COLLECTION BOX - BLUE BOX", "address": {"city": "KNOXVILLE", "state": "TN", "street": "1701 DOWNTOWN WEST BLVD", "postcode": "37919"}}},
{"geometry": {"type": "Point", "coordinates": [-84.0508006376, 35.9214586072]}, "type": "Feature", "properties": {"collection_times": [{"days": "Mon-Fri", "time": "4:00pm"}, {"days": "Sat", "time": "1:30pm"}, {"days": "Sun", "time": "Closed"}], "id": "3791900056", "name": "USPS COLLECTION BOX - BLUE BOX", "address": {"city": "KNOXVILLE", "state": "TN", "street": "1701 DOWNTOWN WEST BLVD", "postcode": "37919"}}},
{"geometry": {"type": "Point", "coordinates": [-84.0069936747, 35.9313100215]}, "type": "Feature", "properties": {"collection_times": [{"days": "Mon-Fri", "time": "3:00pm"}, {"days": "Sat-Sun", "time": "Closed"}], "id": "3791900057", "name": "USPS COLLECTION BOX - BLUE BOX", "address": {"city": "KNOXVILLE", "state": "TN", "street": "6421 DEANE HILL DR", "postcode": "37919"}}},
{"geometry": {"type": "Point", "coordinates": [-83.9473408505, 35.9532711953]}, "type": "Feature", "properties": {"collection_times": [{"days": "Mon-Fri", "time": "1:30pm"}, {"days": "Sat-Sun", "time": "Closed"}], "id": "3791900060", "name": "USPS COLLECTION BOX - BLUE BOX", "address": {"city": "KNOXVILLE", "state": "TN", "street": "601 CONCORD RD", "postcode": "37919"}}},
{"geometry": {"type": "Point", "coordinates": [-84.0039970688, 35.9377687551]}, "type": "Feature", "properties": {"collection_times": [{"days": "Mon-Fri", "time": "3:00pm"}, {"days": "Sat-Sun", "time": "Closed"}], "id": "3791900063", "name": "USPS COLLECTION BOX - BLUE BOX", "address": {"city": "KNOXVILLE", "state": "TN", "street": "6016 BROOKVALE LN", "postcode": "37919"}}},
{"geometry": {"type": "Point", "coordinates": [-84.0101375289, 35.9269118955]}, "type": "Feature", "properties": {"collection_times": [{"days": "Mon-Fri", "time": "2:30pm"}, {"days": "Sat-Sun", "time": "Closed"}], "id": "3791900064", "name": "USPS COLLECTION BOX - BLUE BOX", "address": {"city": "KNOXVILLE", "state": "TN", "street": "6701 BAUM DR", "postcode": "37919"}}},
{"geometry": {"type": "Point", "coordinates": [-84.0234753962, 35.9079826562]}, "type": "Feature", "properties": {"collection_times": [{"days": "Mon-Fri", "time": "4:30pm"}, {"days": "Sat-Sun", "time": "Closed"}], "id": "3791900068", "name": "USPS COLLECTION BOX - BLUE BOX", "address": {"city": "KNOXVILLE", "state": "TN", "street": "1200 ROCKY HILL RD", "postcode": "37919"}}},
{"geometry": {"type": "Point", "coordinates": [-84.0037558012, 35.9294664405]}, "type": "Feature", "properties": {"collection_times": [{"days": "Mon-Fri", "time": "4:45pm"}, {"days": "Sat-Sun", "time": "Closed"}], "id": "3791900069", "name": "USPS COLLECTION BOX - BLUE BOX", "address": {"city": "KNOXVILLE", "state": "TN", "street": "6300 BAUM DR", "postcode": "37919"}}},
{"geometry": {"type": "Point", "coordinates": [-84.0037558012, 35.9294664405]}, "type": "Feature", "properties": {"collection_times": [{"days": "Mon-Fri", "time": "4:45pm"}, {"days": "Sat-Sun", "time": "Closed"}], "id": "3791900070", "name": "USPS COLLECTION BOX - BLUE BOX", "address": {"city": "KNOXVILLE", "state": "TN", "street": "6300 BAUM DR", "postcode": "37919"}}},
{"geometry": {"type": "Point", "coordinates": [-83.99818, 35.92519]}, "type": "Feature", "properties": {"collection_times": [{"days": "Mon-Fri", "time": "2:15pm"}, {"days": "Sat-Sun", "time": "Closed"}], "id": "3791900071", "name": "USPS COLLECTION BOX - BLUE BOX", "address": {"city": "KNOXVILLE", "state": "TN", "street": "813 N SHORE DR", "postcode": "37919"}}},
{"geometry": {"type": "Point", "coordinates": [-84.04496846, 35.924076898]}, "type": "Feature", "properties": {"collection_times": [{"days": "Mon-Fri", "time": "3:30pm"}, {"days": "Sat-Sun", "time": "Closed"}], "id": "3791900077", "name": "USPS COLLECTION BOX - BLUE BOX", "address": {"city": "KNOXVILLE", "state": "TN", "street": "1900 N WINSTON RD", "postcode": "37919"}}},
{"geometry": {"type": "Point", "coordinates": [-84.0027259558, 35.9329761049]}, "type": "Feature", "properties": {"collection_times": [{"days": "Mon-Fri", "time": "3:00pm"}, {"days": "Sat-Sun", "time": "Closed"}], "id": "3791900078", "name": "USPS COLLECTION BOX - BLUE BOX", "address": {"city": "KNOXVILLE", "state": "TN", "street": "109 N NORTHSHORE DR", "postcode": "37919"}}},
{"geometry": {"type": "Point", "coordinates": [-84.0027294875, 35.9330432071]}, "type": "Feature", "properties": {"collection_times": [{"days": "Mon-Fri", "time": "1:15pm"}, {"days": "Sat-Sun", "time": "Closed"}], "id": "3791900079", "name": "USPS COLLECTION BOX - BLUE BOX", "address": {"city": "KNOXVILLE", "state": "TN", "street": "121 NORTHSHORE DR", "postcode": "37919"}}},
{"geometry": {"type": "Point", "coordinates": [-84.0003647862, 35.9334691096]}, "type": "Feature", "properties": {"collection_times": [{"days": "Mon-Fri", "time": "1:15pm"}, {"days": "Sat-Sun", "time": "Closed"}], "id": "3791900080", "name": "USPS COLLECTION BOX - BLUE BOX", "address": {"city": "KNOXVILLE", "state": "TN", "street": "5941 KINGSTON PIKE", "postcode": "37919"}}},
{"geometry": {"type": "Point", "coordinates": [-83.9455395018, 35.951871584]}, "type": "Feature", "properties": {"collection_times": [{"days": "Mon-Fri", "time": "4:15pm"}, {"days": "Sat-Sun", "time": "Closed"}], "id": "3791900085", "name": "USPS COLLECTION BOX - BLUE BOX", "address": {"city": "KNOXVILLE", "state": "TN", "street": "2607 KINGSTON PIKE", "postcode": "37919"}}},
{"geometry": {"type": "Point", "coordinates": [-83.9938231533, 35.9365842145]}, "type": "Feature", "properties": {"collection_times": [{"days": "Mon-Fri", "time": "5:30pm"}, {"days": "Sat", "time": "2:00pm"}, {"days": "Sun", "time": "Closed"}], "id": "3791900090", "name": "USPS COLLECTION BOX - PO LOBBY", "address": {"city": "KNOXVILLE", "state": "TN", "street": "4434 SUTHERLAND AVE", "postcode": "37919"}}},
{"geometry": {"type": "Point", "coordinates": [-83.9048677398, 35.9350939426]}, "type": "Feature", "properties": {"collection_times": [{"days": "Mon-Fri,Sun", "time": "Closed"}, {"days": "Sat", "time": "12:15pm"}], "id": "3792000001", "name": "USPS COLLECTION BOX - BLUE BOX", "address": {"city": "KNOXVILLE", "state": "TN", "street": "137 E YOUNG HIGH PIKE", "postcode": "37920"}}},
{"geometry": {"type": "Point", "coordinates": [-83.9048677398, 35.9350939426]}, "type": "Feature", "properties": {"collection_times": [{"days": "Mon-Fri", "time": "4:15pm"}, {"days": "Sat", "time": "12:15pm"}, {"days": "Sun", "time": "Closed"}], "id": "3792000002", "name": "USPS COLLECTION BOX - BLUE BOX", "address": {"city": "KNOXVILLE", "state": "TN", "street": "137 E YOUNG HIGH PIKE", "postcode": "37920"}}},
{"geometry": {"type": "Point", "coordinates": [-83.9106602962, 35.9568241125]}, "type": "Feature", "properties": {"collection_times": [{"days": "Mon-Fri", "time": "2:45pm"}, {"days": "Sat-Sun", "time": "Closed"}], "id": "3792000006", "name": "USPS COLLECTION BOX - BLUE BOX", "address": {"city": "KNOXVILLE", "state": "TN", "street": "614 SEVIER AVE", "postcode": "37920"}}},
{"geometry": {"type": "Point", "coordinates": [-83.9390407238, 35.9354408563]}, "type": "Feature", "properties": {"collection_times": [{"days": "Mon-Fri", "time": "1:30pm"}, {"days": "Sat-Sun", "time": "Closed"}], "id": "3792000010", "name": "USPS COLLECTION BOX - BLUE BOX", "address": {"city": "KNOXVILLE", "state": "TN", "street": "1521 CHEROKEE TRL", "postcode": "37920"}}},
{"geometry": {"type": "Point", "coordinates": [-83.8113691785, 35.8955509163]}, "type": "Feature", "properties": {"collection_times": [{"days": "Mon-Fri", "time": "2:15pm"}, {"days": "Sat-Sun", "time": "Closed"}], "id": "3792000012", "name": "USPS COLLECTION BOX - BLUE BOX", "address": {"city": "KNOXVILLE", "state": "TN", "street": "8537 CHAPMAN HWY", "postcode": "37920"}}},
{"geometry": {"type": "Point", "coordinates": [-83.8512497709, 35.9097955511]}, "type": "Feature", "properties": {"collection_times": [{"days": "Mon-Fri", "time": "2:15pm"}, {"days": "Sat-Sun", "time": "Closed"}], "id": "3792000014", "name": "USPS COLLECTION BOX - BLUE BOX", "address": {"city": "KNOXVILLE", "state": "TN", "street": "7200 CHAPMAN HWY", "postcode": "37920"}}},
{"geometry": {"type": "Point", "coordinates": [-83.9056569615, 35.9342745854]}, "type": "Feature", "properties": {"collection_times": [{"days": "Mon-Fri", "time": "2:30pm"}, {"days": "Sat-Sun", "time": "Closed"}], "id": "3792000018", "name": "USPS COLLECTION BOX - BLUE BOX", "address": {"city": "KNOXVILLE", "state": "TN", "street": "4409 CHAPMAN HWY", "postcode": "37920"}}},
{"geometry": {"type": "Point", "coordinates": [-83.9538143927, 35.9029260577]}, "type": "Feature", "properties": {"collection_times": [{"days": "Mon-Fri", "time": "1:30pm"}, {"days": "Sat-Sun", "time": "Closed"}], "id": "3792000025", "name": "USPS COLLECTION BOX - BLUE BOX", "address": {"city": "KNOXVILLE", "state": "TN", "street": "2929 ALCOA HWY", "postcode": "37920"}}},
{"geometry": {"type": "Point", "coordinates": [-83.9485971845, 35.9318967143]}, "type": "Feature", "properties": {"collection_times": [{"days": "Mon-Fri", "time": "1:30pm"}, {"days": "Sat-Sun", "time": "Closed"}], "id": "3792000026", "name": "USPS COLLECTION BOX - BLUE BOX", "address": {"city": "KNOXVILLE", "state": "TN", "street": "1932 ALCOA HWY", "postcode": "37920"}}},
{"geometry": {"type": "Point", "coordinates": [-83.9485539853, 35.9320072836]}, "type": "Feature", "properties": {"collection_times": [{"days": "Mon-Fri", "time": "1:30pm"}, {"days": "Sat-Sun", "time": "Closed"}], "id": "3792000027", "name": "USPS COLLECTION BOX - BLUE BOX", "address": {"city": "KNOXVILLE", "state": "TN", "street": "1928 ALCOA HWY", "postcode": "37920"}}},
{"geometry": {"type": "Point", "coordinates": [-83.9485221236, 35.9321258342]}, "type": "Feature", "properties": {"collection_times": [{"days": "Mon-Fri", "time": "1:30pm"}, {"days": "Sat-Sun", "time": "Closed"}], "id": "3792000028", "name": "USPS COLLECTION BOX - BLUE BOX", "address": {"city": "KNOXVILLE", "state": "TN", "street": "1924 ALCOA HWY", "postcode": "37920"}}},
{"geometry": {"type": "Point", "coordinates": [-83.9065647654, 35.8913386686]}, "type": "Feature", "properties": {"collection_times": [{"days": "Mon-Fri", "time": "2:00pm"}, {"days": "Sat-Sun", "time": "Closed"}], "id": "3792000037", "name": "USPS COLLECTION BOX - BLUE BOX", "address": {"city": "KNOXVILLE", "state": "TN", "street": "2330 W JOHN SEVIER HWY", "postcode": "37920"}}},
{"geometry": {"type": "Point", "coordinates": [-83.8753454751, 35.921294846]}, "type": "Feature", "properties": {"collection_times": [{"days": "Mon-Fri", "time": "2:30pm"}, {"days": "Sat-Sun", "time": "Closed"}], "id": "3792000038", "name": "USPS COLLECTION BOX - BLUE BOX", "address": {"city": "KNOXVILLE", "state": "TN", "street": "6200 CHAPMAN HWY", "postcode": "37920"}}},
{"geometry": {"type": "Point", "coordinates": [-83.9048677398, 35.9350939426]}, "type": "Feature", "properties": {"collection_times": [{"days": "Mon-Fri", "time": "5:00pm"}, {"days": "Sat", "time": "3:00pm"}, {"days": "Sun", "time": "Closed"}], "id": "3792000039", "name": "USPS COLLECTION BOX - PO LOBBY", "address": {"city": "KNOXVILLE", "state": "TN", "street": "137 E YOUNG HIGH PIKE", "postcode": "37920"}}},
{"geometry": {"type": "Point", "coordinates": [-83.9048677398, 35.9350939426]}, "type": "Feature", "properties": {"collection_times": [{"days": "Mon-Fri", "time": "5:00pm"}, {"days": "Sat", "time": "3:00pm"}, {"days": "Sun", "time": "Closed"}], "id": "3792000040", "name": "USPS COLLECTION BOX - PO LOBBY", "address": {"city": "KNOXVILLE", "state": "TN", "street": "137 E YOUNG HIGH PIKE", "postcode": "37920"}}},
{"geometry": {"type": "Point", "coordinates": [-84.0139153661, 35.978853898]}, "type": "Feature", "properties": {"collection_times": [{"days": "Mon-Fri", "time": "3:15pm"}, {"days": "Sat", "time": "2:45pm"}, {"days": "Sun", "time": "Closed"}], "id": "3792100001", "name": "USPS COLLECTION BOX - BLUE BOX", "address": {"city": "KNOXVILLE", "state": "TN", "street": "5705 WESTERN AVE", "postcode": "37921"}}},
{"geometry": {"type": "Point", "coordinates": [-83.9875038032, 35.9725960049]}, "type": "Feature", "properties": {"collection_times": [{"days": "Mon-Fri", "time": "4:00pm"}, {"days": "Sat-Sun", "time": "Closed"}], "id": "3792100004", "name": "USPS COLLECTION BOX - BLUE BOX", "address": {"city": "KNOXVILLE", "state": "TN", "street": "4436 WESTERN AVE", "postcode": "37921"}}},
{"geometry": {"type": "Point", "coordinates": [-83.9759090832, 35.9744822271]}, "type": "Feature", "properties": {"collection_times": [{"days": "Mon-Fri", "time": "3:15pm"}, {"days": "Sat", "time": "11:45am"}, {"days": "Sun", "time": "Closed"}], "id": "3792100005", "name": "USPS COLLECTION BOX - BLUE BOX", "address": {"city": "KNOXVILLE", "state": "TN", "street": "3911 WESTERN AVE", "postcode": "37921"}}},
{"geometry": {"type": "Point", "coordinates": [-83.9734184488, 35.9779776108]}, "type": "Feature", "properties": {"collection_times": [{"days": "Mon-Fri", "time": "3:15pm"}, {"days": "Sat-Sun", "time": "Closed"}], "id": "3792100013", "name": "USPS COLLECTION BOX - BLUE BOX", "address": {"city": "KNOXVILLE", "state": "TN", "street": "3601 PLEASANT RIDGE RD", "postcode": "37921"}}},
{"geometry": {"type": "Point", "coordinates": [-83.9562849216, 35.9639194549]}, "type": "Feature", "properties": {"collection_times": [{"days": "Mon-Fri", "time": "3:30pm"}, {"days": "Sat-Sun", "time": "Closed"}], "id": "3792100018", "name": "USPS COLLECTION BOX - BLUE BOX", "address": {"city": "KNOXVILLE", "state": "TN", "street": "2700 MIDDLEBROOK PIKE", "postcode": "37921"}}},
{"geometry": {"type": "Point", "coordinates": [-83.9534519902, 35.9900509459]}, "type": "Feature", "properties": {"collection_times": [{"days": "Mon-Fri", "time": "3:15pm"}, {"days": "Sat", "time": "12:45pm"}, {"days": "Sun", "time": "Closed"}], "id": "3792100023", "name": "USPS COLLECTION BOX - BLUE BOX", "address": {"city": "KNOXVILLE", "state": "TN", "street": "1014 HEISKELL AVE", "postcode": "37921"}}},
{"geometry": {"type": "Point", "coordinates": [-83.9318863152, 35.9694593892]}, "type": "Feature", "properties": {"collection_times": [{"days": "Mon-Fri", "time": "3:00pm"}, {"days": "Sat-Sun", "time": "Closed"}], "id": "3792100031", "name": "USPS COLLECTION BOX - BLUE BOX", "address": {"city": "KNOXVILLE", "state": "TN", "street": "500 ARTHUR ST", "postcode": "37921"}}},
{"geometry": {"type": "Point", "coordinates": [-84.0079892243, 35.95874626]}, "type": "Feature", "properties": {"collection_times": [{"days": "Mon-Fri", "time": "3:30pm"}, {"days": "Sat-Sun", "time": "Closed"}], "id": "3792100042", "name": "USPS COLLECTION BOX - BLUE BOX", "address": {"city": "KNOXVILLE", "state": "TN", "street": "1700 MIDPARK RD", "postcode": "37921"}}},
{"geometry": {"type": "Point", "coordinates": [-83.9333005058, 35.9754727208]}, "type": "Feature", "properties": {"collection_times": [{"days": "Mon-Fri", "time": "2:00pm"}, {"days": "Sat-Sun", "time": "Closed"}], "id": "3792100044", "name": "USPS COLLECTION BOX - BLUE BOX", "address": {"city": "KNOXVILLE", "state": "TN", "street": "1100 MARION ST", "postcode": "37921"}}},
{"geometry": {"type": "Point", "coordinates": [-84.0941267475, 35.9142546288]}, "type": "Feature", "properties": {"collection_times": [{"days": "Mon-Fri", "time": "3:15pm"}, {"days": "Sat", "time": "1:45pm"}, {"days": "Sun", "time": "Closed"}], "id": "3792200007", "name": "USPS COLLECTION BOX - BLUE BOX", "address": {"city": "KNOXVILLE", "state": "TN", "street": "400 N PETERS RD", "postcode": "37922"}}},
{"geometry": {"type": "Point", "coordinates": [-84.1243802858, 35.9009980377]}, "type": "Feature", "properties": {"collection_times": [{"days": "Mon-Fri", "time": "3:30pm"}, {"days": "Sat-Sun", "time": "Closed"}], "id": "3792200025", "name": "USPS COLLECTION BOX - BLUE BOX", "address": {"city": "KNOXVILLE", "state": "TN", "street": "10267 KINGSTON PIKE", "postcode": "37922"}}},
{"geometry": {"type": "Point", "coordinates": [-84.1069635797, 35.9073450892]}, "type": "Feature", "properties": {"collection_times": [{"days": "Mon-Fri", "time": "4:45pm"}, {"days": "Sat", "time": "2:15pm"}, {"days": "Sun", "time": "Closed"}], "id": "3792200027", "name": "USPS COLLECTION BOX - BLUE BOX", "address": {"city": "KNOXVILLE", "state": "TN", "street": "9700 KINGSTON PIKE", "postcode": "37922"}}},
{"geometry": {"type": "Point", "coordinates": [-84.1069635797, 35.9073450892]}, "type": "Feature", "properties": {"collection_times": [{"days": "Mon-Fri", "time": "4:45pm"}, {"days": "Sat", "time": "2:15pm"}, {"days": "Sun", "time": "Closed"}], "id": "3792200028", "name": "USPS COLLECTION BOX - BLUE BOX", "address": {"city": "KNOXVILLE", "state": "TN", "street": "9700 KINGSTON PIKE", "postcode": "37922"}}},
{"geometry": {"type": "Point", "coordinates": [-84.0865327933, 35.9115755427]}, "type": "Feature", "properties": {"collection_times": [{"days": "Mon-Fri", "time": "2:45pm"}, {"days": "Sat", "time": "2:15pm"}, {"days": "Sun", "time": "Closed"}], "id": "3792200031", "name": "USPS COLLECTION BOX - BLUE BOX", "address": {"city": "KNOXVILLE", "state": "TN", "street": "9200 KINGSTON PIKE", "postcode": "37922"}}},
{"geometry": {"type": "Point", "coordinates": [-84.1327894938, 35.8956922322]}, "type": "Feature", "properties": {"collection_times": [{"days": "Mon-Fri", "time": "4:30pm"}, {"days": "Sat", "time": "2:15pm"}, {"days": "Sun", "time": "Closed"}], "id": "3792200034", "name": "USPS COLLECTION BOX - BLUE BOX", "address": {"city": "KNOXVILLE", "state": "TN", "street": "124 HUXLEY RD", "postcode": "37922"}}},
{"geometry": {"type": "Point", "coordinates": [-84.1327894938, 35.8956922322]}, "type": "Feature", "properties": {"collection_times": [{"days": "Mon-Fri", "time": "4:30pm"}, {"days": "Sat", "time": "2:15pm"}, {"days": "Sun", "time": "Closed"}], "id": "3792200035", "name": "USPS COLLECTION BOX - BLUE BOX", "address": {"city": "KNOXVILLE", "state": "TN", "street": "124 HUXLEY RD", "postcode": "37922"}}},
{"geometry": {"type": "Point", "coordinates": [-84.1204478079, 35.9012078723]}, "type": "Feature", "properties": {"collection_times": [{"days": "Mon-Sat", "time": "2:15pm"}, {"days": "Sun", "time": "Closed"}], "id": "3792200037", "name": "USPS COLLECTION BOX - BLUE BOX", "address": {"city": "KNOXVILLE", "state": "TN", "street": "200 FORT SANDERS WEST BLVD", "postcode": "37922"}}},
{"geometry": {"type": "Point", "coordinates": [-84.1264000084, 35.8989567047]}, "type": "Feature", "properties": {"collection_times": [{"days": "Mon-Fri", "time": "4:30pm"}, {"days": "Sat-Sun", "time": "Closed"}], "id": "3792200039", "name": "USPS COLLECTION BOX - BLUE BOX", "address": {"city": "KNOXVILLE", "state": "TN", "street": "10404 JACKSON OAKS WAY", "postcode": "37922"}}},
{"geometry": {"type": "Point", "coordinates": [-84.100954159, 35.8804002359]}, "type": "Feature", "properties": {"collection_times": [{"days": "Mon-Fri", "time": "3:30pm"}, {"days": "Sat", "time": "1:45pm"}, {"days": "Sun", "time": "Closed"}], "id": "3792200040", "name": "USPS COLLECTION BOX - BLUE BOX", "address": {"city": "KNOXVILLE", "state": "TN", "street": "301 CENTER PARK DR", "postcode": "37922"}}},
{"geometry": {"type": "Point", "coordinates": [-84.1204478079, 35.9012078723]}, "type": "Feature", "properties": {"collection_times": [{"days": "Mon-Sat", "time": "2:15pm"}, {"days": "Sun", "time": "Closed"}], "id": "3792200043", "name": "USPS COLLECTION BOX - BLUE BOX", "address": {"city": "KNOXVILLE", "state": "TN", "street": "200 FORT SANDERS WEST BLVD", "postcode": "37922"}}},
{"geometry": {"type": "Point", "coordinates": [-84.0941267475, 35.9142546288]}, "type": "Feature", "properties": {"collection_times": [{"days": "Mon-Fri", "time": "3:15pm"}, {"days": "Sat", "time": "1:45pm"}, {"days": "Sun", "time": "Closed"}], "id": "3792200044", "name": "USPS COLLECTION BOX - BLUE BOX", "address": {"city": "KNOXVILLE", "state": "TN", "street": "400 N PETERS RD", "postcode": "37922"}}},
{"geometry": {"type": "Point", "coordinates": [-84.0646247776, 35.877214219]}, "type": "Feature", "properties": {"collection_times": [{"days": "Mon-Fri", "time": "2:45pm"}, {"days": "Sat-Sun", "time": "Closed"}], "id": "3792200045", "name": "USPS COLLECTION BOX - BLUE BOX", "address": {"city": "KNOXVILLE", "state": "TN", "street": "1601 EBENEZER RD", "postcode": "37922"}}},
{"geometry": {"type": "Point", "coordinates": [-84.063493087, 35.8639032398]}, "type": "Feature", "properties": {"collection_times": [{"days": "Mon-Fri", "time": "3:00pm"}, {"days": "Sat-Sun", "time": "Closed"}], "id": "3792200053", "name": "USPS COLLECTION BOX - BLUE BOX", "address": {"city": "KNOXVILLE", "state": "TN", "street": "9501 S NORTHSHORE DR", "postcode": "37922"}}},
{"geometry": {"type": "Point", "coordinates": [-84.100954159, 35.8804002359]}, "type": "Feature", "properties": {"collection_times": [{"days": "Mon-Fri", "time": "3:30pm"}, {"days": "Sat", "time": "1:45pm"}, {"days": "Sun", "time": "Closed"}], "id": "3792200054", "name": "USPS COLLECTION BOX - BLUE BOX", "address": {"city": "KNOXVILLE", "state": "TN", "street": "301 CENTER PARK DR", "postcode": "37922"}}},
{"geometry": {"type": "Point", "coordinates": [-84.0713093909, 35.8944973765]}, "type": "Feature", "properties": {"collection_times": [{"days": "Mon-Fri", "time": "2:45pm"}, {"days": "Sat-Sun", "time": "Closed"}], "id": "3792200057", "name": "USPS COLLECTION BOX - BLUE BOX", "address": {"city": "KNOXVILLE", "state": "TN", "street": "8923 LINKSVUE DR", "postcode": "37922"}}},
{"geometry": {"type": "Point", "coordinates": [-84.0747043384, 35.9165693224]}, "type": "Feature", "properties": {"collection_times": [{"days": "Mon-Fri", "time": "3:00pm"}, {"days": "Sat-Sun", "time": "Closed"}], "id": "3792300002", "name": "USPS COLLECTION BOX - BLUE BOX", "address": {"city": "KNOXVILLE", "state": "TN", "street": "8870 KINGSTON PIKE", "postcode": "37923"}}},
{"geometry": {"type": "Point", "coordinates": [-84.0737685935, 35.9172641477]}, "type": "Feature", "properties": {"collection_times": [{"days": "Mon-Fri", "time": "3:00pm"}, {"days": "Sat", "time": "1:30pm"}, {"days": "Sun", "time": "Closed"}], "id": "3792300005", "name": "USPS COLLECTION BOX - BLUE BOX", "address": {"city": "KNOXVILLE", "state": "TN", "street": "8807 KINGSTON PIKE", "postcode": "37923"}}},
{"geometry": {"type": "Point", "coordinates": [-84.0831082346, 35.9216618508]}, "type": "Feature", "properties": {"collection_times": [{"days": "Mon-Fri", "time": "2:00pm"}, {"days": "Sat", "time": "2:15pm"}, {"days": "Sun", "time": "Closed"}], "id": "3792300008", "name": "USPS COLLECTION BOX - BLUE BOX", "address": {"city": "KNOXVILLE", "state": "TN", "street": "9051 EXECUTIVE PARK DR", "postcode": "37923"}}},
{"geometry": {"type": "Point", "coordinates": [-84.0845629004, 35.9213893216]}, "type": "Feature", "properties": {"collection_times": [{"days": "Mon-Fri", "time": "2:00pm"}, {"days": "Sat", "time": "2:15pm"}, {"days": "Sun", "time": "Closed"}], "id": "3792300010", "name": "USPS COLLECTION BOX - BLUE BOX", "address": {"city": "KNOXVILLE", "state": "TN", "street": "9051 EXECUTIVE PARK DR", "postcode": "37923"}}},
{"geometry": {"type": "Point", "coordinates": [-84.0804552284, 35.922415518]}, "type": "Feature", "properties": {"collection_times": [{"days": "Mon-Fri", "time": "3:45pm"}, {"days": "Sat-Sun", "time": "Closed"}], "id": "3792300013", "name": "USPS COLLECTION BOX - BLUE BOX", "address": {"city": "KNOXVILLE", "state": "TN", "street": "312 DIRECTORS DR", "postcode": "37923"}}},
{"geometry": {"type": "Point", "coordinates": [-84.0869676155, 35.9222815489]}, "type": "Feature", "properties": {"collection_times": [{"days": "Mon-Fri", "time": "3:45pm"}, {"days": "Sat-Sun", "time": "Closed"}], "id": "3792300016", "name": "USPS COLLECTION BOX - BLUE BOX", "address": {"city": "KNOXVILLE", "state": "TN", "street": "9111 CROSS PARK DR", "postcode": "37923"}}},
{"geometry": {"type": "Point", "coordinates": [-84.0922558318, 35.9208977581]}, "type": "Feature", "properties": {"collection_times": [{"days": "Mon-Fri", "time": "4:00pm"}, {"days": "Sat-Sun", "time": "Closed"}], "id": "3792300021", "name": "USPS COLLECTION BOX - BLUE BOX", "address": {"city": "KNOXVILLE", "state": "TN", "street": "408 N CEDAR BLUFF RD", "postcode": "37923"}}},
{"geometry": {"type": "Point", "coordinates": [-84.0923038267, 35.9209794325]}, "type": "Feature", "properties": {"collection_times": [{"days": "Mon-Fri", "time": "4:00pm"}, {"days": "Sat-Sun", "time": "Closed"}], "id": "3792300022", "name": "USPS COLLECTION BOX - BLUE BOX", "address": {"city": "KNOXVILLE", "state": "TN", "street": "412 N CEDAR BLUFF RD", "postcode": "37923"}}},
{"geometry": {"type": "Point", "coordinates": [-84.0946072209, 35.9186442754]}, "type": "Feature", "properties": {"collection_times": [{"days": "Mon-Fri", "time": "1:45pm"}, {"days": "Sat", "time": "2:15pm"}, {"days": "Sun", "time": "Closed"}], "id": "3792300028", "name": "USPS COLLECTION BOX - BLUE BOX", "address": {"city": "KNOXVILLE", "state": "TN", "street": "9303 PARK WEST BLVD", "postcode": "37923"}}},
{"geometry": {"type": "Point", "coordinates": [-84.0946072209, 35.9186442754]}, "type": "Feature", "properties": {"collection_times": [{"days": "Mon-Fri", "time": "1:45pm"}, {"days": "Sat", "time": "2:15pm"}, {"days": "Sun", "time": "Closed"}], "id": "3792300030", "name": "USPS COLLECTION BOX - BLUE BOX", "address": {"city": "KNOXVILLE", "state": "TN", "street": "9303 PARK WEST BLVD", "postcode": "37923"}}},
{"geometry": {"type": "Point", "coordinates": [-84.0836077002, 35.9234304582]}, "type": "Feature", "properties": {"collection_times": [{"days": "Mon-Fri", "time": "5:30pm"}, {"days": "Sat", "time": "2:45pm"}, {"days": "Sun", "time": "Closed"}], "id": "3792300032", "name": "USPS COLLECTION BOX - BLUE BOX", "address": {"city": "KNOXVILLE", "state": "TN", "street": "9039 CROSSPARK DR", "postcode": "37923"}}},
{"geometry": {"type": "Point", "coordinates": [-84.0836077002, 35.9234304582]}, "type": "Feature", "properties": {"collection_times": [{"days": "Mon-Fri", "time": "5:30pm"}, {"days": "Sat", "time": "2:45pm"}, {"days": "Sun", "time": "Closed"}], "id": "3792300033", "name": "USPS COLLECTION BOX - BLUE BOX", "address": {"city": "KNOXVILLE", "state": "TN", "street": "9039 CROSSPARK DR", "postcode": "37923"}}},
{"geometry": {"type": "Point", "coordinates": [-84.0836077002, 35.9234304582]}, "type": "Feature", "properties": {"collection_times": [{"days": "Mon-Fri", "time": "5:30pm"}, {"days": "Sat", "time": "2:45pm"}, {"days": "Sun", "time": "Closed"}], "id": "3792300034", "name": "USPS COLLECTION BOX - BLUE BOX", "address": {"city": "KNOXVILLE", "state": "TN", "street": "9039 CROSSPARK DR", "postcode": "37923"}}},
{"geometry": {"type": "Point", "coordinates": [-84.0904521689, 35.9417700324]}, "type": "Feature", "properties": {"collection_times": [{"days": "Mon-Fri", "time": "2:15pm"}, {"days": "Sat-Sun", "time": "Closed"}], "id": "3792300039", "name": "USPS COLLECTION BOX - BLUE BOX", "address": {"city": "KNOXVILLE", "state": "TN", "street": "9161 MIDDLEBROOK PIKE", "postcode": "37923"}}},
{"geometry": {"type": "Point", "coordinates": [-84.0836077002, 35.9234304582]}, "type": "Feature", "properties": {"collection_times": [{"days": "Mon-Fri", "time": "6:30pm"}, {"days": "Sat", "time": "3:00pm"}, {"days": "Sun", "time": "Closed"}], "id": "3792300047", "name": "USPS COLLECTION BOX - APC", "address": {"city": "KNOXVILLE", "state": "TN", "street": "9039 CROSS PARK DR", "postcode": "37923"}}},
{"geometry": {"type": "Point", "coordinates": [-84.0836077002, 35.9234304582]}, "type": "Feature", "properties": {"collection_times": [{"days": "Mon-Fri", "time": "6:30pm"}, {"days": "Sat", "time": "3:00pm"}, {"days": "Sun", "time": "Closed"}], "id": "3792300048", "name": "USPS COLLECTION BOX - PO LOBBY", "address": {"city": "KNOXVILLE", "state": "TN", "street": "9039 CROSS PARK DR", "postcode": "37923"}}},
{"geometry": {"type": "Point", "coordinates": [-84.0535831779, 35.9266426004]}, "type": "Feature", "properties": {"collection_times": [{"days": "Mon-Fri", "time": "3:45pm"}, {"days": "Sat-Sun", "time": "Closed"}], "id": "3792300049", "name": "USPS COLLECTION BOX - BLUE BOX", "address": {"city": "KNOXVILLE", "state": "TN", "street": "8351 E WALKER SPRINGS LN", "postcode": "37923"}}},
{"geometry": {"type": "Point", "coordinates": [-84.1124143596, 35.9794236356]}, "type": "Feature", "properties": {"collection_times": [{"days": "Mon-Fri", "time": "3:45pm"}, {"days": "Sat", "time": "3:00pm"}, {"days": "Sun", "time": "Closed"}], "id": "3793100001", "name": "USPS COLLECTION BOX - BLUE BOX", "address": {"city": "KNOXVILLE", "state": "TN", "street": "7821 OAK RIDGE HWY", "postcode": "37931"}}},
{"geometry": {"type": "Point", "coordinates": [-84.0959364163, 35.9814064182]}, "type": "Feature", "properties": {"collection_times": [{"days": "Mon-Fri", "time": "3:45pm"}, {"days": "Sat", "time": "2:45pm"}, {"days": "Sun", "time": "Closed"}], "id": "3793100002", "name": "USPS COLLECTION BOX - BLUE BOX", "address": {"city": "KNOXVILLE", "state": "TN", "street": "7544 OAK RIDGE HWY", "postcode": "37931"}}},
{"geometry": {"type": "Point", "coordinates": [-84.0799867806, 35.9879581219]}, "type": "Feature", "properties": {"collection_times": [{"days": "Mon-Fri", "time": "3:45pm"}, {"days": "Sat", "time": "3:00pm"}, {"days": "Sun", "time": "Closed"}], "id": "3793100004", "name": "USPS COLLECTION BOX - BLUE BOX", "address": {"city": "KNOXVILLE", "state": "TN", "street": "7255 OAK RIDGE HWY", "postcode": "37931"}}},
{"geometry": {"type": "Point", "coordinates": [-84.1367008052, 35.9205962166]}, "type": "Feature", "properties": {"collection_times": [{"days": "Mon-Fri", "time": "4:45pm"}, {"days": "Sat-Sun", "time": "Closed"}], "id": "3793200001", "name": "USPS COLLECTION BOX - BLUE BOX", "address": {"city": "KNOXVILLE", "state": "TN", "street": "800 INNOVATION DR", "postcode": "37932"}}},
{"geometry": {"type": "Point", "coordinates": [-84.1367008052, 35.9205962166]}, "type": "Feature", "properties": {"collection_times": [{"days": "Mon-Fri", "time": "4:45pm"}, {"days": "Sat-Sun", "time": "Closed"}], "id": "3793200002", "name": "USPS COLLECTION BOX - BLUE BOX", "address": {"city": "KNOXVILLE", "state": "TN", "street": "800 INNOVATION DR", "postcode": "37932"}}},
{"geometry": {"type": "Point", "coordinates": [-84.148528501, 35.9350910287]}, "type": "Feature", "properties": {"collection_times": [{"days": "Mon-Fri", "time": "3:00pm"}, {"days": "Sat-Sun", "time": "Closed"}], "id": "3793200004", "name": "USPS COLLECTION BOX - BLUE BOX", "address": {"city": "KNOXVILLE", "state": "TN", "street": "1400 CENTERPOINT BLVD", "postcode": "37932"}}},
{"geometry": {"type": "Point", "coordinates": [-84.1298827721, 35.9176631771]}, "type": "Feature", "properties": {"collection_times": [{"days": "Mon-Fri", "time": "5:00pm"}, {"days": "Sat-Sun", "time": "Closed"}], "id": "3793200006", "name": "USPS COLLECTION BOX - BLUE BOX", "address": {"city": "KNOXVILLE", "state": "TN", "street": "10208 TECHNOLOGY DR", "postcode": "37932"}}},
{"geometry": {"type": "Point", "coordinates": [-84.1298827721, 35.9176631771]}, "type": "Feature", "properties": {"collection_times": [{"days": "Mon-Fri", "time": "5:00pm"}, {"days": "Sat-Sun", "time": "Closed"}], "id": "3793200007", "name": "USPS COLLECTION BOX - BLUE BOX", "address": {"city": "KNOXVILLE", "state": "TN", "street": "10208 TECHNOLOGY DR", "postcode": "37932"}}},
{"geometry": {"type": "Point", "coordinates": [-84.1505587399, 35.9083391539]}, "type": "Feature", "properties": {"collection_times": [{"days": "Mon-Fri", "time": "2:00pm"}, {"days": "Sat-Sun", "time": "Closed"}], "id": "3793200008", "name": "USPS COLLECTION BOX - BLUE BOX", "address": {"city": "KNOXVILLE", "state": "TN", "street": "11141 OUTLET DR", "postcode": "37932"}}},
{"geometry": {"type": "Point", "coordinates": [-84.1367008052, 35.9205962166]}, "type": "Feature", "properties": {"collection_times": [{"days": "Mon-Fri", "time": "4:45pm"}, {"days": "Sat-Sun", "time": "Closed"}], "id": "3793200010", "name": "USPS COLLECTION BOX - BLUE BOX", "address": {"city": "KNOXVILLE", "state": "TN", "street": "800 INNOVATION DR", "postcode": "37932"}}},
{"geometry": {"type": "Point", "coordinates": [-84.159580156, 35.8794943453]}, "type": "Feature", "properties": {"collection_times": [{"days": "Mon-Fri", "time": "5:15pm"}, {"days": "Sat", "time": "2:15pm"}, {"days": "Sun", "time": "Closed"}], "id": "3793300001", "name": "USPS COLLECTION BOX - BLUE BOX", "address": {"city": "KNOXVILLE", "state": "TN", "street": "11409 MUNICIPAL CENTER DR", "postcode": "37933"}}},
{"geometry": {"type": "Point", "coordinates": [-84.159580156, 35.8794943453]}, "type": "Feature", "properties": {"collection_times": [{"days": "Mon-Fri", "time": "5:15pm"}, {"days": "Sat", "time": "2:15pm"}, {"days": "Sun", "time": "Closed"}], "id": "3793300002", "name": "USPS COLLECTION BOX - BLUE BOX", "address": {"city": "KNOXVILLE", "state": "TN", "street": "11409 MUNICIPAL CENTER DR", "postcode": "37933"}}},
{"geometry": {"type": "Point", "coordinates": [-84.1633171412, 35.879962137]}, "type": "Feature", "properties": {"collection_times": [{"days": "Mon-Fri", "time": "3:45pm"}, {"days": "Sat-Sun", "time": "Closed"}], "id": "3793300004", "name": "USPS COLLECTION BOX - BLUE BOX", "address": {"city": "KNOXVILLE", "state": "TN", "street": "11501 KINGSTON PIKE", "postcode": "37933"}}},
{"geometry": {"type": "Point", "coordinates": [-84.1616231793, 35.8805639894]}, "type": "Feature", "properties": {"collection_times": [{"days": "Mon-Fri", "time": "4:30pm"}, {"days": "Sat-Sun", "time": "Closed"}], "id": "3793300005", "name": "USPS COLLECTION BOX - BLUE BOX", "address": {"city": "KNOXVILLE", "state": "TN", "street": "11420 KINGSTON PIKE", "postcode": "37933"}}},
{"geometry": {"type": "Point", "coordinates": [-84.153754257, 35.8849107543]}, "type": "Feature", "properties": {"collection_times": [{"days": "Mon-Fri", "time": "3:45pm"}, {"days": "Sat-Sun", "time": "Closed"}], "id": "3793300007", "name": "USPS COLLECTION BOX - BLUE BOX", "address": {"city": "KNOXVILLE", "state": "TN", "street": "126 W END AVE", "postcode": "37933"}}},
{"geometry": {"type": "Point", "coordinates": [-84.159580156, 35.8794943453]}, "type": "Feature", "properties": {"collection_times": [{"days": "Mon-Fri", "time": "5:15pm"}, {"days": "Sat", "time": "2:15pm"}, {"days": "Sun", "time": "Closed"}], "id": "3793300008", "name": "USPS COLLECTION BOX - BLUE BOX", "address": {"city": "KNOXVILLE", "state": "TN", "street": "11409 MUNICIPAL CENTER DR", "postcode": "37933"}}},
{"geometry": {"type": "Point", "coordinates": [-84.159580156, 35.8794943453]}, "type": "Feature", "properties": {"collection_times": [{"days": "Mon-Fri", "time": "6:00pm"}, {"days": "Sat", "time": "2:15pm"}, {"days": "Sun", "time": "Closed"}], "id": "3793300009", "name": "USPS COLLECTION BOX - APC", "address": {"city": "KNOXVILLE", "state": "TN", "street": "11409 MUNICIPAL CENTER DR", "postcode": "37933"}}},
{"geometry": {"type": "Point", "coordinates": [-84.159580156, 35.8794943453]}, "type": "Feature", "properties": {"collection_times": [{"days": "Mon-Fri", "time": "6:00pm"}, {"days": "Sat", "time": "2:15pm"}, {"days": "Sun", "time": "Closed"}], "id": "3793300010", "name": "USPS COLLECTION BOX - PO LOBBY", "address": {"city": "KNOXVILLE", "state": "TN", "street": "11409 MUNICIPAL CENTER DR", "postcode": "37933"}}},
{"geometry": {"type": "Point", "coordinates": [-84.1581314816, 35.8999173879]}, "type": "Feature", "properties": {"collection_times": [{"days": "Mon-Fri", "time": "1:30pm"}, {"days": "Sat-Sun", "time": "Closed"}], "id": "3793300011", "name": "USPS COLLECTION BOX - BLUE BOX", "address": {"city": "KNOXVILLE", "state": "TN", "street": "11370 PARKSIDE DR", "postcode": "37933"}}},
{"geometry": {"type": "Point", "coordinates": [-84.159580156, 35.8794943453]}, "type": "Feature", "properties": {"collection_times": [{"days": "Mon-Fri", "time": "6:00pm"}, {"days": "Sat-Sun", "time": "Closed"}], "id": "3793300012", "name": "USPS COLLECTION BOX - PO LOBBY", "address": {"city": "KNOXVILLE", "state": "TN", "street": "11409 MUNICIPAL CENTER DR", "postcode": "37933"}}},
{"geometry": {"type": "Point", "coordinates": [-83.9237424216, 36.0876040001]}, "type": "Feature", "properties": {"collection_times": [{"days": "Mon-Fri", "time": "4:30pm"}, {"days": "Sat", "time": "1:45pm"}, {"days": "Sun", "time": "Closed"}], "id": "3793800002", "name": "USPS COLLECTION BOX - BLUE BOX", "address": {"city": "KNOXVILLE", "state": "TN", "street": "7450 MAYNARDVILLE PIKE", "postcode": "37938"}}},
{"geometry": {"type": "Point", "coordinates": [-83.9237424216, 36.0876040001]}, "type": "Feature", "properties": {"collection_times": [{"days": "Mon-Fri", "time": "5:00pm"}, {"days": "Sat", "time": "2:00pm"}, {"days": "Sun", "time": "Closed"}], "id": "3793800003", "name": "USPS COLLECTION BOX - PO LOBBY", "address": {"city": "KNOXVILLE", "state": "TN", "street": "7450 MAYNARDVILLE PIKE", "postcode": "37938"}}},
{"geometry": {"type": "Point", "coordinates": [-83.9237424216, 36.0876040001]}, "type": "Feature", "properties": {"collection_times": [{"days": "Mon-Fri", "time": "5:00pm"}, {"days": "Sat", "time": "2:00pm"}, {"days": "Sun", "time": "Closed"}], "id": "3793800004", "name": "USPS COLLECTION BOX - PO LOBBY", "address": {"city": "KNOXVILLE", "state": "TN", "street": "7450 MAYNARDVILLE PIKE", "postcode": "37938"}}},
{"geometry": {"type": "Point", "coordinates": [-83.9237424216, 36.0876040001]}, "type": "Feature", "properties": {"collection_times": [{"days": "Mon-Fri", "time": "4:30pm"}, {"days": "Sat", "time": "1:45pm"}, {"days": "Sun", "time": "Closed"}], "id": "3793800005", "name": "USPS COLLECTION BOX - BLUE BOX", "address": {"city": "KNOXVILLE", "state": "TN", "street": "7450 MAYNARDVILLE PIKE", "postcode": "37938"}}},
{"geometry": {"type": "Point", "coordinates": [-84.0132670762, 35.9472910437]}, "type": "Feature", "properties": {"collection_times": [{"days": "Mon-Fri", "time": "7:00pm"}, {"days": "Sat", "time": "6:00pm"}, {"days": "Sun", "time": "Closed"}], "id": "3795000000", "name": "USPS COLLECTION BOX - BLUE BOX", "address": {"city": "KNOXVILLE", "state": "TN", "street": "1237 E WEISGARBER RD", "postcode": "37950"}}},
{"geometry": {"type": "Point", "coordinates": [-84.0132670762, 35.9472910437]}, "type": "Feature", "properties": {"collection_times": [{"days": "Mon-Fri", "time": "7:00pm"}, {"days": "Sat", "time": "6:00pm"}, {"days": "Sun", "time": "Closed"}], "id": "3795000003", "name": "USPS COLLECTION BOX - PO LOBBY", "address": {"city": "KNOXVILLE", "state": "TN", "street": "1237 E WEISGARBER RD", "postcode": "37950"}}},
{"geometry": {"type": "Point", "coordinates": [-84.0132670762, 35.9472910437]}, "type": "Feature", "properties": {"collection_times": [{"days": "Mon-Fri", "time": "7:00pm"}, {"days": "Sat", "time": "6:00pm"}, {"days": "Sun", "time": "Closed"}], "id": "3795000004", "name": "USPS COLLECTION BOX - PO LOBBY", "address": {"city": "KNOXVILLE", "state": "TN", "street": "1237 E WEISGARBER RD", "postcode": "37950"}}},
{"geometry": {"type": "Point", "coordinates": [-84.0132670762, 35.9472910437]}, "type": "Feature", "properties": {"collection_times": [{"days": "Mon-Fri", "time": "7:00pm"}, {"days": "Sat", "time": "6:00pm"}, {"days": "Sun", "time": "Closed"}], "id": "3795000005", "name": "USPS COLLECTION BOX - APC", "address": {"city": "KNOXVILLE", "state": "TN", "street": "1237 E WEISGARBER RD", "postcode": "37950"}}}
]}
