{"type": "FeatureCollection", "features": [
{"geometry": {"type": "Point", "coordinates": [-89.1165994073, 35.7834989243]}, "type": "Feature", "properties": {"collection_times": [{"days": "Mon-Fri", "time": "4:00pm"}, {"days": "Sat", "time": "12:00pm"}, {"days": "Sun", "time": "Closed"}], "id": "3800100001", "name": "USPS COLLECTION BOX - BLUE BOX", "address": {"city": "ALAMO", "state": "TN", "street": "80 E PARK", "postcode": "38001"}}},
{"geometry": {"type": "Point", "coordinates": [-89.1172960786, 35.7851402924]}, "type": "Feature", "properties": {"collection_times": [{"days": "Mon-Sat", "time": "3:00pm"}, {"days": "Sun", "time": "Closed"}], "id": "3800100002", "name": "USPS COLLECTION BOX - BLUE BOX", "address": {"city": "ALAMO", "state": "TN", "street": "1 N BELLS ST", "postcode": "38001"}}},
{"geometry": {"type": "Point", "coordinates": [-89.1165994073, 35.7834989243]}, "type": "Feature", "properties": {"collection_times": [{"days": "Mon-Fri", "time": "4:00pm"}, {"days": "Sat", "time": "12:00pm"}, {"days": "Sun", "time": "Closed"}], "id": "3800100004", "name": "USPS COLLECTION BOX - PO LOBBY", "address": {"city": "ALAMO", "state": "TN", "street": "80 E PARK PARK", "postcode": "38001"}}},
{"geometry": {"type": "Point", "coordinates": [-89.7070933445, 35.2873603093]}, "type": "Feature", "properties": {"collection_times": [{"days": "Mon-Fri", "time": "1:00pm"}, {"days": "Sat", "time": "12:00pm"}, {"days": "Sun", "time": "Closed"}], "id": "3800200001", "name": "USPS COLLECTION BOX - BLUE BOX", "address": {"city": "ARLINGTON", "state": "TN", "street": "3740 CANADA & WINDWARD SLOPES", "postcode": "38002"}}},
{"geometry": {"type": "Point", "coordinates": [-89.6710911612, 35.2848066524]}, "type": "Feature", "properties": {"collection_times": [{"days": "Mon-Fri", "time": "4:30pm"}, {"days": "Sat", "time": "2:00pm"}, {"days": "Sun", "time": "Closed"}], "id": "3800200002", "name": "USPS COLLECTION BOX - BLUE BOX", "address": {"city": "ARLINGTON", "state": "TN", "street": "5885 AIRLINE RD", "postcode": "38002"}}},
{"geometry": {"type": "Point", "coordinates": [-89.6710911612, 35.2848066524]}, "type": "Feature", "properties": {"collection_times": [{"days": "Mon-Fri", "time": "4:30pm"}, {"days": "Sat", "time": "2:00pm"}, {"days": "Sun", "time": "Closed"}], "id": "3800200005", "name": "USPS COLLECTION BOX - PO LOBBY", "address": {"city": "ARLINGTON", "state": "TN", "street": "5885 AIRLINE RD", "postcode": "38002"}}},
{"geometry": {"type": "Point", "coordinates": [-89.7856350788, 35.4438226049]}, "type": "Feature", "properties": {"collection_times": [{"days": "Mon-Fri", "time": "4:30pm"}, {"days": "Sat", "time": "1:00pm"}, {"days": "Sun", "time": "Closed"}], "id": "3800400001", "name": "USPS COLLECTION BOX - PO LOBBY", "address": {"city": "ATOKA", "state": "TN", "street": "186 ATOKA MUNFORD RD", "postcode": "38004"}}},
{"geometry": {"type": "Point", "coordinates": [-89.7856350788, 35.4438226049]}, "type": "Feature", "properties": {"collection_times": [{"days": "Mon-Fri", "time": "4:30pm"}, {"days": "Sat", "time": "1:00pm"}, {"days": "Sun", "time": "Closed"}], "id": "3800400002", "name": "USPS COLLECTION BOX - BLUE BOX", "address": {"city": "ATOKA", "state": "TN", "street": "186 ATOKA MUNFORD RD", "postcode": "38004"}}},
{"geometry": {"type": "Point", "coordinates": [-89.0741074907, 35.7196026618]}, "type": "Feature", "properties": {"collection_times": [{"days": "Mon-Fri", "time": "4:15pm"}, {"days": "Sat", "time": "12:15pm"}, {"days": "Sun", "time": "Closed"}], "id": "3800600001", "name": "USPS COLLECTION BOX - PO LOBBY", "address": {"city": "BELLS", "state": "TN", "street": "13065 HIGHWAY 79", "postcode": "38006"}}},
{"geometry": {"type": "Point", "coordinates": [-89.0741074907, 35.7196026618]}, "type": "Feature", "properties": {"collection_times": [{"days": "Mon-Fri", "time": "4:15pm"}, {"days": "Sat", "time": "12:15pm"}, {"days": "Sun", "time": "Closed"}], "id": "3800600002", "name": "USPS COLLECTION BOX - BLUE BOX", "address": {"city": "BELLS", "state": "TN", "street": "13065 HIGHWAY 79", "postcode": "38006"}}},
{"geometry": {"type": "Point", "coordinates": [-89.4382808202, 36.1637701235]}, "type": "Feature", "properties": {"collection_times": [{"days": "Mon-Fri", "time": "4:00pm"}, {"days": "Sat", "time": "9:45am"}, {"days": "Sun", "time": "Closed"}], "id": "3800700001", "name": "USPS COLLECTION BOX - PO LOBBY", "address": {"city": "BOGOTA", "state": "TN", "street": "9866 HIGHWAY 78", "postcode": "38007"}}},
{"geometry": {"type": "Point", "coordinates": [-88.9886733488, 35.2561912034]}, "type": "Feature", "properties": {"collection_times": [{"days": "Mon-Fri", "time": "4:15pm"}, {"days": "Sat", "time": "3:45pm"}, {"days": "Sun", "time": "Closed"}], "id": "3800800002", "name": "USPS COLLECTION BOX - BLUE BOX", "address": {"city": "BOLIVAR", "state": "TN", "street": "118 E MARKET ST", "postcode": "38008"}}},
{"geometry": {"type": "Point", "coordinates": [-89.0005360613, 35.2689896364]}, "type": "Feature", "properties": {"collection_times": [{"days": "Mon-Sat", "time": "1:45pm"}, {"days": "Sun", "time": "Closed"}], "id": "3800800006", "name": "USPS COLLECTION BOX - BLUE BOX", "address": {"city": "BOLIVAR", "state": "TN", "street": "700 NUCKOLLS RD", "postcode": "38008"}}},
{"geometry": {"type": "Point", "coordinates": [-89.0005810137, 35.2678291537]}, "type": "Feature", "properties": {"collection_times": [{"days": "Mon-Sat", "time": "1:45pm"}, {"days": "Sun", "time": "Closed"}], "id": "3800800007", "name": "USPS COLLECTION BOX - BLUE BOX", "address": {"city": "BOLIVAR", "state": "TN", "street": "650 NUCKOLLS RD", "postcode": "38008"}}},
{"geometry": {"type": "Point", "coordinates": [-89.0005722919, 35.2689144283]}, "type": "Feature", "properties": {"collection_times": [{"days": "Mon-Sat", "time": "1:45pm"}, {"days": "Sun", "time": "Closed"}], "id": "3800800008", "name": "USPS COLLECTION BOX - BLUE BOX", "address": {"city": "BOLIVAR", "state": "TN", "street": "1 RIDGECREST DR", "postcode": "38008"}}},
{"geometry": {"type": "Point", "coordinates": [-88.9870344565, 35.2561835487]}, "type": "Feature", "properties": {"collection_times": [{"days": "Mon-Fri", "time": "4:15pm"}, {"days": "Sat", "time": "3:45pm"}, {"days": "Sun", "time": "Closed"}], "id": "3800800010", "name": "USPS COLLECTION BOX - BLUE BOX", "address": {"city": "BOLIVAR", "state": "TN", "street": "100 WARREN ST", "postcode": "38008"}}},
{"geometry": {"type": "Point", "coordinates": [-89.0023044144, 35.243408325]}, "type": "Feature", "properties": {"collection_times": [{"days": "Mon-Fri", "time": "1:45pm"}, {"days": "Sat", "time": "11:45am"}, {"days": "Sun", "time": "Closed"}], "id": "3800800012", "name": "USPS COLLECTION BOX - BLUE BOX", "address": {"city": "BOLIVAR", "state": "TN", "street": "11100 HIGHWAY 64", "postcode": "38008"}}},
{"geometry": {"type": "Point", "coordinates": [-88.9886733488, 35.2561912034]}, "type": "Feature", "properties": {"collection_times": [{"days": "Mon-Fri", "time": "4:30pm"}, {"days": "Sat", "time": "3:45pm"}, {"days": "Sun", "time": "Closed"}], "id": "3800800014", "name": "USPS COLLECTION BOX - PO LOBBY", "address": {"city": "BOLIVAR", "state": "TN", "street": "118 E MARKET ST", "postcode": "38008"}}},
{"geometry": {"type": "Point", "coordinates": [-89.7423447861, 35.4765244083]}, "type": "Feature", "properties": {"collection_times": [{"days": "Mon-Fri", "time": "4:30pm"}, {"days": "Sat", "time": "11:30am"}, {"days": "Sun", "time": "Closed"}], "id": "3801100001", "name": "USPS COLLECTION BOX - BLUE BOX", "address": {"city": "BRIGHTON", "state": "TN", "street": "1600 OLD HIGHWAY 51 S", "postcode": "38011"}}},
{"geometry": {"type": "Point", "coordinates": [-89.7423447861, 35.4765244083]}, "type": "Feature", "properties": {"collection_times": [{"days": "Mon-Fri", "time": "4:30pm"}, {"days": "Sat", "time": "11:30am"}, {"days": "Sun", "time": "Closed"}], "id": "3801100002", "name": "USPS COLLECTION BOX - PO LOBBY", "address": {"city": "BRIGHTON", "state": "TN", "street": "1600 OLD HIGHWAY 51 S", "postcode": "38011"}}},
{"geometry": {"type": "Point", "coordinates": [-89.2676384981, 35.5939591407]}, "type": "Feature", "properties": {"collection_times": [{"days": "Mon-Fri", "time": "3:00pm"}, {"days": "Sat", "time": "2:00pm"}, {"days": "Sun", "time": "Closed"}], "id": "3801200004", "name": "USPS COLLECTION BOX - BLUE BOX", "address": {"city": "BROWNSVILLE", "state": "TN", "street": "403 W MAIN ST", "postcode": "38012"}}},
{"geometry": {"type": "Point", "coordinates": [-89.2626596576, 35.5941081636]}, "type": "Feature", "properties": {"collection_times": [{"days": "Mon-Fri", "time": "3:00pm"}, {"days": "Sat", "time": "2:00pm"}, {"days": "Sun", "time": "Closed"}], "id": "3801200005", "name": "USPS COLLECTION BOX - BLUE BOX", "address": {"city": "BROWNSVILLE", "state": "TN", "street": "19 N COURT SQ", "postcode": "38012"}}},
{"geometry": {"type": "Point", "coordinates": [-89.2626087904, 35.5933711801]}, "type": "Feature", "properties": {"collection_times": [{"days": "Mon-Fri", "time": "3:00pm"}, {"days": "Sat", "time": "2:00pm"}, {"days": "Sun", "time": "Closed"}], "id": "3801200011", "name": "USPS COLLECTION BOX - BLUE BOX", "address": {"city": "BROWNSVILLE", "state": "TN", "street": "14 S COURT SQ", "postcode": "38012"}}},
{"geometry": {"type": "Point", "coordinates": [-89.2512986111, 35.5924613442]}, "type": "Feature", "properties": {"collection_times": [{"days": "Mon-Fri", "time": "4:30pm"}, {"days": "Sat", "time": "2:00pm"}, {"days": "Sun", "time": "Closed"}], "id": "3801200017", "name": "USPS COLLECTION BOX - PO LOBBY", "address": {"city": "BROWNSVILLE", "state": "TN", "street": "201 ANDERSON AVE", "postcode": "38012"}}},
{"geometry": {"type": "Point", "coordinates": [-89.2512986111, 35.5924613442]}, "type": "Feature", "properties": {"collection_times": [{"days": "Mon-Fri", "time": "4:30pm"}, {"days": "Sat", "time": "2:00pm"}, {"days": "Sun", "time": "Closed"}], "id": "3801200018", "name": "USPS COLLECTION BOX - BLUE BOX", "address": {"city": "BROWNSVILLE", "state": "TN", "street": "201 ANDERSON AVE", "postcode": "38012"}}},
{"geometry": {"type": "Point", "coordinates": [-89.2512986111, 35.5924613442]}, "type": "Feature", "properties": {"collection_times": [{"days": "Mon-Fri", "time": "4:30pm"}, {"days": "Sat", "time": "2:00pm"}, {"days": "Sun", "time": "Closed"}], "id": "3801200019", "name": "USPS COLLECTION BOX - BLUE BOX", "address": {"city": "BROWNSVILLE", "state": "TN", "street": "201 ANDERSON AVE", "postcode": "38012"}}},
{"geometry": {"type": "Point", "coordinates": [-89.2512986111, 35.5924613442]}, "type": "Feature", "properties": {"collection_times": [{"days": "Mon-Fri", "time": "4:30pm"}, {"days": "Sat", "time": "2:00pm"}, {"days": "Sun", "time": "Closed"}], "id": "3801200020", "name": "USPS COLLECTION BOX - BLUE BOX", "address": {"city": "BROWNSVILLE", "state": "TN", "street": "201 ANDERSON AVE", "postcode": "38012"}}},
{"geometry": {"type": "Point", "coordinates": [-89.7708752253, 35.2669422079]}, "type": "Feature", "properties": {"collection_times": [{"days": "Mon-Fri", "time": "4:30pm"}, {"days": "Sat", "time": "10:30am"}, {"days": "Sun", "time": "Closed"}], "id": "3801400001", "name": "USPS COLLECTION BOX - BLUE BOX", "address": {"city": "BRUNSWICK", "state": "TN", "street": "8756 CHAFFEE RD", "postcode": "38014"}}},
{"geometry": {"type": "Point", "coordinates": [-89.7708752253, 35.2669422079]}, "type": "Feature", "properties": {"collection_times": [{"days": "Mon-Fri", "time": "4:30pm"}, {"days": "Sat", "time": "10:30am"}, {"days": "Sun", "time": "Closed"}], "id": "3801400002", "name": "USPS COLLECTION BOX - PO LOBBY", "address": {"city": "BRUNSWICK", "state": "TN", "street": "8756 CHAFFEE RD", "postcode": "38014"}}},
{"geometry": {"type": "Point", "coordinates": [-89.8244184429, 35.5509820661]}, "type": "Feature", "properties": {"collection_times": [{"days": "Mon-Fri", "time": "3:15pm"}, {"days": "Sat", "time": "10:45am"}, {"days": "Sun", "time": "Closed"}], "id": "3801500001", "name": "USPS COLLECTION BOX - PO LOBBY", "address": {"city": "BURLISON", "state": "TN", "street": "6379 HIGHWAY 59 W", "postcode": "38015"}}},
{"geometry": {"type": "Point", "coordinates": [-89.824916204, 35.5575708861]}, "type": "Feature", "properties": {"collection_times": [{"days": "Mon-Fri", "time": "3:00pm"}, {"days": "Sat", "time": "10:15am"}, {"days": "Sun", "time": "Closed"}], "id": "3801500002", "name": "USPS COLLECTION BOX - BLUE BOX", "address": {"city": "BURLISON", "state": "TN", "street": "6379 W 59 HWY", "postcode": "38015"}}},
{"geometry": {"type": "Point", "coordinates": [-89.6657666067, 35.041719157]}, "type": "Feature", "properties": {"collection_times": [{"days": "Mon-Fri", "time": "5:00pm"}, {"days": "Sat", "time": "1:00pm"}, {"days": "Sun", "time": "Closed"}], "id": "3801700001", "name": "USPS COLLECTION BOX - BLUE BOX", "address": {"city": "COLLIERVILLE", "state": "TN", "street": "131 S CENTER ST", "postcode": "38017"}}},
{"geometry": {"type": "Point", "coordinates": [-89.6889635992, 35.0483809175]}, "type": "Feature", "properties": {"collection_times": [{"days": "Mon-Fri", "time": "3:00pm"}, {"days": "Sat", "time": "12:00pm"}, {"days": "Sun", "time": "Closed"}], "id": "3801700004", "name": "USPS COLLECTION BOX - BLUE BOX", "address": {"city": "COLLIERVILLE", "state": "TN", "street": "252 NEW BYHALIA RD", "postcode": "38017"}}},
{"geometry": {"type": "Point", "coordinates": [-89.6842982221, 35.0460435196]}, "type": "Feature", "properties": {"collection_times": [{"days": "Mon-Fri", "time": "3:00pm"}, {"days": "Sat", "time": "12:00pm"}, {"days": "Sun", "time": "Closed"}], "id": "3801700006", "name": "USPS COLLECTION BOX - BLUE BOX", "address": {"city": "COLLIERVILLE", "state": "TN", "street": "656 W POPLAR AVE", "postcode": "38017"}}},
{"geometry": {"type": "Point", "coordinates": [-89.6889635992, 35.0483809175]}, "type": "Feature", "properties": {"collection_times": [{"days": "Mon-Fri", "time": "3:00pm"}, {"days": "Sat", "time": "12:00pm"}, {"days": "Sun", "time": "Closed"}], "id": "3801700010", "name": "USPS COLLECTION BOX - BLUE BOX", "address": {"city": "COLLIERVILLE", "state": "TN", "street": "252 NEW BYHALIA RD", "postcode": "38017"}}},
{"geometry": {"type": "Point", "coordinates": [-89.6610766882, 35.0453595248]}, "type": "Feature", "properties": {"collection_times": [{"days": "Mon-Fri", "time": "3:00pm"}, {"days": "Sat", "time": "12:00pm"}, {"days": "Sun", "time": "Closed"}], "id": "3801700011", "name": "USPS COLLECTION BOX - BLUE BOX", "address": {"city": "COLLIERVILLE", "state": "TN", "street": "237 POPLAR VIEW PKWY", "postcode": "38017"}}},
{"geometry": {"type": "Point", "coordinates": [-89.6657666067, 35.041719157]}, "type": "Feature", "properties": {"collection_times": [{"days": "Mon-Fri", "time": "5:00pm"}, {"days": "Sat", "time": "1:00pm"}, {"days": "Sun", "time": "Closed"}], "id": "3801700013", "name": "USPS COLLECTION BOX - PO LOBBY", "address": {"city": "COLLIERVILLE", "state": "TN", "street": "131 S CENTER ST", "postcode": "38017"}}},
{"geometry": {"type": "Point", "coordinates": [-89.7144364182, 35.0474994976]}, "type": "Feature", "properties": {"collection_times": [{"days": "Mon-Fri", "time": "3:00pm"}, {"days": "Sat", "time": "12:00pm"}, {"days": "Sun", "time": "Closed"}], "id": "3801700014", "name": "USPS COLLECTION BOX - BLUE BOX", "address": {"city": "COLLIERVILLE", "state": "TN", "street": "1500 W POPLAR AVE", "postcode": "38017"}}},
{"geometry": {"type": "Point", "coordinates": [-89.6557521899, 35.0367475835]}, "type": "Feature", "properties": {"collection_times": [{"days": "Mon-Fri", "time": "3:00pm"}, {"days": "Sat", "time": "12:00pm"}, {"days": "Sun", "time": "Closed"}], "id": "3801700015", "name": "USPS COLLECTION BOX - BLUE BOX", "address": {"city": "COLLIERVILLE", "state": "TN", "street": "311 MOORE LN", "postcode": "38017"}}},
{"geometry": {"type": "Point", "coordinates": [-89.7235141031, 35.0382857762]}, "type": "Feature", "properties": {"collection_times": [{"days": "Mon-Fri", "time": "3:00pm"}, {"days": "Sat", "time": "12:00pm"}, {"days": "Sun", "time": "Closed"}], "id": "3801700019", "name": "USPS COLLECTION BOX - BLUE BOX", "address": {"city": "COLLIERVILLE", "state": "TN", "street": "50 FED EX PKWY", "postcode": "38017"}}},
{"geometry": {"type": "Point", "coordinates": [-89.6585976897, 35.05231132]}, "type": "Feature", "properties": {"collection_times": [{"days": "Mon-Fri", "time": "3:00pm"}, {"days": "Sat", "time": "12:00pm"}, {"days": "Sun", "time": "Closed"}], "id": "3801700020", "name": "USPS COLLECTION BOX - BLUE BOX", "address": {"city": "COLLIERVILLE", "state": "TN", "street": "3685 S HOUSTON LEVEE RD", "postcode": "38017"}}},
{"geometry": {"type": "Point", "coordinates": [-89.6657666067, 35.041719157]}, "type": "Feature", "properties": {"collection_times": [{"days": "Mon-Fri", "time": "5:00pm"}, {"days": "Sat", "time": "1:00pm"}, {"days": "Sun", "time": "Closed"}], "id": "3801700021", "name": "USPS COLLECTION BOX - APC", "address": {"city": "COLLIERVILLE", "state": "TN", "street": "131 S CENTER ST", "postcode": "38017"}}},
{"geometry": {"type": "Point", "coordinates": [-89.699365521, 35.0485499651]}, "type": "Feature", "properties": {"collection_times": [{"days": "Mon-Fri", "time": "3:00pm"}, {"days": "Sat", "time": "12:00pm"}, {"days": "Sun", "time": "Closed"}], "id": "3801700022", "name": "USPS COLLECTION BOX - BLUE BOX", "address": {"city": "COLLIERVILLE", "state": "TN", "street": "311 POPLAR VIEW LN W", "postcode": "38017"}}},
{"geometry": {"type": "Point", "coordinates": [-89.7925992489, 35.1467887924]}, "type": "Feature", "properties": {"collection_times": [{"days": "Mon-Fri", "time": "3:00pm"}, {"days": "Sat", "time": "12:00pm"}, {"days": "Sun", "time": "Closed"}], "id": "3801800002", "name": "USPS COLLECTION BOX - BLUE BOX", "address": {"city": "CORDOVA", "state": "TN", "street": "8111 WALNUT GROVE RD", "postcode": "38018"}}},
{"geometry": {"type": "Point", "coordinates": [-89.7877659369, 35.1537558119]}, "type": "Feature", "properties": {"collection_times": [{"days": "Mon-Fri", "time": "5:00pm"}, {"days": "Sat", "time": "4:00pm"}, {"days": "Sun", "time": "Closed"}], "id": "3801800006", "name": "USPS COLLECTION BOX - BLUE BOX", "address": {"city": "CORDOVA", "state": "TN", "street": "8255 MACON RD", "postcode": "38018"}}},
{"geometry": {"type": "Point", "coordinates": [-89.7660601849, 35.1381309971]}, "type": "Feature", "properties": {"collection_times": [{"days": "Mon-Fri", "time": "3:00pm"}, {"days": "Sat", "time": "12:00pm"}, {"days": "Sun", "time": "Closed"}], "id": "3801800011", "name": "USPS COLLECTION BOX - BLUE BOX", "address": {"city": "CORDOVA", "state": "TN", "street": "714 TRINITY CMNS", "postcode": "38018"}}},
{"geometry": {"type": "Point", "coordinates": [-89.7978539526, 35.1270262799]}, "type": "Feature", "properties": {"collection_times": [{"days": "Mon-Fri", "time": "3:00pm"}, {"days": "Sat", "time": "12:00pm"}, {"days": "Sun", "time": "Closed"}], "id": "3801800014", "name": "USPS COLLECTION BOX - BLUE BOX", "address": {"city": "CORDOVA", "state": "TN", "street": "150 TIMBER CREEK DR", "postcode": "38018"}}},
{"geometry": {"type": "Point", "coordinates": [-89.7931670332, 35.1708965409]}, "type": "Feature", "properties": {"collection_times": [{"days": "Mon-Fri", "time": "3:00pm"}, {"days": "Sat", "time": "12:00pm"}, {"days": "Sun", "time": "Closed"}], "id": "3801800020", "name": "USPS COLLECTION BOX - BLUE BOX", "address": {"city": "CORDOVA", "state": "TN", "street": "1675 N GERMANTOWN PKWY", "postcode": "38018"}}},
{"geometry": {"type": "Point", "coordinates": [-89.7877659369, 35.1537558119]}, "type": "Feature", "properties": {"collection_times": [{"days": "Mon-Fri", "time": "5:00pm"}, {"days": "Sat", "time": "4:00pm"}, {"days": "Sun", "time": "Closed"}], "id": "3801800033", "name": "USPS COLLECTION BOX - PO LOBBY", "address": {"city": "CORDOVA", "state": "TN", "street": "8255 MACON RD", "postcode": "38018"}}},
{"geometry": {"type": "Point", "coordinates": [-89.7949220632, 35.1300585998]}, "type": "Feature", "properties": {"collection_times": [{"days": "Mon-Fri", "time": "3:00pm"}, {"days": "Sat", "time": "12:00pm"}, {"days": "Sun", "time": "Closed"}], "id": "3801800036", "name": "USPS COLLECTION BOX - BLUE BOX", "address": {"city": "CORDOVA", "state": "TN", "street": "57 GERMANTOWN CT", "postcode": "38018"}}},
{"geometry": {"type": "Point", "coordinates": [-89.7949220632, 35.1300585998]}, "type": "Feature", "properties": {"collection_times": [{"days": "Mon-Fri", "time": "3:00pm"}, {"days": "Sat", "time": "12:00pm"}, {"days": "Sun", "time": "Closed"}], "id": "3801800037", "name": "USPS COLLECTION BOX - BLUE BOX", "address": {"city": "CORDOVA", "state": "TN", "street": "57 GERMANTOWN CT", "postcode": "38018"}}},
{"geometry": {"type": "Point", "coordinates": [-89.7949220632, 35.1300585998]}, "type": "Feature", "properties": {"collection_times": [{"days": "Mon-Fri", "time": "3:00pm"}, {"days": "Sat", "time": "12:00pm"}, {"days": "Sun", "time": "Closed"}], "id": "3801800038", "name": "USPS COLLECTION BOX - BLUE BOX", "address": {"city": "CORDOVA", "state": "TN", "street": "57 GERMANTOWN CT", "postcode": "38018"}}},
{"geometry": {"type": "Point", "coordinates": [-89.7877659369, 35.1537558119]}, "type": "Feature", "properties": {"collection_times": [{"days": "Mon-Fri", "time": "5:00pm"}, {"days": "Sat", "time": "4:00pm"}, {"days": "Sun", "time": "Closed"}], "id": "3801800039", "name": "USPS COLLECTION BOX - BLUE BOX", "address": {"city": "CORDOVA", "state": "TN", "street": "8255 MACON RD", "postcode": "38018"}}},
{"geometry": {"type": "Point", "coordinates": [-89.7877659369, 35.1537558119]}, "type": "Feature", "properties": {"collection_times": [{"days": "Mon-Fri", "time": "5:00pm"}, {"days": "Sat", "time": "4:00pm"}, {"days": "Sun", "time": "Closed"}], "id": "3801800040", "name": "USPS COLLECTION BOX - BLUE BOX", "address": {"city": "CORDOVA", "state": "TN", "street": "8255 MACON RD", "postcode": "38018"}}},
{"geometry": {"type": "Point", "coordinates": [-89.7945871878, 35.130170031]}, "type": "Feature", "properties": {"collection_times": [{"days": "Mon-Fri", "time": "3:00pm"}, {"days": "Sat", "time": "12:00pm"}, {"days": "Sun", "time": "Closed"}], "id": "3801800041", "name": "USPS COLLECTION BOX - BLUE BOX", "address": {"city": "CORDOVA", "state": "TN", "street": "51 GERMANTOWN CT", "postcode": "38018"}}},
{"geometry": {"type": "Point", "coordinates": [-89.7945871878, 35.130170031]}, "type": "Feature", "properties": {"collection_times": [{"days": "Mon-Fri", "time": "3:00pm"}, {"days": "Sat", "time": "12:00pm"}, {"days": "Sun", "time": "Closed"}], "id": "3801800042", "name": "USPS COLLECTION BOX - BLUE BOX", "address": {"city": "CORDOVA", "state": "TN", "street": "51 GERMANTOWN CT", "postcode": "38018"}}},
{"geometry": {"type": "Point", "coordinates": [-89.7927593589, 35.1881760698]}, "type": "Feature", "properties": {"collection_times": [{"days": "Mon-Fri", "time": "3:00pm"}, {"days": "Sat-Sun", "time": "Closed"}], "id": "3801800043", "name": "USPS COLLECTION BOX - BLUE BOX", "address": {"city": "CORDOVA", "state": "TN", "street": "2289 N GERMANTOWN PKWY", "postcode": "38018"}}},
{"geometry": {"type": "Point", "coordinates": [-89.7877659369, 35.1537558119]}, "type": "Feature", "properties": {"collection_times": [{"days": "Mon-Fri", "time": "5:00pm"}, {"days": "Sat", "time": "4:00pm"}, {"days": "Sun", "time": "Closed"}], "id": "3801800044", "name": "USPS COLLECTION BOX - APC", "address": {"city": "CORDOVA", "state": "TN", "street": "8255 MACON RD", "postcode": "38018"}}},
{"geometry": {"type": "Point", "coordinates": [-89.7660601849, 35.1381309971]}, "type": "Feature", "properties": {"collection_times": [{"days": "Mon-Fri", "time": "3:00pm"}, {"days": "Sat", "time": "12:00pm"}, {"days": "Sun", "time": "Closed"}], "id": "3801800047", "name": "USPS COLLECTION BOX - BLUE BOX", "address": {"city": "CORDOVA", "state": "TN", "street": "104 GERMANTOWN BEND CV", "postcode": "38018"}}},
{"geometry": {"type": "Point", "coordinates": [-89.6462290316, 35.5635734269]}, "type": "Feature", "properties": {"collection_times": [{"days": "Mon-Fri", "time": "5:00pm"}, {"days": "Sat", "time": "3:30pm"}, {"days": "Sun", "time": "Closed"}], "id": "3801900003", "name": "USPS COLLECTION BOX - BLUE BOX", "address": {"city": "COVINGTON", "state": "TN", "street": "220 S MAIN ST", "postcode": "38019"}}},
{"geometry": {"type": "Point", "coordinates": [-89.6462290316, 35.5635734269]}, "type": "Feature", "properties": {"collection_times": [{"days": "Mon-Fri", "time": "5:00pm"}, {"days": "Sat", "time": "3:30pm"}, {"days": "Sun", "time": "Closed"}], "id": "3801900004", "name": "USPS COLLECTION BOX - BLUE BOX", "address": {"city": "COVINGTON", "state": "TN", "street": "220 S MAIN ST", "postcode": "38019"}}},
{"geometry": {"type": "Point", "coordinates": [-89.6462290316, 35.5635734269]}, "type": "Feature", "properties": {"collection_times": [{"days": "Mon-Fri", "time": "5:00pm"}, {"days": "Sat", "time": "3:30pm"}, {"days": "Sun", "time": "Closed"}], "id": "3801900005", "name": "USPS COLLECTION BOX - BLUE BOX", "address": {"city": "COVINGTON", "state": "TN", "street": "220 S MAIN ST", "postcode": "38019"}}},
{"geometry": {"type": "Point", "coordinates": [-89.6472904844, 35.5755842091]}, "type": "Feature", "properties": {"collection_times": [{"days": "Mon-Sat", "time": "1:00pm"}, {"days": "Sun", "time": "Closed"}], "id": "3801900006", "name": "USPS COLLECTION BOX - BLUE BOX", "address": {"city": "COVINGTON", "state": "TN", "street": "150 PEELER RD", "postcode": "38019"}}},
{"geometry": {"type": "Point", "coordinates": [-89.6465783431, 35.5645625804]}, "type": "Feature", "properties": {"collection_times": [{"days": "Mon-Fri", "time": "5:00pm"}, {"days": "Sat", "time": "1:30pm"}, {"days": "Sun", "time": "Closed"}], "id": "3801900007", "name": "USPS COLLECTION BOX - BLUE BOX", "address": {"city": "COVINGTON", "state": "TN", "street": "104 W LIBERTY AVE", "postcode": "38019"}}},
{"geometry": {"type": "Point", "coordinates": [-89.6426532852, 35.5788775669]}, "type": "Feature", "properties": {"collection_times": [{"days": "Mon-Fri", "time": "12:00pm"}, {"days": "Sat", "time": "11:15am"}, {"days": "Sun", "time": "Closed"}], "id": "3801900009", "name": "USPS COLLECTION BOX - BLUE BOX", "address": {"city": "COVINGTON", "state": "TN", "street": "951 HIGHWAY 51 N", "postcode": "38019"}}},
{"geometry": {"type": "Point", "coordinates": [-89.6298196893, 35.5598611916]}, "type": "Feature", "properties": {"collection_times": [{"days": "Mon-Sat", "time": "10:15am"}, {"days": "Sun", "time": "Closed"}], "id": "3801900012", "name": "USPS COLLECTION BOX - BLUE BOX", "address": {"city": "COVINGTON", "state": "TN", "street": "104 STAR SHOPPING CTR ST", "postcode": "38019"}}},
{"geometry": {"type": "Point", "coordinates": [-89.6762351243, 35.5352015389]}, "type": "Feature", "properties": {"collection_times": [{"days": "Mon-Sat", "time": "9:00am"}, {"days": "Sun", "time": "Closed"}], "id": "3801900013", "name": "USPS COLLECTION BOX - BLUE BOX", "address": {"city": "COVINGTON", "state": "TN", "street": "1995 HIGHWAY 51 S", "postcode": "38019"}}},
{"geometry": {"type": "Point", "coordinates": [-89.6462290316, 35.5635734269]}, "type": "Feature", "properties": {"collection_times": [{"days": "Mon-Fri", "time": "5:30pm"}, {"days": "Sat", "time": "3:30pm"}, {"days": "Sun", "time": "Closed"}], "id": "3801900015", "name": "USPS COLLECTION BOX - PO LOBBY", "address": {"city": "COVINGTON", "state": "TN", "street": "220 S MAIN ST", "postcode": "38019"}}},
{"geometry": {"type": "Point", "coordinates": [-89.6407522702, 35.582709171]}, "type": "Feature", "properties": {"collection_times": [{"days": "Mon-Sat", "time": "11:15am"}, {"days": "Sun", "time": "Closed"}], "id": "3801900016", "name": "USPS COLLECTION BOX - BLUE BOX", "address": {"city": "COVINGTON", "state": "TN", "street": "975 HIGHWAY 51 N", "postcode": "38019"}}},
{"geometry": {"type": "Point", "coordinates": [-89.1690562681, 35.8674171024]}, "type": "Feature", "properties": {"collection_times": [{"days": "Mon-Fri", "time": "4:00pm"}, {"days": "Sat", "time": "9:30am"}, {"days": "Sun", "time": "Closed"}], "id": "3802100001", "name": "USPS COLLECTION BOX - BLUE BOX", "address": {"city": "CROCKETT MILLS", "state": "TN", "street": "28 JACKSON STORE RD", "postcode": "38021"}}},
{"geometry": {"type": "Point", "coordinates": [-89.1690562681, 35.8674171024]}, "type": "Feature", "properties": {"collection_times": [{"days": "Mon-Fri", "time": "4:00pm"}, {"days": "Sat", "time": "9:30am"}, {"days": "Sun", "time": "Closed"}], "id": "3802100002", "name": "USPS COLLECTION BOX - PO LOBBY", "address": {"city": "CROCKETT MILLS", "state": "TN", "street": "28 JACKSON STORE RD", "postcode": "38021"}}},
{"geometry": {"type": "Point", "coordinates": [-89.9115413883, 35.4638022219]}, "type": "Feature", "properties": {"collection_times": [{"days": "Mon-Fri", "time": "4:00pm"}, {"days": "Sat", "time": "10:30am"}, {"days": "Sun", "time": "Closed"}], "id": "3802300000", "name": "USPS COLLECTION BOX - BLUE BOX", "address": {"city": "DRUMMONDS", "state": "TN", "street": "5701 RICHARDSON LANDING RD", "postcode": "38023"}}},
{"geometry": {"type": "Point", "coordinates": [-89.9115413883, 35.4638022219]}, "type": "Feature", "properties": {"collection_times": [{"days": "Mon-Fri", "time": "4:00pm"}, {"days": "Sat", "time": "10:30am"}, {"days": "Sun", "time": "Closed"}], "id": "3802300001", "name": "USPS COLLECTION BOX - PO LOBBY", "address": {"city": "DRUMMONDS", "state": "TN", "street": "5701 RICHARDSON LANDING RD", "postcode": "38023"}}},
{"geometry": {"type": "Point", "coordinates": [-89.3876891652, 36.034823361]}, "type": "Feature", "properties": {"collection_times": [{"days": "Mon-Fri", "time": "5:00pm"}, {"days": "Sat", "time": "3:00pm"}, {"days": "Sun", "time": "Closed"}], "id": "3802400010", "name": "USPS COLLECTION BOX - BLUE BOX", "address": {"city": "DYERSBURG", "state": "TN", "street": "309 N CHURCH AVE", "postcode": "38024"}}},
{"geometry": {"type": "Point", "coordinates": [-89.3876891652, 36.034823361]}, "type": "Feature", "properties": {"collection_times": [{"days": "Mon-Fri", "time": "5:00pm"}, {"days": "Sat", "time": "3:00pm"}, {"days": "Sun", "time": "Closed"}], "id": "3802400012", "name": "USPS COLLECTION BOX - BLUE BOX", "address": {"city": "DYERSBURG", "state": "TN", "street": "309 N CHURCH AVE", "postcode": "38024"}}},
{"geometry": {"type": "Point", "coordinates": [-89.3635991802, 36.0528750286]}, "type": "Feature", "properties": {"collection_times": [{"days": "Mon-Fri", "time": "1:00pm"}, {"days": "Sat", "time": "10:00am"}, {"days": "Sun", "time": "Closed"}], "id": "3802400017", "name": "USPS COLLECTION BOX - BLUE BOX", "address": {"city": "DYERSBURG", "state": "TN", "street": "1979 SAINT JOHN AVE", "postcode": "38024"}}},
{"geometry": {"type": "Point", "coordinates": [-89.3802138389, 36.0473541592]}, "type": "Feature", "properties": {"collection_times": [{"days": "Mon-Fri", "time": "1:00pm"}, {"days": "Sat", "time": "10:00am"}, {"days": "Sun", "time": "Closed"}], "id": "3802400021", "name": "USPS COLLECTION BOX - BLUE BOX", "address": {"city": "DYERSBURG", "state": "TN", "street": "400 E TICKLE ST", "postcode": "38024"}}},
{"geometry": {"type": "Point", "coordinates": [-89.3929065711, 36.0578766122]}, "type": "Feature", "properties": {"collection_times": [{"days": "Mon-Fri", "time": "1:00pm"}, {"days": "Sat", "time": "10:00am"}, {"days": "Sun", "time": "Closed"}], "id": "3802400024", "name": "USPS COLLECTION BOX - BLUE BOX", "address": {"city": "DYERSBURG", "state": "TN", "street": "710 US HIGHWAY 51 BYP W", "postcode": "38024"}}},
{"geometry": {"type": "Point", "coordinates": [-89.3957413582, 36.063042561]}, "type": "Feature", "properties": {"collection_times": [{"days": "Mon-Fri", "time": "1:00pm"}, {"days": "Sat", "time": "10:00am"}, {"days": "Sun", "time": "Closed"}], "id": "3802400027", "name": "USPS COLLECTION BOX - BLUE BOX", "address": {"city": "DYERSBURG", "state": "TN", "street": "2525 LAKE RD", "postcode": "38024"}}},
{"geometry": {"type": "Point", "coordinates": [-89.3879848533, 36.0328555262]}, "type": "Feature", "properties": {"collection_times": [{"days": "Mon-Fri", "time": "1:00pm"}, {"days": "Sat", "time": "10:00am"}, {"days": "Sun", "time": "Closed"}], "id": "3802400032", "name": "USPS COLLECTION BOX - BLUE BOX", "address": {"city": "DYERSBURG", "state": "TN", "street": "117 S CHURCH AVE", "postcode": "38024"}}},
{"geometry": {"type": "Point", "coordinates": [-89.3857578121, 36.0337146351]}, "type": "Feature", "properties": {"collection_times": [{"days": "Mon-Fri", "time": "1:00pm"}, {"days": "Sat", "time": "10:00am"}, {"days": "Sun", "time": "Closed"}], "id": "3802400036", "name": "USPS COLLECTION BOX - BLUE BOX", "address": {"city": "DYERSBURG", "state": "TN", "street": "120 MASONIC ST", "postcode": "38024"}}},
{"geometry": {"type": "Point", "coordinates": [-89.3846404713, 36.0326133075]}, "type": "Feature", "properties": {"collection_times": [{"days": "Mon-Fri", "time": "1:00pm"}, {"days": "Sat", "time": "10:00am"}, {"days": "Sun", "time": "Closed"}], "id": "3802400037", "name": "USPS COLLECTION BOX - BLUE BOX", "address": {"city": "DYERSBURG", "state": "TN", "street": "101 W COURT ST", "postcode": "38024"}}},
{"geometry": {"type": "Point", "coordinates": [-89.3876891652, 36.034823361]}, "type": "Feature", "properties": {"collection_times": [{"days": "Mon-Fri", "time": "5:00pm"}, {"days": "Sat", "time": "3:00pm"}, {"days": "Sun", "time": "Closed"}], "id": "3802400064", "name": "USPS COLLECTION BOX - PO LOBBY", "address": {"city": "DYERSBURG", "state": "TN", "street": "309 N CHURCH AVE", "postcode": "38024"}}},
{"geometry": {"type": "Point", "coordinates": [-89.4052274095, 36.0518393514]}, "type": "Feature", "properties": {"collection_times": [{"days": "Mon-Fri", "time": "1:00pm"}, {"days": "Sat", "time": "10:00am"}, {"days": "Sun", "time": "Closed"}], "id": "3802400068", "name": "USPS COLLECTION BOX - BLUE BOX", "address": {"city": "DYERSBURG", "state": "TN", "street": "1355 FLOWERING DOGWOOD LN", "postcode": "38024"}}},
{"geometry": {"type": "Point", "coordinates": [-89.390097461, 36.0332367269]}, "type": "Feature", "properties": {"collection_times": [{"days": "Mon-Fri", "time": "1:00pm"}, {"days": "Sat", "time": "10:00am"}, {"days": "Sun", "time": "Closed"}], "id": "3802400070", "name": "USPS COLLECTION BOX - BLUE BOX", "address": {"city": "DYERSBURG", "state": "TN", "street": "425 W COURT ST", "postcode": "38024"}}},
{"geometry": {"type": "Point", "coordinates": [-89.6492009631, 35.2028515836]}, "type": "Feature", "properties": {"collection_times": [{"days": "Mon-Fri", "time": "4:15pm"}, {"days": "Sat", "time": "11:00am"}, {"days": "Sun", "time": "Closed"}], "id": "3802800001", "name": "USPS COLLECTION BOX - BLUE BOX", "address": {"city": "EADS", "state": "TN", "street": "2824 JEFFERSON", "postcode": "38028"}}},
{"geometry": {"type": "Point", "coordinates": [-89.6492009631, 35.2028515836]}, "type": "Feature", "properties": {"collection_times": [{"days": "Mon-Fri", "time": "4:15pm"}, {"days": "Sat", "time": "11:00am"}, {"days": "Sun", "time": "Closed"}], "id": "3802800002", "name": "USPS COLLECTION BOX - PO LOBBY", "address": {"city": "EADS", "state": "TN", "street": "2824 JEFFERSON", "postcode": "38028"}}},
{"geometry": {"type": "Point", "coordinates": [-89.8571822317, 35.2064565483]}, "type": "Feature", "properties": {"collection_times": [{"days": "Mon-Fri", "time": "4:30pm"}, {"days": "Sat", "time": "10:30am"}, {"days": "Sun", "time": "Closed"}], "id": "3802900001", "name": "USPS COLLECTION BOX - BLUE BOX", "address": {"city": "ELLENDALE", "state": "TN", "street": "7310 CENTRALIA RD", "postcode": "38029"}}},
{"geometry": {"type": "Point", "coordinates": [-89.8571822317, 35.2064565483]}, "type": "Feature", "properties": {"collection_times": [{"days": "Mon-Fri", "time": "4:30pm"}, {"days": "Sat", "time": "10:30am"}, {"days": "Sun", "time": "Closed"}], "id": "3802900002", "name": "USPS COLLECTION BOX - PO LOBBY", "address": {"city": "ELLENDALE", "state": "TN", "street": "7310 CENTRALIA RD", "postcode": "38029"}}},
{"geometry": {"type": "Point", "coordinates": [-89.5942034506, 35.9884551984]}, "type": "Feature", "properties": {"collection_times": [{"days": "Mon-Fri", "time": "4:30pm"}, {"days": "Sat", "time": "10:30am"}, {"days": "Sun", "time": "Closed"}], "id": "3803000001", "name": "USPS COLLECTION BOX - PO LOBBY", "address": {"city": "FINLEY", "state": "TN", "street": "5520 HIGHWAY 104 W", "postcode": "38030"}}},
{"geometry": {"type": "Point", "coordinates": [-89.5942034506, 35.9884551984]}, "type": "Feature", "properties": {"collection_times": [{"days": "Mon-Fri", "time": "4:30pm"}, {"days": "Sat", "time": "10:30am"}, {"days": "Sun", "time": "Closed"}], "id": "3803000002", "name": "USPS COLLECTION BOX - BLUE BOX", "address": {"city": "FINLEY", "state": "TN", "street": "5520 HIGHWAY 104 W", "postcode": "38030"}}},
{"geometry": {"type": "Point", "coordinates": [-89.2449318623, 35.9099069595]}, "type": "Feature", "properties": {"collection_times": [{"days": "Mon-Fri", "time": "3:00pm"}, {"days": "Sat", "time": "12:00pm"}, {"days": "Sun", "time": "Closed"}], "id": "3803400001", "name": "USPS COLLECTION BOX - BLUE BOX", "address": {"city": "FRIENDSHIP", "state": "TN", "street": "143 POPLAR ST", "postcode": "38034"}}},
{"geometry": {"type": "Point", "coordinates": [-89.2449318623, 35.9099069595]}, "type": "Feature", "properties": {"collection_times": [{"days": "Mon-Fri", "time": "3:00pm"}, {"days": "Sat", "time": "10:00am"}, {"days": "Sun", "time": "Closed"}], "id": "3803400002", "name": "USPS COLLECTION BOX - PO LOBBY", "address": {"city": "FRIENDSHIP", "state": "TN", "street": "143 POPLAR ST", "postcode": "38034"}}},
{"geometry": {"type": "Point", "coordinates": [-89.6174308294, 35.3246103906]}, "type": "Feature", "properties": {"collection_times": [{"days": "Mon-Fri", "time": "4:30pm"}, {"days": "Sat", "time": "10:30am"}, {"days": "Sun", "time": "Closed"}], "id": "3803600001", "name": "USPS COLLECTION BOX - BLUE BOX", "address": {"city": "GALLAWAY", "state": "TN", "street": "586 OLD BROWNSVILLE RD", "postcode": "38036"}}},
{"geometry": {"type": "Point", "coordinates": [-89.6174308294, 35.3246103906]}, "type": "Feature", "properties": {"collection_times": [{"days": "Mon-Fri", "time": "4:30pm"}, {"days": "Sat", "time": "10:30am"}, {"days": "Sun", "time": "Closed"}], "id": "3803600002", "name": "USPS COLLECTION BOX - PO LOBBY", "address": {"city": "GALLAWAY", "state": "TN", "street": "586 OLD BROWNSVILLE RD", "postcode": "38036"}}},
{"geometry": {"type": "Point", "coordinates": [-89.4070918495, 35.8394917076]}, "type": "Feature", "properties": {"collection_times": [{"days": "Mon-Sat", "time": "11:00am"}, {"days": "Sun", "time": "Closed"}], "id": "3803700001", "name": "USPS COLLECTION BOX - BLUE BOX", "address": {"city": "GATES", "state": "TN", "street": "76 HENNING ST", "postcode": "38037"}}},
{"geometry": {"type": "Point", "coordinates": [-89.4070918495, 35.8394917076]}, "type": "Feature", "properties": {"collection_times": [{"days": "Mon-Sat", "time": "11:00am"}, {"days": "Sun", "time": "Closed"}], "id": "3803700002", "name": "USPS COLLECTION BOX - PO LOBBY", "address": {"city": "GATES", "state": "TN", "street": "76 HENNING ST", "postcode": "38037"}}},
{"geometry": {"type": "Point", "coordinates": [-89.1855423442, 35.0494170505]}, "type": "Feature", "properties": {"collection_times": [{"days": "Mon-Fri", "time": "3:15pm"}, {"days": "Sat", "time": "10:00am"}, {"days": "Sun", "time": "Closed"}], "id": "3803900001", "name": "USPS COLLECTION BOX - BLUE BOX", "address": {"city": "GRAND JUNCTION", "state": "TN", "street": "152 CHARLESTON ROW E", "postcode": "38039"}}},
{"geometry": {"type": "Point", "coordinates": [-89.1855423442, 35.0494170505]}, "type": "Feature", "properties": {"collection_times": [{"days": "Mon-Fri", "time": "3:00pm"}, {"days": "Sat", "time": "11:00am"}, {"days": "Sun", "time": "Closed"}], "id": "3803900002", "name": "USPS COLLECTION BOX - PO LOBBY", "address": {"city": "GRAND JUNCTION", "state": "TN", "street": "152 CHARLESTON ROW E", "postcode": "38039"}}},
{"geometry": {"type": "Point", "coordinates": [-89.398283537, 35.8716066776]}, "type": "Feature", "properties": {"collection_times": [{"days": "Mon-Fri", "time": "4:30pm"}, {"days": "Sat", "time": "11:30am"}, {"days": "Sun", "time": "Closed"}], "id": "3804000002", "name": "USPS COLLECTION BOX - BLUE BOX", "address": {"city": "HALLS", "state": "TN", "street": "320 SHARP ST", "postcode": "38040"}}},
{"geometry": {"type": "Point", "coordinates": [-89.398283537, 35.8716066776]}, "type": "Feature", "properties": {"collection_times": [{"days": "Mon-Fri", "time": "4:30pm"}, {"days": "Sat", "time": "11:30am"}, {"days": "Sun", "time": "Closed"}], "id": "3804000003", "name": "USPS COLLECTION BOX - PO LOBBY", "address": {"city": "HALLS", "state": "TN", "street": "320 SHARP ST", "postcode": "38040"}}},
{"geometry": {"type": "Point", "coordinates": [-89.5721122592, 35.6747149874]}, "type": "Feature", "properties": {"collection_times": [{"days": "Mon-Fri", "time": "3:00pm"}, {"days": "Sat", "time": "10:15am"}, {"days": "Sun", "time": "Closed"}], "id": "3804100001", "name": "USPS COLLECTION BOX - PO LOBBY", "address": {"city": "HENNING", "state": "TN", "street": "415 N MAIN ST", "postcode": "38041"}}},
{"geometry": {"type": "Point", "coordinates": [-89.5721122592, 35.6747149874]}, "type": "Feature", "properties": {"collection_times": [{"days": "Mon-Fri", "time": "3:00pm"}, {"days": "Sat", "time": "10:15am"}, {"days": "Sun", "time": "Closed"}], "id": "3804100002", "name": "USPS COLLECTION BOX - BLUE BOX", "address": {"city": "HENNING", "state": "TN", "street": "415 N MAIN ST", "postcode": "38041"}}},
{"geometry": {"type": "Point", "coordinates": [-89.1251810062, 35.1468105727]}, "type": "Feature", "properties": {"collection_times": [{"days": "Mon-Fri", "time": "3:45pm"}, {"days": "Sat", "time": "9:45am"}, {"days": "Sun", "time": "Closed"}], "id": "3804200001", "name": "USPS COLLECTION BOX - BLUE BOX", "address": {"city": "HICKORY VALLEY", "state": "TN", "street": "7065 S 18 HWY", "postcode": "38042"}}},
{"geometry": {"type": "Point", "coordinates": [-89.1251810062, 35.1468105727]}, "type": "Feature", "properties": {"collection_times": [{"days": "Mon-Fri", "time": "4:00pm"}, {"days": "Sat", "time": "9:45am"}, {"days": "Sun", "time": "Closed"}], "id": "3804200002", "name": "USPS COLLECTION BOX - PO LOBBY", "address": {"city": "HICKORY VALLEY", "state": "TN", "street": "7065 S 18 HWY", "postcode": "38042"}}},
{"geometry": {"type": "Point", "coordinates": [-88.812042831, 35.2131058222]}, "type": "Feature", "properties": {"collection_times": [{"days": "Mon-Fri", "time": "4:00pm"}, {"days": "Sat", "time": "10:00am"}, {"days": "Sun", "time": "Closed"}], "id": "3804400001", "name": "USPS COLLECTION BOX - BLUE BOX", "address": {"city": "HORNSBY", "state": "TN", "street": "475 MAIN ST", "postcode": "38044"}}},
{"geometry": {"type": "Point", "coordinates": [-88.812042831, 35.2131058222]}, "type": "Feature", "properties": {"collection_times": [{"days": "Mon-Fri", "time": "4:00pm"}, {"days": "Sat", "time": "10:00am"}, {"days": "Sun", "time": "Closed"}], "id": "3804400002", "name": "USPS COLLECTION BOX - PO LOBBY", "address": {"city": "HORNSBY", "state": "TN", "street": "475 MAIN ST", "postcode": "38044"}}},
{"geometry": {"type": "Point", "coordinates": [-89.2588285691, 35.2843723984]}, "type": "Feature", "properties": {"collection_times": [{"days": "Mon-Fri", "time": "1:30pm"}, {"days": "Sat-Sun", "time": "Closed"}], "id": "3804500001", "name": "USPS COLLECTION BOX - PO LOBBY", "address": {"city": "LACONIA", "state": "TN", "street": "2430 LACONIA RD", "postcode": "38045"}}},
{"geometry": {"type": "Point", "coordinates": [-89.2436261695, 35.0453210577]}, "type": "Feature", "properties": {"collection_times": [{"days": "Mon-Fri", "time": "3:45pm"}, {"days": "Sat", "time": "10:15am"}, {"days": "Sun", "time": "Closed"}], "id": "3804600002", "name": "USPS COLLECTION BOX - BLUE BOX", "address": {"city": "LA GRANGE", "state": "TN", "street": "30 MAIN ST", "postcode": "38046"}}},
{"geometry": {"type": "Point", "coordinates": [-89.2436261695, 35.0453210577]}, "type": "Feature", "properties": {"collection_times": [{"days": "Mon-Fri", "time": "3:45pm"}, {"days": "Sat", "time": "10:15am"}, {"days": "Sun", "time": "Closed"}], "id": "3804600003", "name": "USPS COLLECTION BOX - PO LOBBY", "address": {"city": "LA GRANGE", "state": "TN", "street": "30 MAIN ST", "postcode": "38046"}}},
{"geometry": {"type": "Point", "coordinates": [-89.4976241686, 36.0885992301]}, "type": "Feature", "properties": {"collection_times": [{"days": "Mon-Sat", "time": "10:30am"}, {"days": "Sun", "time": "Closed"}], "id": "3804700001", "name": "USPS COLLECTION BOX - BLUE BOX", "address": {"city": "LENOX", "state": "TN", "street": "22 STALLINGS ST", "postcode": "38047"}}},
{"geometry": {"type": "Point", "coordinates": [-89.4976241686, 36.0885992301]}, "type": "Feature", "properties": {"collection_times": [{"days": "Mon-Sat", "time": "10:30am"}, {"days": "Sun", "time": "Closed"}], "id": "3804700002", "name": "USPS COLLECTION BOX - PO LOBBY", "address": {"city": "LENOX", "state": "TN", "street": "22 STALLINGS ST", "postcode": "38047"}}},
{"geometry": {"type": "Point", "coordinates": [-89.489598154, 35.1534001736]}, "type": "Feature", "properties": {"collection_times": [{"days": "Mon-Sat", "time": "11:30am"}, {"days": "Sun", "time": "Closed"}], "id": "3804800001", "name": "USPS COLLECTION BOX - BLUE BOX", "address": {"city": "MACON", "state": "TN", "street": "8630 HIGHWAY 193", "postcode": "38048"}}},
{"geometry": {"type": "Point", "coordinates": [-89.5399109332, 35.4099332823]}, "type": "Feature", "properties": {"collection_times": [{"days": "Mon-Fri", "time": "4:00pm"}, {"days": "Sat", "time": "11:00am"}, {"days": "Sun", "time": "Closed"}], "id": "3804900000", "name": "USPS COLLECTION BOX - BLUE BOX", "address": {"city": "MASON", "state": "TN", "street": "361 HIGHWAY 70 W", "postcode": "38049"}}},
{"geometry": {"type": "Point", "coordinates": [-89.5399109332, 35.4099332823]}, "type": "Feature", "properties": {"collection_times": [{"days": "Mon-Fri", "time": "4:00pm"}, {"days": "Sat", "time": "11:00am"}, {"days": "Sun", "time": "Closed"}], "id": "3804900001", "name": "USPS COLLECTION BOX - PO LOBBY", "address": {"city": "MASON", "state": "TN", "street": "361 HIGHWAY 70 W", "postcode": "38049"}}},
{"geometry": {"type": "Point", "coordinates": [-89.2254032721, 35.8157105627]}, "type": "Feature", "properties": {"collection_times": [{"days": "Mon-Fri", "time": "4:30pm"}, {"days": "Sat", "time": "11:30am"}, {"days": "Sun", "time": "Closed"}], "id": "3805000001", "name": "USPS COLLECTION BOX - BLUE BOX", "address": {"city": "MAURY CITY", "state": "TN", "street": "344 BROADWAY ST", "postcode": "38050"}}},
{"geometry": {"type": "Point", "coordinates": [-89.2254032721, 35.8157105627]}, "type": "Feature", "properties": {"collection_times": [{"days": "Mon-Fri", "time": "4:30pm"}, {"days": "Sat", "time": "11:30am"}, {"days": "Sun", "time": "Closed"}], "id": "3805000002", "name": "USPS COLLECTION BOX - PO LOBBY", "address": {"city": "MAURY CITY", "state": "TN", "street": "344 BROADWAY ST", "postcode": "38050"}}},
{"geometry": {"type": "Point", "coordinates": [-88.8924636895, 35.0582220521]}, "type": "Feature", "properties": {"collection_times": [{"days": "Mon-Fri", "time": "4:30pm"}, {"days": "Sat", "time": "11:30am"}, {"days": "Sun", "time": "Closed"}], "id": "3805200001", "name": "USPS COLLECTION BOX - BLUE BOX", "address": {"city": "MIDDLETON", "state": "TN", "street": "296 S MAIN ST", "postcode": "38052"}}},
{"geometry": {"type": "Point", "coordinates": [-88.8924636895, 35.0582220521]}, "type": "Feature", "properties": {"collection_times": [{"days": "Mon-Fri", "time": "4:30pm"}, {"days": "Sat", "time": "11:30am"}, {"days": "Sun", "time": "Closed"}], "id": "3805200002", "name": "USPS COLLECTION BOX - PO LOBBY", "address": {"city": "MIDDLETON", "state": "TN", "street": "296 S MAIN ST", "postcode": "38052"}}},
{"geometry": {"type": "Point", "coordinates": [-89.8731633882, 35.3282832752]}, "type": "Feature", "properties": {"collection_times": [{"days": "Mon-Sat", "time": "2:00pm"}, {"days": "Sun", "time": "Closed"}], "id": "3805300010", "name": "USPS COLLECTION BOX - BLUE BOX", "address": {"city": "MILLINGTON", "state": "TN", "street": "5722 INTEGRITY DR", "postcode": "38053"}}},
{"geometry": {"type": "Point", "coordinates": [-89.9029598566, 35.3480018316]}, "type": "Feature", "properties": {"collection_times": [{"days": "Mon-Sat", "time": "2:00pm"}, {"days": "Sun", "time": "Closed"}], "id": "3805300015", "name": "USPS COLLECTION BOX - BLUE BOX", "address": {"city": "MILLINGTON", "state": "TN", "street": "8120 US HIGHWAY 51 N", "postcode": "38053"}}},
{"geometry": {"type": "Point", "coordinates": [-89.9017455653, 35.3412997372]}, "type": "Feature", "properties": {"collection_times": [{"days": "Mon-Fri", "time": "5:00pm"}, {"days": "Sat", "time": "3:00pm"}, {"days": "Sun", "time": "Closed"}], "id": "3805300019", "name": "USPS COLLECTION BOX - BLUE BOX", "address": {"city": "MILLINGTON", "state": "TN", "street": "4847 NAVY RD", "postcode": "38053"}}},
{"geometry": {"type": "Point", "coordinates": [-89.9017455653, 35.3412997372]}, "type": "Feature", "properties": {"collection_times": [{"days": "Mon-Fri", "time": "5:00pm"}, {"days": "Sat", "time": "3:00pm"}, {"days": "Sun", "time": "Closed"}], "id": "3805300020", "name": "USPS COLLECTION BOX - BLUE BOX", "address": {"city": "MILLINGTON", "state": "TN", "street": "4847 NAVY RD", "postcode": "38053"}}},
{"geometry": {"type": "Point", "coordinates": [-89.9017455653, 35.3412997372]}, "type": "Feature", "properties": {"collection_times": [{"days": "Mon-Fri", "time": "5:00pm"}, {"days": "Sat", "time": "3:00pm"}, {"days": "Sun", "time": "Closed"}], "id": "3805300021", "name": "USPS COLLECTION BOX - BLUE BOX", "address": {"city": "MILLINGTON", "state": "TN", "street": "4847 NAVY RD", "postcode": "38053"}}},
{"geometry": {"type": "Point", "coordinates": [-89.9017455653, 35.3412997372]}, "type": "Feature", "properties": {"collection_times": [{"days": "Mon-Fri", "time": "5:00pm"}, {"days": "Sat", "time": "3:00pm"}, {"days": "Sun", "time": "Closed"}], "id": "3805300028", "name": "USPS COLLECTION BOX - PO LOBBY", "address": {"city": "MILLINGTON", "state": "TN", "street": "4847 NAVY RD", "postcode": "38053"}}},
{"geometry": {"type": "Point", "coordinates": [-89.897183468, 35.3571804102]}, "type": "Feature", "properties": {"collection_times": [{"days": "Mon-Sat", "time": "1:00pm"}, {"days": "Sun", "time": "Closed"}], "id": "3805300033", "name": "USPS COLLECTION BOX - BLUE BOX", "address": {"city": "MILLINGTON", "state": "TN", "street": "8435 US HIGHWAY 51 N", "postcode": "38053"}}},
{"geometry": {"type": "Point", "coordinates": [-89.8731633882, 35.3282832752]}, "type": "Feature", "properties": {"collection_times": [{"days": "Mon-Sat", "time": "2:00pm"}, {"days": "Sun", "time": "Closed"}], "id": "3805300040", "name": "USPS COLLECTION BOX - BLUE BOX", "address": {"city": "MILLINGTON", "state": "TN", "street": "5722 INTEGRITY DR", "postcode": "38053"}}},
{"geometry": {"type": "Point", "coordinates": [-89.2476866943, 35.0465381481]}, "type": "Feature", "properties": {"collection_times": [{"days": "Mon-Fri", "time": "4:00pm"}, {"days": "Sat", "time": "11:30am"}, {"days": "Sun", "time": "Closed"}], "id": "3805700001", "name": "USPS COLLECTION BOX - PO LOBBY", "address": {"city": "MOSCOW", "state": "TN", "street": "90 4TH AVE", "postcode": "38057"}}},
{"geometry": {"type": "Point", "coordinates": [-89.2476866943, 35.0465381481]}, "type": "Feature", "properties": {"collection_times": [{"days": "Mon-Fri", "time": "3:45pm"}, {"days": "Sat", "time": "11:15am"}, {"days": "Sun", "time": "Closed"}], "id": "3805700002", "name": "USPS COLLECTION BOX - BLUE BOX", "address": {"city": "MOSCOW", "state": "TN", "street": "90 4TH AVE", "postcode": "38057"}}},
{"geometry": {"type": "Point", "coordinates": [-89.8139457434, 35.4496357511]}, "type": "Feature", "properties": {"collection_times": [{"days": "Mon-Fri", "time": "4:30pm"}, {"days": "Sat", "time": "11:30am"}, {"days": "Sun", "time": "Closed"}], "id": "3805800001", "name": "USPS COLLECTION BOX - BLUE BOX", "address": {"city": "MUNFORD", "state": "TN", "street": "25 BASS ST", "postcode": "38058"}}},
{"geometry": {"type": "Point", "coordinates": [-89.8139457434, 35.4496357511]}, "type": "Feature", "properties": {"collection_times": [{"days": "Mon-Fri", "time": "4:30pm"}, {"days": "Sat", "time": "11:30am"}, {"days": "Sun", "time": "Closed"}], "id": "3805800002", "name": "USPS COLLECTION BOX - PO LOBBY", "address": {"city": "MUNFORD", "state": "TN", "street": "25 BASS ST", "postcode": "38058"}}},
{"geometry": {"type": "Point", "coordinates": [-89.2763383863, 36.1111696225]}, "type": "Feature", "properties": {"collection_times": [{"days": "Mon-Fri", "time": "4:45pm"}, {"days": "Sat", "time": "3:30pm"}, {"days": "Sun", "time": "Closed"}], "id": "3805900001", "name": "USPS COLLECTION BOX - PO LOBBY", "address": {"city": "NEWBERN", "state": "TN", "street": "105 BIFFLE RD", "postcode": "38059"}}},
{"geometry": {"type": "Point", "coordinates": [-89.2763383863, 36.1111696225]}, "type": "Feature", "properties": {"collection_times": [{"days": "Mon-Fri", "time": "4:30pm"}, {"days": "Sat", "time": "3:30pm"}, {"days": "Sun", "time": "Closed"}], "id": "3805900003", "name": "USPS COLLECTION BOX - BLUE BOX", "address": {"city": "NEWBERN", "state": "TN", "street": "105 BIFFLE RD", "postcode": "38059"}}},
{"geometry": {"type": "Point", "coordinates": [-89.2633674033, 36.1127389934]}, "type": "Feature", "properties": {"collection_times": [{"days": "Mon-Sat", "time": "2:45pm"}, {"days": "Sun", "time": "Closed"}], "id": "3805900005", "name": "USPS COLLECTION BOX - BLUE BOX", "address": {"city": "NEWBERN", "state": "TN", "street": "121 E MAIN ST", "postcode": "38059"}}},
{"geometry": {"type": "Point", "coordinates": [-89.2643430082, 36.1135170541]}, "type": "Feature", "properties": {"collection_times": [{"days": "Mon-Sat", "time": "2:45pm"}, {"days": "Sun", "time": "Closed"}], "id": "3805900006", "name": "USPS COLLECTION BOX - BLUE BOX", "address": {"city": "NEWBERN", "state": "TN", "street": "104 N MONROE ST", "postcode": "38059"}}},
{"geometry": {"type": "Point", "coordinates": [-89.5100517751, 35.2120942233]}, "type": "Feature", "properties": {"collection_times": [{"days": "Mon-Fri", "time": "4:00pm"}, {"days": "Sat", "time": "12:00pm"}, {"days": "Sun", "time": "Closed"}], "id": "3806000001", "name": "USPS COLLECTION BOX - BLUE BOX", "address": {"city": "OAKLAND", "state": "TN", "street": "14695 S 194 HWY", "postcode": "38060"}}},
{"geometry": {"type": "Point", "coordinates": [-89.5100517751, 35.2120942233]}, "type": "Feature", "properties": {"collection_times": [{"days": "Mon-Fri", "time": "4:00pm"}, {"days": "Sat", "time": "12:00pm"}, {"days": "Sun", "time": "Closed"}], "id": "3806000002", "name": "USPS COLLECTION BOX - PO LOBBY", "address": {"city": "OAKLAND", "state": "TN", "street": "14695 HIGHWAY 194", "postcode": "38060"}}},
{"geometry": {"type": "Point", "coordinates": [-89.5165042288, 35.2289288434]}, "type": "Feature", "properties": {"collection_times": [{"days": "Mon-Fri", "time": "11:30am"}, {"days": "Sat", "time": "11:00am"}, {"days": "Sun", "time": "Closed"}], "id": "3806000003", "name": "USPS COLLECTION BOX - BLUE BOX", "address": {"city": "OAKLAND", "state": "TN", "street": "7265 HIGHWAY 64", "postcode": "38060"}}},
{"geometry": {"type": "Point", "coordinates": [-88.8077324235, 35.0479378342]}, "type": "Feature", "properties": {"collection_times": [{"days": "Mon-Fri", "time": "12:00pm"}, {"days": "Sat", "time": "9:45am"}, {"days": "Sun", "time": "Closed"}], "id": "3806100001", "name": "USPS COLLECTION BOX - BLUE BOX", "address": {"city": "POCAHONTAS", "state": "TN", "street": "22350 57 HWY", "postcode": "38061"}}},
{"geometry": {"type": "Point", "coordinates": [-88.8077324235, 35.0479378342]}, "type": "Feature", "properties": {"collection_times": [{"days": "Mon-Fri", "time": "12:00pm"}, {"days": "Sat", "time": "9:45am"}, {"days": "Sun", "time": "Closed"}], "id": "3806100002", "name": "USPS COLLECTION BOX - PO LOBBY", "address": {"city": "POCAHONTAS", "state": "TN", "street": "22350 57 HWY", "postcode": "38061"}}},
{"geometry": {"type": "Point", "coordinates": [-89.5295527361, 35.7466257418]}, "type": "Feature", "properties": {"collection_times": [{"days": "Mon-Fri", "time": "5:00pm"}, {"days": "Sat", "time": "3:00pm"}, {"days": "Sun", "time": "Closed"}], "id": "3806300000", "name": "USPS COLLECTION BOX - PO LOBBY", "address": {"city": "RIPLEY", "state": "TN", "street": "117 E JACKSON AVE", "postcode": "38063"}}},
{"geometry": {"type": "Point", "coordinates": [-89.5391415626, 35.7397593552]}, "type": "Feature", "properties": {"collection_times": [{"days": "Mon-Sat", "time": "2:15pm"}, {"days": "Sun", "time": "Closed"}], "id": "3806300002", "name": "USPS COLLECTION BOX - BLUE BOX", "address": {"city": "RIPLEY", "state": "TN", "street": "288 S WASHINGTON ST", "postcode": "38063"}}},
{"geometry": {"type": "Point", "coordinates": [-89.5400341646, 35.7381433496]}, "type": "Feature", "properties": {"collection_times": [{"days": "Mon-Sat", "time": "2:15pm"}, {"days": "Sun", "time": "Closed"}], "id": "3806300003", "name": "USPS COLLECTION BOX - BLUE BOX", "address": {"city": "RIPLEY", "state": "TN", "street": "315 S WASHINGTON ST", "postcode": "38063"}}},
{"geometry": {"type": "Point", "coordinates": [-89.5299148753, 35.745757842]}, "type": "Feature", "properties": {"collection_times": [{"days": "Mon-Fri", "time": "5:00pm"}, {"days": "Sat", "time": "3:00pm"}, {"days": "Sun", "time": "Closed"}], "id": "3806300004", "name": "USPS COLLECTION BOX - BLUE BOX", "address": {"city": "RIPLEY", "state": "TN", "street": "115 N MAIN ST", "postcode": "38063"}}},
{"geometry": {"type": "Point", "coordinates": [-89.5310553024, 35.743106577]}, "type": "Feature", "properties": {"collection_times": [{"days": "Mon-Fri", "time": "5:00pm"}, {"days": "Sat", "time": "3:00pm"}, {"days": "Sun", "time": "Closed"}], "id": "3806300006", "name": "USPS COLLECTION BOX - BLUE BOX", "address": {"city": "RIPLEY", "state": "TN", "street": "134 N JEFFERSON ST", "postcode": "38063"}}},
{"geometry": {"type": "Point", "coordinates": [-89.5448060174, 35.7627129389]}, "type": "Feature", "properties": {"collection_times": [{"days": "Mon-Sat", "time": "10:00am"}, {"days": "Sun", "time": "Closed"}], "id": "3806300011", "name": "USPS COLLECTION BOX - BLUE BOX", "address": {"city": "RIPLEY", "state": "TN", "street": "628 HIGHWAY 51 N", "postcode": "38063"}}},
{"geometry": {"type": "Point", "coordinates": [-89.5299510959, 35.7452594891]}, "type": "Feature", "properties": {"collection_times": [{"days": "Mon-Fri", "time": "5:00pm"}, {"days": "Sat", "time": "3:00pm"}, {"days": "Sun", "time": "Closed"}], "id": "3806300012", "name": "USPS COLLECTION BOX - BLUE BOX", "address": {"city": "RIPLEY", "state": "TN", "street": "104 N WASHINGTON", "postcode": "38063"}}},
{"geometry": {"type": "Point", "coordinates": [-89.5299912449, 35.7471730447]}, "type": "Feature", "properties": {"collection_times": [{"days": "Mon-Fri", "time": "5:00pm"}, {"days": "Sat", "time": "3:00pm"}, {"days": "Sun", "time": "Closed"}], "id": "3806300013", "name": "USPS COLLECTION BOX - BLUE BOX", "address": {"city": "RIPLEY", "state": "TN", "street": "166 N MAIN ST", "postcode": "38063"}}},
{"geometry": {"type": "Point", "coordinates": [-89.5299912449, 35.7471730447]}, "type": "Feature", "properties": {"collection_times": [{"days": "Mon-Fri", "time": "5:00pm"}, {"days": "Sat", "time": "3:00pm"}, {"days": "Sun", "time": "Closed"}], "id": "3806300014", "name": "USPS COLLECTION BOX - BLUE BOX", "address": {"city": "RIPLEY", "state": "TN", "street": "166 N MAIN ST", "postcode": "38063"}}},
{"geometry": {"type": "Point", "coordinates": [-89.5435368786, 35.0449987363]}, "type": "Feature", "properties": {"collection_times": [{"days": "Mon-Fri", "time": "4:15pm"}, {"days": "Sat", "time": "12:15pm"}, {"days": "Sun", "time": "Closed"}], "id": "3806600001", "name": "USPS COLLECTION BOX - PO LOBBY", "address": {"city": "ROSSVILLE", "state": "TN", "street": "210 MAIN ST", "postcode": "38066"}}},
{"geometry": {"type": "Point", "coordinates": [-89.5435368786, 35.0449987363]}, "type": "Feature", "properties": {"collection_times": [{"days": "Mon-Fri", "time": "4:15pm"}, {"days": "Sat", "time": "12:15pm"}, {"days": "Sun", "time": "Closed"}], "id": "3806600002", "name": "USPS COLLECTION BOX - BLUE BOX", "address": {"city": "ROSSVILLE", "state": "TN", "street": "210 MAIN ST", "postcode": "38066"}}},
{"geometry": {"type": "Point", "coordinates": [-89.09142, 35.05168]}, "type": "Feature", "properties": {"collection_times": [{"days": "Mon-Fri", "time": "11:30am"}, {"days": "Sat", "time": "9:45am"}, {"days": "Sun", "time": "Closed"}], "id": "3806700001", "name": "USPS COLLECTION BOX - BLUE BOX", "address": {"city": "SAULSBURY", "state": "TN", "street": "5911 HIGHWAY 57", "postcode": "38067"}}},
{"geometry": {"type": "Point", "coordinates": [-89.0920649231, 35.0516257266]}, "type": "Feature", "properties": {"collection_times": [{"days": "Mon-Fri", "time": "11:30am"}, {"days": "Sat", "time": "9:45am"}, {"days": "Sun", "time": "Closed"}], "id": "3806700002", "name": "USPS COLLECTION BOX - PO LOBBY", "address": {"city": "SAULSBURY", "state": "TN", "street": "5911 HIGHWAY 57", "postcode": "38067"}}},
{"geometry": {"type": "Point", "coordinates": [-89.3505713517, 35.2452125398]}, "type": "Feature", "properties": {"collection_times": [{"days": "Mon-Fri", "time": "4:30pm"}, {"days": "Sat", "time": "12:00pm"}, {"days": "Sun", "time": "Closed"}], "id": "3806800001", "name": "USPS COLLECTION BOX - BLUE BOX", "address": {"city": "SOMERVILLE", "state": "TN", "street": "116 W NORTH ST", "postcode": "38068"}}},
{"geometry": {"type": "Point", "coordinates": [-89.3505713517, 35.2452125398]}, "type": "Feature", "properties": {"collection_times": [{"days": "Mon-Fri", "time": "4:30pm"}, {"days": "Sat", "time": "12:00pm"}, {"days": "Sun", "time": "Closed"}], "id": "3806800002", "name": "USPS COLLECTION BOX - BLUE BOX", "address": {"city": "SOMERVILLE", "state": "TN", "street": "116 W NORTH", "postcode": "38068"}}},
{"geometry": {"type": "Point", "coordinates": [-89.3505324151, 35.243616657]}, "type": "Feature", "properties": {"collection_times": [{"days": "Mon-Fri", "time": "11:00am"}, {"days": "Sat", "time": "10:00am"}, {"days": "Sun", "time": "Closed"}], "id": "3806800009", "name": "USPS COLLECTION BOX - BLUE BOX", "address": {"city": "SOMERVILLE", "state": "TN", "street": "101 W COURT SQ", "postcode": "38068"}}},
{"geometry": {"type": "Point", "coordinates": [-89.3505713517, 35.2452125398]}, "type": "Feature", "properties": {"collection_times": [{"days": "Mon-Fri", "time": "4:30pm"}, {"days": "Sat", "time": "12:00pm"}, {"days": "Sun", "time": "Closed"}], "id": "3806800012", "name": "USPS COLLECTION BOX - PO LOBBY", "address": {"city": "SOMERVILLE", "state": "TN", "street": "116 W NORTH ST", "postcode": "38068"}}},
{"geometry": {"type": "Point", "coordinates": [-89.3407764137, 35.2418953148]}, "type": "Feature", "properties": {"collection_times": [{"days": "Mon-Fri", "time": "11:00am"}, {"days": "Sat", "time": "10:00am"}, {"days": "Sun", "time": "Closed"}], "id": "3806800013", "name": "USPS COLLECTION BOX - BLUE BOX", "address": {"city": "SOMERVILLE", "state": "TN", "street": "17310 US HIGHWAY 64", "postcode": "38068"}}},
{"geometry": {"type": "Point", "coordinates": [-89.4001774295, 35.4626743452]}, "type": "Feature", "properties": {"collection_times": [{"days": "Mon-Fri", "time": "3:00pm"}, {"days": "Sat", "time": "10:00am"}, {"days": "Sun", "time": "Closed"}], "id": "3806900001", "name": "USPS COLLECTION BOX - BLUE BOX", "address": {"city": "STANTON", "state": "TN", "street": "6 N MAIN ST", "postcode": "38069"}}},
{"geometry": {"type": "Point", "coordinates": [-89.4001774295, 35.4626743452]}, "type": "Feature", "properties": {"collection_times": [{"days": "Mon-Fri", "time": "3:00pm"}, {"days": "Sat", "time": "10:00am"}, {"days": "Sun", "time": "Closed"}], "id": "3806900002", "name": "USPS COLLECTION BOX - PO LOBBY", "address": {"city": "STANTON", "state": "TN", "street": "6 N MAIN ST", "postcode": "38069"}}},
{"geometry": {"type": "Point", "coordinates": [-89.2753423534, 36.1263509086]}, "type": "Feature", "properties": {"collection_times": [{"days": "Mon-Fri", "time": "3:30pm"}, {"days": "Sat", "time": "10:00am"}, {"days": "Sun", "time": "Closed"}], "id": "3807000001", "name": "USPS COLLECTION BOX - BLUE BOX", "address": {"city": "TIGRETT", "state": "TN", "street": "179 STOKES RD", "postcode": "38070"}}},
{"geometry": {"type": "Point", "coordinates": [-89.2753423534, 36.1263509086]}, "type": "Feature", "properties": {"collection_times": [{"days": "Mon-Fri", "time": "3:30pm"}, {"days": "Sat", "time": "10:00am"}, {"days": "Sun", "time": "Closed"}], "id": "3807000002", "name": "USPS COLLECTION BOX - PO LOBBY", "address": {"city": "TIGRETT", "state": "TN", "street": "179 STOKES RD", "postcode": "38070"}}},
{"geometry": {"type": "Point", "coordinates": [-89.8273045436, 35.4124192269]}, "type": "Feature", "properties": {"collection_times": [{"days": "Mon-Fri", "time": "4:30pm"}, {"days": "Sat", "time": "10:45am"}, {"days": "Sun", "time": "Closed"}], "id": "3807100001", "name": "USPS COLLECTION BOX - PO LOBBY", "address": {"city": "TIPTON", "state": "TN", "street": "2520 TIPTON RD", "postcode": "38071"}}},
{"geometry": {"type": "Point", "coordinates": [-89.8273045436, 35.4124192269]}, "type": "Feature", "properties": {"collection_times": [{"days": "Mon-Fri", "time": "4:30pm"}, {"days": "Sat", "time": "10:45am"}, {"days": "Sun", "time": "Closed"}], "id": "3807100002", "name": "USPS COLLECTION BOX - BLUE BOX", "address": {"city": "TIPTON", "state": "TN", "street": "2520 TIPTON RD", "postcode": "38071"}}},
{"geometry": {"type": "Point", "coordinates": [-89.1513640785, 35.3260147231]}, "type": "Feature", "properties": {"collection_times": [{"days": "Mon-Fri", "time": "4:00pm"}, {"days": "Sat", "time": "11:15am"}, {"days": "Sun", "time": "Closed"}], "id": "3807500000", "name": "USPS COLLECTION BOX - PO LOBBY", "address": {"city": "WHITEVILLE", "state": "TN", "street": "112 W MAIN ST", "postcode": "38075"}}},
{"geometry": {"type": "Point", "coordinates": [-89.1513640785, 35.3260147231]}, "type": "Feature", "properties": {"collection_times": [{"days": "Mon-Fri", "time": "4:00pm"}, {"days": "Sat", "time": "11:15am"}, {"days": "Sun", "time": "Closed"}], "id": "3807500001", "name": "USPS COLLECTION BOX - BLUE BOX", "address": {"city": "WHITEVILLE", "state": "TN", "street": "112 W MAIN ST", "postcode": "38075"}}},
{"geometry": {"type": "Point", "coordinates": [-89.4870052214, 36.2640462881]}, "type": "Feature", "properties": {"collection_times": [{"days": "Mon-Fri", "time": "1:45pm"}, {"days": "Sat", "time": "10:45am"}, {"days": "Sun", "time": "Closed"}], "id": "3807700001", "name": "USPS COLLECTION BOX - BLUE BOX", "address": {"city": "WYNNBURG", "state": "TN", "street": "5 1ST ST", "postcode": "38077"}}},
{"geometry": {"type": "Point", "coordinates": [-89.4870052214, 36.2640462881]}, "type": "Feature", "properties": {"collection_times": [{"days": "Mon-Fri", "time": "1:45pm"}, {"days": "Sat", "time": "10:45am"}, {"days": "Sun", "time": "Closed"}], "id": "3807700002", "name": "USPS COLLECTION BOX - PO LOBBY", "address": {"city": "WYNNBURG", "state": "TN", "street": "5 1ST ST", "postcode": "38077"}}},
{"geometry": {"type": "Point", "coordinates": [-89.4821979142, 36.3783839323]}, "type": "Feature", "properties": {"collection_times": [{"days": "Mon-Fri", "time": "4:15pm"}, {"days": "Sat", "time": "1:00pm"}, {"days": "Sun", "time": "Closed"}], "id": "3807900000", "name": "USPS COLLECTION BOX - BLUE BOX", "address": {"city": "TIPTONVILLE", "state": "TN", "street": "404 CHURCH ST", "postcode": "38079"}}},
{"geometry": {"type": "Point", "coordinates": [-89.4821979142, 36.3783839323]}, "type": "Feature", "properties": {"collection_times": [{"days": "Mon-Fri", "time": "4:30pm"}, {"days": "Sat", "time": "1:00pm"}, {"days": "Sun", "time": "Closed"}], "id": "3807900001", "name": "USPS COLLECTION BOX - PO LOBBY", "address": {"city": "TIPTONVILLE", "state": "TN", "street": "404 CHURCH ST", "postcode": "38079"}}},
{"geometry": {"type": "Point", "coordinates": [-89.4840941974, 36.3784123233]}, "type": "Feature", "properties": {"collection_times": [{"days": "Mon-Fri", "time": "3:30pm"}, {"days": "Sat", "time": "1:00pm"}, {"days": "Sun", "time": "Closed"}], "id": "3807900002", "name": "USPS COLLECTION BOX - BLUE BOX", "address": {"city": "TIPTONVILLE", "state": "TN", "street": "229 CHURCH ST", "postcode": "38079"}}},
{"geometry": {"type": "Point", "coordinates": [-89.469778028, 36.3711714314]}, "type": "Feature", "properties": {"collection_times": [{"days": "Mon-Sat", "time": "11:00am"}, {"days": "Sun", "time": "Closed"}], "id": "3807900003", "name": "USPS COLLECTION BOX - BLUE BOX", "address": {"city": "TIPTONVILLE", "state": "TN", "street": "740 EVERETT ST", "postcode": "38079"}}},
{"geometry": {"type": "Point", "coordinates": [-89.4875903174, 36.2635283007]}, "type": "Feature", "properties": {"collection_times": [{"days": "Mon-Fri", "time": "3:00pm"}, {"days": "Sat", "time": "10:00am"}, {"days": "Sun", "time": "Closed"}], "id": "3808000007", "name": "USPS COLLECTION BOX - BLUE BOX", "address": {"city": "RIDGELY", "state": "TN", "street": "107 S MAIN ST", "postcode": "38080"}}},
{"geometry": {"type": "Point", "coordinates": [-89.4864501251, 36.2641105185]}, "type": "Feature", "properties": {"collection_times": [{"days": "Mon-Fri", "time": "3:00pm"}, {"days": "Sat", "time": "10:00am"}, {"days": "Sun", "time": "Closed"}], "id": "3808000008", "name": "USPS COLLECTION BOX - BLUE BOX", "address": {"city": "RIDGELY", "state": "TN", "street": "120 LAKE ST", "postcode": "38080"}}},
{"geometry": {"type": "Point", "coordinates": [-89.4864501251, 36.2641105185]}, "type": "Feature", "properties": {"collection_times": [{"days": "Mon-Fri", "time": "3:00pm"}, {"days": "Sat", "time": "10:00am"}, {"days": "Sun", "time": "Closed"}], "id": "3808000009", "name": "USPS COLLECTION BOX - PO LOBBY", "address": {"city": "RIDGELY", "state": "TN", "street": "120 LAKE ST", "postcode": "38080"}}}
]}
