{"type": "FeatureCollection", "features": [
{"geometry": {"type": "Point", "coordinates": [-90.0547383827, 35.1314620449]}, "type": "Feature", "properties": {"collection_times": [{"days": "Mon-Sat", "time": "8:00pm"}, {"days": "Sun", "time": "Closed"}], "id": "3810100002", "name": "USPS COLLECTION BOX - BLUE BOX", "address": {"city": "MEMPHIS", "state": "TN", "street": "555 S 3RD ST  0", "postcode": "38101"}}},
{"geometry": {"type": "Point", "coordinates": [-90.0547383827, 35.1314620449]}, "type": "Feature", "properties": {"collection_times": [{"days": "Mon-Sat", "time": "8:00pm"}, {"days": "Sun", "time": "Closed"}], "id": "3810100003", "name": "USPS COLLECTION BOX - BLUE BOX", "address": {"city": "MEMPHIS", "state": "TN", "street": "555 S 3RD ST  0", "postcode": "38101"}}},
{"geometry": {"type": "Point", "coordinates": [-90.0547383827, 35.1314620449]}, "type": "Feature", "properties": {"collection_times": [{"days": "Mon-Sat", "time": "8:00pm"}, {"days": "Sun", "time": "Closed"}], "id": "3810100008", "name": "USPS COLLECTION BOX - PO LOBBY", "address": {"city": "MEMPHIS", "state": "TN", "street": "555 S 3RD ST  0", "postcode": "38101"}}},
{"geometry": {"type": "Point", "coordinates": [-90.0547383827, 35.1314620449]}, "type": "Feature", "properties": {"collection_times": [{"days": "Mon-Sat", "time": "8:00pm"}, {"days": "Sun", "time": "Closed"}], "id": "3810100009", "name": "USPS COLLECTION BOX - PO LOBBY", "address": {"city": "MEMPHIS", "state": "TN", "street": "555 S 3RD ST  0", "postcode": "38101"}}},
{"geometry": {"type": "Point", "coordinates": [-90.054669612, 35.140630308]}, "type": "Feature", "properties": {"collection_times": [{"days": "Mon-Fri", "time": "1:00pm"}, {"days": "Sat-Sun", "time": "Closed"}], "id": "3810300003", "name": "USPS COLLECTION BOX - BLUE BOX", "address": {"city": "MEMPHIS", "state": "TN", "street": "180 S MAIN ST", "postcode": "38103"}}},
{"geometry": {"type": "Point", "coordinates": [-90.0516891838, 35.1443433543]}, "type": "Feature", "properties": {"collection_times": [{"days": "Mon-Fri", "time": "1:00pm"}, {"days": "Sat", "time": "1:30pm"}, {"days": "Sun", "time": "Closed"}], "id": "3810300007", "name": "USPS COLLECTION BOX - BLUE BOX", "address": {"city": "MEMPHIS", "state": "TN", "street": "28 S 2ND ST", "postcode": "38103"}}},
{"geometry": {"type": "Point", "coordinates": [-90.048026497, 35.1493598925]}, "type": "Feature", "properties": {"collection_times": [{"days": "Mon-Fri", "time": "1:00pm"}, {"days": "Sat-Sun", "time": "Closed"}], "id": "3810300009", "name": "USPS COLLECTION BOX - BLUE BOX", "address": {"city": "MEMPHIS", "state": "TN", "street": "201 POPLAR AVE", "postcode": "38103"}}},
{"geometry": {"type": "Point", "coordinates": [-90.0526254589, 35.142158691]}, "type": "Feature", "properties": {"collection_times": [{"days": "Mon-Sat", "time": "1:00pm"}, {"days": "Sun", "time": "Closed"}], "id": "3810300014", "name": "USPS COLLECTION BOX - BLUE BOX", "address": {"city": "MEMPHIS", "state": "TN", "street": "99 N SECOND ST", "postcode": "38103"}}},
{"geometry": {"type": "Point", "coordinates": [-90.0488108792, 35.1462747919]}, "type": "Feature", "properties": {"collection_times": [{"days": "Mon-Sat", "time": "1:00pm"}, {"days": "Sun", "time": "Closed"}], "id": "3810300017", "name": "USPS COLLECTION BOX - BLUE BOX", "address": {"city": "MEMPHIS", "state": "TN", "street": "201 JEFFERSON AVE", "postcode": "38103"}}},
{"geometry": {"type": "Point", "coordinates": [-90.0488108792, 35.1462747919]}, "type": "Feature", "properties": {"collection_times": [{"days": "Mon-Sat", "time": "1:00pm"}, {"days": "Sun", "time": "Closed"}], "id": "3810300018", "name": "USPS COLLECTION BOX - BLUE BOX", "address": {"city": "MEMPHIS", "state": "TN", "street": "201 JEFFERSON AVE", "postcode": "38103"}}},
{"geometry": {"type": "Point", "coordinates": [-90.0546790757, 35.1435167279]}, "type": "Feature", "properties": {"collection_times": [{"days": "Mon-Fri", "time": "1:00pm"}, {"days": "Sat-Sun", "time": "Closed"}], "id": "3810300025", "name": "USPS COLLECTION BOX - BLUE BOX", "address": {"city": "MEMPHIS", "state": "TN", "street": "65 UNION AVE", "postcode": "38103"}}},
{"geometry": {"type": "Point", "coordinates": [-90.048799939, 35.1481184665]}, "type": "Feature", "properties": {"collection_times": [{"days": "Mon-Sat", "time": "1:00pm"}, {"days": "Sun", "time": "Closed"}], "id": "3810300026", "name": "USPS COLLECTION BOX - BLUE BOX", "address": {"city": "MEMPHIS", "state": "TN", "street": "144 N 3RD ST", "postcode": "38103"}}},
{"geometry": {"type": "Point", "coordinates": [-90.0514590614, 35.1451125395]}, "type": "Feature", "properties": {"collection_times": [{"days": "Mon-Sat", "time": "1:00pm"}, {"days": "Sun", "time": "Closed"}], "id": "3810300028", "name": "USPS COLLECTION BOX - BLUE BOX", "address": {"city": "MEMPHIS", "state": "TN", "street": "2 N 2ND ST", "postcode": "38103"}}},
{"geometry": {"type": "Point", "coordinates": [-90.05374927, 35.1443542628]}, "type": "Feature", "properties": {"collection_times": [{"days": "Mon-Fri", "time": "1:00pm"}, {"days": "Sat-Sun", "time": "Closed"}], "id": "3810300031", "name": "USPS COLLECTION BOX - BLUE BOX", "address": {"city": "MEMPHIS", "state": "TN", "street": "81 MONROE AVE", "postcode": "38103"}}},
{"geometry": {"type": "Point", "coordinates": [-90.0539645685, 35.1433144419]}, "type": "Feature", "properties": {"collection_times": [{"days": "Mon-Fri", "time": "1:00pm"}, {"days": "Sat-Sun", "time": "Closed"}], "id": "3810300038", "name": "USPS COLLECTION BOX - BLUE BOX", "address": {"city": "MEMPHIS", "state": "TN", "street": "88 UNION AVE", "postcode": "38103"}}},
{"geometry": {"type": "Point", "coordinates": [-90.0319508851, 35.1426413382]}, "type": "Feature", "properties": {"collection_times": [{"days": "Mon-Fri", "time": "1:00pm"}, {"days": "Sat-Sun", "time": "Closed"}], "id": "3810300050", "name": "USPS COLLECTION BOX - BLUE BOX", "address": {"city": "MEMPHIS", "state": "TN", "street": "842 JEFFERSON AVE", "postcode": "38103"}}},
{"geometry": {"type": "Point", "coordinates": [-90.0294489269, 35.1401819665]}, "type": "Feature", "properties": {"collection_times": [{"days": "Mon-Fri", "time": "1:00pm"}, {"days": "Sat-Sun", "time": "Closed"}], "id": "3810300055", "name": "USPS COLLECTION BOX - BLUE BOX", "address": {"city": "MEMPHIS", "state": "TN", "street": "910 MADISON AVE", "postcode": "38103"}}},
{"geometry": {"type": "Point", "coordinates": [-90.0332653296, 35.1415356981]}, "type": "Feature", "properties": {"collection_times": [{"days": "Mon-Sat", "time": "1:00pm"}, {"days": "Sun", "time": "Closed"}], "id": "3810300116", "name": "USPS COLLECTION BOX - BLUE BOX", "address": {"city": "MEMPHIS", "state": "TN", "street": "50 N DUNLAP ST", "postcode": "38103"}}},
{"geometry": {"type": "Point", "coordinates": [-90.0317455599, 35.1425841348]}, "type": "Feature", "properties": {"collection_times": [{"days": "Mon-Sat", "time": "1:00pm"}, {"days": "Sun", "time": "Closed"}], "id": "3810300136", "name": "USPS COLLECTION BOX - BLUE BOX", "address": {"city": "MEMPHIS", "state": "TN", "street": "877 JEFFERSON AVE", "postcode": "38103"}}},
{"geometry": {"type": "Point", "coordinates": [-90.0537752086, 35.1618033323]}, "type": "Feature", "properties": {"collection_times": [{"days": "Mon-Sat", "time": "1:00pm"}, {"days": "Sun", "time": "Closed"}], "id": "3810300137", "name": "USPS COLLECTION BOX - BLUE BOX", "address": {"city": "MEMPHIS", "state": "TN", "street": "737 HARBOR BEND RD", "postcode": "38103"}}},
{"geometry": {"type": "Point", "coordinates": [-90.051038732, 35.1494800129]}, "type": "Feature", "properties": {"collection_times": [{"days": "Mon-Fri", "time": "1:00pm"}, {"days": "Sat-Sun", "time": "Closed"}], "id": "3810300138", "name": "USPS COLLECTION BOX - BLUE BOX", "address": {"city": "MEMPHIS", "state": "TN", "street": "170 N MAIN ST", "postcode": "38103"}}},
{"geometry": {"type": "Point", "coordinates": [-90.0524510364, 35.1382811708]}, "type": "Feature", "properties": {"collection_times": [{"days": "Mon-Fri", "time": "1:00pm"}, {"days": "Sat-Sun", "time": "Closed"}], "id": "3810300143", "name": "USPS COLLECTION BOX - BLUE BOX", "address": {"city": "MEMPHIS", "state": "TN", "street": "220 N THIRD ST", "postcode": "38103"}}},
{"geometry": {"type": "Point", "coordinates": [-90.0539811299, 35.1408728146]}, "type": "Feature", "properties": {"collection_times": [{"days": "Mon-Fri", "time": "5:00pm"}, {"days": "Sat-Sun", "time": "Closed"}], "id": "3810300144", "name": "USPS COLLECTION BOX - PO LOBBY", "address": {"city": "MEMPHIS", "state": "TN", "street": "100 PEABODY PL", "postcode": "38103"}}},
{"geometry": {"type": "Point", "coordinates": [-89.9837772472, 35.128436367]}, "type": "Feature", "properties": {"collection_times": [{"days": "Mon-Fri", "time": "1:00pm"}, {"days": "Sat", "time": "12:30pm"}, {"days": "Sun", "time": "Closed"}], "id": "3810400005", "name": "USPS COLLECTION BOX - BLUE BOX", "address": {"city": "MEMPHIS", "state": "TN", "street": "650 E PARKWAY PKWY", "postcode": "38104"}}},
{"geometry": {"type": "Point", "coordinates": [-90.0104600696, 35.1362143222]}, "type": "Feature", "properties": {"collection_times": [{"days": "Mon-Fri", "time": "5:00pm"}, {"days": "Sat", "time": "1:00pm"}, {"days": "Sun", "time": "Closed"}], "id": "3810400029", "name": "USPS COLLECTION BOX - BLUE BOX", "address": {"city": "MEMPHIS", "state": "TN", "street": "1325 AUTUMN AVE", "postcode": "38104"}}},
{"geometry": {"type": "Point", "coordinates": [-90.0104600696, 35.1362143222]}, "type": "Feature", "properties": {"collection_times": [{"days": "Mon-Fri", "time": "5:00pm"}, {"days": "Sat", "time": "1:00pm"}, {"days": "Sun", "time": "Closed"}], "id": "3810400033", "name": "USPS COLLECTION BOX - BLUE BOX", "address": {"city": "MEMPHIS", "state": "TN", "street": "1325 AUTUMN AVE", "postcode": "38104"}}},
{"geometry": {"type": "Point", "coordinates": [-90.0173555374, 35.135642953]}, "type": "Feature", "properties": {"collection_times": [{"days": "Mon-Sat", "time": "1:00pm"}, {"days": "Sun", "time": "Closed"}], "id": "3810400034", "name": "USPS COLLECTION BOX - BLUE BOX", "address": {"city": "MEMPHIS", "state": "TN", "street": "1325 EASTMORELAND AVE", "postcode": "38104"}}},
{"geometry": {"type": "Point", "coordinates": [-89.9901451153, 35.1362711042]}, "type": "Feature", "properties": {"collection_times": [{"days": "Mon-Fri", "time": "1:00pm"}, {"days": "Sat", "time": "12:30pm"}, {"days": "Sun", "time": "Closed"}], "id": "3810400061", "name": "USPS COLLECTION BOX - BLUE BOX", "address": {"city": "MEMPHIS", "state": "TN", "street": "6 S COOPER ST", "postcode": "38104"}}},
{"geometry": {"type": "Point", "coordinates": [-90.0179798398, 35.1357973999]}, "type": "Feature", "properties": {"collection_times": [{"days": "Mon-Sat", "time": "1:00pm"}, {"days": "Sun", "time": "Closed"}], "id": "3810400064", "name": "USPS COLLECTION BOX - BLUE BOX", "address": {"city": "MEMPHIS", "state": "TN", "street": "225 S CLAYBROOK ST", "postcode": "38104"}}},
{"geometry": {"type": "Point", "coordinates": [-90.0175549487, 35.1434711999]}, "type": "Feature", "properties": {"collection_times": [{"days": "Mon-Sat", "time": "1:00pm"}, {"days": "Sun", "time": "Closed"}], "id": "3810400065", "name": "USPS COLLECTION BOX - BLUE BOX", "address": {"city": "MEMPHIS", "state": "TN", "street": "166 N CLAYBROOK ST", "postcode": "38104"}}},
{"geometry": {"type": "Point", "coordinates": [-90.0206345396, 35.136094929]}, "type": "Feature", "properties": {"collection_times": [{"days": "Mon-Sat", "time": "1:00pm"}, {"days": "Sun", "time": "Closed"}], "id": "3810400068", "name": "USPS COLLECTION BOX - BLUE BOX", "address": {"city": "MEMPHIS", "state": "TN", "street": "188 S BELLEVUE BLVD", "postcode": "38104"}}},
{"geometry": {"type": "Point", "coordinates": [-90.0104600696, 35.1362143222]}, "type": "Feature", "properties": {"collection_times": [{"days": "Mon-Fri", "time": "5:00pm"}, {"days": "Sat", "time": "1:00pm"}, {"days": "Sun", "time": "Closed"}], "id": "3810400097", "name": "USPS COLLECTION BOX - PO LOBBY", "address": {"city": "MEMPHIS", "state": "TN", "street": "1325 AUTUMN AVE", "postcode": "38104"}}},
{"geometry": {"type": "Point", "coordinates": [-90.0249503345, 35.1424885592]}, "type": "Feature", "properties": {"collection_times": [{"days": "Mon-Sat", "time": "1:00pm"}, {"days": "Sun", "time": "Closed"}], "id": "3810400101", "name": "USPS COLLECTION BOX - BLUE BOX", "address": {"city": "MEMPHIS", "state": "TN", "street": "1060 JEFFERSON AVE", "postcode": "38104"}}},
{"geometry": {"type": "Point", "coordinates": [-89.9985249656, 35.1376237141]}, "type": "Feature", "properties": {"collection_times": [{"days": "Mon-Fri", "time": "1:00pm"}, {"days": "Sat", "time": "12:30pm"}, {"days": "Sun", "time": "Closed"}], "id": "3810400104", "name": "USPS COLLECTION BOX - BLUE BOX", "address": {"city": "MEMPHIS", "state": "TN", "street": "1878 MADISON AVE", "postcode": "38104"}}},
{"geometry": {"type": "Point", "coordinates": [-89.9906514217, 35.1279146821]}, "type": "Feature", "properties": {"collection_times": [{"days": "Mon-Sat", "time": "1:00pm"}, {"days": "Sun", "time": "Closed"}], "id": "3810400110", "name": "USPS COLLECTION BOX - BLUE BOX", "address": {"city": "MEMPHIS", "state": "TN", "street": "651 S COOPER ST", "postcode": "38104"}}},
{"geometry": {"type": "Point", "coordinates": [-90.0413930967, 35.1507673867]}, "type": "Feature", "properties": {"collection_times": [{"days": "Mon-Fri", "time": "2:00pm"}, {"days": "Sat", "time": "12:30pm"}, {"days": "Sun", "time": "Closed"}], "id": "3810500001", "name": "USPS COLLECTION BOX - BLUE BOX", "address": {"city": "MEMPHIS", "state": "TN", "street": "262 DANNY THOMAS PL", "postcode": "38105"}}},
{"geometry": {"type": "Point", "coordinates": [-90.0217139454, 35.1146620134]}, "type": "Feature", "properties": {"collection_times": [{"days": "Mon-Sat", "time": "1:00pm"}, {"days": "Sun", "time": "Closed"}], "id": "3810600023", "name": "USPS COLLECTION BOX - BLUE BOX", "address": {"city": "MEMPHIS", "state": "TN", "street": "1169 S BELLEVUE BLVD", "postcode": "38106"}}},
{"geometry": {"type": "Point", "coordinates": [-90.0189217751, 35.08063891]}, "type": "Feature", "properties": {"collection_times": [{"days": "Mon-Sat", "time": "1:00pm"}, {"days": "Sun", "time": "Closed"}], "id": "3810600026", "name": "USPS COLLECTION BOX - BLUE BOX", "address": {"city": "MEMPHIS", "state": "TN", "street": "2369 ELVIS PRESLEY BLVD", "postcode": "38106"}}},
{"geometry": {"type": "Point", "coordinates": [-90.0181947471, 35.0936205444]}, "type": "Feature", "properties": {"collection_times": [{"days": "Mon-Sat", "time": "1:00pm"}, {"days": "Sun", "time": "Closed"}], "id": "3810600028", "name": "USPS COLLECTION BOX - BLUE BOX", "address": {"city": "MEMPHIS", "state": "TN", "street": "1921 ELVIS PRESLEY BLVD", "postcode": "38106"}}},
{"geometry": {"type": "Point", "coordinates": [-90.0309007468, 35.1748165029]}, "type": "Feature", "properties": {"collection_times": [{"days": "Mon-Fri", "time": "12:00pm"}, {"days": "Sat-Sun", "time": "Closed"}], "id": "3810700029", "name": "USPS COLLECTION BOX - PO LOBBY", "address": {"city": "MEMPHIS", "state": "TN", "street": "780 FIRESTONE AVE", "postcode": "38107"}}},
{"geometry": {"type": "Point", "coordinates": [-90.0309007468, 35.1748165029]}, "type": "Feature", "properties": {"collection_times": [{"days": "Mon-Fri", "time": "5:00pm"}, {"days": "Sat", "time": "1:00pm"}, {"days": "Sun", "time": "Closed"}], "id": "3810700030", "name": "USPS COLLECTION BOX - PO LOBBY", "address": {"city": "MEMPHIS", "state": "TN", "street": "780 FIRESTONE AVE", "postcode": "38107"}}},
{"geometry": {"type": "Point", "coordinates": [-90.0309007468, 35.1748165029]}, "type": "Feature", "properties": {"collection_times": [{"days": "Mon-Fri", "time": "5:00pm"}, {"days": "Sat", "time": "1:00pm"}, {"days": "Sun", "time": "Closed"}], "id": "3810700031", "name": "USPS COLLECTION BOX - BLUE BOX", "address": {"city": "MEMPHIS", "state": "TN", "street": "780 FIRESTONE AVE", "postcode": "38107"}}},
{"geometry": {"type": "Point", "coordinates": [-90.0309007468, 35.1748165029]}, "type": "Feature", "properties": {"collection_times": [{"days": "Mon-Fri", "time": "5:00pm"}, {"days": "Sat", "time": "1:00pm"}, {"days": "Sun", "time": "Closed"}], "id": "3810700032", "name": "USPS COLLECTION BOX - BLUE BOX", "address": {"city": "MEMPHIS", "state": "TN", "street": "780 FIRESTONE AVE", "postcode": "38107"}}},
{"geometry": {"type": "Point", "coordinates": [-90.0309007468, 35.1748165029]}, "type": "Feature", "properties": {"collection_times": [{"days": "Mon-Fri", "time": "5:00pm"}, {"days": "Sat", "time": "1:00pm"}, {"days": "Sun", "time": "Closed"}], "id": "3810700035", "name": "USPS COLLECTION BOX - PO LOBBY", "address": {"city": "MEMPHIS", "state": "TN", "street": "780 FIRESTONE AVE", "postcode": "38107"}}},
{"geometry": {"type": "Point", "coordinates": [-90.0309007468, 35.1748165029]}, "type": "Feature", "properties": {"collection_times": [{"days": "Mon-Fri", "time": "5:00pm"}, {"days": "Sat", "time": "1:00pm"}, {"days": "Sun", "time": "Closed"}], "id": "3810700036", "name": "USPS COLLECTION BOX - PO LOBBY", "address": {"city": "MEMPHIS", "state": "TN", "street": "780 FIRESTONE AVE", "postcode": "38107"}}},
{"geometry": {"type": "Point", "coordinates": [-90.0309007468, 35.1748165029]}, "type": "Feature", "properties": {"collection_times": [{"days": "Mon-Fri", "time": "5:00pm"}, {"days": "Sat", "time": "1:00pm"}, {"days": "Sun", "time": "Closed"}], "id": "3810700037", "name": "USPS COLLECTION BOX - PO LOBBY", "address": {"city": "MEMPHIS", "state": "TN", "street": "780 FIRESTONE AVE", "postcode": "38107"}}},
{"geometry": {"type": "Point", "coordinates": [-89.9868432413, 35.1713034319]}, "type": "Feature", "properties": {"collection_times": [{"days": "Mon-Fri", "time": "4:00pm"}, {"days": "Sat-Sun", "time": "Closed"}], "id": "3810800013", "name": "USPS COLLECTION BOX - BLUE BOX", "address": {"city": "MEMPHIS", "state": "TN", "street": "1283 TUNICA ST", "postcode": "38108"}}},
{"geometry": {"type": "Point", "coordinates": [-89.9868432413, 35.1713034319]}, "type": "Feature", "properties": {"collection_times": [{"days": "Mon-Fri", "time": "4:00pm"}, {"days": "Sat-Sun", "time": "Closed"}], "id": "3810800014", "name": "USPS COLLECTION BOX - BLUE BOX", "address": {"city": "MEMPHIS", "state": "TN", "street": "1283 TUNICA ST", "postcode": "38108"}}},
{"geometry": {"type": "Point", "coordinates": [-89.9868432413, 35.1713034319]}, "type": "Feature", "properties": {"collection_times": [{"days": "Mon-Fri", "time": "4:00pm"}, {"days": "Sat-Sun", "time": "Closed"}], "id": "3810800040", "name": "USPS COLLECTION BOX - PO LOBBY", "address": {"city": "MEMPHIS", "state": "TN", "street": "1283 TUNICA ST", "postcode": "38108"}}},
{"geometry": {"type": "Point", "coordinates": [-89.9868432413, 35.1713034319]}, "type": "Feature", "properties": {"collection_times": [{"days": "Mon-Fri", "time": "4:00pm"}, {"days": "Sat-Sun", "time": "Closed"}], "id": "3810800043", "name": "USPS COLLECTION BOX - PO LOBBY", "address": {"city": "MEMPHIS", "state": "TN", "street": "1283 TUNICA ST", "postcode": "38108"}}},
{"geometry": {"type": "Point", "coordinates": [-89.9868432413, 35.1713034319]}, "type": "Feature", "properties": {"collection_times": [{"days": "Mon-Fri", "time": "4:00pm"}, {"days": "Sat-Sun", "time": "Closed"}], "id": "3810800044", "name": "USPS COLLECTION BOX - PO LOBBY", "address": {"city": "MEMPHIS", "state": "TN", "street": "1283 TUNICA ST", "postcode": "38108"}}},
{"geometry": {"type": "Point", "coordinates": [-89.9868432413, 35.1713034319]}, "type": "Feature", "properties": {"collection_times": [{"days": "Mon-Fri", "time": "4:00pm"}, {"days": "Sat-Sun", "time": "Closed"}], "id": "3810800045", "name": "USPS COLLECTION BOX - PO LOBBY", "address": {"city": "MEMPHIS", "state": "TN", "street": "1283 TUNICA ST", "postcode": "38108"}}},
{"geometry": {"type": "Point", "coordinates": [-89.9618280228, 35.1741006324]}, "type": "Feature", "properties": {"collection_times": [{"days": "Mon-Fri", "time": "1:00pm"}, {"days": "Sat-Sun", "time": "Closed"}], "id": "3810800046", "name": "USPS COLLECTION BOX - BLUE BOX", "address": {"city": "MEMPHIS", "state": "TN", "street": "331 N EVERGREEN ST", "postcode": "38108"}}},
{"geometry": {"type": "Point", "coordinates": [-90.0587900462, 35.0551702836]}, "type": "Feature", "properties": {"collection_times": [{"days": "Mon-Fri", "time": "5:00pm"}, {"days": "Sat", "time": "1:00pm"}, {"days": "Sun", "time": "Closed"}], "id": "3810900002", "name": "USPS COLLECTION BOX - BLUE BOX", "address": {"city": "MEMPHIS", "state": "TN", "street": "193 E MITCHELL RD", "postcode": "38109"}}},
{"geometry": {"type": "Point", "coordinates": [-90.0587900462, 35.0551702836]}, "type": "Feature", "properties": {"collection_times": [{"days": "Mon-Fri", "time": "5:00pm"}, {"days": "Sat", "time": "1:00pm"}, {"days": "Sun", "time": "Closed"}], "id": "3810900003", "name": "USPS COLLECTION BOX - BLUE BOX", "address": {"city": "MEMPHIS", "state": "TN", "street": "193 E MITCHELL RD", "postcode": "38109"}}},
{"geometry": {"type": "Point", "coordinates": [-90.0561461313, 35.0938721072]}, "type": "Feature", "properties": {"collection_times": [{"days": "Mon-Fri", "time": "5:00pm"}, {"days": "Sat", "time": "1:00pm"}, {"days": "Sun", "time": "Closed"}], "id": "3810900007", "name": "USPS COLLECTION BOX - BLUE BOX", "address": {"city": "MEMPHIS", "state": "TN", "street": "1925 S 3RD ST", "postcode": "38109"}}},
{"geometry": {"type": "Point", "coordinates": [-90.0816419729, 35.0270586582]}, "type": "Feature", "properties": {"collection_times": [{"days": "Mon-Sat", "time": "1:00pm"}, {"days": "Sun", "time": "Closed"}], "id": "3810900014", "name": "USPS COLLECTION BOX - BLUE BOX", "address": {"city": "MEMPHIS", "state": "TN", "street": "4449 S 3RD ST", "postcode": "38109"}}},
{"geometry": {"type": "Point", "coordinates": [-90.0568154996, 35.0868139558]}, "type": "Feature", "properties": {"collection_times": [{"days": "Mon-Sat", "time": "1:00pm"}, {"days": "Sun", "time": "Closed"}], "id": "3810900016", "name": "USPS COLLECTION BOX - BLUE BOX", "address": {"city": "MEMPHIS", "state": "TN", "street": "2207 S 3RD ST", "postcode": "38109"}}},
{"geometry": {"type": "Point", "coordinates": [-90.0587900462, 35.0551702836]}, "type": "Feature", "properties": {"collection_times": [{"days": "Mon-Fri", "time": "5:00pm"}, {"days": "Sat", "time": "1:00pm"}, {"days": "Sun", "time": "Closed"}], "id": "3810900026", "name": "USPS COLLECTION BOX - PO LOBBY", "address": {"city": "MEMPHIS", "state": "TN", "street": "193 E MITCHELL RD", "postcode": "38109"}}},
{"geometry": {"type": "Point", "coordinates": [-90.0587900462, 35.0551702836]}, "type": "Feature", "properties": {"collection_times": [{"days": "Mon-Fri", "time": "5:00pm"}, {"days": "Sat", "time": "1:00pm"}, {"days": "Sun", "time": "Closed"}], "id": "3810900027", "name": "USPS COLLECTION BOX - PO LOBBY", "address": {"city": "MEMPHIS", "state": "TN", "street": "193 E MITCHELL RD", "postcode": "38109"}}},
{"geometry": {"type": "Point", "coordinates": [-89.9487349724, 35.1315336914]}, "type": "Feature", "properties": {"collection_times": [{"days": "Mon-Fri", "time": "5:00pm"}, {"days": "Sat", "time": "1:00pm"}, {"days": "Sun", "time": "Closed"}], "id": "3811100033", "name": "USPS COLLECTION BOX - BLUE BOX", "address": {"city": "MEMPHIS", "state": "TN", "street": "13 S PRESCOTT ST", "postcode": "38111"}}},
{"geometry": {"type": "Point", "coordinates": [-89.9458470927, 35.1106809782]}, "type": "Feature", "properties": {"collection_times": [{"days": "Mon-Fri", "time": "5:00pm"}, {"days": "Sat", "time": "1:00pm"}, {"days": "Sun", "time": "Closed"}], "id": "3811100034", "name": "USPS COLLECTION BOX - BLUE BOX", "address": {"city": "MEMPHIS", "state": "TN", "street": "13 S PRESCOTT RD", "postcode": "38111"}}},
{"geometry": {"type": "Point", "coordinates": [-89.9481167348, 35.1092208637]}, "type": "Feature", "properties": {"collection_times": [{"days": "Mon-Fri", "time": "4:00pm"}, {"days": "Sat", "time": "1:00pm"}, {"days": "Sun", "time": "Closed"}], "id": "3811100039", "name": "USPS COLLECTION BOX - BLUE BOX", "address": {"city": "MEMPHIS", "state": "TN", "street": "3490 POPLAR/HIGHLAND AVE", "postcode": "38111"}}},
{"geometry": {"type": "Point", "coordinates": [-89.931379736, 35.1074621733]}, "type": "Feature", "properties": {"collection_times": [{"days": "Mon-Sat", "time": "1:00pm"}, {"days": "Sun", "time": "Closed"}], "id": "3811100056", "name": "USPS COLLECTION BOX - BLUE BOX", "address": {"city": "MEMPHIS", "state": "TN", "street": "3933 PARK AVE", "postcode": "38111"}}},
{"geometry": {"type": "Point", "coordinates": [-89.9487349724, 35.1315336914]}, "type": "Feature", "properties": {"collection_times": [{"days": "Mon-Fri", "time": "5:00pm"}, {"days": "Sat", "time": "1:00pm"}, {"days": "Sun", "time": "Closed"}], "id": "3811100066", "name": "USPS COLLECTION BOX - PO LOBBY", "address": {"city": "MEMPHIS", "state": "TN", "street": "13 S PRESCOTT ST", "postcode": "38111"}}},
{"geometry": {"type": "Point", "coordinates": [-89.9487349724, 35.1315336914]}, "type": "Feature", "properties": {"collection_times": [{"days": "Mon-Fri", "time": "5:00pm"}, {"days": "Sat", "time": "1:00pm"}, {"days": "Sun", "time": "Closed"}], "id": "3811100067", "name": "USPS COLLECTION BOX - PO LOBBY", "address": {"city": "MEMPHIS", "state": "TN", "street": "13 S PRESCOTT ST", "postcode": "38111"}}},
{"geometry": {"type": "Point", "coordinates": [-89.9458557826, 35.1106939671]}, "type": "Feature", "properties": {"collection_times": [{"days": "Mon-Fri", "time": "1:00pm"}, {"days": "Sat-Sun", "time": "Closed"}], "id": "3811100069", "name": "USPS COLLECTION BOX - BLUE BOX", "address": {"city": "MEMPHIS", "state": "TN", "street": "436 PATTERSON ST", "postcode": "38111"}}},
{"geometry": {"type": "Point", "coordinates": [-89.9806199297, 35.139650818]}, "type": "Feature", "properties": {"collection_times": [{"days": "Mon-Fri", "time": "1:00pm"}, {"days": "Sat", "time": "12:00pm"}, {"days": "Sun", "time": "Closed"}], "id": "3811200010", "name": "USPS COLLECTION BOX - BLUE BOX", "address": {"city": "MEMPHIS", "state": "TN", "street": "2400 POPLAR AVE", "postcode": "38112"}}},
{"geometry": {"type": "Point", "coordinates": [-89.975624294, 35.1378775625]}, "type": "Feature", "properties": {"collection_times": [{"days": "Mon-Fri", "time": "1:00pm"}, {"days": "Sat", "time": "12:00pm"}, {"days": "Sun", "time": "Closed"}], "id": "3811200011", "name": "USPS COLLECTION BOX - BLUE BOX", "address": {"city": "MEMPHIS", "state": "TN", "street": "2552 POPLAR AVE", "postcode": "38112"}}},
{"geometry": {"type": "Point", "coordinates": [-89.9744945682, 35.1374528802]}, "type": "Feature", "properties": {"collection_times": [{"days": "Mon-Fri", "time": "1:00pm"}, {"days": "Sat", "time": "12:00pm"}, {"days": "Sun", "time": "Closed"}], "id": "3811200012", "name": "USPS COLLECTION BOX - BLUE BOX", "address": {"city": "MEMPHIS", "state": "TN", "street": "2600 POPLAR AVE", "postcode": "38112"}}},
{"geometry": {"type": "Point", "coordinates": [-89.9671144505, 35.1502273759]}, "type": "Feature", "properties": {"collection_times": [{"days": "Mon-Fri", "time": "1:00pm"}, {"days": "Sat", "time": "12:30pm"}, {"days": "Sun", "time": "Closed"}], "id": "3811200014", "name": "USPS COLLECTION BOX - BLUE BOX", "address": {"city": "MEMPHIS", "state": "TN", "street": "649 SCOTT ST", "postcode": "38112"}}},
{"geometry": {"type": "Point", "coordinates": [-89.9737163204, 35.1348469726]}, "type": "Feature", "properties": {"collection_times": [{"days": "Mon-Fri", "time": "1:00pm"}, {"days": "Sat", "time": "12:00pm"}, {"days": "Sun", "time": "Closed"}], "id": "3811200022", "name": "USPS COLLECTION BOX - BLUE BOX", "address": {"city": "MEMPHIS", "state": "TN", "street": "2670 UNION AVENUE EXT", "postcode": "38112"}}},
{"geometry": {"type": "Point", "coordinates": [-89.9757284627, 35.1309699757]}, "type": "Feature", "properties": {"collection_times": [{"days": "Mon-Fri", "time": "1:00pm"}, {"days": "Sat", "time": "12:00pm"}, {"days": "Sun", "time": "Closed"}], "id": "3811200025", "name": "USPS COLLECTION BOX - BLUE BOX", "address": {"city": "MEMPHIS", "state": "TN", "street": "2562 AVERY AVE", "postcode": "38112"}}},
{"geometry": {"type": "Point", "coordinates": [-89.9582241506, 35.1494421693]}, "type": "Feature", "properties": {"collection_times": [{"days": "Mon-Fri", "time": "1:00pm"}, {"days": "Sat-Sun", "time": "Closed"}], "id": "3811200027", "name": "USPS COLLECTION BOX - BLUE BOX", "address": {"city": "MEMPHIS", "state": "TN", "street": "3086 SUMMER AVE", "postcode": "38112"}}},
{"geometry": {"type": "Point", "coordinates": [-89.9690975387, 35.1475394653]}, "type": "Feature", "properties": {"collection_times": [{"days": "Mon-Fri", "time": "1:00pm"}, {"days": "Sat", "time": "12:00pm"}, {"days": "Sun", "time": "Closed"}], "id": "3811200029", "name": "USPS COLLECTION BOX - BLUE BOX", "address": {"city": "MEMPHIS", "state": "TN", "street": "450 CUMBERLAND ST", "postcode": "38112"}}},
{"geometry": {"type": "Point", "coordinates": [-89.977339557, 35.1333547481]}, "type": "Feature", "properties": {"collection_times": [{"days": "Mon-Fri", "time": "1:00pm"}, {"days": "Sat", "time": "12:00pm"}, {"days": "Sun", "time": "Closed"}], "id": "3811200039", "name": "USPS COLLECTION BOX - BLUE BOX", "address": {"city": "MEMPHIS", "state": "TN", "street": "98 S ALICIA DR", "postcode": "38112"}}},
{"geometry": {"type": "Point", "coordinates": [-89.9733897698, 35.1352066335]}, "type": "Feature", "properties": {"collection_times": [{"days": "Mon-Fri", "time": "1:00pm"}, {"days": "Sat", "time": "12:00pm"}, {"days": "Sun", "time": "Closed"}], "id": "3811200052", "name": "USPS COLLECTION BOX - BLUE BOX", "address": {"city": "MEMPHIS", "state": "TN", "street": "2675 UNION AVENUE EXT", "postcode": "38112"}}},
{"geometry": {"type": "Point", "coordinates": [-89.9737163204, 35.1348469726]}, "type": "Feature", "properties": {"collection_times": [{"days": "Mon-Fri", "time": "1:00pm"}, {"days": "Sat", "time": "12:00pm"}, {"days": "Sun", "time": "Closed"}], "id": "3811200053", "name": "USPS COLLECTION BOX - BLUE BOX", "address": {"city": "MEMPHIS", "state": "TN", "street": "2670 UNION AVENUE EXT", "postcode": "38112"}}},
{"geometry": {"type": "Point", "coordinates": [-90.0899150511, 35.1081694705]}, "type": "Feature", "properties": {"collection_times": [{"days": "Mon-Fri", "time": "5:00pm"}, {"days": "Sat", "time": "1:00pm"}, {"days": "Sun", "time": "Closed"}], "id": "3811300001", "name": "USPS COLLECTION BOX - BLUE BOX", "address": {"city": "MEMPHIS", "state": "TN", "street": "1035 HARBOR ST", "postcode": "38113"}}},
{"geometry": {"type": "Point", "coordinates": [-90.0899150511, 35.1081694705]}, "type": "Feature", "properties": {"collection_times": [{"days": "Mon-Fri", "time": "5:00pm"}, {"days": "Sat", "time": "1:00pm"}, {"days": "Sun", "time": "Closed"}], "id": "3811300002", "name": "USPS COLLECTION BOX - BLUE BOX", "address": {"city": "MEMPHIS", "state": "TN", "street": "1035 HARBOR ST", "postcode": "38113"}}},
{"geometry": {"type": "Point", "coordinates": [-90.0899150511, 35.1081694705]}, "type": "Feature", "properties": {"collection_times": [{"days": "Mon-Fri", "time": "12:00pm"}, {"days": "Sat-Sun", "time": "Closed"}], "id": "3811300010", "name": "USPS COLLECTION BOX - PO LOBBY", "address": {"city": "MEMPHIS", "state": "TN", "street": "1035 HARBOR DR", "postcode": "38113"}}},
{"geometry": {"type": "Point", "coordinates": [-89.9849480483, 35.1058317491]}, "type": "Feature", "properties": {"collection_times": [{"days": "Mon-Fri", "time": "4:00pm"}, {"days": "Sat", "time": "1:00pm"}, {"days": "Sun", "time": "Closed"}], "id": "3811400001", "name": "USPS COLLECTION BOX - BLUE BOX", "address": {"city": "MEMPHIS", "state": "TN", "street": "1458 S TREZEVANT ST", "postcode": "38114"}}},
{"geometry": {"type": "Point", "coordinates": [-89.9849480483, 35.1058317491]}, "type": "Feature", "properties": {"collection_times": [{"days": "Mon-Fri", "time": "4:00pm"}, {"days": "Sat-Sun", "time": "Closed"}], "id": "3811400044", "name": "USPS COLLECTION BOX - PO LOBBY", "address": {"city": "MEMPHIS", "state": "TN", "street": "1458 S TREZEVANT ST", "postcode": "38114"}}},
{"geometry": {"type": "Point", "coordinates": [-89.8709093048, 35.0739025539]}, "type": "Feature", "properties": {"collection_times": [{"days": "Mon-Sat", "time": "1:00pm"}, {"days": "Sun", "time": "Closed"}], "id": "3811500011", "name": "USPS COLLECTION BOX - BLUE BOX", "address": {"city": "MEMPHIS", "state": "TN", "street": "2736 MOUNT MORIAH PKWY", "postcode": "38115"}}},
{"geometry": {"type": "Point", "coordinates": [-89.8883504463, 35.0805318338]}, "type": "Feature", "properties": {"collection_times": [{"days": "Mon-Fri", "time": "4:00pm"}, {"days": "Sat", "time": "1:00pm"}, {"days": "Sun", "time": "Closed"}], "id": "3811500012", "name": "USPS COLLECTION BOX - BLUE BOX", "address": {"city": "MEMPHIS", "state": "TN", "street": "2500 MOUNT MORIAH RD", "postcode": "38115"}}},
{"geometry": {"type": "Point", "coordinates": [-89.84540026, 35.0496056736]}, "type": "Feature", "properties": {"collection_times": [{"days": "Mon-Sat", "time": "1:00pm"}, {"days": "Sun", "time": "Closed"}], "id": "3811500021", "name": "USPS COLLECTION BOX - BLUE BOX", "address": {"city": "MEMPHIS", "state": "TN", "street": "6524 WINCHESTER RD", "postcode": "38115"}}},
{"geometry": {"type": "Point", "coordinates": [-89.8803168391, 35.050428504]}, "type": "Feature", "properties": {"collection_times": [{"days": "Mon-Sat", "time": "1:00pm"}, {"days": "Sun", "time": "Closed"}], "id": "3811500023", "name": "USPS COLLECTION BOX - BLUE BOX", "address": {"city": "MEMPHIS", "state": "TN", "street": "5495 WINCHESTER RD", "postcode": "38115"}}},
{"geometry": {"type": "Point", "coordinates": [-89.8619867191, 35.0688093006]}, "type": "Feature", "properties": {"collection_times": [{"days": "Mon-Sat", "time": "1:00pm"}, {"days": "Sun", "time": "Closed"}], "id": "3811500030", "name": "USPS COLLECTION BOX - BLUE BOX", "address": {"city": "MEMPHIS", "state": "TN", "street": "6099 APPLE TREE DR", "postcode": "38115"}}},
{"geometry": {"type": "Point", "coordinates": [-89.8664398366, 35.0464734811]}, "type": "Feature", "properties": {"collection_times": [{"days": "Mon-Fri", "time": "12:00pm"}, {"days": "Sat", "time": "1:00pm"}, {"days": "Sun", "time": "Closed"}], "id": "3811500038", "name": "USPS COLLECTION BOX - PO LOBBY", "address": {"city": "MEMPHIS", "state": "TN", "street": "3735 HICKORY HILL RD", "postcode": "38115"}}},
{"geometry": {"type": "Point", "coordinates": [-89.8583457422, 35.0497293752]}, "type": "Feature", "properties": {"collection_times": [{"days": "Mon-Sat", "time": "1:00pm"}, {"days": "Sun", "time": "Closed"}], "id": "3811500039", "name": "USPS COLLECTION BOX - BLUE BOX", "address": {"city": "MEMPHIS", "state": "TN", "street": "6075 WINCHESTER RD", "postcode": "38115"}}},
{"geometry": {"type": "Point", "coordinates": [-89.8664398366, 35.0464734811]}, "type": "Feature", "properties": {"collection_times": [{"days": "Mon-Fri", "time": "5:00pm"}, {"days": "Sat", "time": "1:00pm"}, {"days": "Sun", "time": "Closed"}], "id": "3811500045", "name": "USPS COLLECTION BOX - PO LOBBY", "address": {"city": "MEMPHIS", "state": "TN", "street": "3735 HICKORY HILL RD", "postcode": "38115"}}},
{"geometry": {"type": "Point", "coordinates": [-89.8664398366, 35.0464734811]}, "type": "Feature", "properties": {"collection_times": [{"days": "Mon-Fri", "time": "5:00pm"}, {"days": "Sat", "time": "1:00pm"}, {"days": "Sun", "time": "Closed"}], "id": "3811500052", "name": "USPS COLLECTION BOX - BLUE BOX", "address": {"city": "MEMPHIS", "state": "TN", "street": "3735 HICKORY HILL RD", "postcode": "38115"}}},
{"geometry": {"type": "Point", "coordinates": [-89.8664398366, 35.0464734811]}, "type": "Feature", "properties": {"collection_times": [{"days": "Mon-Fri", "time": "5:00pm"}, {"days": "Sat", "time": "1:00pm"}, {"days": "Sun", "time": "Closed"}], "id": "3811500053", "name": "USPS COLLECTION BOX - BLUE BOX", "address": {"city": "MEMPHIS", "state": "TN", "street": "3735 HICKORY HILL RD", "postcode": "38115"}}},
{"geometry": {"type": "Point", "coordinates": [-89.8664398366, 35.0464734811]}, "type": "Feature", "properties": {"collection_times": [{"days": "Mon-Fri", "time": "5:00pm"}, {"days": "Sat", "time": "1:00pm"}, {"days": "Sun", "time": "Closed"}], "id": "3811500055", "name": "USPS COLLECTION BOX - APC", "address": {"city": "MEMPHIS", "state": "TN", "street": "3735 HICKORY HILL RD", "postcode": "38115"}}},
{"geometry": {"type": "Point", "coordinates": [-89.8664398366, 35.0464734811]}, "type": "Feature", "properties": {"collection_times": [{"days": "Mon-Fri", "time": "5:00pm"}, {"days": "Sat", "time": "1:00pm"}, {"days": "Sun", "time": "Closed"}], "id": "3811500060", "name": "USPS COLLECTION BOX - PO LOBBY", "address": {"city": "MEMPHIS", "state": "TN", "street": "3735 HICKORY HILL RD", "postcode": "38115"}}},
{"geometry": {"type": "Point", "coordinates": [-89.9943079479, 35.0653172255]}, "type": "Feature", "properties": {"collection_times": [{"days": "Mon-Fri", "time": "4:00pm"}, {"days": "Sat", "time": "1:00pm"}, {"days": "Sun", "time": "Closed"}], "id": "3811600001", "name": "USPS COLLECTION BOX - BLUE BOX", "address": {"city": "MEMPHIS", "state": "TN", "street": "3035 DIRECTORS ROW", "postcode": "38116"}}},
{"geometry": {"type": "Point", "coordinates": [-89.9942745482, 35.0652696293]}, "type": "Feature", "properties": {"collection_times": [{"days": "Mon-Fri", "time": "4:00pm"}, {"days": "Sat", "time": "1:00pm"}, {"days": "Sun", "time": "Closed"}], "id": "3811600003", "name": "USPS COLLECTION BOX - BLUE BOX", "address": {"city": "MEMPHIS", "state": "TN", "street": "2996 DIRECTORS ROW", "postcode": "38116"}}},
{"geometry": {"type": "Point", "coordinates": [-90.0156026021, 35.0316488435]}, "type": "Feature", "properties": {"collection_times": [{"days": "Mon-Sat", "time": "1:00pm"}, {"days": "Sun", "time": "Closed"}], "id": "3811600005", "name": "USPS COLLECTION BOX - BLUE BOX", "address": {"city": "MEMPHIS", "state": "TN", "street": "200 CARGO", "postcode": "38116"}}},
{"geometry": {"type": "Point", "coordinates": [-90.0250653556, 35.0378161812]}, "type": "Feature", "properties": {"collection_times": [{"days": "Mon-Fri", "time": "4:30pm"}, {"days": "Sat", "time": "1:00pm"}, {"days": "Sun", "time": "Closed"}], "id": "3811600007", "name": "USPS COLLECTION BOX - BLUE BOX", "address": {"city": "MEMPHIS", "state": "TN", "street": "4060 ELVIS PRESLEY BLVD", "postcode": "38116"}}},
{"geometry": {"type": "Point", "coordinates": [-90.0250653556, 35.0378161812]}, "type": "Feature", "properties": {"collection_times": [{"days": "Mon-Fri", "time": "4:30pm"}, {"days": "Sat", "time": "1:00pm"}, {"days": "Sun", "time": "Closed"}], "id": "3811600008", "name": "USPS COLLECTION BOX - BLUE BOX", "address": {"city": "MEMPHIS", "state": "TN", "street": "4060 ELVIS PRESLEY BLVD", "postcode": "38116"}}},
{"geometry": {"type": "Point", "coordinates": [-90.0206808351, 35.0579379275]}, "type": "Feature", "properties": {"collection_times": [{"days": "Mon-Fri", "time": "5:00pm"}, {"days": "Sat", "time": "1:00pm"}, {"days": "Sun", "time": "Closed"}], "id": "3811600012", "name": "USPS COLLECTION BOX - BLUE BOX", "address": {"city": "MEMPHIS", "state": "TN", "street": "1292 GATEWAY DR", "postcode": "38116"}}},
{"geometry": {"type": "Point", "coordinates": [-90.0206808351, 35.0579379275]}, "type": "Feature", "properties": {"collection_times": [{"days": "Mon-Fri", "time": "5:00pm"}, {"days": "Sat", "time": "1:00pm"}, {"days": "Sun", "time": "Closed"}], "id": "3811600013", "name": "USPS COLLECTION BOX - BLUE BOX", "address": {"city": "MEMPHIS", "state": "TN", "street": "1292 GATEWAY DR", "postcode": "38116"}}},
{"geometry": {"type": "Point", "coordinates": [-90.0306491247, 35.0629173286]}, "type": "Feature", "properties": {"collection_times": [{"days": "Mon-Sat", "time": "1:00pm"}, {"days": "Sun", "time": "Closed"}], "id": "3811600014", "name": "USPS COLLECTION BOX - BLUE BOX", "address": {"city": "MEMPHIS", "state": "TN", "street": "3156 NORBROOK DR", "postcode": "38116"}}},
{"geometry": {"type": "Point", "coordinates": [-90.0074708908, 35.0195744663]}, "type": "Feature", "properties": {"collection_times": [{"days": "Mon-Sat", "time": "1:00pm"}, {"days": "Sun", "time": "Closed"}], "id": "3811600015", "name": "USPS COLLECTION BOX - BLUE BOX", "address": {"city": "MEMPHIS", "state": "TN", "street": "4720 MILLBRANCH RD", "postcode": "38116"}}},
{"geometry": {"type": "Point", "coordinates": [-90.0076458102, 35.00830925]}, "type": "Feature", "properties": {"collection_times": [{"days": "Mon-Sat", "time": "1:00pm"}, {"days": "Sun", "time": "Closed"}], "id": "3811600016", "name": "USPS COLLECTION BOX - BLUE BOX", "address": {"city": "MEMPHIS", "state": "TN", "street": "5134 MILLBRANCH RD", "postcode": "38116"}}},
{"geometry": {"type": "Point", "coordinates": [-90.0217874664, 35.0208163475]}, "type": "Feature", "properties": {"collection_times": [{"days": "Mon-Sat", "time": "1:00pm"}, {"days": "Sun", "time": "Closed"}], "id": "3811600019", "name": "USPS COLLECTION BOX - BLUE BOX", "address": {"city": "MEMPHIS", "state": "TN", "street": "1251 E SHELBY DR", "postcode": "38116"}}},
{"geometry": {"type": "Point", "coordinates": [-90.0223488072, 35.0210165952]}, "type": "Feature", "properties": {"collection_times": [{"days": "Mon-Sat", "time": "1:00pm"}, {"days": "Sun", "time": "Closed"}], "id": "3811600020", "name": "USPS COLLECTION BOX - BLUE BOX", "address": {"city": "MEMPHIS", "state": "TN", "street": "1250 E SHELBY DR", "postcode": "38116"}}},
{"geometry": {"type": "Point", "coordinates": [-90.022988788, 35.0355113914]}, "type": "Feature", "properties": {"collection_times": [{"days": "Mon-Sat", "time": "1:00pm"}, {"days": "Sun", "time": "Closed"}], "id": "3811600021", "name": "USPS COLLECTION BOX - BLUE BOX", "address": {"city": "MEMPHIS", "state": "TN", "street": "1231 E RAINES RD", "postcode": "38116"}}},
{"geometry": {"type": "Point", "coordinates": [-90.006671052, 35.0355729053]}, "type": "Feature", "properties": {"collection_times": [{"days": "Mon-Sat", "time": "1:00pm"}, {"days": "Sun", "time": "Closed"}], "id": "3811600022", "name": "USPS COLLECTION BOX - BLUE BOX", "address": {"city": "MEMPHIS", "state": "TN", "street": "1717 E RAINES RD", "postcode": "38116"}}},
{"geometry": {"type": "Point", "coordinates": [-90.0280456709, 35.0616864249]}, "type": "Feature", "properties": {"collection_times": [{"days": "Mon-Fri", "time": "1:00pm"}, {"days": "Sat-Sun", "time": "Closed"}], "id": "3811600023", "name": "USPS COLLECTION BOX - BLUE BOX", "address": {"city": "MEMPHIS", "state": "TN", "street": "1074 E BROOKS RD", "postcode": "38116"}}},
{"geometry": {"type": "Point", "coordinates": [-90.025178445, 35.0262251635]}, "type": "Feature", "properties": {"collection_times": [{"days": "Mon-Sat", "time": "1:00pm"}, {"days": "Sun", "time": "Closed"}], "id": "3811600025", "name": "USPS COLLECTION BOX - BLUE BOX", "address": {"city": "MEMPHIS", "state": "TN", "street": "4466 ELVIS PRESLEY BLVD", "postcode": "38116"}}},
{"geometry": {"type": "Point", "coordinates": [-89.9915646661, 35.0563480306]}, "type": "Feature", "properties": {"collection_times": [{"days": "Mon-Fri", "time": "3:00pm"}, {"days": "Sat", "time": "1:00pm"}, {"days": "Sun", "time": "Closed"}], "id": "3811600027", "name": "USPS COLLECTION BOX - BLUE BOX", "address": {"city": "MEMPHIS", "state": "TN", "street": "3385 AIRWAYS BLVD", "postcode": "38116"}}},
{"geometry": {"type": "Point", "coordinates": [-90.0204726107, 35.0540781115]}, "type": "Feature", "properties": {"collection_times": [{"days": "Mon-Sat", "time": "1:00pm"}, {"days": "Sun", "time": "Closed"}], "id": "3811600029", "name": "USPS COLLECTION BOX - BLUE BOX", "address": {"city": "MEMPHIS", "state": "TN", "street": "1297 WINCHESTER RD", "postcode": "38116"}}},
{"geometry": {"type": "Point", "coordinates": [-90.0219277382, 35.0324337562]}, "type": "Feature", "properties": {"collection_times": [{"days": "Mon-Sat", "time": "1:00pm"}, {"days": "Sun", "time": "Closed"}], "id": "3811600031", "name": "USPS COLLECTION BOX - BLUE BOX", "address": {"city": "MEMPHIS", "state": "TN", "street": "1264 WESLEY DR", "postcode": "38116"}}},
{"geometry": {"type": "Point", "coordinates": [-89.9891265876, 35.068732428]}, "type": "Feature", "properties": {"collection_times": [{"days": "Mon-Sat", "time": "1:00pm"}, {"days": "Sun", "time": "Closed"}], "id": "3811600033", "name": "USPS COLLECTION BOX - BLUE BOX", "address": {"city": "MEMPHIS", "state": "TN", "street": "2239 DEMOCRAT RD", "postcode": "38116"}}},
{"geometry": {"type": "Point", "coordinates": [-86.343048067, 35.8430039943]}, "type": "Feature", "properties": {"collection_times": [{"days": "Mon-Sat", "time": "1:00pm"}, {"days": "Sun", "time": "Closed"}], "id": "3811600034", "name": "USPS COLLECTION BOX - BLUE BOX", "address": {"city": "MEMPHIS", "state": "TN", "street": "2800 CARGO CIR", "postcode": "38116"}}},
{"geometry": {"type": "Point", "coordinates": [-90.0206808351, 35.0579379275]}, "type": "Feature", "properties": {"collection_times": [{"days": "Mon-Sat", "time": "12:00pm"}, {"days": "Sun", "time": "Closed"}], "id": "3811600051", "name": "USPS COLLECTION BOX - PO LOBBY", "address": {"city": "MEMPHIS", "state": "TN", "street": "1292 GATEWAY DR", "postcode": "38116"}}},
{"geometry": {"type": "Point", "coordinates": [-90.0206808351, 35.0579379275]}, "type": "Feature", "properties": {"collection_times": [{"days": "Mon-Fri", "time": "5:00pm"}, {"days": "Sat", "time": "1:00pm"}, {"days": "Sun", "time": "Closed"}], "id": "3811600054", "name": "USPS COLLECTION BOX - PO LOBBY", "address": {"city": "MEMPHIS", "state": "TN", "street": "1292 GATEWAY DR", "postcode": "38116"}}},
{"geometry": {"type": "Point", "coordinates": [-90.0206808351, 35.0579379275]}, "type": "Feature", "properties": {"collection_times": [{"days": "Mon-Fri", "time": "5:00pm"}, {"days": "Sat", "time": "1:00pm"}, {"days": "Sun", "time": "Closed"}], "id": "3811600056", "name": "USPS COLLECTION BOX - PO LOBBY", "address": {"city": "MEMPHIS", "state": "TN", "street": "1292 GATEWAY DR", "postcode": "38116"}}},
{"geometry": {"type": "Point", "coordinates": [-89.8917702478, 35.1171805124]}, "type": "Feature", "properties": {"collection_times": [{"days": "Mon-Fri", "time": "1:00pm"}, {"days": "Sat", "time": "12:00pm"}, {"days": "Sun", "time": "Closed"}], "id": "3811700004", "name": "USPS COLLECTION BOX - BLUE BOX", "address": {"city": "MEMPHIS", "state": "TN", "street": "5100 SANDERLIN AVE", "postcode": "38117"}}},
{"geometry": {"type": "Point", "coordinates": [-89.8988405832, 35.1156618305]}, "type": "Feature", "properties": {"collection_times": [{"days": "Mon-Fri", "time": "5:00pm"}, {"days": "Sat", "time": "1:00pm"}, {"days": "Sun", "time": "Closed"}], "id": "3811700015", "name": "USPS COLLECTION BOX - BLUE BOX", "address": {"city": "MEMPHIS", "state": "TN", "street": "521 ERIN DR", "postcode": "38117"}}},
{"geometry": {"type": "Point", "coordinates": [-89.8908840145, 35.0891648889]}, "type": "Feature", "properties": {"collection_times": [{"days": "Mon-Fri", "time": "1:00pm"}, {"days": "Sat", "time": "12:00pm"}, {"days": "Sun", "time": "Closed"}], "id": "3811700019", "name": "USPS COLLECTION BOX - BLUE BOX", "address": {"city": "MEMPHIS", "state": "TN", "street": "5137 QUINCE RD", "postcode": "38117"}}},
{"geometry": {"type": "Point", "coordinates": [-89.9066384848, 35.1185050417]}, "type": "Feature", "properties": {"collection_times": [{"days": "Mon-Sat", "time": "12:00pm"}, {"days": "Sun", "time": "Closed"}], "id": "3811700021", "name": "USPS COLLECTION BOX - BLUE BOX", "address": {"city": "MEMPHIS", "state": "TN", "street": "475 S PERKINS RD", "postcode": "38117"}}},
{"geometry": {"type": "Point", "coordinates": [-89.9086120345, 35.1177814556]}, "type": "Feature", "properties": {"collection_times": [{"days": "Mon-Fri", "time": "1:00pm"}, {"days": "Sat", "time": "12:00pm"}, {"days": "Sun", "time": "Closed"}], "id": "3811700024", "name": "USPS COLLECTION BOX - BLUE BOX", "address": {"city": "MEMPHIS", "state": "TN", "street": "492 PERKINS EXTD", "postcode": "38117"}}},
{"geometry": {"type": "Point", "coordinates": [-89.8973490822, 35.084127456]}, "type": "Feature", "properties": {"collection_times": [{"days": "Mon-Fri", "time": "3:00pm"}, {"days": "Sat", "time": "12:00pm"}, {"days": "Sun", "time": "Closed"}], "id": "3811700041", "name": "USPS COLLECTION BOX - BLUE BOX", "address": {"city": "MEMPHIS", "state": "TN", "street": "1760 MORIAH WOODS BLVD", "postcode": "38117"}}},
{"geometry": {"type": "Point", "coordinates": [-89.9048573228, 35.1106884336]}, "type": "Feature", "properties": {"collection_times": [{"days": "Mon-Fri", "time": "1:00pm"}, {"days": "Sat", "time": "12:00pm"}, {"days": "Sun", "time": "Closed"}], "id": "3811700047", "name": "USPS COLLECTION BOX - BLUE BOX", "address": {"city": "MEMPHIS", "state": "TN", "street": "755 CROSSOVER LN", "postcode": "38117"}}},
{"geometry": {"type": "Point", "coordinates": [-89.8900750676, 35.1100413551]}, "type": "Feature", "properties": {"collection_times": [{"days": "Mon-Sat", "time": "12:00pm"}, {"days": "Sun", "time": "Closed"}], "id": "3811700054", "name": "USPS COLLECTION BOX - BLUE BOX", "address": {"city": "MEMPHIS", "state": "TN", "street": "5165 POPLAR AVE", "postcode": "38117"}}},
{"geometry": {"type": "Point", "coordinates": [-89.9037110356, 35.1149979531]}, "type": "Feature", "properties": {"collection_times": [{"days": "Mon-Sat", "time": "12:00pm"}, {"days": "Sun", "time": "Closed"}], "id": "3811700055", "name": "USPS COLLECTION BOX - BLUE BOX", "address": {"city": "MEMPHIS", "state": "TN", "street": "4745 POPLAR AVE", "postcode": "38117"}}},
{"geometry": {"type": "Point", "coordinates": [-89.8988405832, 35.1156618305]}, "type": "Feature", "properties": {"collection_times": [{"days": "Mon-Sat", "time": "12:00pm"}, {"days": "Sun", "time": "Closed"}], "id": "3811700058", "name": "USPS COLLECTION BOX - PO LOBBY", "address": {"city": "MEMPHIS", "state": "TN", "street": "521 ERIN DR", "postcode": "38117"}}},
{"geometry": {"type": "Point", "coordinates": [-89.8914614955, 35.1064439769]}, "type": "Feature", "properties": {"collection_times": [{"days": "Mon-Sat", "time": "1:00pm"}, {"days": "Sun", "time": "Closed"}], "id": "3811700060", "name": "USPS COLLECTION BOX - BLUE BOX", "address": {"city": "MEMPHIS", "state": "TN", "street": "5118 PARK AVE", "postcode": "38117"}}},
{"geometry": {"type": "Point", "coordinates": [-89.8988405832, 35.1156618305]}, "type": "Feature", "properties": {"collection_times": [{"days": "Mon-Fri", "time": "5:00pm"}, {"days": "Sat", "time": "1:00pm"}, {"days": "Sun", "time": "Closed"}], "id": "3811700062", "name": "USPS COLLECTION BOX - PO LOBBY", "address": {"city": "MEMPHIS", "state": "TN", "street": "521 ERIN DR", "postcode": "38117"}}},
{"geometry": {"type": "Point", "coordinates": [-89.8988405832, 35.1156618305]}, "type": "Feature", "properties": {"collection_times": [{"days": "Mon-Fri", "time": "5:00pm"}, {"days": "Sat", "time": "1:00pm"}, {"days": "Sun", "time": "Closed"}], "id": "3811700065", "name": "USPS COLLECTION BOX - BLUE BOX", "address": {"city": "MEMPHIS", "state": "TN", "street": "521 ERIN DR", "postcode": "38117"}}},
{"geometry": {"type": "Point", "coordinates": [-89.8988405832, 35.1156618305]}, "type": "Feature", "properties": {"collection_times": [{"days": "Mon-Fri", "time": "5:00pm"}, {"days": "Sat", "time": "1:00pm"}, {"days": "Sun", "time": "Closed"}], "id": "3811700068", "name": "USPS COLLECTION BOX - PO LOBBY", "address": {"city": "MEMPHIS", "state": "TN", "street": "521 ERIN DR", "postcode": "38117"}}},
{"geometry": {"type": "Point", "coordinates": [-89.8988405832, 35.1156618305]}, "type": "Feature", "properties": {"collection_times": [{"days": "Mon-Fri", "time": "5:00pm"}, {"days": "Sat", "time": "1:00pm"}, {"days": "Sun", "time": "Closed"}], "id": "3811700069", "name": "USPS COLLECTION BOX - PO LOBBY", "address": {"city": "MEMPHIS", "state": "TN", "street": "521 ERIN DR", "postcode": "38117"}}},
{"geometry": {"type": "Point", "coordinates": [-89.9259451693, 35.0320681769]}, "type": "Feature", "properties": {"collection_times": [{"days": "Mon-Sat", "time": "1:00pm"}, {"days": "Sun", "time": "Closed"}], "id": "3811800008", "name": "USPS COLLECTION BOX - BLUE BOX", "address": {"city": "MEMPHIS", "state": "TN", "street": "4100 PILOT DR", "postcode": "38118"}}},
{"geometry": {"type": "Point", "coordinates": [-89.8802352149, 35.0008767188]}, "type": "Feature", "properties": {"collection_times": [{"days": "Mon-Sat", "time": "12:00pm"}, {"days": "Sun", "time": "Closed"}], "id": "3811800009", "name": "USPS COLLECTION BOX - BLUE BOX", "address": {"city": "MEMPHIS", "state": "TN", "street": "5406 REPUBLIC DR", "postcode": "38118"}}},
{"geometry": {"type": "Point", "coordinates": [-89.9394860806, 35.0519497892]}, "type": "Feature", "properties": {"collection_times": [{"days": "Mon-Fri", "time": "5:00pm"}, {"days": "Sat", "time": "1:00pm"}, {"days": "Sun", "time": "Closed"}], "id": "3811800014", "name": "USPS COLLECTION BOX - BLUE BOX", "address": {"city": "MEMPHIS", "state": "TN", "street": "3715 WINCHESTER RD", "postcode": "38118"}}},
{"geometry": {"type": "Point", "coordinates": [-90.0492457042, 35.1497613055]}, "type": "Feature", "properties": {"collection_times": [{"days": "Mon-Fri", "time": "5:00pm"}, {"days": "Sat", "time": "2:30pm"}, {"days": "Sun", "time": "Closed"}], "id": "3811800017", "name": "USPS COLLECTION BOX - BLUE BOX", "address": {"city": "MEMPHIS", "state": "TN", "street": "5300 KNIGHT ARNOLD RD", "postcode": "38118"}}},
{"geometry": {"type": "Point", "coordinates": [-90.0492457042, 35.1497613055]}, "type": "Feature", "properties": {"collection_times": [{"days": "Mon-Fri", "time": "5:00pm"}, {"days": "Sat", "time": "2:30pm"}, {"days": "Sun", "time": "Closed"}], "id": "3811800018", "name": "USPS COLLECTION BOX - BLUE BOX", "address": {"city": "MEMPHIS", "state": "TN", "street": "5300 KNIGHT ARNOLD RD", "postcode": "38118"}}},
{"geometry": {"type": "Point", "coordinates": [-89.93463917, 35.0488553318]}, "type": "Feature", "properties": {"collection_times": [{"days": "Mon-Fri", "time": "3:00pm"}, {"days": "Sat", "time": "12:00pm"}, {"days": "Sun", "time": "Closed"}], "id": "3811800019", "name": "USPS COLLECTION BOX - BLUE BOX", "address": {"city": "MEMPHIS", "state": "TN", "street": "3874 VISCOUNT AVE", "postcode": "38118"}}},
{"geometry": {"type": "Point", "coordinates": [-89.9347272569, 35.0356256208]}, "type": "Feature", "properties": {"collection_times": [{"days": "Mon-Sat", "time": "1:00pm"}, {"days": "Sun", "time": "Closed"}], "id": "3811800026", "name": "USPS COLLECTION BOX - BLUE BOX", "address": {"city": "MEMPHIS", "state": "TN", "street": "4500 WILLOW LAKE BLVD", "postcode": "38118"}}},
{"geometry": {"type": "Point", "coordinates": [-89.9227306696, 35.0750765217]}, "type": "Feature", "properties": {"collection_times": [{"days": "Mon-Fri", "time": "1:00pm"}, {"days": "Sat", "time": "12:00pm"}, {"days": "Sun", "time": "Closed"}], "id": "3811800027", "name": "USPS COLLECTION BOX - BLUE BOX", "address": {"city": "MEMPHIS", "state": "TN", "street": "2690 COLONY PARK DR", "postcode": "38118"}}},
{"geometry": {"type": "Point", "coordinates": [-89.9057883115, 35.0641945974]}, "type": "Feature", "properties": {"collection_times": [{"days": "Mon-Sat", "time": "1:00pm"}, {"days": "Sun", "time": "Closed"}], "id": "3811800058", "name": "USPS COLLECTION BOX - BLUE BOX", "address": {"city": "MEMPHIS", "state": "TN", "street": "3071 S PERKINS RD", "postcode": "38118"}}},
{"geometry": {"type": "Point", "coordinates": [-89.9312917238, 35.0508082338]}, "type": "Feature", "properties": {"collection_times": [{"days": "Mon-Fri", "time": "3:00pm"}, {"days": "Sat", "time": "12:00pm"}, {"days": "Sun", "time": "Closed"}], "id": "3811800064", "name": "USPS COLLECTION BOX - BLUE BOX", "address": {"city": "MEMPHIS", "state": "TN", "street": "3580 AIR PARK ST", "postcode": "38118"}}},
{"geometry": {"type": "Point", "coordinates": [-89.9394860806, 35.0519497892]}, "type": "Feature", "properties": {"collection_times": [{"days": "Mon-Sat", "time": "12:00pm"}, {"days": "Sun", "time": "Closed"}], "id": "3811800066", "name": "USPS COLLECTION BOX - PO LOBBY", "address": {"city": "MEMPHIS", "state": "TN", "street": "3715 WINCHESTER RD", "postcode": "38118"}}},
{"geometry": {"type": "Point", "coordinates": [-89.9394860806, 35.0519497892]}, "type": "Feature", "properties": {"collection_times": [{"days": "Mon-Fri", "time": "5:00pm"}, {"days": "Sat", "time": "1:00pm"}, {"days": "Sun", "time": "Closed"}], "id": "3811800068", "name": "USPS COLLECTION BOX - BLUE BOX", "address": {"city": "MEMPHIS", "state": "TN", "street": "3715 WINCHESTER RD", "postcode": "38118"}}},
{"geometry": {"type": "Point", "coordinates": [-89.9191054111, 35.026280853]}, "type": "Feature", "properties": {"collection_times": [{"days": "Mon-Fri", "time": "1:00pm"}, {"days": "Sat-Sun", "time": "Closed"}], "id": "3811800070", "name": "USPS COLLECTION BOX - BLUE BOX", "address": {"city": "MEMPHIS", "state": "TN", "street": "4446 MALONE RD", "postcode": "38118"}}},
{"geometry": {"type": "Point", "coordinates": [-89.9394860806, 35.0519497892]}, "type": "Feature", "properties": {"collection_times": [{"days": "Mon-Fri", "time": "5:00pm"}, {"days": "Sat", "time": "1:00pm"}, {"days": "Sun", "time": "Closed"}], "id": "3811800072", "name": "USPS COLLECTION BOX - PO LOBBY", "address": {"city": "MEMPHIS", "state": "TN", "street": "3715 WINCHESTER RD", "postcode": "38118"}}},
{"geometry": {"type": "Point", "coordinates": [-89.9288551053, 35.0647513397]}, "type": "Feature", "properties": {"collection_times": [{"days": "Mon-Sat", "time": "1:00pm"}, {"days": "Sun", "time": "Closed"}], "id": "3811800074", "name": "USPS COLLECTION BOX - BLUE BOX", "address": {"city": "MEMPHIS", "state": "TN", "street": "4025 KNIGHT ARNOLD RD", "postcode": "38118"}}},
{"geometry": {"type": "Point", "coordinates": [-89.9394860806, 35.0519497892]}, "type": "Feature", "properties": {"collection_times": [{"days": "Mon-Fri", "time": "5:00pm"}, {"days": "Sat", "time": "1:00pm"}, {"days": "Sun", "time": "Closed"}], "id": "3811800076", "name": "USPS COLLECTION BOX - PO LOBBY", "address": {"city": "MEMPHIS", "state": "TN", "street": "3715 WINCHESTER RD", "postcode": "38118"}}},
{"geometry": {"type": "Point", "coordinates": [-89.8692112203, 35.099753161]}, "type": "Feature", "properties": {"collection_times": [{"days": "Mon-Fri", "time": "4:30pm"}, {"days": "Sat", "time": "1:00pm"}, {"days": "Sun", "time": "Closed"}], "id": "3811900007", "name": "USPS COLLECTION BOX - BLUE BOX", "address": {"city": "MEMPHIS", "state": "TN", "street": "5821 PARK AVE", "postcode": "38119"}}},
{"geometry": {"type": "Point", "coordinates": [-89.8692112203, 35.099753161]}, "type": "Feature", "properties": {"collection_times": [{"days": "Mon-Fri", "time": "4:30pm"}, {"days": "Sat", "time": "1:00pm"}, {"days": "Sun", "time": "Closed"}], "id": "3811900008", "name": "USPS COLLECTION BOX - BLUE BOX", "address": {"city": "MEMPHIS", "state": "TN", "street": "5821 PARK AVE", "postcode": "38119"}}},
{"geometry": {"type": "Point", "coordinates": [-89.889601884, 35.1058229234]}, "type": "Feature", "properties": {"collection_times": [{"days": "Mon-Fri", "time": "1:00pm"}, {"days": "Sat", "time": "12:00pm"}, {"days": "Sun", "time": "Closed"}], "id": "3811900012", "name": "USPS COLLECTION BOX - BLUE BOX", "address": {"city": "MEMPHIS", "state": "TN", "street": "5180 PARK AVE", "postcode": "38119"}}},
{"geometry": {"type": "Point", "coordinates": [-89.8606111086, 35.0861124611]}, "type": "Feature", "properties": {"collection_times": [{"days": "Mon-Fri", "time": "12:00pm"}, {"days": "Sat", "time": "12:30pm"}, {"days": "Sun", "time": "Closed"}], "id": "3811900013", "name": "USPS COLLECTION BOX - BLUE BOX", "address": {"city": "MEMPHIS", "state": "TN", "street": "6060 QUINCE RD", "postcode": "38119"}}},
{"geometry": {"type": "Point", "coordinates": [-89.88233615, 35.1070023335]}, "type": "Feature", "properties": {"collection_times": [{"days": "Mon-Fri", "time": "1:00pm"}, {"days": "Sat", "time": "12:00pm"}, {"days": "Sun", "time": "Closed"}], "id": "3811900017", "name": "USPS COLLECTION BOX - BLUE BOX", "address": {"city": "MEMPHIS", "state": "TN", "street": "5384 POPLAR AVE", "postcode": "38119"}}},
{"geometry": {"type": "Point", "coordinates": [-89.8540586989, 35.1009018141]}, "type": "Feature", "properties": {"collection_times": [{"days": "Mon-Sat", "time": "1:00pm"}, {"days": "Sun", "time": "Closed"}], "id": "3811900020", "name": "USPS COLLECTION BOX - BLUE BOX", "address": {"city": "MEMPHIS", "state": "TN", "street": "6268 POPLAR AVE", "postcode": "38119"}}},
{"geometry": {"type": "Point", "coordinates": [-89.8875459013, 35.1087128922]}, "type": "Feature", "properties": {"collection_times": [{"days": "Mon-Fri", "time": "1:00pm"}, {"days": "Sat", "time": "12:00pm"}, {"days": "Sun", "time": "Closed"}], "id": "3811900024", "name": "USPS COLLECTION BOX - BLUE BOX", "address": {"city": "MEMPHIS", "state": "TN", "street": "5240 POPLAR AVE", "postcode": "38119"}}},
{"geometry": {"type": "Point", "coordinates": [-89.8762012665, 35.1032290773]}, "type": "Feature", "properties": {"collection_times": [{"days": "Mon-Fri", "time": "1:00pm"}, {"days": "Sat", "time": "12:00pm"}, {"days": "Sun", "time": "Closed"}], "id": "3811900026", "name": "USPS COLLECTION BOX - BLUE BOX", "address": {"city": "MEMPHIS", "state": "TN", "street": "1050 OAKHAVEN RD", "postcode": "38119"}}},
{"geometry": {"type": "Point", "coordinates": [-89.8445940765, 35.0812754433]}, "type": "Feature", "properties": {"collection_times": [{"days": "Mon-Fri", "time": "1:00pm"}, {"days": "Sat", "time": "12:00pm"}, {"days": "Sun", "time": "Closed"}], "id": "3811900030", "name": "USPS COLLECTION BOX - BLUE BOX", "address": {"city": "MEMPHIS", "state": "TN", "street": "5820 MURRAY RD", "postcode": "38119"}}},
{"geometry": {"type": "Point", "coordinates": [-89.8444980246, 35.0692576618]}, "type": "Feature", "properties": {"collection_times": [{"days": "Mon-Fri", "time": "1:00pm"}, {"days": "Sat", "time": "12:30pm"}, {"days": "Sun", "time": "Closed"}], "id": "3811900048", "name": "USPS COLLECTION BOX - BLUE BOX", "address": {"city": "MEMPHIS", "state": "TN", "street": "6555 QUINCE RD", "postcode": "38119"}}},
{"geometry": {"type": "Point", "coordinates": [-89.8605330333, 35.1020788583]}, "type": "Feature", "properties": {"collection_times": [{"days": "Mon-Sat", "time": "1:00pm"}, {"days": "Sun", "time": "Closed"}], "id": "3811900051", "name": "USPS COLLECTION BOX - BLUE BOX", "address": {"city": "MEMPHIS", "state": "TN", "street": "6075 POPLAR AVE", "postcode": "38119"}}},
{"geometry": {"type": "Point", "coordinates": [-89.8692112203, 35.099753161]}, "type": "Feature", "properties": {"collection_times": [{"days": "Mon-Fri", "time": "1:00pm"}, {"days": "Sat", "time": "12:00pm"}, {"days": "Sun", "time": "Closed"}], "id": "3811900078", "name": "USPS COLLECTION BOX - PO LOBBY", "address": {"city": "MEMPHIS", "state": "TN", "street": "5821 PARK AVE", "postcode": "38119"}}},
{"geometry": {"type": "Point", "coordinates": [-89.884157313, 35.1063246872]}, "type": "Feature", "properties": {"collection_times": [{"days": "Mon-Fri", "time": "1:00pm"}, {"days": "Sat", "time": "12:00pm"}, {"days": "Sun", "time": "Closed"}], "id": "3811900079", "name": "USPS COLLECTION BOX - BLUE BOX", "address": {"city": "MEMPHIS", "state": "TN", "street": "900 ESTATE PL", "postcode": "38119"}}},
{"geometry": {"type": "Point", "coordinates": [-89.8846819576, 35.1098662771]}, "type": "Feature", "properties": {"collection_times": [{"days": "Mon-Fri", "time": "1:00pm"}, {"days": "Sat-Sun", "time": "Closed"}], "id": "3811900082", "name": "USPS COLLECTION BOX - BLUE BOX", "address": {"city": "MEMPHIS", "state": "TN", "street": "770 ESTATE PL", "postcode": "38119"}}},
{"geometry": {"type": "Point", "coordinates": [-89.8692112203, 35.099753161]}, "type": "Feature", "properties": {"collection_times": [{"days": "Mon-Fri", "time": "4:30pm"}, {"days": "Sat", "time": "1:00pm"}, {"days": "Sun", "time": "Closed"}], "id": "3811900084", "name": "USPS COLLECTION BOX - BLUE BOX", "address": {"city": "MEMPHIS", "state": "TN", "street": "5821 PARK AVE", "postcode": "38119"}}},
{"geometry": {"type": "Point", "coordinates": [-89.8692112203, 35.099753161]}, "type": "Feature", "properties": {"collection_times": [{"days": "Mon-Fri", "time": "4:30pm"}, {"days": "Sat", "time": "1:00pm"}, {"days": "Sun", "time": "Closed"}], "id": "3811900085", "name": "USPS COLLECTION BOX - PO LOBBY", "address": {"city": "MEMPHIS", "state": "TN", "street": "5821 PARK AVE", "postcode": "38119"}}},
{"geometry": {"type": "Point", "coordinates": [-89.883064484, 35.107227492]}, "type": "Feature", "properties": {"collection_times": [{"days": "Mon-Fri", "time": "1:00pm"}, {"days": "Sat-Sun", "time": "Closed"}], "id": "3811900087", "name": "USPS COLLECTION BOX - BLUE BOX", "address": {"city": "MEMPHIS", "state": "TN", "street": "5350 POPLAR AVE", "postcode": "38119"}}},
{"geometry": {"type": "Point", "coordinates": [-89.8692112203, 35.099753161]}, "type": "Feature", "properties": {"collection_times": [{"days": "Mon-Fri", "time": "4:30pm"}, {"days": "Sat", "time": "1:00pm"}, {"days": "Sun", "time": "Closed"}], "id": "3811900088", "name": "USPS COLLECTION BOX - APC", "address": {"city": "MEMPHIS", "state": "TN", "street": "5821 PARK AVE", "postcode": "38119"}}},
{"geometry": {"type": "Point", "coordinates": [-89.8692112203, 35.099753161]}, "type": "Feature", "properties": {"collection_times": [{"days": "Mon-Fri", "time": "4:30pm"}, {"days": "Sat", "time": "1:00pm"}, {"days": "Sun", "time": "Closed"}], "id": "3811900090", "name": "USPS COLLECTION BOX - PO LOBBY", "address": {"city": "MEMPHIS", "state": "TN", "street": "5821 PARK AVE", "postcode": "38119"}}},
{"geometry": {"type": "Point", "coordinates": [-89.8998380394, 35.1249243068]}, "type": "Feature", "properties": {"collection_times": [{"days": "Mon-Sat", "time": "1:00pm"}, {"days": "Sun", "time": "Closed"}], "id": "3811900092", "name": "USPS COLLECTION BOX - BLUE BOX", "address": {"city": "MEMPHIS", "state": "TN", "street": "999 SHADY GROVE RD", "postcode": "38119"}}},
{"geometry": {"type": "Point", "coordinates": [-89.883064484, 35.107227492]}, "type": "Feature", "properties": {"collection_times": [{"days": "Mon-Fri", "time": "1:00pm"}, {"days": "Sat-Sun", "time": "Closed"}], "id": "3811900093", "name": "USPS COLLECTION BOX - BLUE BOX", "address": {"city": "MEMPHIS", "state": "TN", "street": "5350 POPLAR AVE", "postcode": "38119"}}},
{"geometry": {"type": "Point", "coordinates": [-89.8035678743, 35.132687813]}, "type": "Feature", "properties": {"collection_times": [{"days": "Mon-Fri", "time": "1:00pm"}, {"days": "Sat-Sun", "time": "Closed"}], "id": "3812000003", "name": "USPS COLLECTION BOX - BLUE BOX", "address": {"city": "MEMPHIS", "state": "TN", "street": "7777 WALNUT GROVE RD", "postcode": "38120"}}},
{"geometry": {"type": "Point", "coordinates": [-89.8583386815, 35.1166814303]}, "type": "Feature", "properties": {"collection_times": [{"days": "Mon-Fri", "time": "4:00pm"}, {"days": "Sat", "time": "1:00pm"}, {"days": "Sun", "time": "Closed"}], "id": "3812000004", "name": "USPS COLLECTION BOX - BLUE BOX", "address": {"city": "MEMPHIS", "state": "TN", "street": "860 RIDGE LAKE BLVD", "postcode": "38120"}}},
{"geometry": {"type": "Point", "coordinates": [-89.8402145302, 35.1023296456]}, "type": "Feature", "properties": {"collection_times": [{"days": "Mon-Sat", "time": "1:00pm"}, {"days": "Sun", "time": "Closed"}], "id": "3812000023", "name": "USPS COLLECTION BOX - BLUE BOX", "address": {"city": "MEMPHIS", "state": "TN", "street": "1715 KIRBY PKWY", "postcode": "38120"}}},
{"geometry": {"type": "Point", "coordinates": [-89.8572065527, 35.1279951233]}, "type": "Feature", "properties": {"collection_times": [{"days": "Mon-Fri", "time": "3:00pm"}, {"days": "Sat-Sun", "time": "Closed"}], "id": "3812000026", "name": "USPS COLLECTION BOX - BLUE BOX", "address": {"city": "MEMPHIS", "state": "TN", "street": "80 HUMPHREYS CENTER DR", "postcode": "38120"}}},
{"geometry": {"type": "Point", "coordinates": [-89.8624281336, 35.133654399]}, "type": "Feature", "properties": {"collection_times": [{"days": "Mon-Fri", "time": "5:00pm"}, {"days": "Sat-Sun", "time": "Closed"}], "id": "3812000035", "name": "USPS COLLECTION BOX - BLUE BOX", "address": {"city": "MEMPHIS", "state": "TN", "street": "225 N HUMPHREYS BLVD", "postcode": "38120"}}},
{"geometry": {"type": "Point", "coordinates": [-89.845613585, 35.103180414]}, "type": "Feature", "properties": {"collection_times": [{"days": "Mon-Fri", "time": "4:30pm"}, {"days": "Sat-Sun", "time": "Closed"}], "id": "3812000046", "name": "USPS COLLECTION BOX - BLUE BOX", "address": {"city": "MEMPHIS", "state": "TN", "street": "1661 AARON BRENNER DR", "postcode": "38120"}}},
{"geometry": {"type": "Point", "coordinates": [-89.8456135848, 35.1031804138]}, "type": "Feature", "properties": {"collection_times": [{"days": "Mon-Fri", "time": "4:30pm"}, {"days": "Sat-Sun", "time": "Closed"}], "id": "3812000047", "name": "USPS COLLECTION BOX - BLUE BOX", "address": {"city": "MEMPHIS", "state": "TN", "street": "1661 AARON BRENNER DR", "postcode": "38120"}}},
{"geometry": {"type": "Point", "coordinates": [-89.943020762, 35.1494693774]}, "type": "Feature", "properties": {"collection_times": [{"days": "Mon-Sat", "time": "1:00pm"}, {"days": "Sun", "time": "Closed"}], "id": "3812200002", "name": "USPS COLLECTION BOX - BLUE BOX", "address": {"city": "MEMPHIS", "state": "TN", "street": "3540 SUMMER AVE", "postcode": "38122"}}},
{"geometry": {"type": "Point", "coordinates": [-89.9292511196, 35.1491405148]}, "type": "Feature", "properties": {"collection_times": [{"days": "Mon-Fri", "time": "1:00pm"}, {"days": "Sat-Sun", "time": "Closed"}], "id": "3812200004", "name": "USPS COLLECTION BOX - BLUE BOX", "address": {"city": "MEMPHIS", "state": "TN", "street": "3951 SUMMER AVE", "postcode": "38122"}}},
{"geometry": {"type": "Point", "coordinates": [-89.8919181176, 35.1555142977]}, "type": "Feature", "properties": {"collection_times": [{"days": "Mon-Sat", "time": "1:00pm"}, {"days": "Sun", "time": "Closed"}], "id": "3812200006", "name": "USPS COLLECTION BOX - BLUE BOX", "address": {"city": "MEMPHIS", "state": "TN", "street": "895 N WHITE STATION RD", "postcode": "38122"}}},
{"geometry": {"type": "Point", "coordinates": [-89.9477679763, 35.150344767]}, "type": "Feature", "properties": {"collection_times": [{"days": "Mon-Fri", "time": "4:30pm"}, {"days": "Sat", "time": "1:00pm"}, {"days": "Sun", "time": "Closed"}], "id": "3812200011", "name": "USPS COLLECTION BOX - BLUE BOX", "address": {"city": "MEMPHIS", "state": "TN", "street": "680 NATIONAL ST", "postcode": "38122"}}},
{"geometry": {"type": "Point", "coordinates": [-89.9477679763, 35.150344767]}, "type": "Feature", "properties": {"collection_times": [{"days": "Mon-Fri", "time": "4:30pm"}, {"days": "Sat", "time": "1:00pm"}, {"days": "Sun", "time": "Closed"}], "id": "3812200012", "name": "USPS COLLECTION BOX - BLUE BOX", "address": {"city": "MEMPHIS", "state": "TN", "street": "680 NATIONAL ST", "postcode": "38122"}}},
{"geometry": {"type": "Point", "coordinates": [-89.890149594, 35.1517087187]}, "type": "Feature", "properties": {"collection_times": [{"days": "Mon-Fri", "time": "3:00pm"}, {"days": "Sat", "time": "1:00pm"}, {"days": "Sun", "time": "Closed"}], "id": "3812200017", "name": "USPS COLLECTION BOX - BLUE BOX", "address": {"city": "MEMPHIS", "state": "TN", "street": "5119 SUMMER AVE", "postcode": "38122"}}},
{"geometry": {"type": "Point", "coordinates": [-89.9106601113, 35.1487977161]}, "type": "Feature", "properties": {"collection_times": [{"days": "Mon-Fri", "time": "1:00pm"}, {"days": "Sat-Sun", "time": "Closed"}], "id": "3812200018", "name": "USPS COLLECTION BOX - BLUE BOX", "address": {"city": "MEMPHIS", "state": "TN", "street": "4500 SUMMER AVE", "postcode": "38122"}}},
{"geometry": {"type": "Point", "coordinates": [-89.9477679763, 35.150344767]}, "type": "Feature", "properties": {"collection_times": [{"days": "Mon-Fri", "time": "4:30pm"}, {"days": "Sat-Sun", "time": "Closed"}], "id": "3812200028", "name": "USPS COLLECTION BOX - PO LOBBY", "address": {"city": "MEMPHIS", "state": "TN", "street": "680 NATIONAL ST", "postcode": "38122"}}},
{"geometry": {"type": "Point", "coordinates": [-89.9477679763, 35.150344767]}, "type": "Feature", "properties": {"collection_times": [{"days": "Mon-Fri", "time": "4:30pm"}, {"days": "Sat-Sun", "time": "Closed"}], "id": "3812200030", "name": "USPS COLLECTION BOX - PO LOBBY", "address": {"city": "MEMPHIS", "state": "TN", "street": "680 NATIONAL ST", "postcode": "38122"}}},
{"geometry": {"type": "Point", "coordinates": [-89.9477679763, 35.150344767]}, "type": "Feature", "properties": {"collection_times": [{"days": "Mon-Fri", "time": "4:30pm"}, {"days": "Sat-Sun", "time": "Closed"}], "id": "3812200034", "name": "USPS COLLECTION BOX - PO LOBBY", "address": {"city": "MEMPHIS", "state": "TN", "street": "680 NATIONAL ST", "postcode": "38122"}}},
{"geometry": {"type": "Point", "coordinates": [-89.9098389642, 35.1152599953]}, "type": "Feature", "properties": {"collection_times": [{"days": "Mon-Fri", "time": "3:30pm"}, {"days": "Sat", "time": "1:00pm"}, {"days": "Sun", "time": "Closed"}], "id": "3812400008", "name": "USPS COLLECTION BOX - BLUE BOX", "address": {"city": "MEMPHIS", "state": "TN", "street": "4695 SOUTHERN AVE", "postcode": "38124"}}},
{"geometry": {"type": "Point", "coordinates": [-89.9098389642, 35.1152599953]}, "type": "Feature", "properties": {"collection_times": [{"days": "Mon-Fri", "time": "3:30pm"}, {"days": "Sat-Sun", "time": "Closed"}], "id": "3812400015", "name": "USPS COLLECTION BOX - PO LOBBY", "address": {"city": "MEMPHIS", "state": "TN", "street": "4695 SOUTHERN AVE", "postcode": "38124"}}},
{"geometry": {"type": "Point", "coordinates": [-89.9098389642, 35.1152599953]}, "type": "Feature", "properties": {"collection_times": [{"days": "Mon-Fri", "time": "3:30pm"}, {"days": "Sat", "time": "1:00pm"}, {"days": "Sun", "time": "Closed"}], "id": "3812400018", "name": "USPS COLLECTION BOX - BLUE BOX", "address": {"city": "MEMPHIS", "state": "TN", "street": "4695 SOUTHERN AVE", "postcode": "38124"}}},
{"geometry": {"type": "Point", "coordinates": [-89.9098389642, 35.1152599953]}, "type": "Feature", "properties": {"collection_times": [{"days": "Mon-Fri", "time": "3:30pm"}, {"days": "Sat-Sun", "time": "Closed"}], "id": "3812400019", "name": "USPS COLLECTION BOX - APC", "address": {"city": "MEMPHIS", "state": "TN", "street": "4695 SOUTHERN AVE", "postcode": "38124"}}},
{"geometry": {"type": "Point", "coordinates": [-89.9098389642, 35.1152599953]}, "type": "Feature", "properties": {"collection_times": [{"days": "Mon-Fri", "time": "3:30pm"}, {"days": "Sat-Sun", "time": "Closed"}], "id": "3812400020", "name": "USPS COLLECTION BOX - PO LOBBY", "address": {"city": "MEMPHIS", "state": "TN", "street": "4695 SOUTHERN AVE", "postcode": "38124"}}},
{"geometry": {"type": "Point", "coordinates": [-89.9098389642, 35.1152599953]}, "type": "Feature", "properties": {"collection_times": [{"days": "Mon-Fri", "time": "3:30pm"}, {"days": "Sat-Sun", "time": "Closed"}], "id": "3812400021", "name": "USPS COLLECTION BOX - PO LOBBY", "address": {"city": "MEMPHIS", "state": "TN", "street": "4695 SOUTHERN AVE", "postcode": "38124"}}},
{"geometry": {"type": "Point", "coordinates": [-89.8222690402, 35.048871272]}, "type": "Feature", "properties": {"collection_times": [{"days": "Mon-Sat", "time": "1:00pm"}, {"days": "Sun", "time": "Closed"}], "id": "3812500002", "name": "USPS COLLECTION BOX - BLUE BOX", "address": {"city": "MEMPHIS", "state": "TN", "street": "7227 WINCHESTER RD", "postcode": "38125"}}},
{"geometry": {"type": "Point", "coordinates": [-89.7974115259, 35.0483949975]}, "type": "Feature", "properties": {"collection_times": [{"days": "Mon-Fri", "time": "1:00pm"}, {"days": "Sat", "time": "12:00pm"}, {"days": "Sun", "time": "Closed"}], "id": "3812500010", "name": "USPS COLLECTION BOX - BLUE BOX", "address": {"city": "MEMPHIS", "state": "TN", "street": "7942 WINCHESTER RD", "postcode": "38125"}}},
{"geometry": {"type": "Point", "coordinates": [-90.0344575752, 35.1193713524]}, "type": "Feature", "properties": {"collection_times": [{"days": "Mon-Sat", "time": "1:00pm"}, {"days": "Sun", "time": "Closed"}], "id": "3812600017", "name": "USPS COLLECTION BOX - BLUE BOX", "address": {"city": "MEMPHIS", "state": "TN", "street": "807 WALKER AVE", "postcode": "38126"}}},
{"geometry": {"type": "Point", "coordinates": [-90.0341155264, 35.1300836152]}, "type": "Feature", "properties": {"collection_times": [{"days": "Mon-Fri", "time": "1:00pm"}, {"days": "Sat-Sun", "time": "Closed"}], "id": "3812600022", "name": "USPS COLLECTION BOX - BLUE BOX", "address": {"city": "MEMPHIS", "state": "TN", "street": "830 E EH CRUMP BLVD", "postcode": "38126"}}},
{"geometry": {"type": "Point", "coordinates": [-89.9773216781, 35.2204907389]}, "type": "Feature", "properties": {"collection_times": [{"days": "Mon-Sat", "time": "1:00pm"}, {"days": "Sun", "time": "Closed"}], "id": "3812700009", "name": "USPS COLLECTION BOX - BLUE BOX", "address": {"city": "MEMPHIS", "state": "TN", "street": "2602 FRAYSER BLVD", "postcode": "38127"}}},
{"geometry": {"type": "Point", "coordinates": [-89.992707651, 35.2172693862]}, "type": "Feature", "properties": {"collection_times": [{"days": "Mon-Sat", "time": "1:00pm"}, {"days": "Sun", "time": "Closed"}], "id": "3812700010", "name": "USPS COLLECTION BOX - BLUE BOX", "address": {"city": "MEMPHIS", "state": "TN", "street": "2140 FRAYSER BLVD", "postcode": "38127"}}},
{"geometry": {"type": "Point", "coordinates": [-90.0225203362, 35.2090289953]}, "type": "Feature", "properties": {"collection_times": [{"days": "Mon-Fri", "time": "5:00pm"}, {"days": "Sat", "time": "1:00pm"}, {"days": "Sun", "time": "Closed"}], "id": "3812700013", "name": "USPS COLLECTION BOX - BLUE BOX", "address": {"city": "MEMPHIS", "state": "TN", "street": "3057 BASKIN ST", "postcode": "38127"}}},
{"geometry": {"type": "Point", "coordinates": [-90.0225203362, 35.2090289953]}, "type": "Feature", "properties": {"collection_times": [{"days": "Mon-Fri", "time": "11:00am"}, {"days": "Sat", "time": "12:00pm"}, {"days": "Sun", "time": "Closed"}], "id": "3812700022", "name": "USPS COLLECTION BOX - PO LOBBY", "address": {"city": "MEMPHIS", "state": "TN", "street": "3057 BASKIN ST", "postcode": "38127"}}},
{"geometry": {"type": "Point", "coordinates": [-90.0225203362, 35.2090289953]}, "type": "Feature", "properties": {"collection_times": [{"days": "Mon-Fri", "time": "5:00pm"}, {"days": "Sat", "time": "1:00pm"}, {"days": "Sun", "time": "Closed"}], "id": "3812700023", "name": "USPS COLLECTION BOX - PO LOBBY", "address": {"city": "MEMPHIS", "state": "TN", "street": "3057 BASKIN ST", "postcode": "38127"}}},
{"geometry": {"type": "Point", "coordinates": [-90.0225203362, 35.2090289953]}, "type": "Feature", "properties": {"collection_times": [{"days": "Mon-Fri", "time": "5:00pm"}, {"days": "Sat", "time": "1:00pm"}, {"days": "Sun", "time": "Closed"}], "id": "3812700024", "name": "USPS COLLECTION BOX - PO LOBBY", "address": {"city": "MEMPHIS", "state": "TN", "street": "3057 BASKIN ST", "postcode": "38127"}}},
{"geometry": {"type": "Point", "coordinates": [-89.9034822808, 35.2269712615]}, "type": "Feature", "properties": {"collection_times": [{"days": "Mon-Fri", "time": "5:00pm"}, {"days": "Sat", "time": "1:00pm"}, {"days": "Sun", "time": "Closed"}], "id": "3812800001", "name": "USPS COLLECTION BOX - BLUE BOX", "address": {"city": "MEMPHIS", "state": "TN", "street": "3711 AUSTIN PEAY HWY", "postcode": "38128"}}},
{"geometry": {"type": "Point", "coordinates": [-89.9034822808, 35.2269712615]}, "type": "Feature", "properties": {"collection_times": [{"days": "Mon-Fri", "time": "5:00pm"}, {"days": "Sat", "time": "1:00pm"}, {"days": "Sun", "time": "Closed"}], "id": "3812800002", "name": "USPS COLLECTION BOX - BLUE BOX", "address": {"city": "MEMPHIS", "state": "TN", "street": "3711 AUSTIN PEAY HWY", "postcode": "38128"}}},
{"geometry": {"type": "Point", "coordinates": [-89.9092710427, 35.1989373619]}, "type": "Feature", "properties": {"collection_times": [{"days": "Mon-Fri", "time": "1:00pm"}, {"days": "Sat-Sun", "time": "Closed"}], "id": "3812800005", "name": "USPS COLLECTION BOX - BLUE BOX", "address": {"city": "MEMPHIS", "state": "TN", "street": "4625 RALEIGH LAGRANGE RD", "postcode": "38128"}}},
{"geometry": {"type": "Point", "coordinates": [-89.9214607266, 35.2063045737]}, "type": "Feature", "properties": {"collection_times": [{"days": "Mon-Sat", "time": "1:00pm"}, {"days": "Sun", "time": "Closed"}], "id": "3812800010", "name": "USPS COLLECTION BOX - BLUE BOX", "address": {"city": "MEMPHIS", "state": "TN", "street": "2960 AUSTIN PEAY HWY", "postcode": "38128"}}},
{"geometry": {"type": "Point", "coordinates": [-89.9107221682, 35.2195006728]}, "type": "Feature", "properties": {"collection_times": [{"days": "Mon-Sat", "time": "1:00pm"}, {"days": "Sun", "time": "Closed"}], "id": "3812800017", "name": "USPS COLLECTION BOX - BLUE BOX", "address": {"city": "MEMPHIS", "state": "TN", "street": "3384 AUSTIN PEAY HWY", "postcode": "38128"}}},
{"geometry": {"type": "Point", "coordinates": [-89.9255129693, 35.2205084291]}, "type": "Feature", "properties": {"collection_times": [{"days": "Mon-Sat", "time": "12:30pm"}, {"days": "Sun", "time": "Closed"}], "id": "3812800020", "name": "USPS COLLECTION BOX - BLUE BOX", "address": {"city": "MEMPHIS", "state": "TN", "street": "4137 YALE RD", "postcode": "38128"}}},
{"geometry": {"type": "Point", "coordinates": [-89.8944200758, 35.2343667934]}, "type": "Feature", "properties": {"collection_times": [{"days": "Mon-Sat", "time": "1:00pm"}, {"days": "Sun", "time": "Closed"}], "id": "3812800021", "name": "USPS COLLECTION BOX - BLUE BOX", "address": {"city": "MEMPHIS", "state": "TN", "street": "3980 NEW COVINGTON PIKE", "postcode": "38128"}}},
{"geometry": {"type": "Point", "coordinates": [-89.8967990063, 35.1763071674]}, "type": "Feature", "properties": {"collection_times": [{"days": "Mon-Sat", "time": "1:00pm"}, {"days": "Sun", "time": "Closed"}], "id": "3812800022", "name": "USPS COLLECTION BOX - BLUE BOX", "address": {"city": "MEMPHIS", "state": "TN", "street": "1870 COVINGTON PIKE", "postcode": "38128"}}},
{"geometry": {"type": "Point", "coordinates": [-89.8963494819, 35.1842625665]}, "type": "Feature", "properties": {"collection_times": [{"days": "Mon-Sat", "time": "1:00pm"}, {"days": "Sun", "time": "Closed"}], "id": "3812800023", "name": "USPS COLLECTION BOX - BLUE BOX", "address": {"city": "MEMPHIS", "state": "TN", "street": "2150 COVINGTON PIKE", "postcode": "38128"}}},
{"geometry": {"type": "Point", "coordinates": [-89.894558482, 35.2086338871]}, "type": "Feature", "properties": {"collection_times": [{"days": "Mon-Sat", "time": "1:00pm"}, {"days": "Sun", "time": "Closed"}], "id": "3812800024", "name": "USPS COLLECTION BOX - BLUE BOX", "address": {"city": "MEMPHIS", "state": "TN", "street": "3030 COVINGTON PIKE", "postcode": "38128"}}},
{"geometry": {"type": "Point", "coordinates": [-89.9173410888, 35.2055025947]}, "type": "Feature", "properties": {"collection_times": [{"days": "Mon-Sat", "time": "1:00pm"}, {"days": "Sun", "time": "Closed"}], "id": "3812800027", "name": "USPS COLLECTION BOX - BLUE BOX", "address": {"city": "MEMPHIS", "state": "TN", "street": "4384 STAGE RD", "postcode": "38128"}}},
{"geometry": {"type": "Point", "coordinates": [-89.9034822808, 35.2269712615]}, "type": "Feature", "properties": {"collection_times": [{"days": "Mon-Sat", "time": "12:00pm"}, {"days": "Sun", "time": "Closed"}], "id": "3812800034", "name": "USPS COLLECTION BOX - PO LOBBY", "address": {"city": "MEMPHIS", "state": "TN", "street": "3711 AUSTIN PEAY HWY", "postcode": "38128"}}},
{"geometry": {"type": "Point", "coordinates": [-89.9178035793, 35.212546626]}, "type": "Feature", "properties": {"collection_times": [{"days": "Mon-Sat", "time": "1:00pm"}, {"days": "Sun", "time": "Closed"}], "id": "3812800036", "name": "USPS COLLECTION BOX - BLUE BOX", "address": {"city": "MEMPHIS", "state": "TN", "street": "3201 AUSTIN PEAY HWY", "postcode": "38128"}}},
{"geometry": {"type": "Point", "coordinates": [-89.9034822808, 35.2269712615]}, "type": "Feature", "properties": {"collection_times": [{"days": "Mon-Fri", "time": "5:00pm"}, {"days": "Sat", "time": "1:00pm"}, {"days": "Sun", "time": "Closed"}], "id": "3812800038", "name": "USPS COLLECTION BOX - PO LOBBY", "address": {"city": "MEMPHIS", "state": "TN", "street": "3711 AUSTIN PEAY HWY", "postcode": "38128"}}},
{"geometry": {"type": "Point", "coordinates": [-89.9034822808, 35.2269712615]}, "type": "Feature", "properties": {"collection_times": [{"days": "Mon-Fri", "time": "5:00pm"}, {"days": "Sat", "time": "1:00pm"}, {"days": "Sun", "time": "Closed"}], "id": "3812800040", "name": "USPS COLLECTION BOX - PO LOBBY", "address": {"city": "MEMPHIS", "state": "TN", "street": "3711 AUSTIN PEAY HWY", "postcode": "38128"}}},
{"geometry": {"type": "Point", "coordinates": [-89.9821523031, 35.0305725767]}, "type": "Feature", "properties": {"collection_times": [{"days": "Mon-Sat", "time": "5:00pm"}, {"days": "Sun", "time": "Closed"}], "id": "3813000001", "name": "USPS COLLECTION BOX - BLUE BOX", "address": {"city": "MEMPHIS", "state": "TN", "street": "4233 LOUIS CARRUTHERS DR", "postcode": "38130"}}},
{"geometry": {"type": "Point", "coordinates": [-89.9821523031, 35.0305725767]}, "type": "Feature", "properties": {"collection_times": [{"days": "Mon-Sat", "time": "5:00pm"}, {"days": "Sun", "time": "Closed"}], "id": "3813000002", "name": "USPS COLLECTION BOX - BLUE BOX", "address": {"city": "MEMPHIS", "state": "TN", "street": "4233 LOUIS CARRUTHERS DR", "postcode": "38130"}}},
{"geometry": {"type": "Point", "coordinates": [-89.9821523031, 35.0305725767]}, "type": "Feature", "properties": {"collection_times": [{"days": "Mon-Sat", "time": "5:00pm"}, {"days": "Sun", "time": "Closed"}], "id": "3813000013", "name": "USPS COLLECTION BOX - PO LOBBY", "address": {"city": "MEMPHIS", "state": "TN", "street": "4233 LOUIS CARRUTHERS DR", "postcode": "38130"}}},
{"geometry": {"type": "Point", "coordinates": [-89.9819484675, 35.0249100602]}, "type": "Feature", "properties": {"collection_times": [{"days": "Mon-Sat", "time": "5:00pm"}, {"days": "Sun", "time": "Closed"}], "id": "3813000018", "name": "USPS COLLECTION BOX - PO LOBBY", "address": {"city": "MEMPHIS", "state": "TN", "street": "4233 LEWIS CARRUTHERS DR", "postcode": "38130"}}},
{"geometry": {"type": "Point", "coordinates": [-89.7830184642, 35.2044284679]}, "type": "Feature", "properties": {"collection_times": [{"days": "Mon-Sat", "time": "1:00pm"}, {"days": "Sun", "time": "Closed"}], "id": "3813300007", "name": "USPS COLLECTION BOX - BLUE BOX", "address": {"city": "MEMPHIS", "state": "TN", "street": "8400 US HIGHWAY 64", "postcode": "38133"}}},
{"geometry": {"type": "Point", "coordinates": [-89.8570509498, 35.2068248224]}, "type": "Feature", "properties": {"collection_times": [{"days": "Mon-Fri", "time": "5:00pm"}, {"days": "Sat", "time": "1:00pm"}, {"days": "Sun", "time": "Closed"}], "id": "3813400001", "name": "USPS COLLECTION BOX - BLUE BOX", "address": {"city": "MEMPHIS", "state": "TN", "street": "2966 ELMORE PARK RD", "postcode": "38134"}}},
{"geometry": {"type": "Point", "coordinates": [-89.8570509498, 35.2068248224]}, "type": "Feature", "properties": {"collection_times": [{"days": "Mon-Fri", "time": "5:00pm"}, {"days": "Sat", "time": "1:00pm"}, {"days": "Sun", "time": "Closed"}], "id": "3813400005", "name": "USPS COLLECTION BOX - BLUE BOX", "address": {"city": "MEMPHIS", "state": "TN", "street": "2966 ELMORE PARK RD", "postcode": "38134"}}},
{"geometry": {"type": "Point", "coordinates": [-89.8729647491, 35.2042640366]}, "type": "Feature", "properties": {"collection_times": [{"days": "Mon-Sat", "time": "1:00pm"}, {"days": "Sun", "time": "Closed"}], "id": "3813400007", "name": "USPS COLLECTION BOX - BLUE BOX", "address": {"city": "MEMPHIS", "state": "TN", "street": "5705 STAGE RD", "postcode": "38134"}}},
{"geometry": {"type": "Point", "coordinates": [-89.881615728, 35.1707460773]}, "type": "Feature", "properties": {"collection_times": [{"days": "Mon-Sat", "time": "1:00pm"}, {"days": "Sun", "time": "Closed"}], "id": "3813400011", "name": "USPS COLLECTION BOX - BLUE BOX", "address": {"city": "MEMPHIS", "state": "TN", "street": "5455 CRESTVIEW DR", "postcode": "38134"}}},
{"geometry": {"type": "Point", "coordinates": [-89.8808543565, 35.173657631]}, "type": "Feature", "properties": {"collection_times": [{"days": "Mon-Sat", "time": "1:00pm"}, {"days": "Sun", "time": "Closed"}], "id": "3813400013", "name": "USPS COLLECTION BOX - BLUE BOX", "address": {"city": "MEMPHIS", "state": "TN", "street": "5480 PLEASANT VIEW RD", "postcode": "38134"}}},
{"geometry": {"type": "Point", "coordinates": [-89.8664729028, 35.1650543938]}, "type": "Feature", "properties": {"collection_times": [{"days": "Mon-Fri", "time": "4:00pm"}, {"days": "Sat", "time": "1:00pm"}, {"days": "Sun", "time": "Closed"}], "id": "3813400017", "name": "USPS COLLECTION BOX - BLUE BOX", "address": {"city": "MEMPHIS", "state": "TN", "street": "5909 SHELBY OAKS DR", "postcode": "38134"}}},
{"geometry": {"type": "Point", "coordinates": [-89.8711666515, 35.1832310262]}, "type": "Feature", "properties": {"collection_times": [{"days": "Mon-Sat", "time": "1:00pm"}, {"days": "Sun", "time": "Closed"}], "id": "3813400019", "name": "USPS COLLECTION BOX - BLUE BOX", "address": {"city": "MEMPHIS", "state": "TN", "street": "2100 SYCAMORE VIEW RD", "postcode": "38134"}}},
{"geometry": {"type": "Point", "coordinates": [-89.8551393142, 35.1717776001]}, "type": "Feature", "properties": {"collection_times": [{"days": "Mon-Sat", "time": "1:00pm"}, {"days": "Sun", "time": "Closed"}], "id": "3813400023", "name": "USPS COLLECTION BOX - BLUE BOX", "address": {"city": "MEMPHIS", "state": "TN", "street": "1675 N SHELBY OAKS DR", "postcode": "38134"}}},
{"geometry": {"type": "Point", "coordinates": [-89.8558236737, 35.1630438315]}, "type": "Feature", "properties": {"collection_times": [{"days": "Mon-Sat", "time": "1:00pm"}, {"days": "Sun", "time": "Closed"}], "id": "3813400025", "name": "USPS COLLECTION BOX - BLUE BOX", "address": {"city": "MEMPHIS", "state": "TN", "street": "6224 MACON RD", "postcode": "38134"}}},
{"geometry": {"type": "Point", "coordinates": [-89.8644623341, 35.1791803177]}, "type": "Feature", "properties": {"collection_times": [{"days": "Mon-Fri", "time": "4:00pm"}, {"days": "Sat", "time": "1:00pm"}, {"days": "Sun", "time": "Closed"}], "id": "3813400044", "name": "USPS COLLECTION BOX - BLUE BOX", "address": {"city": "MEMPHIS", "state": "TN", "street": "5175 BUSINESS CENTER DR", "postcode": "38134"}}},
{"geometry": {"type": "Point", "coordinates": [-89.8570509498, 35.2068248224]}, "type": "Feature", "properties": {"collection_times": [{"days": "Mon-Fri", "time": "5:00pm"}, {"days": "Sat", "time": "1:00pm"}, {"days": "Sun", "time": "Closed"}], "id": "3813400045", "name": "USPS COLLECTION BOX - PO LOBBY", "address": {"city": "MEMPHIS", "state": "TN", "street": "2966 ELMORE PARK RD", "postcode": "38134"}}},
{"geometry": {"type": "Point", "coordinates": [-89.8570509498, 35.2068248224]}, "type": "Feature", "properties": {"collection_times": [{"days": "Mon-Fri", "time": "5:00pm"}, {"days": "Sat", "time": "1:00pm"}, {"days": "Sun", "time": "Closed"}], "id": "3813400048", "name": "USPS COLLECTION BOX - PO LOBBY", "address": {"city": "MEMPHIS", "state": "TN", "street": "2966 ELMORE PARK RD", "postcode": "38134"}}},
{"geometry": {"type": "Point", "coordinates": [-89.8570509498, 35.2068248224]}, "type": "Feature", "properties": {"collection_times": [{"days": "Mon-Fri", "time": "5:00pm"}, {"days": "Sat", "time": "1:00pm"}, {"days": "Sun", "time": "Closed"}], "id": "3813400053", "name": "USPS COLLECTION BOX - APC", "address": {"city": "MEMPHIS", "state": "TN", "street": "2966 ELMORE PARK RD", "postcode": "38134"}}},
{"geometry": {"type": "Point", "coordinates": [-89.8108110117, 35.2119994263]}, "type": "Feature", "properties": {"collection_times": [{"days": "Mon-Fri", "time": "1:00pm"}, {"days": "Sat-Sun", "time": "Closed"}], "id": "3813400054", "name": "USPS COLLECTION BOX - BLUE BOX", "address": {"city": "MEMPHIS", "state": "TN", "street": "7535 BARTLETT CORP DR", "postcode": "38134"}}},
{"geometry": {"type": "Point", "coordinates": [-89.8570509498, 35.2068248224]}, "type": "Feature", "properties": {"collection_times": [{"days": "Mon-Fri", "time": "5:00pm"}, {"days": "Sat", "time": "1:00pm"}, {"days": "Sun", "time": "Closed"}], "id": "3813400056", "name": "USPS COLLECTION BOX - PO LOBBY", "address": {"city": "MEMPHIS", "state": "TN", "street": "2966 ELMORE PARK RD", "postcode": "38134"}}},
{"geometry": {"type": "Point", "coordinates": [-89.8570509498, 35.2068248224]}, "type": "Feature", "properties": {"collection_times": [{"days": "Mon-Fri", "time": "5:00pm"}, {"days": "Sat", "time": "1:00pm"}, {"days": "Sun", "time": "Closed"}], "id": "3813400057", "name": "USPS COLLECTION BOX - PO LOBBY", "address": {"city": "MEMPHIS", "state": "TN", "street": "2966 ELMORE PARK RD", "postcode": "38134"}}},
{"geometry": {"type": "Point", "coordinates": [-89.843215697, 35.098915626]}, "type": "Feature", "properties": {"collection_times": [{"days": "Mon-Fri", "time": "3:00pm"}, {"days": "Sat", "time": "12:00pm"}, {"days": "Sun", "time": "Closed"}], "id": "3813800001", "name": "USPS COLLECTION BOX - BLUE BOX", "address": {"city": "MEMPHIS", "state": "TN", "street": "6584 POPLAR AVE", "postcode": "38138"}}},
{"geometry": {"type": "Point", "coordinates": [-89.843215697, 35.098915626]}, "type": "Feature", "properties": {"collection_times": [{"days": "Mon-Fri", "time": "3:00pm"}, {"days": "Sat", "time": "12:00pm"}, {"days": "Sun", "time": "Closed"}], "id": "3813800002", "name": "USPS COLLECTION BOX - BLUE BOX", "address": {"city": "MEMPHIS", "state": "TN", "street": "6584 POPLAR AVE", "postcode": "38138"}}},
{"geometry": {"type": "Point", "coordinates": [-89.8047739437, 35.0957397025]}, "type": "Feature", "properties": {"collection_times": [{"days": "Mon-Fri", "time": "5:30pm"}, {"days": "Sat", "time": "4:00pm"}, {"days": "Sun", "time": "Closed"}], "id": "3813800007", "name": "USPS COLLECTION BOX - BLUE BOX", "address": {"city": "MEMPHIS", "state": "TN", "street": "7776 FARMINGTON BLVD", "postcode": "38138"}}},
{"geometry": {"type": "Point", "coordinates": [-89.8047739437, 35.0957397025]}, "type": "Feature", "properties": {"collection_times": [{"days": "Mon-Fri", "time": "5:30pm"}, {"days": "Sat", "time": "4:00pm"}, {"days": "Sun", "time": "Closed"}], "id": "3813800009", "name": "USPS COLLECTION BOX - BLUE BOX", "address": {"city": "MEMPHIS", "state": "TN", "street": "7776 FARMINGTON BLVD", "postcode": "38138"}}},
{"geometry": {"type": "Point", "coordinates": [-89.8374221622, 35.0980996222]}, "type": "Feature", "properties": {"collection_times": [{"days": "Mon-Fri", "time": "3:00pm"}, {"days": "Sat", "time": "12:00pm"}, {"days": "Sun", "time": "Closed"}], "id": "3813800010", "name": "USPS COLLECTION BOX - BLUE BOX", "address": {"city": "MEMPHIS", "state": "TN", "street": "6752 POPLAR AVE", "postcode": "38138"}}},
{"geometry": {"type": "Point", "coordinates": [-89.8374221622, 35.0980996222]}, "type": "Feature", "properties": {"collection_times": [{"days": "Mon-Fri", "time": "3:00pm"}, {"days": "Sat", "time": "12:00pm"}, {"days": "Sun", "time": "Closed"}], "id": "3813800011", "name": "USPS COLLECTION BOX - BLUE BOX", "address": {"city": "MEMPHIS", "state": "TN", "street": "6752 POPLAR AVE", "postcode": "38138"}}},
{"geometry": {"type": "Point", "coordinates": [-89.8374221622, 35.0980996222]}, "type": "Feature", "properties": {"collection_times": [{"days": "Mon-Fri", "time": "3:00pm"}, {"days": "Sat", "time": "12:00pm"}, {"days": "Sun", "time": "Closed"}], "id": "3813800012", "name": "USPS COLLECTION BOX - BLUE BOX", "address": {"city": "MEMPHIS", "state": "TN", "street": "6752 POPLAR AVE", "postcode": "38138"}}},
{"geometry": {"type": "Point", "coordinates": [-89.8374221622, 35.0980996222]}, "type": "Feature", "properties": {"collection_times": [{"days": "Mon-Fri", "time": "3:00pm"}, {"days": "Sat", "time": "12:00pm"}, {"days": "Sun", "time": "Closed"}], "id": "3813800013", "name": "USPS COLLECTION BOX - BLUE BOX", "address": {"city": "MEMPHIS", "state": "TN", "street": "6752 POPLAR AVE", "postcode": "38138"}}},
{"geometry": {"type": "Point", "coordinates": [-89.8374221622, 35.0980996222]}, "type": "Feature", "properties": {"collection_times": [{"days": "Mon-Fri", "time": "3:00pm"}, {"days": "Sat", "time": "12:00pm"}, {"days": "Sun", "time": "Closed"}], "id": "3813800014", "name": "USPS COLLECTION BOX - BLUE BOX", "address": {"city": "MEMPHIS", "state": "TN", "street": "6752 POPLAR AVE", "postcode": "38138"}}},
{"geometry": {"type": "Point", "coordinates": [-89.8374221622, 35.0980996222]}, "type": "Feature", "properties": {"collection_times": [{"days": "Mon-Fri", "time": "3:00pm"}, {"days": "Sat", "time": "12:00pm"}, {"days": "Sun", "time": "Closed"}], "id": "3813800015", "name": "USPS COLLECTION BOX - BLUE BOX", "address": {"city": "MEMPHIS", "state": "TN", "street": "6752 POPLAR AVE", "postcode": "38138"}}},
{"geometry": {"type": "Point", "coordinates": [-89.8374221622, 35.0980996222]}, "type": "Feature", "properties": {"collection_times": [{"days": "Mon-Fri", "time": "3:00pm"}, {"days": "Sat", "time": "12:00pm"}, {"days": "Sun", "time": "Closed"}], "id": "3813800016", "name": "USPS COLLECTION BOX - BLUE BOX", "address": {"city": "MEMPHIS", "state": "TN", "street": "6752 POPLAR AVE", "postcode": "38138"}}},
{"geometry": {"type": "Point", "coordinates": [-89.7555491061, 35.0662383119]}, "type": "Feature", "properties": {"collection_times": [{"days": "Mon-Sat", "time": "12:00pm"}, {"days": "Sun", "time": "Closed"}], "id": "3813800019", "name": "USPS COLLECTION BOX - BLUE BOX", "address": {"city": "MEMPHIS", "state": "TN", "street": "9235 POPLAR AVE", "postcode": "38138"}}},
{"geometry": {"type": "Point", "coordinates": [-89.8374221622, 35.0980996222]}, "type": "Feature", "properties": {"collection_times": [{"days": "Mon-Fri", "time": "3:00pm"}, {"days": "Sat", "time": "12:00pm"}, {"days": "Sun", "time": "Closed"}], "id": "3813800031", "name": "USPS COLLECTION BOX - BLUE BOX", "address": {"city": "MEMPHIS", "state": "TN", "street": "6752 POPLAR AVE", "postcode": "38138"}}},
{"geometry": {"type": "Point", "coordinates": [-89.8047739437, 35.0957397025]}, "type": "Feature", "properties": {"collection_times": [{"days": "Mon-Sat", "time": "12:00pm"}, {"days": "Sun", "time": "Closed"}], "id": "3813800032", "name": "USPS COLLECTION BOX - PO LOBBY", "address": {"city": "MEMPHIS", "state": "TN", "street": "7776 FARMINGTON BLVD", "postcode": "38138"}}},
{"geometry": {"type": "Point", "coordinates": [-89.8047739437, 35.0957397025]}, "type": "Feature", "properties": {"collection_times": [{"days": "Mon-Fri", "time": "5:30pm"}, {"days": "Sat", "time": "4:00pm"}, {"days": "Sun", "time": "Closed"}], "id": "3813800033", "name": "USPS COLLECTION BOX - BLUE BOX", "address": {"city": "MEMPHIS", "state": "TN", "street": "7776 FARMINGTON BLVD", "postcode": "38138"}}},
{"geometry": {"type": "Point", "coordinates": [-89.8047739437, 35.0957397025]}, "type": "Feature", "properties": {"collection_times": [{"days": "Mon-Fri", "time": "6:00pm"}, {"days": "Sat", "time": "4:00pm"}, {"days": "Sun", "time": "Closed"}], "id": "3813800034", "name": "USPS COLLECTION BOX - PO LOBBY", "address": {"city": "MEMPHIS", "state": "TN", "street": "7776 FARMINGTON BLVD", "postcode": "38138"}}},
{"geometry": {"type": "Point", "coordinates": [-89.8055609692, 35.0912365073]}, "type": "Feature", "properties": {"collection_times": [{"days": "Mon-Fri", "time": "3:00pm"}, {"days": "Sat", "time": "12:00pm"}, {"days": "Sun", "time": "Closed"}], "id": "3813800037", "name": "USPS COLLECTION BOX - BLUE BOX", "address": {"city": "MEMPHIS", "state": "TN", "street": "7730 POPLAR AVE", "postcode": "38138"}}},
{"geometry": {"type": "Point", "coordinates": [-89.8047739437, 35.0957397025]}, "type": "Feature", "properties": {"collection_times": [{"days": "Mon-Fri", "time": "6:00pm"}, {"days": "Sat", "time": "4:00pm"}, {"days": "Sun", "time": "Closed"}], "id": "3813800038", "name": "USPS COLLECTION BOX - APC", "address": {"city": "MEMPHIS", "state": "TN", "street": "7776 FARMINGTON BLVD", "postcode": "38138"}}},
{"geometry": {"type": "Point", "coordinates": [-89.7604002888, 35.0638740155]}, "type": "Feature", "properties": {"collection_times": [{"days": "Mon-Sat", "time": "12:00pm"}, {"days": "Sun", "time": "Closed"}], "id": "3813800039", "name": "USPS COLLECTION BOX - BLUE BOX", "address": {"city": "MEMPHIS", "state": "TN", "street": "3107 E CORPORATE EDGE DR", "postcode": "38138"}}},
{"geometry": {"type": "Point", "coordinates": [-89.8581251295, 35.0204137032]}, "type": "Feature", "properties": {"collection_times": [{"days": "Mon-Sat", "time": "1:30pm"}, {"days": "Sun", "time": "Closed"}], "id": "3814100000", "name": "USPS COLLECTION BOX - BLUE BOX", "address": {"city": "MEMPHIS", "state": "TN", "street": "6150 E SHELBY DR", "postcode": "38141"}}},
{"geometry": {"type": "Point", "coordinates": [-89.9767303606, 35.1481373656]}, "type": "Feature", "properties": {"collection_times": [{"days": "Mon-Fri", "time": "1:00pm"}, {"days": "Sat", "time": "12:00pm"}, {"days": "Sun", "time": "Closed"}], "id": "3818200003", "name": "USPS COLLECTION BOX - BLUE BOX", "address": {"city": "MEMPHIS", "state": "TN", "street": "2481 BROAD AVE", "postcode": "38182"}}}
]}
