{"type": "FeatureCollection", "features": [
{"geometry": {"type": "Point", "coordinates": [-88.8484110873, 35.6344920167]}, "type": "Feature", "properties": {"collection_times": [{"days": "Mon-Sat", "time": "9:30am"}, {"days": "Sun", "time": "Closed"}], "id": "3830100000", "name": "USPS COLLECTION BOX - BLUE BOX", "address": {"city": "JACKSON", "state": "TN", "street": "1186 45 BYPASS HWY", "postcode": "38301"}}},
{"geometry": {"type": "Point", "coordinates": [-88.816620276, 35.6090208972]}, "type": "Feature", "properties": {"collection_times": [{"days": "Mon-Fri", "time": "6:00pm"}, {"days": "Sat", "time": "5:00pm"}, {"days": "Sun", "time": "Closed"}], "id": "3830100020", "name": "USPS COLLECTION BOX - BLUE BOX", "address": {"city": "JACKSON", "state": "TN", "street": "200 DR MARTIN LUTHER KING JR DR", "postcode": "38301"}}},
{"geometry": {"type": "Point", "coordinates": [-88.816620276, 35.6090208972]}, "type": "Feature", "properties": {"collection_times": [{"days": "Mon-Fri", "time": "6:00pm"}, {"days": "Sat", "time": "5:00pm"}, {"days": "Sun", "time": "Closed"}], "id": "3830100021", "name": "USPS COLLECTION BOX - BLUE BOX", "address": {"city": "JACKSON", "state": "TN", "street": "200 DR MARTIN LUTHER KING JR DR", "postcode": "38301"}}},
{"geometry": {"type": "Point", "coordinates": [-88.816620276, 35.6090208972]}, "type": "Feature", "properties": {"collection_times": [{"days": "Mon-Fri", "time": "6:00pm"}, {"days": "Sat", "time": "5:00pm"}, {"days": "Sun", "time": "Closed"}], "id": "3830100022", "name": "USPS COLLECTION BOX - BLUE BOX", "address": {"city": "JACKSON", "state": "TN", "street": "200 DR MARTIN LUTHER KING JR DR", "postcode": "38301"}}},
{"geometry": {"type": "Point", "coordinates": [-88.816620276, 35.6090208972]}, "type": "Feature", "properties": {"collection_times": [{"days": "Mon-Fri", "time": "6:00pm"}, {"days": "Sat", "time": "5:00pm"}, {"days": "Sun", "time": "Closed"}], "id": "3830100023", "name": "USPS COLLECTION BOX - BLUE BOX", "address": {"city": "JACKSON", "state": "TN", "street": "200 DR MARTIN LUTHER KING JR DR", "postcode": "38301"}}},
{"geometry": {"type": "Point", "coordinates": [-88.8482880595, 35.6372199201]}, "type": "Feature", "properties": {"collection_times": [{"days": "Mon-Fri", "time": "10:00am"}, {"days": "Sat", "time": "9:00am"}, {"days": "Sun", "time": "Closed"}], "id": "3830100026", "name": "USPS COLLECTION BOX - BLUE BOX", "address": {"city": "JACKSON", "state": "TN", "street": "1450 HOLLYWOOD DR", "postcode": "38301"}}},
{"geometry": {"type": "Point", "coordinates": [-88.8194493332, 35.6142568827]}, "type": "Feature", "properties": {"collection_times": [{"days": "Mon-Fri", "time": "3:00pm"}, {"days": "Sat", "time": "9:00am"}, {"days": "Sun", "time": "Closed"}], "id": "3830100030", "name": "USPS COLLECTION BOX - BLUE BOX", "address": {"city": "JACKSON", "state": "TN", "street": "109 S HIGHLAND AVE", "postcode": "38301"}}},
{"geometry": {"type": "Point", "coordinates": [-88.8146504952, 35.566320578]}, "type": "Feature", "properties": {"collection_times": [{"days": "Mon-Fri", "time": "9:00am"}, {"days": "Sat-Sun", "time": "Closed"}], "id": "3830100035", "name": "USPS COLLECTION BOX - BLUE BOX", "address": {"city": "JACKSON", "state": "TN", "street": "1666 S HIGHLAND AVE", "postcode": "38301"}}},
{"geometry": {"type": "Point", "coordinates": [-88.8128864075, 35.5592055036]}, "type": "Feature", "properties": {"collection_times": [{"days": "Mon-Sat", "time": "9:30am"}, {"days": "Sun", "time": "Closed"}], "id": "3830100037", "name": "USPS COLLECTION BOX - BLUE BOX", "address": {"city": "JACKSON", "state": "TN", "street": "1885 S HIGHLAND AVE", "postcode": "38301"}}},
{"geometry": {"type": "Point", "coordinates": [-88.8192702027, 35.6158609343]}, "type": "Feature", "properties": {"collection_times": [{"days": "Mon-Fri", "time": "3:00pm"}, {"days": "Sat-Sun", "time": "Closed"}], "id": "3830100039", "name": "USPS COLLECTION BOX - BLUE BOX", "address": {"city": "JACKSON", "state": "TN", "street": "102 E COLLEGE ST", "postcode": "38301"}}},
{"geometry": {"type": "Point", "coordinates": [-88.8181301436, 35.6149147354]}, "type": "Feature", "properties": {"collection_times": [{"days": "Mon-Fri", "time": "10:00am"}, {"days": "Sat-Sun", "time": "Closed"}], "id": "3830100049", "name": "USPS COLLECTION BOX - BLUE BOX", "address": {"city": "JACKSON", "state": "TN", "street": "118 N LIBERTY ST", "postcode": "38301"}}},
{"geometry": {"type": "Point", "coordinates": [-88.8193821348, 35.6142914795]}, "type": "Feature", "properties": {"collection_times": [{"days": "Mon-Fri", "time": "3:00pm"}, {"days": "Sat-Sun", "time": "Closed"}], "id": "3830100054", "name": "USPS COLLECTION BOX - BLUE BOX", "address": {"city": "JACKSON", "state": "TN", "street": "100 E MAIN ST", "postcode": "38301"}}},
{"geometry": {"type": "Point", "coordinates": [-88.8212763745, 35.5726954233]}, "type": "Feature", "properties": {"collection_times": [{"days": "Mon-Fri", "time": "4:00pm"}, {"days": "Sat", "time": "3:00pm"}, {"days": "Sun", "time": "Closed"}], "id": "3830100059", "name": "USPS COLLECTION BOX - BLUE BOX", "address": {"city": "JACKSON", "state": "TN", "street": "207 S MISSOURI ST", "postcode": "38301"}}},
{"geometry": {"type": "Point", "coordinates": [-88.8212763745, 35.5726954233]}, "type": "Feature", "properties": {"collection_times": [{"days": "Mon-Fri", "time": "4:00pm"}, {"days": "Sat", "time": "3:00pm"}, {"days": "Sun", "time": "Closed"}], "id": "3830100060", "name": "USPS COLLECTION BOX - BLUE BOX", "address": {"city": "JACKSON", "state": "TN", "street": "207 S MISSOURI ST", "postcode": "38301"}}},
{"geometry": {"type": "Point", "coordinates": [-88.7797490324, 35.6463939759]}, "type": "Feature", "properties": {"collection_times": [{"days": "Mon-Fri", "time": "9:30am"}, {"days": "Sat-Sun", "time": "Closed"}], "id": "3830100061", "name": "USPS COLLECTION BOX - BLUE BOX", "address": {"city": "JACKSON", "state": "TN", "street": "2046 N PARKWAY", "postcode": "38301"}}},
{"geometry": {"type": "Point", "coordinates": [-88.8339707072, 35.6396012165]}, "type": "Feature", "properties": {"collection_times": [{"days": "Mon-Fri", "time": "3:00pm"}, {"days": "Sat-Sun", "time": "Closed"}], "id": "3830100071", "name": "USPS COLLECTION BOX - BLUE BOX", "address": {"city": "JACKSON", "state": "TN", "street": "668 SKYLINE DR", "postcode": "38301"}}},
{"geometry": {"type": "Point", "coordinates": [-88.8339707072, 35.6396012165]}, "type": "Feature", "properties": {"collection_times": [{"days": "Mon-Fri", "time": "3:00pm"}, {"days": "Sat-Sun", "time": "Closed"}], "id": "3830100072", "name": "USPS COLLECTION BOX - BLUE BOX", "address": {"city": "JACKSON", "state": "TN", "street": "668 SKYLINE DR", "postcode": "38301"}}},
{"geometry": {"type": "Point", "coordinates": [-88.8243591656, 35.6367526513]}, "type": "Feature", "properties": {"collection_times": [{"days": "Mon-Fri", "time": "4:00pm"}, {"days": "Sat", "time": "3:00pm"}, {"days": "Sun", "time": "Closed"}], "id": "3830100074", "name": "USPS COLLECTION BOX - BLUE BOX", "address": {"city": "JACKSON", "state": "TN", "street": "133 TUCKER ST", "postcode": "38301"}}},
{"geometry": {"type": "Point", "coordinates": [-88.8243591656, 35.6367526513]}, "type": "Feature", "properties": {"collection_times": [{"days": "Mon-Fri", "time": "4:00pm"}, {"days": "Sat", "time": "3:00pm"}, {"days": "Sun", "time": "Closed"}], "id": "3830100075", "name": "USPS COLLECTION BOX - BLUE BOX", "address": {"city": "JACKSON", "state": "TN", "street": "133 TUCKER ST", "postcode": "38301"}}},
{"geometry": {"type": "Point", "coordinates": [-88.8243591656, 35.6367526513]}, "type": "Feature", "properties": {"collection_times": [{"days": "Mon-Fri", "time": "4:00pm"}, {"days": "Sat", "time": "3:00pm"}, {"days": "Sun", "time": "Closed"}], "id": "3830100077", "name": "USPS COLLECTION BOX - PO LOBBY", "address": {"city": "JACKSON", "state": "TN", "street": "133 TUCKER ST", "postcode": "38301"}}},
{"geometry": {"type": "Point", "coordinates": [-88.8243591656, 35.6367526513]}, "type": "Feature", "properties": {"collection_times": [{"days": "Mon-Fri", "time": "4:00pm"}, {"days": "Sat", "time": "3:00pm"}, {"days": "Sun", "time": "Closed"}], "id": "3830100086", "name": "USPS COLLECTION BOX - PO LOBBY", "address": {"city": "JACKSON", "state": "TN", "street": "133 TUCKER ST", "postcode": "38301"}}},
{"geometry": {"type": "Point", "coordinates": [-88.816620276, 35.6090208972]}, "type": "Feature", "properties": {"collection_times": [{"days": "Mon-Fri", "time": "6:00pm"}, {"days": "Sat", "time": "5:00pm"}, {"days": "Sun", "time": "Closed"}], "id": "3830100087", "name": "USPS COLLECTION BOX - PO LOBBY", "address": {"city": "JACKSON", "state": "TN", "street": "200 DR MARTIN LUTHER KING JR DR", "postcode": "38301"}}},
{"geometry": {"type": "Point", "coordinates": [-88.816620276, 35.6090208972]}, "type": "Feature", "properties": {"collection_times": [{"days": "Mon-Fri", "time": "6:00pm"}, {"days": "Sat", "time": "5:00pm"}, {"days": "Sun", "time": "Closed"}], "id": "3830100088", "name": "USPS COLLECTION BOX - PO LOBBY", "address": {"city": "JACKSON", "state": "TN", "street": "200 DR MARTIN LUTHER KING JR DR", "postcode": "38301"}}},
{"geometry": {"type": "Point", "coordinates": [-88.847464561, 35.6181727983]}, "type": "Feature", "properties": {"collection_times": [{"days": "Mon-Fri", "time": "10:00am"}, {"days": "Sat-Sun", "time": "Closed"}], "id": "3830100097", "name": "USPS COLLECTION BOX - BLUE BOX", "address": {"city": "JACKSON", "state": "TN", "street": "623 AIRWAYS BLVD", "postcode": "38301"}}},
{"geometry": {"type": "Point", "coordinates": [-88.8145618355, 35.5778137522]}, "type": "Feature", "properties": {"collection_times": [{"days": "Mon-Sat", "time": "10:00am"}, {"days": "Sun", "time": "Closed"}], "id": "3830100098", "name": "USPS COLLECTION BOX - BLUE BOX", "address": {"city": "JACKSON", "state": "TN", "street": "1328 S HIGHLAND AVE", "postcode": "38301"}}},
{"geometry": {"type": "Point", "coordinates": [-88.8520436122, 35.5908570374]}, "type": "Feature", "properties": {"collection_times": [{"days": "Mon-Sat", "time": "9:00am"}, {"days": "Sun", "time": "Closed"}], "id": "3830100099", "name": "USPS COLLECTION BOX - BLUE BOX", "address": {"city": "JACKSON", "state": "TN", "street": "31 N CONALCO & PKWY", "postcode": "38301"}}},
{"geometry": {"type": "Point", "coordinates": [-88.8216155312, 35.6143608973]}, "type": "Feature", "properties": {"collection_times": [{"days": "Mon-Fri", "time": "11:00am"}, {"days": "Sat-Sun", "time": "Closed"}], "id": "3830100100", "name": "USPS COLLECTION BOX - BLUE BOX", "address": {"city": "JACKSON", "state": "TN", "street": "200 W MAIN ST", "postcode": "38301"}}},
{"geometry": {"type": "Point", "coordinates": [-88.8194493332, 35.6142568827]}, "type": "Feature", "properties": {"collection_times": [{"days": "Mon-Fri", "time": "3:00pm"}, {"days": "Sat", "time": "9:00am"}, {"days": "Sun", "time": "Closed"}], "id": "3830100105", "name": "USPS COLLECTION BOX - BLUE BOX", "address": {"city": "JACKSON", "state": "TN", "street": "109 S HIGHLAND AVE", "postcode": "38301"}}},
{"geometry": {"type": "Point", "coordinates": [-88.8193821348, 35.6142914795]}, "type": "Feature", "properties": {"collection_times": [{"days": "Mon-Fri", "time": "3:00pm"}, {"days": "Sat-Sun", "time": "Closed"}], "id": "3830100106", "name": "USPS COLLECTION BOX - BLUE BOX", "address": {"city": "JACKSON", "state": "TN", "street": "100 E MAIN ST", "postcode": "38301"}}},
{"geometry": {"type": "Point", "coordinates": [-88.8555598057, 35.6562749368]}, "type": "Feature", "properties": {"collection_times": [{"days": "Mon-Sat", "time": "10:00am"}, {"days": "Sun", "time": "Closed"}], "id": "3830500006", "name": "USPS COLLECTION BOX - BLUE BOX", "address": {"city": "JACKSON", "state": "TN", "street": "732 OLD HICKORY BLVD", "postcode": "38305"}}},
{"geometry": {"type": "Point", "coordinates": [-88.8536267533, 35.6584623142]}, "type": "Feature", "properties": {"collection_times": [{"days": "Mon-Sat", "time": "10:00am"}, {"days": "Sun", "time": "Closed"}], "id": "3830500007", "name": "USPS COLLECTION BOX - BLUE BOX", "address": {"city": "JACKSON", "state": "TN", "street": "1869 US 45 BYPASS HWY", "postcode": "38305"}}},
{"geometry": {"type": "Point", "coordinates": [-88.8269621612, 35.6502626448]}, "type": "Feature", "properties": {"collection_times": [{"days": "Mon-Fri", "time": "10:00am"}, {"days": "Sat-Sun", "time": "Closed"}], "id": "3830500009", "name": "USPS COLLECTION BOX - BLUE BOX", "address": {"city": "JACKSON", "state": "TN", "street": "953 N PARKWAY", "postcode": "38305"}}},
{"geometry": {"type": "Point", "coordinates": [-88.8825436041, 35.6921234892]}, "type": "Feature", "properties": {"collection_times": [{"days": "Mon-Fri", "time": "10:00am"}, {"days": "Sat-Sun", "time": "Closed"}], "id": "3830500011", "name": "USPS COLLECTION BOX - BLUE BOX", "address": {"city": "JACKSON", "state": "TN", "street": "NA OLD HICKORY MALL", "postcode": "38305"}}},
{"geometry": {"type": "Point", "coordinates": [-88.8825436041, 35.6921234892]}, "type": "Feature", "properties": {"collection_times": [{"days": "Mon-Fri", "time": "10:00am"}, {"days": "Sat-Sun", "time": "Closed"}], "id": "3830500012", "name": "USPS COLLECTION BOX - BLUE BOX", "address": {"city": "JACKSON", "state": "TN", "street": "NA OLD HICKORY MALL", "postcode": "38305"}}},
{"geometry": {"type": "Point", "coordinates": [-88.8512561036, 35.6593873881]}, "type": "Feature", "properties": {"collection_times": [{"days": "Mon-Sat", "time": "10:00am"}, {"days": "Sun", "time": "Closed"}], "id": "3830500027", "name": "USPS COLLECTION BOX - BLUE BOX", "address": {"city": "JACKSON", "state": "TN", "street": "621 OLD HICKORY BLVD", "postcode": "38305"}}},
{"geometry": {"type": "Point", "coordinates": [-88.8825436041, 35.6921234892]}, "type": "Feature", "properties": {"collection_times": [{"days": "Mon-Sat", "time": "10:00am"}, {"days": "Sun", "time": "Closed"}], "id": "3830500035", "name": "USPS COLLECTION BOX - BLUE BOX", "address": {"city": "JACKSON", "state": "TN", "street": "NA DIRECTORS ROW CORPORATE BLDG", "postcode": "38305"}}},
{"geometry": {"type": "Point", "coordinates": [-88.8825436041, 35.6921234892]}, "type": "Feature", "properties": {"collection_times": [{"days": "Mon-Sat", "time": "10:00am"}, {"days": "Sun", "time": "Closed"}], "id": "3830500036", "name": "USPS COLLECTION BOX - BLUE BOX", "address": {"city": "JACKSON", "state": "TN", "street": "NA DIRECTORS ROW CORPORATE BLDG", "postcode": "38305"}}},
{"geometry": {"type": "Point", "coordinates": [-88.8318260026, 35.6669855336]}, "type": "Feature", "properties": {"collection_times": [{"days": "Mon-Fri", "time": "10:00am"}, {"days": "Sat-Sun", "time": "Closed"}], "id": "3830500037", "name": "USPS COLLECTION BOX - BLUE BOX", "address": {"city": "JACKSON", "state": "TN", "street": "71 CARRIAGE HOUSE DR", "postcode": "38305"}}},
{"geometry": {"type": "Point", "coordinates": [-88.8340972838, 35.6685434905]}, "type": "Feature", "properties": {"collection_times": [{"days": "Mon-Sat", "time": "10:00am"}, {"days": "Sun", "time": "Closed"}], "id": "3830500040", "name": "USPS COLLECTION BOX - BLUE BOX", "address": {"city": "JACKSON", "state": "TN", "street": "34 FEDERAL DR", "postcode": "38305"}}},
{"geometry": {"type": "Point", "coordinates": [-88.8572477907, 35.6899881706]}, "type": "Feature", "properties": {"collection_times": [{"days": "Mon-Fri", "time": "10:00am"}, {"days": "Sat-Sun", "time": "Closed"}], "id": "3830500044", "name": "USPS COLLECTION BOX - BLUE BOX", "address": {"city": "JACKSON", "state": "TN", "street": "2827 US 45 BYPASS HWY", "postcode": "38305"}}},
{"geometry": {"type": "Point", "coordinates": [-88.8541129495, 35.6907440814]}, "type": "Feature", "properties": {"collection_times": [{"days": "Mon-Fri", "time": "11:00am"}, {"days": "Sat", "time": "10:00am"}, {"days": "Sun", "time": "Closed"}], "id": "3830500048", "name": "USPS COLLECTION BOX - BLUE BOX", "address": {"city": "JACKSON", "state": "TN", "street": "31 MURRAY GUARD DR", "postcode": "38305"}}},
{"geometry": {"type": "Point", "coordinates": [-88.8500659101, 35.6465478962]}, "type": "Feature", "properties": {"collection_times": [{"days": "Mon-Sat", "time": "10:00am"}, {"days": "Sun", "time": "Closed"}], "id": "3830500052", "name": "USPS COLLECTION BOX - BLUE BOX", "address": {"city": "JACKSON", "state": "TN", "street": "365 N PARKWAY", "postcode": "38305"}}},
{"geometry": {"type": "Point", "coordinates": [-88.8524864182, 35.6462731573]}, "type": "Feature", "properties": {"collection_times": [{"days": "Mon-Fri", "time": "11:00am"}, {"days": "Sat", "time": "10:00am"}, {"days": "Sun", "time": "Closed"}], "id": "3830500053", "name": "USPS COLLECTION BOX - BLUE BOX", "address": {"city": "JACKSON", "state": "TN", "street": "309 N PARKWAY", "postcode": "38305"}}},
{"geometry": {"type": "Point", "coordinates": [-88.8524864182, 35.6462731573]}, "type": "Feature", "properties": {"collection_times": [{"days": "Mon-Fri", "time": "11:00am"}, {"days": "Sat", "time": "10:00am"}, {"days": "Sun", "time": "Closed"}], "id": "3830500054", "name": "USPS COLLECTION BOX - BLUE BOX", "address": {"city": "JACKSON", "state": "TN", "street": "309 N PARKWAY", "postcode": "38305"}}},
{"geometry": {"type": "Point", "coordinates": [-88.848734395, 35.6465825239]}, "type": "Feature", "properties": {"collection_times": [{"days": "Mon-Fri", "time": "1:00pm"}, {"days": "Sat", "time": "10:00am"}, {"days": "Sun", "time": "Closed"}], "id": "3830500055", "name": "USPS COLLECTION BOX - BLUE BOX", "address": {"city": "JACKSON", "state": "TN", "street": "398 N PARKWAY", "postcode": "38305"}}},
{"geometry": {"type": "Point", "coordinates": [-88.848734395, 35.6465825239]}, "type": "Feature", "properties": {"collection_times": [{"days": "Mon-Fri", "time": "1:00pm"}, {"days": "Sat", "time": "10:00am"}, {"days": "Sun", "time": "Closed"}], "id": "3830500056", "name": "USPS COLLECTION BOX - BLUE BOX", "address": {"city": "JACKSON", "state": "TN", "street": "398 N PARKWAY", "postcode": "38305"}}},
{"geometry": {"type": "Point", "coordinates": [-88.8578914355, 35.6816316604]}, "type": "Feature", "properties": {"collection_times": [{"days": "Mon-Fri", "time": "1:00pm"}, {"days": "Sat-Sun", "time": "Closed"}], "id": "3830500064", "name": "USPS COLLECTION BOX - BLUE BOX", "address": {"city": "JACKSON", "state": "TN", "street": "1050 UNION UNIVERSITY DR", "postcode": "38305"}}},
{"geometry": {"type": "Point", "coordinates": [-88.8534126378, 35.6820363205]}, "type": "Feature", "properties": {"collection_times": [{"days": "Mon-Sat", "time": "10:00am"}, {"days": "Sun", "time": "Closed"}], "id": "3830500065", "name": "USPS COLLECTION BOX - BLUE BOX", "address": {"city": "JACKSON", "state": "TN", "street": "322 HOSPITAL BLVD", "postcode": "38305"}}},
{"geometry": {"type": "Point", "coordinates": [-88.8534126378, 35.6820363205]}, "type": "Feature", "properties": {"collection_times": [{"days": "Mon-Sat", "time": "10:00am"}, {"days": "Sun", "time": "Closed"}], "id": "3830500066", "name": "USPS COLLECTION BOX - BLUE BOX", "address": {"city": "JACKSON", "state": "TN", "street": "322 HOSPITAL BLVD", "postcode": "38305"}}},
{"geometry": {"type": "Point", "coordinates": [-88.8552760091, 35.6802255039]}, "type": "Feature", "properties": {"collection_times": [{"days": "Mon-Fri", "time": "10:00am"}, {"days": "Sat-Sun", "time": "Closed"}], "id": "3830500067", "name": "USPS COLLECTION BOX - BLUE BOX", "address": {"city": "JACKSON", "state": "TN", "street": "2196 HIGHWAY 45 BYP", "postcode": "38305"}}},
{"geometry": {"type": "Point", "coordinates": [-88.8561369923, 35.6868119258]}, "type": "Feature", "properties": {"collection_times": [{"days": "Mon-Fri", "time": "10:00am"}, {"days": "Sat-Sun", "time": "Closed"}], "id": "3830500071", "name": "USPS COLLECTION BOX - BLUE BOX", "address": {"city": "JACKSON", "state": "TN", "street": "93 STONEBROOK PL", "postcode": "38305"}}},
{"geometry": {"type": "Point", "coordinates": [-88.8679795945, 35.6514686608]}, "type": "Feature", "properties": {"collection_times": [{"days": "Mon-Sat", "time": "10:00am"}, {"days": "Sun", "time": "Closed"}], "id": "3830500072", "name": "USPS COLLECTION BOX - BLUE BOX", "address": {"city": "JACKSON", "state": "TN", "street": "2089 HOLLYWOOD DR", "postcode": "38305"}}},
{"geometry": {"type": "Point", "coordinates": [-88.8310550889, 35.6512246179]}, "type": "Feature", "properties": {"collection_times": [{"days": "Mon-Fri", "time": "10:00am"}, {"days": "Sat-Sun", "time": "Closed"}], "id": "3830500073", "name": "USPS COLLECTION BOX - BLUE BOX", "address": {"city": "JACKSON", "state": "TN", "street": "861 N PARKWAY", "postcode": "38305"}}},
{"geometry": {"type": "Point", "coordinates": [-88.8520853578, 35.6765947092]}, "type": "Feature", "properties": {"collection_times": [{"days": "Mon-Fri", "time": "1:00pm"}, {"days": "Sat-Sun", "time": "Closed"}], "id": "3830500074", "name": "USPS COLLECTION BOX - BLUE BOX", "address": {"city": "JACKSON", "state": "TN", "street": "130 STONEBRIDGE BLVD", "postcode": "38305"}}},
{"geometry": {"type": "Point", "coordinates": [-88.8520853578, 35.6765947092]}, "type": "Feature", "properties": {"collection_times": [{"days": "Mon-Fri", "time": "1:00pm"}, {"days": "Sat-Sun", "time": "Closed"}], "id": "3830500075", "name": "USPS COLLECTION BOX - BLUE BOX", "address": {"city": "JACKSON", "state": "TN", "street": "130 STONEBRIDGE BLVD", "postcode": "38305"}}},
{"geometry": {"type": "Point", "coordinates": [-88.8263619151, 35.6674859252]}, "type": "Feature", "properties": {"collection_times": [{"days": "Mon-Sat", "time": "10:00am"}, {"days": "Sun", "time": "Closed"}], "id": "3830500076", "name": "USPS COLLECTION BOX - BLUE BOX", "address": {"city": "JACKSON", "state": "TN", "street": "65 RIDGECREST RD", "postcode": "38305"}}},
{"geometry": {"type": "Point", "coordinates": [-88.8538030142, 35.7065850849]}, "type": "Feature", "properties": {"collection_times": [{"days": "Mon-Fri", "time": "10:00am"}, {"days": "Sat-Sun", "time": "Closed"}], "id": "3830500079", "name": "USPS COLLECTION BOX - BLUE BOX", "address": {"city": "JACKSON", "state": "TN", "street": "19 NORTHSTAR DR/OLD HUMBOLDT RD", "postcode": "38305"}}},
{"geometry": {"type": "Point", "coordinates": [-88.8348555605, 35.6532135253]}, "type": "Feature", "properties": {"collection_times": [{"days": "Mon-Sat", "time": "10:00am"}, {"days": "Sun", "time": "Closed"}], "id": "3830500085", "name": "USPS COLLECTION BOX - BLUE BOX", "address": {"city": "JACKSON", "state": "TN", "street": "180 OLD HICKORY BLVD STE A", "postcode": "38305"}}},
{"geometry": {"type": "Point", "coordinates": [-88.8357780441, 35.6962832399]}, "type": "Feature", "properties": {"collection_times": [{"days": "Mon-Fri", "time": "5:00pm"}, {"days": "Sat", "time": "4:00pm"}, {"days": "Sun", "time": "Closed"}], "id": "3830500087", "name": "USPS COLLECTION BOX - PO LOBBY", "address": {"city": "JACKSON", "state": "TN", "street": "161 W UNIVERSITY PKWY", "postcode": "38305"}}},
{"geometry": {"type": "Point", "coordinates": [-88.8357780441, 35.6962832399]}, "type": "Feature", "properties": {"collection_times": [{"days": "Mon-Fri", "time": "5:00pm"}, {"days": "Sat", "time": "4:00pm"}, {"days": "Sun", "time": "Closed"}], "id": "3830500088", "name": "USPS COLLECTION BOX - BLUE BOX", "address": {"city": "JACKSON", "state": "TN", "street": "161 W UNIVERSITY PKWY", "postcode": "38305"}}},
{"geometry": {"type": "Point", "coordinates": [-88.8357780441, 35.6962832399]}, "type": "Feature", "properties": {"collection_times": [{"days": "Mon-Fri", "time": "5:00pm"}, {"days": "Sat", "time": "4:00pm"}, {"days": "Sun", "time": "Closed"}], "id": "3830500090", "name": "USPS COLLECTION BOX - BLUE BOX", "address": {"city": "JACKSON", "state": "TN", "street": "161 W UNIVERSITY PKWY", "postcode": "38305"}}},
{"geometry": {"type": "Point", "coordinates": [-88.8357780441, 35.6962832399]}, "type": "Feature", "properties": {"collection_times": [{"days": "Mon-Fri", "time": "5:00pm"}, {"days": "Sat", "time": "4:00pm"}, {"days": "Sun", "time": "Closed"}], "id": "3830500092", "name": "USPS COLLECTION BOX - PO LOBBY", "address": {"city": "JACKSON", "state": "TN", "street": "161 W UNIVERSITY PKWY", "postcode": "38305"}}},
{"geometry": {"type": "Point", "coordinates": [-88.3837353421, 35.2351771203]}, "type": "Feature", "properties": {"collection_times": [{"days": "Mon-Fri", "time": "4:30pm"}, {"days": "Sat", "time": "4:00pm"}, {"days": "Sun", "time": "Closed"}], "id": "3831000003", "name": "USPS COLLECTION BOX - BLUE BOX", "address": {"city": "ADAMSVILLE", "state": "TN", "street": "339 E MAIN ST", "postcode": "38310"}}},
{"geometry": {"type": "Point", "coordinates": [-88.3837353421, 35.2351771203]}, "type": "Feature", "properties": {"collection_times": [{"days": "Mon-Fri", "time": "4:30pm"}, {"days": "Sat", "time": "4:00pm"}, {"days": "Sun", "time": "Closed"}], "id": "3831000004", "name": "USPS COLLECTION BOX - PO LOBBY", "address": {"city": "ADAMSVILLE", "state": "TN", "street": "339 E MAIN ST", "postcode": "38310"}}},
{"geometry": {"type": "Point", "coordinates": [-88.3837353421, 35.2351771203]}, "type": "Feature", "properties": {"collection_times": [{"days": "Mon-Fri", "time": "4:30pm"}, {"days": "Sat", "time": "4:00pm"}, {"days": "Sun", "time": "Closed"}], "id": "3831000005", "name": "USPS COLLECTION BOX - PO LOBBY", "address": {"city": "ADAMSVILLE", "state": "TN", "street": "339 E MAIN ST", "postcode": "38310"}}},
{"geometry": {"type": "Point", "coordinates": [-88.1440020408, 35.4583809656]}, "type": "Feature", "properties": {"collection_times": [{"days": "Mon-Fri", "time": "10:00am"}, {"days": "Sat", "time": "9:00am"}, {"days": "Sun", "time": "Closed"}], "id": "3831100001", "name": "USPS COLLECTION BOX - PO LOBBY", "address": {"city": "BATH SPRINGS", "state": "TN", "street": "2744 HIGHWAY 114 W", "postcode": "38311"}}},
{"geometry": {"type": "Point", "coordinates": [-88.631401997, 35.596659806]}, "type": "Feature", "properties": {"collection_times": [{"days": "Mon-Fri", "time": "11:00am"}, {"days": "Sat", "time": "9:00am"}, {"days": "Sun", "time": "Closed"}], "id": "3831300001", "name": "USPS COLLECTION BOX - BLUE BOX", "address": {"city": "BEECH BLUFF", "state": "TN", "street": "4541 BEECH BLUFF RD", "postcode": "38313"}}},
{"geometry": {"type": "Point", "coordinates": [-88.631401997, 35.596659806]}, "type": "Feature", "properties": {"collection_times": [{"days": "Mon-Fri", "time": "11:00am"}, {"days": "Sat", "time": "9:00am"}, {"days": "Sun", "time": "Closed"}], "id": "3831300002", "name": "USPS COLLECTION BOX - PO LOBBY", "address": {"city": "BEECH BLUFF", "state": "TN", "street": "4541 BEECH BLUFF RD", "postcode": "38313"}}},
{"geometry": {"type": "Point", "coordinates": [-88.6071312279, 35.2350115061]}, "type": "Feature", "properties": {"collection_times": [{"days": "Mon-Fri", "time": "3:00pm"}, {"days": "Sat", "time": "10:30am"}, {"days": "Sun", "time": "Closed"}], "id": "3831500001", "name": "USPS COLLECTION BOX - PO LOBBY", "address": {"city": "BETHEL SPRINGS", "state": "TN", "street": "4698 MAIN ST", "postcode": "38315"}}},
{"geometry": {"type": "Point", "coordinates": [-88.6071312279, 35.2350115061]}, "type": "Feature", "properties": {"collection_times": [{"days": "Mon-Fri", "time": "3:00pm"}, {"days": "Sat", "time": "10:30am"}, {"days": "Sun", "time": "Closed"}], "id": "3831500002", "name": "USPS COLLECTION BOX - BLUE BOX", "address": {"city": "BETHEL SPRINGS", "state": "TN", "street": "4698 MAIN ST", "postcode": "38315"}}},
{"geometry": {"type": "Point", "coordinates": [-88.8116671989, 36.0763461175]}, "type": "Feature", "properties": {"collection_times": [{"days": "Mon-Fri", "time": "2:30pm"}, {"days": "Sat", "time": "9:15am"}, {"days": "Sun", "time": "Closed"}], "id": "3831600001", "name": "USPS COLLECTION BOX - PO LOBBY", "address": {"city": "BRADFORD", "state": "TN", "street": "134 E MAIN ST", "postcode": "38316"}}},
{"geometry": {"type": "Point", "coordinates": [-88.8116671989, 36.0763461175]}, "type": "Feature", "properties": {"collection_times": [{"days": "Mon-Fri", "time": "2:30pm"}, {"days": "Sat", "time": "9:15am"}, {"days": "Sun", "time": "Closed"}], "id": "3831600002", "name": "USPS COLLECTION BOX - BLUE BOX", "address": {"city": "BRADFORD", "state": "TN", "street": "134 E MAIN ST", "postcode": "38316"}}},
{"geometry": {"type": "Point", "coordinates": [-88.2443744953, 36.0406952831]}, "type": "Feature", "properties": {"collection_times": [{"days": "Mon-Fri", "time": "3:30pm"}, {"days": "Sat", "time": "9:30am"}, {"days": "Sun", "time": "Closed"}], "id": "3831700004", "name": "USPS COLLECTION BOX - PO LOBBY", "address": {"city": "BRUCETON", "state": "TN", "street": "253 CHEATHAM ST", "postcode": "38317"}}},
{"geometry": {"type": "Point", "coordinates": [-88.2443744953, 36.0406952831]}, "type": "Feature", "properties": {"collection_times": [{"days": "Mon-Fri", "time": "4:00pm"}, {"days": "Sat", "time": "9:30am"}, {"days": "Sun", "time": "Closed"}], "id": "3831700005", "name": "USPS COLLECTION BOX - BLUE BOX", "address": {"city": "BRUCETON", "state": "TN", "street": "253 CHEATHAM ST", "postcode": "38317"}}},
{"geometry": {"type": "Point", "coordinates": [-88.2955563979, 35.9761968115]}, "type": "Feature", "properties": {"collection_times": [{"days": "Mon-Fri", "time": "3:00pm"}, {"days": "Sat", "time": "9:00am"}, {"days": "Sun", "time": "Closed"}], "id": "3831800001", "name": "USPS COLLECTION BOX - BLUE BOX", "address": {"city": "BUENA VISTA", "state": "TN", "street": "7240 BUENA VISTA RD", "postcode": "38318"}}},
{"geometry": {"type": "Point", "coordinates": [-88.2955563979, 35.9761968115]}, "type": "Feature", "properties": {"collection_times": [{"days": "Mon-Fri", "time": "3:00pm"}, {"days": "Sat", "time": "9:00am"}, {"days": "Sun", "time": "Closed"}], "id": "3831800002", "name": "USPS COLLECTION BOX - PO LOBBY", "address": {"city": "BUENA VISTA", "state": "TN", "street": "7240 BUENA VISTA RD", "postcode": "38318"}}},
{"geometry": {"type": "Point", "coordinates": [-88.1080727804, 36.0583355672]}, "type": "Feature", "properties": {"collection_times": [{"days": "Mon-Fri", "time": "2:30pm"}, {"days": "Sat", "time": "12:00pm"}, {"days": "Sun", "time": "Closed"}], "id": "3832000003", "name": "USPS COLLECTION BOX - BLUE BOX", "address": {"city": "CAMDEN", "state": "TN", "street": "204 W MAIN ST", "postcode": "38320"}}},
{"geometry": {"type": "Point", "coordinates": [-88.112552646, 36.0578458222]}, "type": "Feature", "properties": {"collection_times": [{"days": "Mon-Fri", "time": "2:30pm"}, {"days": "Sat", "time": "12:00pm"}, {"days": "Sun", "time": "Closed"}], "id": "3832000004", "name": "USPS COLLECTION BOX - BLUE BOX", "address": {"city": "CAMDEN", "state": "TN", "street": "256 W MAIN ST", "postcode": "38320"}}},
{"geometry": {"type": "Point", "coordinates": [-88.0974766071, 36.0579012344]}, "type": "Feature", "properties": {"collection_times": [{"days": "Mon-Fri", "time": "4:00pm"}, {"days": "Sat", "time": "12:00pm"}, {"days": "Sun", "time": "Closed"}], "id": "3832000006", "name": "USPS COLLECTION BOX - BLUE BOX", "address": {"city": "CAMDEN", "state": "TN", "street": "1 COURT SQ", "postcode": "38320"}}},
{"geometry": {"type": "Point", "coordinates": [-88.0975338316, 36.0585138152]}, "type": "Feature", "properties": {"collection_times": [{"days": "Mon-Fri", "time": "4:00pm"}, {"days": "Sat", "time": "12:00pm"}, {"days": "Sun", "time": "Closed"}], "id": "3832000008", "name": "USPS COLLECTION BOX - PO LOBBY", "address": {"city": "CAMDEN", "state": "TN", "street": "81 N FORREST AVE", "postcode": "38320"}}},
{"geometry": {"type": "Point", "coordinates": [-88.1082821642, 36.0557141302]}, "type": "Feature", "properties": {"collection_times": [{"days": "Mon-Sat", "time": "9:30am"}, {"days": "Sun", "time": "Closed"}], "id": "3832000010", "name": "USPS COLLECTION BOX - BLUE BOX", "address": {"city": "CAMDEN", "state": "TN", "street": "175 HOSPITAL DR", "postcode": "38320"}}},
{"geometry": {"type": "Point", "coordinates": [-88.596004394, 35.8162841201]}, "type": "Feature", "properties": {"collection_times": [{"days": "Mon-Fri", "time": "11:00am"}, {"days": "Sat", "time": "9:45am"}, {"days": "Sun", "time": "Closed"}], "id": "3832100001", "name": "USPS COLLECTION BOX - BLUE BOX", "address": {"city": "CEDAR GROVE", "state": "TN", "street": "3490 HIGHWAY 70", "postcode": "38321"}}},
{"geometry": {"type": "Point", "coordinates": [-88.5958977119, 35.816400487]}, "type": "Feature", "properties": {"collection_times": [{"days": "Mon-Fri", "time": "11:00am"}, {"days": "Sat", "time": "9:45am"}, {"days": "Sun", "time": "Closed"}], "id": "3832100002", "name": "USPS COLLECTION BOX - PO LOBBY", "address": {"city": "CEDAR GROVE", "state": "TN", "street": "3490 HIGHWAY 70", "postcode": "38321"}}},
{"geometry": {"type": "Point", "coordinates": [-88.3933183453, 35.8721964235]}, "type": "Feature", "properties": {"collection_times": [{"days": "Mon-Fri", "time": "11:00am"}, {"days": "Sat", "time": "10:00am"}, {"days": "Sun", "time": "Closed"}], "id": "3832400001", "name": "USPS COLLECTION BOX - PO LOBBY", "address": {"city": "CLARKSBURG", "state": "TN", "street": "3535 HIGHWAY 22", "postcode": "38324"}}},
{"geometry": {"type": "Point", "coordinates": [-88.3933183453, 35.8721964235]}, "type": "Feature", "properties": {"collection_times": [{"days": "Mon-Fri", "time": "11:00am"}, {"days": "Sat", "time": "10:00am"}, {"days": "Sun", "time": "Closed"}], "id": "3832400002", "name": "USPS COLLECTION BOX - BLUE BOX", "address": {"city": "CLARKSBURG", "state": "TN", "street": "3535 HIGHWAY 22", "postcode": "38324"}}},
{"geometry": {"type": "Point", "coordinates": [-88.2589911363, 35.0456233246]}, "type": "Feature", "properties": {"collection_times": [{"days": "Mon-Fri", "time": "4:00pm"}, {"days": "Sat", "time": "10:00am"}, {"days": "Sun", "time": "Closed"}], "id": "3832600002", "name": "USPS COLLECTION BOX - BLUE BOX", "address": {"city": "COUNCE", "state": "TN", "street": "7095 HIGHWAY 57", "postcode": "38326"}}},
{"geometry": {"type": "Point", "coordinates": [-88.2589911363, 35.0456233246]}, "type": "Feature", "properties": {"collection_times": [{"days": "Mon-Fri", "time": "4:00pm"}, {"days": "Sat", "time": "10:00am"}, {"days": "Sun", "time": "Closed"}], "id": "3832600003", "name": "USPS COLLECTION BOX - PO LOBBY", "address": {"city": "COUNCE", "state": "TN", "street": "7095 HIGHWAY 57", "postcode": "38326"}}},
{"geometry": {"type": "Point", "coordinates": [-88.3175006847, 35.22176707]}, "type": "Feature", "properties": {"collection_times": [{"days": "Mon-Fri", "time": "11:30am"}, {"days": "Sat", "time": "11:00am"}, {"days": "Sun", "time": "Closed"}], "id": "3832700001", "name": "USPS COLLECTION BOX - PO LOBBY", "address": {"city": "CRUMP", "state": "TN", "street": "3170 US HIGHWAY 64", "postcode": "38327"}}},
{"geometry": {"type": "Point", "coordinates": [-88.3175006847, 35.22176707]}, "type": "Feature", "properties": {"collection_times": [{"days": "Mon-Fri", "time": "12:30pm"}, {"days": "Sat", "time": "11:00am"}, {"days": "Sun", "time": "Closed"}], "id": "3832700002", "name": "USPS COLLECTION BOX - BLUE BOX", "address": {"city": "CRUMP", "state": "TN", "street": "3170 US HIGHWAY 64", "postcode": "38327"}}},
{"geometry": {"type": "Point", "coordinates": [-88.1236038487, 35.5840021451]}, "type": "Feature", "properties": {"collection_times": [{"days": "Mon-Fri", "time": "3:30pm"}, {"days": "Sat", "time": "10:30am"}, {"days": "Sun", "time": "Closed"}], "id": "3832900001", "name": "USPS COLLECTION BOX - PO LOBBY", "address": {"city": "DECATURVILLE", "state": "TN", "street": "225 W MAIN ST", "postcode": "38329"}}},
{"geometry": {"type": "Point", "coordinates": [-88.1236038487, 35.5840021451]}, "type": "Feature", "properties": {"collection_times": [{"days": "Mon-Fri", "time": "3:30pm"}, {"days": "Sat", "time": "10:30am"}, {"days": "Sun", "time": "Closed"}], "id": "3832900002", "name": "USPS COLLECTION BOX - BLUE BOX", "address": {"city": "DECATURVILLE", "state": "TN", "street": "225 W MAIN ST", "postcode": "38329"}}},
{"geometry": {"type": "Point", "coordinates": [-88.9878802453, 36.0603239673]}, "type": "Feature", "properties": {"collection_times": [{"days": "Mon-Fri", "time": "11:00am"}, {"days": "Sat", "time": "10:30am"}, {"days": "Sun", "time": "Closed"}], "id": "3833000001", "name": "USPS COLLECTION BOX - BLUE BOX", "address": {"city": "DYER", "state": "TN", "street": "705 S MAIN ST", "postcode": "38330"}}},
{"geometry": {"type": "Point", "coordinates": [-88.9943390328, 36.0673862621]}, "type": "Feature", "properties": {"collection_times": [{"days": "Mon-Fri", "time": "3:00pm"}, {"days": "Sat", "time": "10:30am"}, {"days": "Sun", "time": "Closed"}], "id": "3833000006", "name": "USPS COLLECTION BOX - BLUE BOX", "address": {"city": "DYER", "state": "TN", "street": "142 N MAIN ST", "postcode": "38330"}}},
{"geometry": {"type": "Point", "coordinates": [-88.9943390328, 36.0673862621]}, "type": "Feature", "properties": {"collection_times": [{"days": "Mon-Fri", "time": "3:00pm"}, {"days": "Sat", "time": "10:30am"}, {"days": "Sun", "time": "Closed"}], "id": "3833000007", "name": "USPS COLLECTION BOX - PO LOBBY", "address": {"city": "DYER", "state": "TN", "street": "142 N MAIN ST", "postcode": "38330"}}},
{"geometry": {"type": "Point", "coordinates": [-89.1324241682, 35.9686423514]}, "type": "Feature", "properties": {"collection_times": [{"days": "Mon-Sat", "time": "8:30am"}, {"days": "Sun", "time": "Closed"}], "id": "3833100001", "name": "USPS COLLECTION BOX - BLUE BOX", "address": {"city": "EATON", "state": "TN", "street": "188 STAR RTE", "postcode": "38331"}}},
{"geometry": {"type": "Point", "coordinates": [-89.1324241682, 35.9686423514]}, "type": "Feature", "properties": {"collection_times": [{"days": "Mon-Sat", "time": "8:30am"}, {"days": "Sun", "time": "Closed"}], "id": "3833100002", "name": "USPS COLLECTION BOX - PO LOBBY", "address": {"city": "EATON", "state": "TN", "street": "188 STAR RTE", "postcode": "38331"}}},
{"geometry": {"type": "Point", "coordinates": [-88.4285150708, 35.3849054195]}, "type": "Feature", "properties": {"collection_times": [{"days": "Mon-Fri", "time": "11:30am"}, {"days": "Sat", "time": "10:00am"}, {"days": "Sun", "time": "Closed"}], "id": "3833200001", "name": "USPS COLLECTION BOX - BLUE BOX", "address": {"city": "ENVILLE", "state": "TN", "street": "8400 MAIN ST", "postcode": "38332"}}},
{"geometry": {"type": "Point", "coordinates": [-88.4285150708, 35.3849054195]}, "type": "Feature", "properties": {"collection_times": [{"days": "Mon-Fri", "time": "11:30am"}, {"days": "Sat", "time": "10:00am"}, {"days": "Sun", "time": "Closed"}], "id": "3833200002", "name": "USPS COLLECTION BOX - PO LOBBY", "address": {"city": "ENVILLE", "state": "TN", "street": "8400 MAIN ST", "postcode": "38332"}}},
{"geometry": {"type": "Point", "coordinates": [-88.004014978, 36.0639782815]}, "type": "Feature", "properties": {"collection_times": [{"days": "Mon-Fri", "time": "12:00pm"}, {"days": "Sat", "time": "9:30am"}, {"days": "Sun", "time": "Closed"}], "id": "3833300001", "name": "USPS COLLECTION BOX - PO LOBBY", "address": {"city": "EVA", "state": "TN", "street": "28 EVA BEACH DR", "postcode": "38333"}}},
{"geometry": {"type": "Point", "coordinates": [-88.004014978, 36.0639782815]}, "type": "Feature", "properties": {"collection_times": [{"days": "Mon-Fri", "time": "12:00pm"}, {"days": "Sat", "time": "9:30am"}, {"days": "Sun", "time": "Closed"}], "id": "3833300002", "name": "USPS COLLECTION BOX - BLUE BOX", "address": {"city": "EVA", "state": "TN", "street": "28 EVA BEACH DR", "postcode": "38333"}}},
{"geometry": {"type": "Point", "coordinates": [-88.6043315229, 35.3582519441]}, "type": "Feature", "properties": {"collection_times": [{"days": "Mon-Fri", "time": "11:00am"}, {"days": "Sat", "time": "10:00am"}, {"days": "Sun", "time": "Closed"}], "id": "3833400001", "name": "USPS COLLECTION BOX - PO LOBBY", "address": {"city": "FINGER", "state": "TN", "street": "2048 FINGER LEAPWOOD RD", "postcode": "38334"}}},
{"geometry": {"type": "Point", "coordinates": [-88.6043315229, 35.3582519441]}, "type": "Feature", "properties": {"collection_times": [{"days": "Mon-Fri", "time": "11:00am"}, {"days": "Sat", "time": "10:00am"}, {"days": "Sun", "time": "Closed"}], "id": "3833400002", "name": "USPS COLLECTION BOX - BLUE BOX", "address": {"city": "FINGER", "state": "TN", "street": "2048 FINGER LEAPWOOD RD", "postcode": "38334"}}},
{"geometry": {"type": "Point", "coordinates": [-88.9887274527, 35.7803962846]}, "type": "Feature", "properties": {"collection_times": [{"days": "Mon-Fri", "time": "12:00pm"}, {"days": "Sat", "time": "9:30am"}, {"days": "Sun", "time": "Closed"}], "id": "3833700000", "name": "USPS COLLECTION BOX - PO LOBBY", "address": {"city": "GADSDEN", "state": "TN", "street": "64 HUMBOLDT LAKE RD", "postcode": "38337"}}},
{"geometry": {"type": "Point", "coordinates": [-88.9887274527, 35.7803962846]}, "type": "Feature", "properties": {"collection_times": [{"days": "Mon-Fri", "time": "12:00pm"}, {"days": "Sat", "time": "9:30am"}, {"days": "Sun", "time": "Closed"}], "id": "3833700001", "name": "USPS COLLECTION BOX - BLUE BOX", "address": {"city": "GADSDEN", "state": "TN", "street": "64 HUMBOLDT LAKE RD", "postcode": "38337"}}},
{"geometry": {"type": "Point", "coordinates": [-88.8457865902, 35.872519293]}, "type": "Feature", "properties": {"collection_times": [{"days": "Mon-Fri", "time": "12:00pm"}, {"days": "Sat", "time": "10:00am"}, {"days": "Sun", "time": "Closed"}], "id": "3833800001", "name": "USPS COLLECTION BOX - BLUE BOX", "address": {"city": "GIBSON", "state": "TN", "street": "128 S MAIN ST", "postcode": "38338"}}},
{"geometry": {"type": "Point", "coordinates": [-88.8457865902, 35.872519293]}, "type": "Feature", "properties": {"collection_times": [{"days": "Mon-Fri", "time": "12:00pm"}, {"days": "Sat", "time": "10:00am"}, {"days": "Sun", "time": "Closed"}], "id": "3833800002", "name": "USPS COLLECTION BOX - PO LOBBY", "address": {"city": "GIBSON", "state": "TN", "street": "128 S MAIN ST", "postcode": "38338"}}},
{"geometry": {"type": "Point", "coordinates": [-88.5580165911, 35.0318725126]}, "type": "Feature", "properties": {"collection_times": [{"days": "Mon-Fri", "time": "11:00am"}, {"days": "Sat", "time": "10:00am"}, {"days": "Sun", "time": "Closed"}], "id": "3833900001", "name": "USPS COLLECTION BOX - PO LOBBY", "address": {"city": "GUYS", "state": "TN", "street": "1845 GUYS CHEWALLA RD", "postcode": "38339"}}},
{"geometry": {"type": "Point", "coordinates": [-88.5580165911, 35.0318725126]}, "type": "Feature", "properties": {"collection_times": [{"days": "Mon-Fri", "time": "11:00am"}, {"days": "Sat", "time": "10:00am"}, {"days": "Sun", "time": "Closed"}], "id": "3833900002", "name": "USPS COLLECTION BOX - BLUE BOX", "address": {"city": "GUYS", "state": "TN", "street": "1845 GUYS CHEWALLA RD", "postcode": "38339"}}},
{"geometry": {"type": "Point", "coordinates": [-88.6413021805, 35.4405884809]}, "type": "Feature", "properties": {"collection_times": [{"days": "Mon-Sat", "time": "4:15pm"}, {"days": "Sun", "time": "Closed"}], "id": "3834000001", "name": "USPS COLLECTION BOX - BLUE BOX", "address": {"city": "HENDERSON", "state": "TN", "street": "205 CROOK AVE/HART", "postcode": "38340"}}},
{"geometry": {"type": "Point", "coordinates": [-88.6413021805, 35.4405884809]}, "type": "Feature", "properties": {"collection_times": [{"days": "Mon-Sat", "time": "4:15pm"}, {"days": "Sun", "time": "Closed"}], "id": "3834000002", "name": "USPS COLLECTION BOX - BLUE BOX", "address": {"city": "HENDERSON", "state": "TN", "street": "205 CROOK AVE/HART", "postcode": "38340"}}},
{"geometry": {"type": "Point", "coordinates": [-88.6326464698, 35.4412296447]}, "type": "Feature", "properties": {"collection_times": [{"days": "Mon-Sat", "time": "3:30pm"}, {"days": "Sun", "time": "Closed"}], "id": "3834000003", "name": "USPS COLLECTION BOX - BLUE BOX", "address": {"city": "HENDERSON", "state": "TN", "street": "410 E MAIN ST", "postcode": "38340"}}},
{"geometry": {"type": "Point", "coordinates": [-88.6491081356, 35.4337189985]}, "type": "Feature", "properties": {"collection_times": [{"days": "Mon-Sat", "time": "3:00pm"}, {"days": "Sun", "time": "Closed"}], "id": "3834000004", "name": "USPS COLLECTION BOX - BLUE BOX", "address": {"city": "HENDERSON", "state": "TN", "street": "539 W MAIN ST", "postcode": "38340"}}},
{"geometry": {"type": "Point", "coordinates": [-88.6413021805, 35.4405884809]}, "type": "Feature", "properties": {"collection_times": [{"days": "Mon-Sat", "time": "4:15pm"}, {"days": "Sun", "time": "Closed"}], "id": "3834000005", "name": "USPS COLLECTION BOX - PO LOBBY", "address": {"city": "HENDERSON", "state": "TN", "street": "205 CROOK AVE/HART", "postcode": "38340"}}},
{"geometry": {"type": "Point", "coordinates": [-88.1444280177, 35.8728306532]}, "type": "Feature", "properties": {"collection_times": [{"days": "Mon-Fri", "time": "3:00pm"}, {"days": "Sat", "time": "9:45am"}, {"days": "Sun", "time": "Closed"}], "id": "3834100000", "name": "USPS COLLECTION BOX - BLUE BOX", "address": {"city": "HOLLADAY", "state": "TN", "street": "7005 HIGHWAY 192", "postcode": "38341"}}},
{"geometry": {"type": "Point", "coordinates": [-88.1444280177, 35.8728306532]}, "type": "Feature", "properties": {"collection_times": [{"days": "Mon-Fri", "time": "3:00pm"}, {"days": "Sat", "time": "10:00am"}, {"days": "Sun", "time": "Closed"}], "id": "3834100001", "name": "USPS COLLECTION BOX - PO LOBBY", "address": {"city": "HOLLADAY", "state": "TN", "street": "7005 HIGHWAY 192", "postcode": "38341"}}},
{"geometry": {"type": "Point", "coordinates": [-88.2742051716, 36.0346681072]}, "type": "Feature", "properties": {"collection_times": [{"days": "Mon-Fri", "time": "12:30pm"}, {"days": "Sat", "time": "11:00am"}, {"days": "Sun", "time": "Closed"}], "id": "3834200001", "name": "USPS COLLECTION BOX - PO LOBBY", "address": {"city": "HOLLOW ROCK", "state": "TN", "street": "20780 SEMINARY ST", "postcode": "38342"}}},
{"geometry": {"type": "Point", "coordinates": [-88.2742051716, 36.0346681072]}, "type": "Feature", "properties": {"collection_times": [{"days": "Mon-Fri", "time": "12:30pm"}, {"days": "Sat", "time": "11:00am"}, {"days": "Sun", "time": "Closed"}], "id": "3834200002", "name": "USPS COLLECTION BOX - BLUE BOX", "address": {"city": "HOLLOW ROCK", "state": "TN", "street": "20780 SEMINARY ST", "postcode": "38342"}}},
{"geometry": {"type": "Point", "coordinates": [-88.9168417259, 35.8214097668]}, "type": "Feature", "properties": {"collection_times": [{"days": "Mon-Fri", "time": "4:45pm"}, {"days": "Sat", "time": "3:00pm"}, {"days": "Sun", "time": "Closed"}], "id": "3834300004", "name": "USPS COLLECTION BOX - PO LOBBY", "address": {"city": "HUMBOLDT", "state": "TN", "street": "1420 OSBORNE ST", "postcode": "38343"}}},
{"geometry": {"type": "Point", "coordinates": [-88.9143436011, 35.8197185561]}, "type": "Feature", "properties": {"collection_times": [{"days": "Mon-Fri", "time": "3:00pm"}, {"days": "Sat", "time": "1:00pm"}, {"days": "Sun", "time": "Closed"}], "id": "3834300006", "name": "USPS COLLECTION BOX - BLUE BOX", "address": {"city": "HUMBOLDT", "state": "TN", "street": "1634 E MAIN ST", "postcode": "38343"}}},
{"geometry": {"type": "Point", "coordinates": [-88.9170392687, 35.8198936264]}, "type": "Feature", "properties": {"collection_times": [{"days": "Mon-Fri", "time": "3:00pm"}, {"days": "Sat", "time": "1:00pm"}, {"days": "Sun", "time": "Closed"}], "id": "3834300010", "name": "USPS COLLECTION BOX - BLUE BOX", "address": {"city": "HUMBOLDT", "state": "TN", "street": "1401 E MAIN ST", "postcode": "38343"}}},
{"geometry": {"type": "Point", "coordinates": [-88.9074777793, 35.825119268]}, "type": "Feature", "properties": {"collection_times": [{"days": "Mon-Fri", "time": "3:00pm"}, {"days": "Sat", "time": "1:00pm"}, {"days": "Sun", "time": "Closed"}], "id": "3834300013", "name": "USPS COLLECTION BOX - BLUE BOX", "address": {"city": "HUMBOLDT", "state": "TN", "street": "801 N 22ND AVE", "postcode": "38343"}}},
{"geometry": {"type": "Point", "coordinates": [-88.8997232022, 35.8326565292]}, "type": "Feature", "properties": {"collection_times": [{"days": "Mon-Fri", "time": "3:00pm"}, {"days": "Sat", "time": "1:00pm"}, {"days": "Sun", "time": "Closed"}], "id": "3834300018", "name": "USPS COLLECTION BOX - BLUE BOX", "address": {"city": "HUMBOLDT", "state": "TN", "street": "2911 EASTEND DR", "postcode": "38343"}}},
{"geometry": {"type": "Point", "coordinates": [-88.9153299944, 35.8334979277]}, "type": "Feature", "properties": {"collection_times": [{"days": "Mon-Fri", "time": "3:00pm"}, {"days": "Sat", "time": "1:00pm"}, {"days": "Sun", "time": "Closed"}], "id": "3834300020", "name": "USPS COLLECTION BOX - BLUE BOX", "address": {"city": "HUMBOLDT", "state": "TN", "street": "2439 N CENTRAL AVE", "postcode": "38343"}}},
{"geometry": {"type": "Point", "coordinates": [-88.8582865147, 35.7788342479]}, "type": "Feature", "properties": {"collection_times": [{"days": "Mon-Fri", "time": "11:30am"}, {"days": "Sat", "time": "9:00am"}, {"days": "Sun", "time": "Closed"}], "id": "3834300032", "name": "USPS COLLECTION BOX - BLUE BOX", "address": {"city": "HUMBOLDT", "state": "TN", "street": "388 US HIGHWAY 45 W", "postcode": "38343"}}},
{"geometry": {"type": "Point", "coordinates": [-88.9168417259, 35.8214097668]}, "type": "Feature", "properties": {"collection_times": [{"days": "Mon-Fri", "time": "4:45pm"}, {"days": "Sat", "time": "3:00pm"}, {"days": "Sun", "time": "Closed"}], "id": "3834300033", "name": "USPS COLLECTION BOX - BLUE BOX", "address": {"city": "HUMBOLDT", "state": "TN", "street": "1420 OSBORNE ST", "postcode": "38343"}}},
{"geometry": {"type": "Point", "coordinates": [-88.4268838105, 36.0010501448]}, "type": "Feature", "properties": {"collection_times": [{"days": "Mon-Fri", "time": "3:00pm"}, {"days": "Sat", "time": "9:30am"}, {"days": "Sun", "time": "Closed"}], "id": "3834400001", "name": "USPS COLLECTION BOX - BLUE BOX", "address": {"city": "HUNTINGDON", "state": "TN", "street": "19731 MAIN ST E", "postcode": "38344"}}},
{"geometry": {"type": "Point", "coordinates": [-88.424827856, 36.0015797421]}, "type": "Feature", "properties": {"collection_times": [{"days": "Mon-Fri", "time": "3:00pm"}, {"days": "Sat", "time": "9:30am"}, {"days": "Sun", "time": "Closed"}], "id": "3834400004", "name": "USPS COLLECTION BOX - BLUE BOX", "address": {"city": "HUNTINGDON", "state": "TN", "street": "19855 MAIN ST E", "postcode": "38344"}}},
{"geometry": {"type": "Point", "coordinates": [-88.4306641659, 35.9999765624]}, "type": "Feature", "properties": {"collection_times": [{"days": "Mon-Fri", "time": "3:00pm"}, {"days": "Sat", "time": "9:30am"}, {"days": "Sun", "time": "Closed"}], "id": "3834400006", "name": "USPS COLLECTION BOX - BLUE BOX", "address": {"city": "HUNTINGDON", "state": "TN", "street": "19478 MAIN ST W", "postcode": "38344"}}},
{"geometry": {"type": "Point", "coordinates": [-88.427232898, 35.9998450238]}, "type": "Feature", "properties": {"collection_times": [{"days": "Mon-Fri", "time": "3:00pm"}, {"days": "Sat", "time": "9:30am"}, {"days": "Sun", "time": "Closed"}], "id": "3834400008", "name": "USPS COLLECTION BOX - BLUE BOX", "address": {"city": "HUNTINGDON", "state": "TN", "street": "12740 LEXINGTON ST", "postcode": "38344"}}},
{"geometry": {"type": "Point", "coordinates": [-88.428077376, 36.0003634802]}, "type": "Feature", "properties": {"collection_times": [{"days": "Mon-Fri", "time": "3:00pm"}, {"days": "Sat", "time": "9:30am"}, {"days": "Sun", "time": "Closed"}], "id": "3834400011", "name": "USPS COLLECTION BOX - BLUE BOX", "address": {"city": "HUNTINGDON", "state": "TN", "street": "100 COURT SQ", "postcode": "38344"}}},
{"geometry": {"type": "Point", "coordinates": [-88.4288734192, 36.0009423399]}, "type": "Feature", "properties": {"collection_times": [{"days": "Mon-Fri", "time": "3:00pm"}, {"days": "Sat", "time": "9:30am"}, {"days": "Sun", "time": "Closed"}], "id": "3834400016", "name": "USPS COLLECTION BOX - BLUE BOX", "address": {"city": "HUNTINGDON", "state": "TN", "street": "103 W PARIS ST", "postcode": "38344"}}},
{"geometry": {"type": "Point", "coordinates": [-88.4101567306, 36.0191843573]}, "type": "Feature", "properties": {"collection_times": [{"days": "Mon-Fri", "time": "4:15pm"}, {"days": "Sat", "time": "12:30pm"}, {"days": "Sun", "time": "Closed"}], "id": "3834400017", "name": "USPS COLLECTION BOX - BLUE BOX", "address": {"city": "HUNTINGDON", "state": "TN", "street": "543 HIGH ST", "postcode": "38344"}}},
{"geometry": {"type": "Point", "coordinates": [-88.4101567306, 36.0191843573]}, "type": "Feature", "properties": {"collection_times": [{"days": "Mon-Fri", "time": "4:15pm"}, {"days": "Sat", "time": "12:30pm"}, {"days": "Sun", "time": "Closed"}], "id": "3834400020", "name": "USPS COLLECTION BOX - PO LOBBY", "address": {"city": "HUNTINGDON", "state": "TN", "street": "543 HIGH ST", "postcode": "38344"}}},
{"geometry": {"type": "Point", "coordinates": [-88.8084723982, 36.0279800167]}, "type": "Feature", "properties": {"collection_times": [{"days": "Mon-Sat", "time": "11:15am"}, {"days": "Sun", "time": "Closed"}], "id": "3834600000", "name": "USPS COLLECTION BOX - PO LOBBY", "address": {"city": "IDLEWILD", "state": "TN", "street": "26 IDLEWILD HOLLYLEAF RD", "postcode": "38346"}}},
{"geometry": {"type": "Point", "coordinates": [-88.8084723982, 36.0279800167]}, "type": "Feature", "properties": {"collection_times": [{"days": "Mon-Sat", "time": "11:15am"}, {"days": "Sun", "time": "Closed"}], "id": "3834600001", "name": "USPS COLLECTION BOX - BLUE BOX", "address": {"city": "IDLEWILD", "state": "TN", "street": "26 IDLEWILD HOLLYLEAF RD", "postcode": "38346"}}},
{"geometry": {"type": "Point", "coordinates": [-88.5210751928, 35.4716969701]}, "type": "Feature", "properties": {"collection_times": [{"days": "Mon-Fri", "time": "3:00pm"}, {"days": "Sat", "time": "9:00am"}, {"days": "Sun", "time": "Closed"}], "id": "3834700000", "name": "USPS COLLECTION BOX - BLUE BOX", "address": {"city": "JACKS CREEK", "state": "TN", "street": "7185 STATE ROUTE 100 E", "postcode": "38347"}}},
{"geometry": {"type": "Point", "coordinates": [-88.5210751928, 35.4716969701]}, "type": "Feature", "properties": {"collection_times": [{"days": "Mon-Fri", "time": "3:00pm"}, {"days": "Sat", "time": "9:00am"}, {"days": "Sun", "time": "Closed"}], "id": "3834700001", "name": "USPS COLLECTION BOX - PO LOBBY", "address": {"city": "JACKS CREEK", "state": "TN", "street": "7185 STATE ROUTE 100 E", "postcode": "38347"}}},
{"geometry": {"type": "Point", "coordinates": [-88.660430627, 35.8523729478]}, "type": "Feature", "properties": {"collection_times": [{"days": "Mon-Fri", "time": "11:00am"}, {"days": "Sat", "time": "8:00am"}, {"days": "Sun", "time": "Closed"}], "id": "3834800001", "name": "USPS COLLECTION BOX - PO LOBBY", "address": {"city": "LAVINIA", "state": "TN", "street": "4710 HIGHWAY 220", "postcode": "38348"}}},
{"geometry": {"type": "Point", "coordinates": [-88.660430627, 35.8523729478]}, "type": "Feature", "properties": {"collection_times": [{"days": "Mon-Fri", "time": "11:00am"}, {"days": "Sat", "time": "8:00am"}, {"days": "Sun", "time": "Closed"}], "id": "3834800002", "name": "USPS COLLECTION BOX - BLUE BOX", "address": {"city": "LAVINIA", "state": "TN", "street": "4710 HIGHWAY 220", "postcode": "38348"}}},
{"geometry": {"type": "Point", "coordinates": [-88.3977366303, 35.6478077418]}, "type": "Feature", "properties": {"collection_times": [{"days": "Mon-Fri", "time": "4:30pm"}, {"days": "Sat", "time": "3:00pm"}, {"days": "Sun", "time": "Closed"}], "id": "3835100002", "name": "USPS COLLECTION BOX - BLUE BOX", "address": {"city": "LEXINGTON", "state": "TN", "street": "160 S BROAD ST", "postcode": "38351"}}},
{"geometry": {"type": "Point", "coordinates": [-88.3977366303, 35.6478077418]}, "type": "Feature", "properties": {"collection_times": [{"days": "Mon-Fri", "time": "4:30pm"}, {"days": "Sat", "time": "3:00pm"}, {"days": "Sun", "time": "Closed"}], "id": "3835100004", "name": "USPS COLLECTION BOX - BLUE BOX", "address": {"city": "LEXINGTON", "state": "TN", "street": "160 S BROAD ST", "postcode": "38351"}}},
{"geometry": {"type": "Point", "coordinates": [-88.3942300676, 35.6490813667]}, "type": "Feature", "properties": {"collection_times": [{"days": "Mon-Fri", "time": "1:00pm"}, {"days": "Sat", "time": "8:30am"}, {"days": "Sun", "time": "Closed"}], "id": "3835100005", "name": "USPS COLLECTION BOX - BLUE BOX", "address": {"city": "LEXINGTON", "state": "TN", "street": "54 MONROE AVE", "postcode": "38351"}}},
{"geometry": {"type": "Point", "coordinates": [-88.3929111177, 35.6499205505]}, "type": "Feature", "properties": {"collection_times": [{"days": "Mon-Fri", "time": "1:00pm"}, {"days": "Sat", "time": "8:30am"}, {"days": "Sun", "time": "Closed"}], "id": "3835100008", "name": "USPS COLLECTION BOX - BLUE BOX", "address": {"city": "LEXINGTON", "state": "TN", "street": "17 MONROE AVE", "postcode": "38351"}}},
{"geometry": {"type": "Point", "coordinates": [-88.3923010366, 35.6483157702]}, "type": "Feature", "properties": {"collection_times": [{"days": "Mon-Fri", "time": "1:00pm"}, {"days": "Sat", "time": "8:30am"}, {"days": "Sun", "time": "Closed"}], "id": "3835100009", "name": "USPS COLLECTION BOX - BLUE BOX", "address": {"city": "LEXINGTON", "state": "TN", "street": "92 S MAIN ST", "postcode": "38351"}}},
{"geometry": {"type": "Point", "coordinates": [-88.3863884497, 35.6441695985]}, "type": "Feature", "properties": {"collection_times": [{"days": "Mon-Fri", "time": "1:00pm"}, {"days": "Sat", "time": "9:00am"}, {"days": "Sun", "time": "Closed"}], "id": "3835100015", "name": "USPS COLLECTION BOX - BLUE BOX", "address": {"city": "LEXINGTON", "state": "TN", "street": "404 E CHURCH ST", "postcode": "38351"}}},
{"geometry": {"type": "Point", "coordinates": [-88.400256547, 35.6545538178]}, "type": "Feature", "properties": {"collection_times": [{"days": "Mon-Fri", "time": "1:00pm"}, {"days": "Sat", "time": "8:45am"}, {"days": "Sun", "time": "Closed"}], "id": "3835100022", "name": "USPS COLLECTION BOX - BLUE BOX", "address": {"city": "LEXINGTON", "state": "TN", "street": "270 W CHURCH ST", "postcode": "38351"}}},
{"geometry": {"type": "Point", "coordinates": [-88.3970967696, 35.6537569492]}, "type": "Feature", "properties": {"collection_times": [{"days": "Mon-Fri", "time": "1:00pm"}, {"days": "Sat", "time": "8:45am"}, {"days": "Sun", "time": "Closed"}], "id": "3835100026", "name": "USPS COLLECTION BOX - BLUE BOX", "address": {"city": "LEXINGTON", "state": "TN", "street": "128 W CHURCH ST", "postcode": "38351"}}},
{"geometry": {"type": "Point", "coordinates": [-88.3977366303, 35.6478077418]}, "type": "Feature", "properties": {"collection_times": [{"days": "Mon-Fri", "time": "5:00pm"}, {"days": "Sat", "time": "3:00pm"}, {"days": "Sun", "time": "Closed"}], "id": "3835100027", "name": "USPS COLLECTION BOX - PO LOBBY", "address": {"city": "LEXINGTON", "state": "TN", "street": "160 S BROAD ST", "postcode": "38351"}}},
{"geometry": {"type": "Point", "coordinates": [-88.4095013623, 35.6568314428]}, "type": "Feature", "properties": {"collection_times": [{"days": "Mon-Sat", "time": "8:30am"}, {"days": "Sun", "time": "Closed"}], "id": "3835100028", "name": "USPS COLLECTION BOX - BLUE BOX", "address": {"city": "LEXINGTON", "state": "TN", "street": "547 W CHURCH ST", "postcode": "38351"}}},
{"geometry": {"type": "Point", "coordinates": [-88.5746446817, 35.5929584241]}, "type": "Feature", "properties": {"collection_times": [{"days": "Mon-Fri", "time": "11:45am"}, {"days": "Sat", "time": "8:30am"}, {"days": "Sun", "time": "Closed"}], "id": "3835200002", "name": "USPS COLLECTION BOX - PO LOBBY", "address": {"city": "LURAY", "state": "TN", "street": "4480 LURAY RD", "postcode": "38352"}}},
{"geometry": {"type": "Point", "coordinates": [-88.7795182591, 35.8017586159]}, "type": "Feature", "properties": {"collection_times": [{"days": "Mon-Fri", "time": "4:00pm"}, {"days": "Sat", "time": "10:30am"}, {"days": "Sun", "time": "Closed"}], "id": "3835500001", "name": "USPS COLLECTION BOX - PO LOBBY", "address": {"city": "MEDINA", "state": "TN", "street": "318 W CHURCH AVE", "postcode": "38355"}}},
{"geometry": {"type": "Point", "coordinates": [-88.7795182591, 35.8017586159]}, "type": "Feature", "properties": {"collection_times": [{"days": "Mon-Fri", "time": "4:00pm"}, {"days": "Sat", "time": "10:30am"}, {"days": "Sun", "time": "Closed"}], "id": "3835500002", "name": "USPS COLLECTION BOX - BLUE BOX", "address": {"city": "MEDINA", "state": "TN", "street": "318 W CHURCH AVE", "postcode": "38355"}}},
{"geometry": {"type": "Point", "coordinates": [-88.8685242416, 35.457607795]}, "type": "Feature", "properties": {"collection_times": [{"days": "Mon-Fri", "time": "2:30pm"}, {"days": "Sat", "time": "8:45am"}, {"days": "Sun", "time": "Closed"}], "id": "3835600001", "name": "USPS COLLECTION BOX - PO LOBBY", "address": {"city": "MEDON", "state": "TN", "street": "2056 HIGHWAY 18", "postcode": "38356"}}},
{"geometry": {"type": "Point", "coordinates": [-88.8685242416, 35.457607795]}, "type": "Feature", "properties": {"collection_times": [{"days": "Mon-Fri", "time": "2:30pm"}, {"days": "Sat", "time": "8:45am"}, {"days": "Sun", "time": "Closed"}], "id": "3835600002", "name": "USPS COLLECTION BOX - BLUE BOX", "address": {"city": "MEDON", "state": "TN", "street": "2056 HIGHWAY 18", "postcode": "38356"}}},
{"geometry": {"type": "Point", "coordinates": [-88.4381723081, 35.0544939206]}, "type": "Feature", "properties": {"collection_times": [{"days": "Mon-Fri", "time": "3:30pm"}, {"days": "Sat", "time": "11:00am"}, {"days": "Sun", "time": "Closed"}], "id": "3835700001", "name": "USPS COLLECTION BOX - PO LOBBY", "address": {"city": "MICHIE", "state": "TN", "street": "6032 HIGHWAY 22", "postcode": "38357"}}},
{"geometry": {"type": "Point", "coordinates": [-88.4381723081, 35.0544939206]}, "type": "Feature", "properties": {"collection_times": [{"days": "Mon-Fri", "time": "3:45pm"}, {"days": "Sat", "time": "11:00am"}, {"days": "Sun", "time": "Closed"}], "id": "3835700002", "name": "USPS COLLECTION BOX - BLUE BOX", "address": {"city": "MICHIE", "state": "TN", "street": "6032 HIGHWAY 22", "postcode": "38357"}}},
{"geometry": {"type": "Point", "coordinates": [-88.7581736863, 35.9191238655]}, "type": "Feature", "properties": {"collection_times": [{"days": "Mon-Fri", "time": "4:30pm"}, {"days": "Sat", "time": "3:45pm"}, {"days": "Sun", "time": "Closed"}], "id": "3835800002", "name": "USPS COLLECTION BOX - BLUE BOX", "address": {"city": "MILAN", "state": "TN", "street": "1170 S MAIN ST", "postcode": "38358"}}},
{"geometry": {"type": "Point", "coordinates": [-88.7581736863, 35.9191238655]}, "type": "Feature", "properties": {"collection_times": [{"days": "Mon-Fri", "time": "4:30pm"}, {"days": "Sat", "time": "3:45pm"}, {"days": "Sun", "time": "Closed"}], "id": "3835800003", "name": "USPS COLLECTION BOX - BLUE BOX", "address": {"city": "MILAN", "state": "TN", "street": "1170 S MAIN ST", "postcode": "38358"}}},
{"geometry": {"type": "Point", "coordinates": [-88.7539835491, 35.9131474849]}, "type": "Feature", "properties": {"collection_times": [{"days": "Mon-Sat", "time": "9:00am"}, {"days": "Sun", "time": "Closed"}], "id": "3835800006", "name": "USPS COLLECTION BOX - BLUE BOX", "address": {"city": "MILAN", "state": "TN", "street": "4039 HOSPITAL DR", "postcode": "38358"}}},
{"geometry": {"type": "Point", "coordinates": [-88.7581736863, 35.9191238655]}, "type": "Feature", "properties": {"collection_times": [{"days": "Mon-Fri", "time": "4:30pm"}, {"days": "Sat", "time": "3:45pm"}, {"days": "Sun", "time": "Closed"}], "id": "3835800026", "name": "USPS COLLECTION BOX - PO LOBBY", "address": {"city": "MILAN", "state": "TN", "street": "1170 S MAIN ST", "postcode": "38358"}}},
{"geometry": {"type": "Point", "coordinates": [-88.3645639764, 35.3729095442]}, "type": "Feature", "properties": {"collection_times": [{"days": "Mon-Fri", "time": "4:00pm"}, {"days": "Sat", "time": "12:15pm"}, {"days": "Sun", "time": "Closed"}], "id": "3835900001", "name": "USPS COLLECTION BOX - BLUE BOX", "address": {"city": "MILLEDGEVILLE", "state": "TN", "street": "71 SALTILLO RD", "postcode": "38359"}}},
{"geometry": {"type": "Point", "coordinates": [-88.3645639764, 35.3729095442]}, "type": "Feature", "properties": {"collection_times": [{"days": "Mon-Fri", "time": "4:00pm"}, {"days": "Sat", "time": "12:15pm"}, {"days": "Sun", "time": "Closed"}], "id": "3835900002", "name": "USPS COLLECTION BOX - PO LOBBY", "address": {"city": "MILLEDGEVILLE", "state": "TN", "street": "71 SALTILLO RD", "postcode": "38359"}}},
{"geometry": {"type": "Point", "coordinates": [-88.3525077299, 35.3241330807]}, "type": "Feature", "properties": {"collection_times": [{"days": "Mon-Fri", "time": "12:00pm"}, {"days": "Sat", "time": "9:15am"}, {"days": "Sun", "time": "Closed"}], "id": "3836100001", "name": "USPS COLLECTION BOX - PO LOBBY", "address": {"city": "MORRIS CHAPEL", "state": "TN", "street": "8825 COFFEE LANDING RD", "postcode": "38361"}}},
{"geometry": {"type": "Point", "coordinates": [-88.3525077299, 35.3241330807]}, "type": "Feature", "properties": {"collection_times": [{"days": "Mon-Fri", "time": "12:00pm"}, {"days": "Sat", "time": "9:15am"}, {"days": "Sun", "time": "Closed"}], "id": "3836100002", "name": "USPS COLLECTION BOX - BLUE BOX", "address": {"city": "MORRIS CHAPEL", "state": "TN", "street": "8825 COFFEE LANDING RD", "postcode": "38361"}}},
{"geometry": {"type": "Point", "coordinates": [-88.7928394922, 35.7134293601]}, "type": "Feature", "properties": {"collection_times": [{"days": "Mon-Fri", "time": "12:00pm"}, {"days": "Sat", "time": "11:00am"}, {"days": "Sun", "time": "Closed"}], "id": "3836200001", "name": "USPS COLLECTION BOX - BLUE BOX", "address": {"city": "OAKFIELD", "state": "TN", "street": "288 OAKFIELD RD", "postcode": "38362"}}},
{"geometry": {"type": "Point", "coordinates": [-88.7928394922, 35.7134293601]}, "type": "Feature", "properties": {"collection_times": [{"days": "Mon-Fri", "time": "12:00pm"}, {"days": "Sat", "time": "11:00am"}, {"days": "Sun", "time": "Closed"}], "id": "3836200002", "name": "USPS COLLECTION BOX - PO LOBBY", "address": {"city": "OAKFIELD", "state": "TN", "street": "288 OAKFIELD RD", "postcode": "38362"}}},
{"geometry": {"type": "Point", "coordinates": [-88.1260513908, 35.6603952692]}, "type": "Feature", "properties": {"collection_times": [{"days": "Mon-Sat", "time": "4:30pm"}, {"days": "Sun", "time": "Closed"}], "id": "3836300002", "name": "USPS COLLECTION BOX - BLUE BOX", "address": {"city": "PARSONS", "state": "TN", "street": "764 TENNESSEE AVE N", "postcode": "38363"}}},
{"geometry": {"type": "Point", "coordinates": [-88.1261696867, 35.6499083379]}, "type": "Feature", "properties": {"collection_times": [{"days": "Mon-Sat", "time": "2:00pm"}, {"days": "Sun", "time": "Closed"}], "id": "3836300003", "name": "USPS COLLECTION BOX - BLUE BOX", "address": {"city": "PARSONS", "state": "TN", "street": "29 E MAIN ST", "postcode": "38363"}}},
{"geometry": {"type": "Point", "coordinates": [-88.1276352756, 35.6497832974]}, "type": "Feature", "properties": {"collection_times": [{"days": "Mon-Sat", "time": "1:30pm"}, {"days": "Sun", "time": "Closed"}], "id": "3836300004", "name": "USPS COLLECTION BOX - BLUE BOX", "address": {"city": "PARSONS", "state": "TN", "street": "68 W MAIN ST", "postcode": "38363"}}},
{"geometry": {"type": "Point", "coordinates": [-88.123133031, 35.6359920087]}, "type": "Feature", "properties": {"collection_times": [{"days": "Mon-Sat", "time": "12:30pm"}, {"days": "Sun", "time": "Closed"}], "id": "3836300007", "name": "USPS COLLECTION BOX - BLUE BOX", "address": {"city": "PARSONS", "state": "TN", "street": "969 TENNESSEE AVE S", "postcode": "38363"}}},
{"geometry": {"type": "Point", "coordinates": [-88.1260513908, 35.6603952692]}, "type": "Feature", "properties": {"collection_times": [{"days": "Mon-Sat", "time": "4:30pm"}, {"days": "Sun", "time": "Closed"}], "id": "3836300009", "name": "USPS COLLECTION BOX - PO LOBBY", "address": {"city": "PARSONS", "state": "TN", "street": "764 TENNESSEE AVE N", "postcode": "38363"}}},
{"geometry": {"type": "Point", "coordinates": [-88.2434730847, 35.0523170031]}, "type": "Feature", "properties": {"collection_times": [{"days": "Mon-Fri", "time": "4:15pm"}, {"days": "Sat", "time": "9:30am"}, {"days": "Sun", "time": "Closed"}], "id": "3836500001", "name": "USPS COLLECTION BOX - BLUE BOX", "address": {"city": "PICKWICK DAM", "state": "TN", "street": "40 STATE PARK LN", "postcode": "38365"}}},
{"geometry": {"type": "Point", "coordinates": [-88.2434730847, 35.0523170031]}, "type": "Feature", "properties": {"collection_times": [{"days": "Mon-Fri", "time": "4:15pm"}, {"days": "Sat", "time": "9:30am"}, {"days": "Sun", "time": "Closed"}], "id": "3836500002", "name": "USPS COLLECTION BOX - PO LOBBY", "address": {"city": "PICKWICK DAM", "state": "TN", "street": "40 STATE PARK LN", "postcode": "38365"}}},
{"geometry": {"type": "Point", "coordinates": [-88.7148550283, 35.4868806048]}, "type": "Feature", "properties": {"collection_times": [{"days": "Mon-Fri", "time": "2:30pm"}, {"days": "Sat", "time": "8:00am"}, {"days": "Sun", "time": "Closed"}], "id": "3836600001", "name": "USPS COLLECTION BOX - PO LOBBY", "address": {"city": "PINSON", "state": "TN", "street": "4099 S US 45 HWY", "postcode": "38366"}}},
{"geometry": {"type": "Point", "coordinates": [-88.7148348215, 35.4867589265]}, "type": "Feature", "properties": {"collection_times": [{"days": "Mon-Fri", "time": "2:30pm"}, {"days": "Sat", "time": "8:00am"}, {"days": "Sun", "time": "Closed"}], "id": "3836600002", "name": "USPS COLLECTION BOX - BLUE BOX", "address": {"city": "PINSON", "state": "TN", "street": "4099 US HIGHWAY 45 S", "postcode": "38366"}}},
{"geometry": {"type": "Point", "coordinates": [-88.619534549, 35.0704559053]}, "type": "Feature", "properties": {"collection_times": [{"days": "Mon-Fri", "time": "2:45pm"}, {"days": "Sat", "time": "9:45am"}, {"days": "Sun", "time": "Closed"}], "id": "3836700001", "name": "USPS COLLECTION BOX - BLUE BOX", "address": {"city": "RAMER", "state": "TN", "street": "4283 HIGHWAY 57 W", "postcode": "38367"}}},
{"geometry": {"type": "Point", "coordinates": [-88.619534549, 35.0704559053]}, "type": "Feature", "properties": {"collection_times": [{"days": "Mon-Fri", "time": "2:45pm"}, {"days": "Sat", "time": "9:45am"}, {"days": "Sun", "time": "Closed"}], "id": "3836700002", "name": "USPS COLLECTION BOX - PO LOBBY", "address": {"city": "RAMER", "state": "TN", "street": "4283 HIGHWAY 57 W", "postcode": "38367"}}},
{"geometry": {"type": "Point", "coordinates": [-88.3235741899, 35.5085652647]}, "type": "Feature", "properties": {"collection_times": [{"days": "Mon-Fri", "time": "12:00pm"}, {"days": "Sat", "time": "10:00am"}, {"days": "Sun", "time": "Closed"}], "id": "3836800000", "name": "USPS COLLECTION BOX - PO LOBBY", "address": {"city": "REAGAN", "state": "TN", "street": "5810 STATE ROUTE 100", "postcode": "38368"}}},
{"geometry": {"type": "Point", "coordinates": [-88.3235741899, 35.5085652647]}, "type": "Feature", "properties": {"collection_times": [{"days": "Mon-Fri", "time": "12:00pm"}, {"days": "Sat", "time": "10:00am"}, {"days": "Sun", "time": "Closed"}], "id": "3836800001", "name": "USPS COLLECTION BOX - BLUE BOX", "address": {"city": "REAGAN", "state": "TN", "street": "5810 STATE ROUTE 100", "postcode": "38368"}}},
{"geometry": {"type": "Point", "coordinates": [-88.9870728053, 36.1274558596]}, "type": "Feature", "properties": {"collection_times": [{"days": "Mon-Fri", "time": "11:30am"}, {"days": "Sat", "time": "11:00am"}, {"days": "Sun", "time": "Closed"}], "id": "3836900001", "name": "USPS COLLECTION BOX - PO LOBBY", "address": {"city": "RUTHERFORD", "state": "TN", "street": "107 E MAIN ST", "postcode": "38369"}}},
{"geometry": {"type": "Point", "coordinates": [-88.9870728053, 36.1274558596]}, "type": "Feature", "properties": {"collection_times": [{"days": "Mon-Fri", "time": "11:30am"}, {"days": "Sat", "time": "11:00am"}, {"days": "Sun", "time": "Closed"}], "id": "3836900002", "name": "USPS COLLECTION BOX - BLUE BOX", "address": {"city": "RUTHERFORD", "state": "TN", "street": "107 E MAIN ST", "postcode": "38369"}}},
{"geometry": {"type": "Point", "coordinates": [-88.2109807467, 35.3788131808]}, "type": "Feature", "properties": {"collection_times": [{"days": "Mon-Fri", "time": "4:00pm"}, {"days": "Sat", "time": "10:30am"}, {"days": "Sun", "time": "Closed"}], "id": "3837000001", "name": "USPS COLLECTION BOX - PO LOBBY", "address": {"city": "SALTILLO", "state": "TN", "street": "47980 HIGHWAY 69", "postcode": "38370"}}},
{"geometry": {"type": "Point", "coordinates": [-88.2109807467, 35.3788131808]}, "type": "Feature", "properties": {"collection_times": [{"days": "Mon-Fri", "time": "4:00pm"}, {"days": "Sat", "time": "10:30am"}, {"days": "Sun", "time": "Closed"}], "id": "3837000002", "name": "USPS COLLECTION BOX - BLUE BOX", "address": {"city": "SALTILLO", "state": "TN", "street": "47980 HIGHWAY 69", "postcode": "38370"}}},
{"geometry": {"type": "Point", "coordinates": [-88.2939283478, 35.4407955775]}, "type": "Feature", "properties": {"collection_times": [{"days": "Mon-Fri", "time": "11:30am"}, {"days": "Sat", "time": "10:00am"}, {"days": "Sun", "time": "Closed"}], "id": "3837100001", "name": "USPS COLLECTION BOX - BLUE BOX", "address": {"city": "SARDIS", "state": "TN", "street": "2005 HINKLE RD", "postcode": "38371"}}},
{"geometry": {"type": "Point", "coordinates": [-88.2980993469, 35.4311902628]}, "type": "Feature", "properties": {"collection_times": [{"days": "Mon-Fri", "time": "11:30am"}, {"days": "Sat", "time": "10:00am"}, {"days": "Sun", "time": "Closed"}], "id": "3837100002", "name": "USPS COLLECTION BOX - PO LOBBY", "address": {"city": "SARDIS", "state": "TN", "street": "2005 HINKLE RD", "postcode": "38371"}}},
{"geometry": {"type": "Point", "coordinates": [-88.2447057239, 35.2243719731]}, "type": "Feature", "properties": {"collection_times": [{"days": "Mon-Sat", "time": "2:00pm"}, {"days": "Sun", "time": "Closed"}], "id": "3837200002", "name": "USPS COLLECTION BOX - BLUE BOX", "address": {"city": "SAVANNAH", "state": "TN", "street": "140 MAIN ST", "postcode": "38372"}}},
{"geometry": {"type": "Point", "coordinates": [-88.2420712742, 35.2259867121]}, "type": "Feature", "properties": {"collection_times": [{"days": "Mon-Fri", "time": "3:00pm"}, {"days": "Sat", "time": "12:30pm"}, {"days": "Sun", "time": "Closed"}], "id": "3837200003", "name": "USPS COLLECTION BOX - BLUE BOX", "address": {"city": "SAVANNAH", "state": "TN", "street": "245 WAYNE RD", "postcode": "38372"}}},
{"geometry": {"type": "Point", "coordinates": [-88.2393339072, 35.2133207705]}, "type": "Feature", "properties": {"collection_times": [{"days": "Mon-Fri", "time": "2:30pm"}, {"days": "Sat", "time": "2:00pm"}, {"days": "Sun", "time": "Closed"}], "id": "3837200005", "name": "USPS COLLECTION BOX - BLUE BOX", "address": {"city": "SAVANNAH", "state": "TN", "street": "765 FLORENCE RD", "postcode": "38372"}}},
{"geometry": {"type": "Point", "coordinates": [-88.1440593366, 35.1693811634]}, "type": "Feature", "properties": {"collection_times": [{"days": "Mon-Fri", "time": "3:00pm"}, {"days": "Sat", "time": "2:00pm"}, {"days": "Sun", "time": "Closed"}], "id": "3837200007", "name": "USPS COLLECTION BOX - BLUE BOX", "address": {"city": "SAVANNAH", "state": "TN", "street": "465 COURT ST", "postcode": "38372"}}},
{"geometry": {"type": "Point", "coordinates": [-88.2377679412, 35.2206093164]}, "type": "Feature", "properties": {"collection_times": [{"days": "Mon-Sat", "time": "2:00pm"}, {"days": "Sun", "time": "Closed"}], "id": "3837200009", "name": "USPS COLLECTION BOX - BLUE BOX", "address": {"city": "SAVANNAH", "state": "TN", "street": "325 PINHOOK DR", "postcode": "38372"}}},
{"geometry": {"type": "Point", "coordinates": [-88.2488058596, 35.2248617181]}, "type": "Feature", "properties": {"collection_times": [{"days": "Mon-Fri", "time": "3:00pm"}, {"days": "Sat", "time": "2:00pm"}, {"days": "Sun", "time": "Closed"}], "id": "3837200017", "name": "USPS COLLECTION BOX - BLUE BOX", "address": {"city": "SAVANNAH", "state": "TN", "street": "375 MAIN ST", "postcode": "38372"}}},
{"geometry": {"type": "Point", "coordinates": [-88.2306557202, 35.2271744029]}, "type": "Feature", "properties": {"collection_times": [{"days": "Mon-Fri", "time": "3:00pm"}, {"days": "Sat", "time": "2:00pm"}, {"days": "Sun", "time": "Closed"}], "id": "3837200018", "name": "USPS COLLECTION BOX - BLUE BOX", "address": {"city": "SAVANNAH", "state": "TN", "street": "935 WAYNE RD", "postcode": "38372"}}},
{"geometry": {"type": "Point", "coordinates": [-88.2339875768, 35.211336707]}, "type": "Feature", "properties": {"collection_times": [{"days": "Mon-Fri", "time": "2:30pm"}, {"days": "Sat", "time": "2:00pm"}, {"days": "Sun", "time": "Closed"}], "id": "3837200022", "name": "USPS COLLECTION BOX - BLUE BOX", "address": {"city": "SAVANNAH", "state": "TN", "street": "345 STOUT ST", "postcode": "38372"}}},
{"geometry": {"type": "Point", "coordinates": [-88.2512971712, 35.2065944658]}, "type": "Feature", "properties": {"collection_times": [{"days": "Mon-Sat", "time": "9:00am"}, {"days": "Sun", "time": "Closed"}], "id": "3837200024", "name": "USPS COLLECTION BOX - BLUE BOX", "address": {"city": "SAVANNAH", "state": "TN", "street": "20 HUNTER HILL DR", "postcode": "38372"}}},
{"geometry": {"type": "Point", "coordinates": [-88.2370059922, 35.2008703646]}, "type": "Feature", "properties": {"collection_times": [{"days": "Mon-Sat", "time": "9:00am"}, {"days": "Sun", "time": "Closed"}], "id": "3837200025", "name": "USPS COLLECTION BOX - BLUE BOX", "address": {"city": "SAVANNAH", "state": "TN", "street": "150 AUSTIN ST", "postcode": "38372"}}},
{"geometry": {"type": "Point", "coordinates": [-88.2535483421, 35.2245245748]}, "type": "Feature", "properties": {"collection_times": [{"days": "Mon-Fri", "time": "4:30pm"}, {"days": "Sat", "time": "4:00pm"}, {"days": "Sun", "time": "Closed"}], "id": "3837200026", "name": "USPS COLLECTION BOX - BLUE BOX", "address": {"city": "SAVANNAH", "state": "TN", "street": "705 WATER ST", "postcode": "38372"}}},
{"geometry": {"type": "Point", "coordinates": [-88.2535483421, 35.2245245748]}, "type": "Feature", "properties": {"collection_times": [{"days": "Mon-Fri", "time": "4:30pm"}, {"days": "Sat", "time": "4:00pm"}, {"days": "Sun", "time": "Closed"}], "id": "3837200027", "name": "USPS COLLECTION BOX - BLUE BOX", "address": {"city": "SAVANNAH", "state": "TN", "street": "705 WATER ST", "postcode": "38372"}}},
{"geometry": {"type": "Point", "coordinates": [-88.2535483421, 35.2245245748]}, "type": "Feature", "properties": {"collection_times": [{"days": "Mon-Fri", "time": "4:30pm"}, {"days": "Sat", "time": "4:00pm"}, {"days": "Sun", "time": "Closed"}], "id": "3837200028", "name": "USPS COLLECTION BOX - BLUE BOX", "address": {"city": "SAVANNAH", "state": "TN", "street": "705 WATER ST", "postcode": "38372"}}},
{"geometry": {"type": "Point", "coordinates": [-88.2535483421, 35.2245245748]}, "type": "Feature", "properties": {"collection_times": [{"days": "Mon-Fri", "time": "4:30pm"}, {"days": "Sat", "time": "4:00pm"}, {"days": "Sun", "time": "Closed"}], "id": "3837200029", "name": "USPS COLLECTION BOX - PO LOBBY", "address": {"city": "SAVANNAH", "state": "TN", "street": "705 WATER ST", "postcode": "38372"}}},
{"geometry": {"type": "Point", "coordinates": [-88.2454367925, 35.2161693357]}, "type": "Feature", "properties": {"collection_times": [{"days": "Mon-Sat", "time": "10:00am"}, {"days": "Sun", "time": "Closed"}], "id": "3837200030", "name": "USPS COLLECTION BOX - BLUE BOX", "address": {"city": "SAVANNAH", "state": "TN", "street": "775 PICKWICK ST", "postcode": "38372"}}},
{"geometry": {"type": "Point", "coordinates": [-88.2004583834, 35.1973030077]}, "type": "Feature", "properties": {"collection_times": [{"days": "Mon-Sat", "time": "12:00pm"}, {"days": "Sun", "time": "Closed"}], "id": "3837200032", "name": "USPS COLLECTION BOX - BLUE BOX", "address": {"city": "SAVANNAH", "state": "TN", "street": "7305 HIGHWAY 203", "postcode": "38372"}}},
{"geometry": {"type": "Point", "coordinates": [-88.2418793207, 35.5160916702]}, "type": "Feature", "properties": {"collection_times": [{"days": "Mon-Fri", "time": "3:00pm"}, {"days": "Sat", "time": "10:00am"}, {"days": "Sun", "time": "Closed"}], "id": "3837400001", "name": "USPS COLLECTION BOX - BLUE BOX", "address": {"city": "SCOTTS HILL", "state": "TN", "street": "685 HIGHWAY 114 S", "postcode": "38374"}}},
{"geometry": {"type": "Point", "coordinates": [-88.2502088251, 35.5223788685]}, "type": "Feature", "properties": {"collection_times": [{"days": "Mon-Fri", "time": "3:00pm"}, {"days": "Sat", "time": "10:00am"}, {"days": "Sun", "time": "Closed"}], "id": "3837400002", "name": "USPS COLLECTION BOX - PO LOBBY", "address": {"city": "SCOTTS HILL", "state": "TN", "street": "685 HIGHWAY 114 S", "postcode": "38374"}}},
{"geometry": {"type": "Point", "coordinates": [-88.2453350841, 35.5152029791]}, "type": "Feature", "properties": {"collection_times": [{"days": "Mon-Fri", "time": "1:00pm"}, {"days": "Sat-Sun", "time": "Closed"}], "id": "3837400003", "name": "USPS COLLECTION BOX - BLUE BOX", "address": {"city": "SCOTTS HILL", "state": "TN", "street": "96 HIGHWAY 114 S", "postcode": "38374"}}},
{"geometry": {"type": "Point", "coordinates": [-88.5832031149, 35.162328509]}, "type": "Feature", "properties": {"collection_times": [{"days": "Mon-Fri", "time": "2:30pm"}, {"days": "Sat", "time": "12:00pm"}, {"days": "Sun", "time": "Closed"}], "id": "3837500007", "name": "USPS COLLECTION BOX - BLUE BOX", "address": {"city": "SELMER", "state": "TN", "street": "525 MULBERRY AVE", "postcode": "38375"}}},
{"geometry": {"type": "Point", "coordinates": [-88.5846693848, 35.1655495342]}, "type": "Feature", "properties": {"collection_times": [{"days": "Mon-Fri", "time": "2:30pm"}, {"days": "Sat", "time": "12:00pm"}, {"days": "Sun", "time": "Closed"}], "id": "3837500008", "name": "USPS COLLECTION BOX - BLUE BOX", "address": {"city": "SELMER", "state": "TN", "street": "103 S Y SQ", "postcode": "38375"}}},
{"geometry": {"type": "Point", "coordinates": [-88.5717331986, 35.1627579132]}, "type": "Feature", "properties": {"collection_times": [{"days": "Mon-Fri", "time": "2:30pm"}, {"days": "Sat", "time": "12:00pm"}, {"days": "Sun", "time": "Closed"}], "id": "3837500010", "name": "USPS COLLECTION BOX - BLUE BOX", "address": {"city": "SELMER", "state": "TN", "street": "795 E POPLAR AVE", "postcode": "38375"}}},
{"geometry": {"type": "Point", "coordinates": [-88.5932458474, 35.1697962352]}, "type": "Feature", "properties": {"collection_times": [{"days": "Mon-Fri", "time": "4:30pm"}, {"days": "Sat", "time": "12:00pm"}, {"days": "Sun", "time": "Closed"}], "id": "3837500013", "name": "USPS COLLECTION BOX - BLUE BOX", "address": {"city": "SELMER", "state": "TN", "street": "150 HOUSTON AVE", "postcode": "38375"}}},
{"geometry": {"type": "Point", "coordinates": [-88.5932458474, 35.1697962352]}, "type": "Feature", "properties": {"collection_times": [{"days": "Mon-Fri", "time": "4:30pm"}, {"days": "Sat", "time": "12:00pm"}, {"days": "Sun", "time": "Closed"}], "id": "3837500014", "name": "USPS COLLECTION BOX - BLUE BOX", "address": {"city": "SELMER", "state": "TN", "street": "150 HOUSTON AVE", "postcode": "38375"}}},
{"geometry": {"type": "Point", "coordinates": [-88.5932458474, 35.1697962352]}, "type": "Feature", "properties": {"collection_times": [{"days": "Mon-Fri", "time": "4:00pm"}, {"days": "Sat", "time": "12:00pm"}, {"days": "Sun", "time": "Closed"}], "id": "3837500016", "name": "USPS COLLECTION BOX - PO LOBBY", "address": {"city": "SELMER", "state": "TN", "street": "150 HOUSTON AVE", "postcode": "38375"}}},
{"geometry": {"type": "Point", "coordinates": [-88.3603636219, 35.1130460708]}, "type": "Feature", "properties": {"collection_times": [{"days": "Mon-Fri", "time": "12:00pm"}, {"days": "Sat", "time": "9:00am"}, {"days": "Sun", "time": "Closed"}], "id": "3837600000", "name": "USPS COLLECTION BOX - BLUE BOX", "address": {"city": "SHILOH", "state": "TN", "street": "1095 HIGHWAY 142", "postcode": "38376"}}},
{"geometry": {"type": "Point", "coordinates": [-88.3603636219, 35.1130460708]}, "type": "Feature", "properties": {"collection_times": [{"days": "Mon-Fri", "time": "11:45am"}, {"days": "Sat", "time": "9:00am"}, {"days": "Sun", "time": "Closed"}], "id": "3837600002", "name": "USPS COLLECTION BOX - PO LOBBY", "address": {"city": "SHILOH", "state": "TN", "street": "1095 HIGHWAY 142", "postcode": "38376"}}},
{"geometry": {"type": "Point", "coordinates": [-88.67850751, 35.7640763046]}, "type": "Feature", "properties": {"collection_times": [{"days": "Mon-Fri", "time": "3:45pm"}, {"days": "Sat", "time": "10:30am"}, {"days": "Sun", "time": "Closed"}], "id": "3837800001", "name": "USPS COLLECTION BOX - PO LOBBY", "address": {"city": "SPRING CREEK", "state": "TN", "street": "3565 E 70 HWY", "postcode": "38378"}}},
{"geometry": {"type": "Point", "coordinates": [-88.67850751, 35.7640763046]}, "type": "Feature", "properties": {"collection_times": [{"days": "Mon-Fri", "time": "3:45pm"}, {"days": "Sat", "time": "10:30am"}, {"days": "Sun", "time": "Closed"}], "id": "3837800002", "name": "USPS COLLECTION BOX - BLUE BOX", "address": {"city": "SPRING CREEK", "state": "TN", "street": "3565 E 70 HWY", "postcode": "38378"}}},
{"geometry": {"type": "Point", "coordinates": [-88.4238008649, 35.1585510462]}, "type": "Feature", "properties": {"collection_times": [{"days": "Mon-Fri", "time": "1:45pm"}, {"days": "Sat", "time": "9:00am"}, {"days": "Sun", "time": "Closed"}], "id": "3837900001", "name": "USPS COLLECTION BOX - BLUE BOX", "address": {"city": "STANTONVILLE", "state": "TN", "street": "8475 HIGHWAY 142", "postcode": "38379"}}},
{"geometry": {"type": "Point", "coordinates": [-88.4238008649, 35.1585510462]}, "type": "Feature", "properties": {"collection_times": [{"days": "Mon-Fri", "time": "1:45pm"}, {"days": "Sat", "time": "9:00am"}, {"days": "Sun", "time": "Closed"}], "id": "3837900002", "name": "USPS COLLECTION BOX - PO LOBBY", "address": {"city": "STANTONVILLE", "state": "TN", "street": "8475 HIGHWAY 142", "postcode": "38379"}}},
{"geometry": {"type": "Point", "coordinates": [-88.0362316825, 35.8290603754]}, "type": "Feature", "properties": {"collection_times": [{"days": "Mon-Fri", "time": "12:00pm"}, {"days": "Sat", "time": "9:30am"}, {"days": "Sun", "time": "Closed"}], "id": "3838000001", "name": "USPS COLLECTION BOX - PO LOBBY", "address": {"city": "SUGAR TREE", "state": "TN", "street": "6675 OLD SH 69", "postcode": "38380"}}},
{"geometry": {"type": "Point", "coordinates": [-88.0362316825, 35.8290603754]}, "type": "Feature", "properties": {"collection_times": [{"days": "Mon-Fri", "time": "12:00pm"}, {"days": "Sat", "time": "9:30am"}, {"days": "Sun", "time": "Closed"}], "id": "3838000002", "name": "USPS COLLECTION BOX - BLUE BOX", "address": {"city": "SUGAR TREE", "state": "TN", "street": "6675 OLD SH 69", "postcode": "38380"}}},
{"geometry": {"type": "Point", "coordinates": [-88.951198394, 35.3515775734]}, "type": "Feature", "properties": {"collection_times": [{"days": "Mon-Fri", "time": "11:30am"}, {"days": "Sat", "time": "9:45am"}, {"days": "Sun", "time": "Closed"}], "id": "3838100001", "name": "USPS COLLECTION BOX - BLUE BOX", "address": {"city": "TOONE", "state": "TN", "street": "20 KILGORE RD", "postcode": "38381"}}},
{"geometry": {"type": "Point", "coordinates": [-88.951198394, 35.3515775734]}, "type": "Feature", "properties": {"collection_times": [{"days": "Mon-Fri", "time": "11:30am"}, {"days": "Sat", "time": "9:45am"}, {"days": "Sun", "time": "Closed"}], "id": "3838100002", "name": "USPS COLLECTION BOX - PO LOBBY", "address": {"city": "TOONE", "state": "TN", "street": "20 KILGORE RD", "postcode": "38381"}}},
{"geometry": {"type": "Point", "coordinates": [-88.9417240734, 35.9795493172]}, "type": "Feature", "properties": {"collection_times": [{"days": "Mon-Fri", "time": "4:45pm"}, {"days": "Sat", "time": "2:45pm"}, {"days": "Sun", "time": "Closed"}], "id": "3838200000", "name": "USPS COLLECTION BOX - BLUE BOX", "address": {"city": "TRENTON", "state": "TN", "street": "200 S COLLEGE ST", "postcode": "38382"}}},
{"geometry": {"type": "Point", "coordinates": [-88.930723738, 35.9673873161]}, "type": "Feature", "properties": {"collection_times": [{"days": "Mon-Fri", "time": "4:15pm"}, {"days": "Sat-Sun", "time": "Closed"}], "id": "3838200001", "name": "USPS COLLECTION BOX - BLUE BOX", "address": {"city": "TRENTON", "state": "TN", "street": "2038 HWY 45 BY-PASS", "postcode": "38382"}}},
{"geometry": {"type": "Point", "coordinates": [-88.9423191017, 35.9654827521]}, "type": "Feature", "properties": {"collection_times": [{"days": "Mon-Fri", "time": "4:15pm"}, {"days": "Sat-Sun", "time": "Closed"}], "id": "3838200003", "name": "USPS COLLECTION BOX - BLUE BOX", "address": {"city": "TRENTON", "state": "TN", "street": "108 ARMORY ST", "postcode": "38382"}}},
{"geometry": {"type": "Point", "coordinates": [-88.9416922182, 35.9787983738]}, "type": "Feature", "properties": {"collection_times": [{"days": "Mon-Fri", "time": "4:30pm"}, {"days": "Sat-Sun", "time": "Closed"}], "id": "3838200006", "name": "USPS COLLECTION BOX - BLUE BOX", "address": {"city": "TRENTON", "state": "TN", "street": "309 S COLLEGE ST", "postcode": "38382"}}},
{"geometry": {"type": "Point", "coordinates": [-88.9421144498, 35.9813261216]}, "type": "Feature", "properties": {"collection_times": [{"days": "Mon-Fri", "time": "4:30pm"}, {"days": "Sat-Sun", "time": "Closed"}], "id": "3838200017", "name": "USPS COLLECTION BOX - BLUE BOX", "address": {"city": "TRENTON", "state": "TN", "street": "119 W COURT SQ", "postcode": "38382"}}},
{"geometry": {"type": "Point", "coordinates": [-88.942104464, 35.981692656]}, "type": "Feature", "properties": {"collection_times": [{"days": "Mon-Fri", "time": "4:30pm"}, {"days": "Sat-Sun", "time": "Closed"}], "id": "3838200018", "name": "USPS COLLECTION BOX - BLUE BOX", "address": {"city": "TRENTON", "state": "TN", "street": "100 COURT SQ", "postcode": "38382"}}},
{"geometry": {"type": "Point", "coordinates": [-88.9412709033, 35.9541498603]}, "type": "Feature", "properties": {"collection_times": [{"days": "Mon-Fri", "time": "4:15pm"}, {"days": "Sat-Sun", "time": "Closed"}], "id": "3838200019", "name": "USPS COLLECTION BOX - BLUE BOX", "address": {"city": "TRENTON", "state": "TN", "street": "1714 S COLLEGE ST", "postcode": "38382"}}},
{"geometry": {"type": "Point", "coordinates": [-88.9417240734, 35.9795493172]}, "type": "Feature", "properties": {"collection_times": [{"days": "Mon-Fri", "time": "4:45pm"}, {"days": "Sat", "time": "2:45pm"}, {"days": "Sun", "time": "Closed"}], "id": "3838200020", "name": "USPS COLLECTION BOX - BLUE BOX", "address": {"city": "TRENTON", "state": "TN", "street": "200 S COLLEGE ST", "postcode": "38382"}}},
{"geometry": {"type": "Point", "coordinates": [-88.9417240734, 35.9795493172]}, "type": "Feature", "properties": {"collection_times": [{"days": "Mon-Fri", "time": "4:45pm"}, {"days": "Sat", "time": "2:45pm"}, {"days": "Sun", "time": "Closed"}], "id": "3838200022", "name": "USPS COLLECTION BOX - PO LOBBY", "address": {"city": "TRENTON", "state": "TN", "street": "200 S COLLEGE ST", "postcode": "38382"}}},
{"geometry": {"type": "Point", "coordinates": [-88.9417240734, 35.9795493172]}, "type": "Feature", "properties": {"collection_times": [{"days": "Mon-Fri", "time": "4:45pm"}, {"days": "Sat", "time": "2:45pm"}, {"days": "Sun", "time": "Closed"}], "id": "3838200023", "name": "USPS COLLECTION BOX - PO LOBBY", "address": {"city": "TRENTON", "state": "TN", "street": "200 S COLLEGE ST", "postcode": "38382"}}},
{"geometry": {"type": "Point", "coordinates": [-88.9429173051, 35.9807153936]}, "type": "Feature", "properties": {"collection_times": [{"days": "Mon-Fri", "time": "4:30pm"}, {"days": "Sat-Sun", "time": "Closed"}], "id": "3838200026", "name": "USPS COLLECTION BOX - BLUE BOX", "address": {"city": "TRENTON", "state": "TN", "street": "100 S HIGH ST", "postcode": "38382"}}},
{"geometry": {"type": "Point", "coordinates": [-88.3132103615, 35.8958203492]}, "type": "Feature", "properties": {"collection_times": [{"days": "Mon-Fri", "time": "9:30am"}, {"days": "Sat", "time": "9:00am"}, {"days": "Sun", "time": "Closed"}], "id": "3838700001", "name": "USPS COLLECTION BOX - BLUE BOX", "address": {"city": "WESTPORT", "state": "TN", "street": "7265 WESTPORT RD", "postcode": "38387"}}},
{"geometry": {"type": "Point", "coordinates": [-88.3132103615, 35.8958203492]}, "type": "Feature", "properties": {"collection_times": [{"days": "Mon-Fri", "time": "9:30am"}, {"days": "Sat", "time": "9:00am"}, {"days": "Sun", "time": "Closed"}], "id": "3838700002", "name": "USPS COLLECTION BOX - PO LOBBY", "address": {"city": "WESTPORT", "state": "TN", "street": "7265 WESTPORT RD", "postcode": "38387"}}},
{"geometry": {"type": "Point", "coordinates": [-88.3893011641, 35.7935645087]}, "type": "Feature", "properties": {"collection_times": [{"days": "Mon-Fri", "time": "12:00pm"}, {"days": "Sat", "time": "10:00am"}, {"days": "Sun", "time": "Closed"}], "id": "3838800000", "name": "USPS COLLECTION BOX - PO LOBBY", "address": {"city": "WILDERSVILLE", "state": "TN", "street": "115 WILDERSVILLE RD", "postcode": "38388"}}},
{"geometry": {"type": "Point", "coordinates": [-88.3893011641, 35.7935645087]}, "type": "Feature", "properties": {"collection_times": [{"days": "Mon-Fri", "time": "12:00pm"}, {"days": "Sat", "time": "10:00am"}, {"days": "Sun", "time": "Closed"}], "id": "3838800001", "name": "USPS COLLECTION BOX - BLUE BOX", "address": {"city": "WILDERSVILLE", "state": "TN", "street": "115 WILDERSVILLE RD", "postcode": "38388"}}},
{"geometry": {"type": "Point", "coordinates": [-89.1212313769, 36.1001313195]}, "type": "Feature", "properties": {"collection_times": [{"days": "Mon-Fri", "time": "4:00pm"}, {"days": "Sat", "time": "9:45am"}, {"days": "Sun", "time": "Closed"}], "id": "3838900001", "name": "USPS COLLECTION BOX - BLUE BOX", "address": {"city": "YORKVILLE", "state": "TN", "street": "9 NEWBERN", "postcode": "38389"}}},
{"geometry": {"type": "Point", "coordinates": [-89.1212313769, 36.1001313195]}, "type": "Feature", "properties": {"collection_times": [{"days": "Mon-Fri", "time": "4:00pm"}, {"days": "Sat", "time": "9:45am"}, {"days": "Sun", "time": "Closed"}], "id": "3838900002", "name": "USPS COLLECTION BOX - PO LOBBY", "address": {"city": "YORKVILLE", "state": "TN", "street": "9 NEWBERN", "postcode": "38389"}}},
{"geometry": {"type": "Point", "coordinates": [-88.336779816, 35.8467964765]}, "type": "Feature", "properties": {"collection_times": [{"days": "Mon-Fri", "time": "4:00pm"}, {"days": "Sat", "time": "9:30am"}, {"days": "Sun", "time": "Closed"}], "id": "3839000001", "name": "USPS COLLECTION BOX - BLUE BOX", "address": {"city": "YUMA", "state": "TN", "street": "20 OLD SCHOOL HOUSE RD", "postcode": "38390"}}},
{"geometry": {"type": "Point", "coordinates": [-88.336779816, 35.8467964765]}, "type": "Feature", "properties": {"collection_times": [{"days": "Mon-Fri", "time": "4:00pm"}, {"days": "Sat", "time": "9:30am"}, {"days": "Sun", "time": "Closed"}], "id": "3839000002", "name": "USPS COLLECTION BOX - PO LOBBY", "address": {"city": "YUMA", "state": "TN", "street": "20 OLD SCHOOL HOUSE RD", "postcode": "38390"}}},
{"geometry": {"type": "Point", "coordinates": [-89.0556273553, 35.5739260343]}, "type": "Feature", "properties": {"collection_times": [{"days": "Mon-Sat", "time": "12:00pm"}, {"days": "Sun", "time": "Closed"}], "id": "3839100001", "name": "USPS COLLECTION BOX - BLUE BOX", "address": {"city": "DENMARK", "state": "TN", "street": "155 138 HWY", "postcode": "38391"}}},
{"geometry": {"type": "Point", "coordinates": [-89.0005348783, 35.5328391699]}, "type": "Feature", "properties": {"collection_times": [{"days": "Mon-Fri", "time": "12:00pm"}, {"days": "Sat", "time": "10:00am"}, {"days": "Sun", "time": "Closed"}], "id": "3839100002", "name": "USPS COLLECTION BOX - BLUE BOX", "address": {"city": "DENMARK", "state": "TN", "street": "2799 DENMARK JACKSON RD", "postcode": "38391"}}},
{"geometry": {"type": "Point", "coordinates": [-89.0005348783, 35.5328391699]}, "type": "Feature", "properties": {"collection_times": [{"days": "Mon-Fri", "time": "12:00pm"}, {"days": "Sat", "time": "10:00am"}, {"days": "Sun", "time": "Closed"}], "id": "3839100003", "name": "USPS COLLECTION BOX - PO LOBBY", "address": {"city": "DENMARK", "state": "TN", "street": "2799 DENMARK JACKSON RD", "postcode": "38391"}}},
{"geometry": {"type": "Point", "coordinates": [-89.0425726413, 35.4796957675]}, "type": "Feature", "properties": {"collection_times": [{"days": "Mon-Fri", "time": "3:30pm"}, {"days": "Sat", "time": "12:00pm"}, {"days": "Sun", "time": "Closed"}], "id": "3839200001", "name": "USPS COLLECTION BOX - BLUE BOX", "address": {"city": "MERCER", "state": "TN", "street": "7 FRONT ST", "postcode": "38392"}}},
{"geometry": {"type": "Point", "coordinates": [-89.0425726413, 35.4796957675]}, "type": "Feature", "properties": {"collection_times": [{"days": "Mon-Fri", "time": "3:30pm"}, {"days": "Sat", "time": "12:00pm"}, {"days": "Sun", "time": "Closed"}], "id": "3839200002", "name": "USPS COLLECTION BOX - PO LOBBY", "address": {"city": "MERCER", "state": "TN", "street": "7 FRONT ST", "postcode": "38392"}}}
]}
