{"type": "FeatureCollection", "features": [
{"geometry": {"type": "Point", "coordinates": [-87.041591504, 35.6156403826]}, "type": "Feature", "properties": {"collection_times": [{"days": "Mon-Sat", "time": "5:00pm"}, {"days": "Sun", "time": "Closed"}], "id": "3840100001", "name": "USPS COLLECTION BOX - PO LOBBY", "address": {"city": "COLUMBIA", "state": "TN", "street": "417 W 7TH ST", "postcode": "38401"}}},
{"geometry": {"type": "Point", "coordinates": [-87.041591504, 35.6156403826]}, "type": "Feature", "properties": {"collection_times": [{"days": "Mon-Sat", "time": "5:00pm"}, {"days": "Sun", "time": "Closed"}], "id": "3840100002", "name": "USPS COLLECTION BOX - BLUE BOX", "address": {"city": "COLUMBIA", "state": "TN", "street": "417 W 7TH ST", "postcode": "38401"}}},
{"geometry": {"type": "Point", "coordinates": [-87.0616985157, 35.6039391216]}, "type": "Feature", "properties": {"collection_times": [{"days": "Mon-Fri", "time": "2:30pm"}, {"days": "Sat", "time": "12:00pm"}, {"days": "Sun", "time": "Closed"}], "id": "3840100020", "name": "USPS COLLECTION BOX - BLUE BOX", "address": {"city": "COLUMBIA", "state": "TN", "street": "1509 HATCHER LN", "postcode": "38401"}}},
{"geometry": {"type": "Point", "coordinates": [-87.0642771081, 35.6020635626]}, "type": "Feature", "properties": {"collection_times": [{"days": "Mon-Fri", "time": "1:00pm"}, {"days": "Sat", "time": "12:00pm"}, {"days": "Sun", "time": "Closed"}], "id": "3840100023", "name": "USPS COLLECTION BOX - BLUE BOX", "address": {"city": "COLUMBIA", "state": "TN", "street": "1202 S JAMES CAMPBELL BLVD", "postcode": "38401"}}},
{"geometry": {"type": "Point", "coordinates": [-87.0657252802, 35.6060301646]}, "type": "Feature", "properties": {"collection_times": [{"days": "Mon-Sat", "time": "10:30am"}, {"days": "Sun", "time": "Closed"}], "id": "3840100029", "name": "USPS COLLECTION BOX - BLUE BOX", "address": {"city": "COLUMBIA", "state": "TN", "street": "1224 TROTWOOD AVE", "postcode": "38401"}}},
{"geometry": {"type": "Point", "coordinates": [-87.0342419294, 35.6149668411]}, "type": "Feature", "properties": {"collection_times": [{"days": "Mon-Fri", "time": "3:00pm"}, {"days": "Sat", "time": "12:00pm"}, {"days": "Sun", "time": "Closed"}], "id": "3840100037", "name": "USPS COLLECTION BOX - BLUE BOX", "address": {"city": "COLUMBIA", "state": "TN", "street": "41 PUBLIC SQ", "postcode": "38401"}}},
{"geometry": {"type": "Point", "coordinates": [-87.0384815049, 35.5963640663]}, "type": "Feature", "properties": {"collection_times": [{"days": "Mon-Fri", "time": "1:00pm"}, {"days": "Sat", "time": "12:00pm"}, {"days": "Sun", "time": "Closed"}], "id": "3840100040", "name": "USPS COLLECTION BOX - BLUE BOX", "address": {"city": "COLUMBIA", "state": "TN", "street": "2100 CARMACK BLVD", "postcode": "38401"}}},
{"geometry": {"type": "Point", "coordinates": [-87.0265913865, 35.6290647681]}, "type": "Feature", "properties": {"collection_times": [{"days": "Mon-Fri", "time": "2:00pm"}, {"days": "Sat", "time": "12:00pm"}, {"days": "Sun", "time": "Closed"}], "id": "3840100041", "name": "USPS COLLECTION BOX - BLUE BOX", "address": {"city": "COLUMBIA", "state": "TN", "street": "845 NASHVILLE HWY", "postcode": "38401"}}},
{"geometry": {"type": "Point", "coordinates": [-87.0766981772, 35.5981479684]}, "type": "Feature", "properties": {"collection_times": [{"days": "Mon-Sat", "time": "3:45pm"}, {"days": "Sun", "time": "Closed"}], "id": "3840100047", "name": "USPS COLLECTION BOX - BLUE BOX", "address": {"city": "COLUMBIA", "state": "TN", "street": "1412 TROTWOOD AVE", "postcode": "38401"}}},
{"geometry": {"type": "Point", "coordinates": [-87.0110433865, 35.6511328541]}, "type": "Feature", "properties": {"collection_times": [{"days": "Mon-Sat", "time": "10:30am"}, {"days": "Sun", "time": "Closed"}], "id": "3840100050", "name": "USPS COLLECTION BOX - BLUE BOX", "address": {"city": "COLUMBIA", "state": "TN", "street": "1600 NASHVILLE HWY", "postcode": "38401"}}},
{"geometry": {"type": "Point", "coordinates": [-87.0339732483, 35.6151435399]}, "type": "Feature", "properties": {"collection_times": [{"days": "Mon-Fri", "time": "3:00pm"}, {"days": "Sat", "time": "12:00pm"}, {"days": "Sun", "time": "Closed"}], "id": "3840100052", "name": "USPS COLLECTION BOX - BLUE BOX", "address": {"city": "COLUMBIA", "state": "TN", "street": "40 PUBLIC SQ", "postcode": "38401"}}},
{"geometry": {"type": "Point", "coordinates": [-87.0339732483, 35.6151435399]}, "type": "Feature", "properties": {"collection_times": [{"days": "Mon-Fri", "time": "3:00pm"}, {"days": "Sat", "time": "12:00pm"}, {"days": "Sun", "time": "Closed"}], "id": "3840100053", "name": "USPS COLLECTION BOX - BLUE BOX", "address": {"city": "COLUMBIA", "state": "TN", "street": "40 PUBLIC SQ", "postcode": "38401"}}},
{"geometry": {"type": "Point", "coordinates": [-87.041591504, 35.6156403826]}, "type": "Feature", "properties": {"collection_times": [{"days": "Mon-Sat", "time": "5:00pm"}, {"days": "Sun", "time": "Closed"}], "id": "3840100054", "name": "USPS COLLECTION BOX - APC", "address": {"city": "COLUMBIA", "state": "TN", "street": "417 W 7TH ST", "postcode": "38401"}}},
{"geometry": {"type": "Point", "coordinates": [-87.9948881329, 35.3858243906]}, "type": "Feature", "properties": {"collection_times": [{"days": "Mon-Fri", "time": "3:30pm"}, {"days": "Sat", "time": "10:00am"}, {"days": "Sun", "time": "Closed"}], "id": "3842500001", "name": "USPS COLLECTION BOX - PO LOBBY", "address": {"city": "CLIFTON", "state": "TN", "street": "208 MAIN ST", "postcode": "38425"}}},
{"geometry": {"type": "Point", "coordinates": [-87.9948881329, 35.3858243906]}, "type": "Feature", "properties": {"collection_times": [{"days": "Mon-Fri", "time": "3:30pm"}, {"days": "Sat", "time": "10:00am"}, {"days": "Sun", "time": "Closed"}], "id": "3842500002", "name": "USPS COLLECTION BOX - BLUE BOX", "address": {"city": "CLIFTON", "state": "TN", "street": "208 MAIN ST", "postcode": "38425"}}},
{"geometry": {"type": "Point", "coordinates": [-86.8536282285, 34.9943462697]}, "type": "Feature", "properties": {"collection_times": [{"days": "Mon-Sat", "time": "3:45pm"}, {"days": "Sun", "time": "Closed"}], "id": "3844900001", "name": "USPS COLLECTION BOX - PO LOBBY", "address": {"city": "ARDMORE", "state": "TN", "street": "26050 MAIN ST", "postcode": "38449"}}},
{"geometry": {"type": "Point", "coordinates": [-86.8536282285, 34.9943462697]}, "type": "Feature", "properties": {"collection_times": [{"days": "Mon-Fri", "time": "3:45pm"}, {"days": "Sat", "time": "3:30pm"}, {"days": "Sun", "time": "Closed"}], "id": "3844900002", "name": "USPS COLLECTION BOX - BLUE BOX", "address": {"city": "ARDMORE", "state": "TN", "street": "26050 MAIN ST", "postcode": "38449"}}},
{"geometry": {"type": "Point", "coordinates": [-86.852322806, 35.0448521987]}, "type": "Feature", "properties": {"collection_times": [{"days": "Mon-Sat", "time": "1:30pm"}, {"days": "Sun", "time": "Closed"}], "id": "3844900003", "name": "USPS COLLECTION BOX - BLUE BOX", "address": {"city": "ARDMORE", "state": "TN", "street": "29930 ARDMORE AVE", "postcode": "38449"}}},
{"geometry": {"type": "Point", "coordinates": [-87.7391972535, 35.1743123943]}, "type": "Feature", "properties": {"collection_times": [{"days": "Mon-Fri", "time": "3:45pm"}, {"days": "Sat", "time": "12:00pm"}, {"days": "Sun", "time": "Closed"}], "id": "3845000001", "name": "USPS COLLECTION BOX - PO LOBBY", "address": {"city": "COLLINWOOD", "state": "TN", "street": "101 4TH AVE S", "postcode": "38450"}}},
{"geometry": {"type": "Point", "coordinates": [-87.7391972535, 35.1743123943]}, "type": "Feature", "properties": {"collection_times": [{"days": "Mon-Fri", "time": "3:45pm"}, {"days": "Sat", "time": "12:00pm"}, {"days": "Sun", "time": "Closed"}], "id": "3845000002", "name": "USPS COLLECTION BOX - BLUE BOX", "address": {"city": "COLLINWOOD", "state": "TN", "street": "101 4TH AVE S", "postcode": "38450"}}},
{"geometry": {"type": "Point", "coordinates": [-86.9833106647, 35.479733776]}, "type": "Feature", "properties": {"collection_times": [{"days": "Mon-Fri", "time": "3:30pm"}, {"days": "Sat", "time": "10:30am"}, {"days": "Sun", "time": "Closed"}], "id": "3845100001", "name": "USPS COLLECTION BOX - BLUE BOX", "address": {"city": "CULLEOKA", "state": "TN", "street": "2349 CULLEOKA HWY", "postcode": "38451"}}},
{"geometry": {"type": "Point", "coordinates": [-86.9833106647, 35.479733776]}, "type": "Feature", "properties": {"collection_times": [{"days": "Mon-Fri", "time": "3:30pm"}, {"days": "Sat", "time": "10:30am"}, {"days": "Sun", "time": "Closed"}], "id": "3845100002", "name": "USPS COLLECTION BOX - PO LOBBY", "address": {"city": "CULLEOKA", "state": "TN", "street": "2349 CULLEOKA HWY", "postcode": "38451"}}},
{"geometry": {"type": "Point", "coordinates": [-87.8193164787, 35.0235467946]}, "type": "Feature", "properties": {"collection_times": [{"days": "Mon-Fri", "time": "11:30am"}, {"days": "Sat", "time": "10:45am"}, {"days": "Sun", "time": "Closed"}], "id": "3845200001", "name": "USPS COLLECTION BOX - BLUE BOX", "address": {"city": "CYPRESS INN", "state": "TN", "street": "2825 BIG CYPRESS RD", "postcode": "38452"}}},
{"geometry": {"type": "Point", "coordinates": [-87.2784537413, 35.7231689809]}, "type": "Feature", "properties": {"collection_times": [{"days": "Mon-Fri", "time": "11:30am"}, {"days": "Sat", "time": "10:15am"}, {"days": "Sun", "time": "Closed"}], "id": "3845400001", "name": "USPS COLLECTION BOX - PO LOBBY", "address": {"city": "DUCK RIVER", "state": "TN", "street": "2017 HOOVERS RD", "postcode": "38454"}}},
{"geometry": {"type": "Point", "coordinates": [-87.2784537413, 35.7231689809]}, "type": "Feature", "properties": {"collection_times": [{"days": "Mon-Fri", "time": "11:30am"}, {"days": "Sat", "time": "10:15am"}, {"days": "Sun", "time": "Closed"}], "id": "3845400002", "name": "USPS COLLECTION BOX - BLUE BOX", "address": {"city": "DUCK RIVER", "state": "TN", "street": "2017 HOOVERS RD", "postcode": "38454"}}},
{"geometry": {"type": "Point", "coordinates": [-86.8893369797, 35.0519075924]}, "type": "Feature", "properties": {"collection_times": [{"days": "Mon-Fri", "time": "11:45am"}, {"days": "Sat", "time": "10:45am"}, {"days": "Sun", "time": "Closed"}], "id": "3845500001", "name": "USPS COLLECTION BOX - PO LOBBY", "address": {"city": "ELKTON", "state": "TN", "street": "170 MAIN ST", "postcode": "38455"}}},
{"geometry": {"type": "Point", "coordinates": [-86.8893369797, 35.0519075924]}, "type": "Feature", "properties": {"collection_times": [{"days": "Mon-Fri", "time": "12:00pm"}, {"days": "Sat", "time": "10:45am"}, {"days": "Sun", "time": "Closed"}], "id": "3845500002", "name": "USPS COLLECTION BOX - BLUE BOX", "address": {"city": "ELKTON", "state": "TN", "street": "170 MAIN ST", "postcode": "38455"}}},
{"geometry": {"type": "Point", "coordinates": [-87.3052617735, 35.3205208599]}, "type": "Feature", "properties": {"collection_times": [{"days": "Mon-Fri", "time": "3:30pm"}, {"days": "Sat", "time": "10:30am"}, {"days": "Sun", "time": "Closed"}], "id": "3845600001", "name": "USPS COLLECTION BOX - PO LOBBY", "address": {"city": "ETHRIDGE", "state": "TN", "street": "101 BROAD ST", "postcode": "38456"}}},
{"geometry": {"type": "Point", "coordinates": [-87.3052617735, 35.3205208599]}, "type": "Feature", "properties": {"collection_times": [{"days": "Mon-Fri", "time": "3:30pm"}, {"days": "Sat", "time": "10:30am"}, {"days": "Sun", "time": "Closed"}], "id": "3845600002", "name": "USPS COLLECTION BOX - BLUE BOX", "address": {"city": "ETHRIDGE", "state": "TN", "street": "101 BROAD ST", "postcode": "38456"}}},
{"geometry": {"type": "Point", "coordinates": [-86.7903041194, 35.1941426046]}, "type": "Feature", "properties": {"collection_times": [{"days": "Mon-Fri", "time": "11:30am"}, {"days": "Sat", "time": "11:15am"}, {"days": "Sun", "time": "Closed"}], "id": "3845900001", "name": "USPS COLLECTION BOX - BLUE BOX", "address": {"city": "FRANKEWING", "state": "TN", "street": "8218 BEECH HILL RD", "postcode": "38459"}}},
{"geometry": {"type": "Point", "coordinates": [-86.8509963336, 35.192524451]}, "type": "Feature", "properties": {"collection_times": [{"days": "Mon-Fri", "time": "11:30am"}, {"days": "Sat", "time": "11:15am"}, {"days": "Sun", "time": "Closed"}], "id": "3845900002", "name": "USPS COLLECTION BOX - PO LOBBY", "address": {"city": "FRANKEWING", "state": "TN", "street": "8218 BEECH HILL RD", "postcode": "38459"}}},
{"geometry": {"type": "Point", "coordinates": [-87.1086218718, 35.1334781635]}, "type": "Feature", "properties": {"collection_times": [{"days": "Mon-Fri", "time": "11:30am"}, {"days": "Sat", "time": "11:15am"}, {"days": "Sun", "time": "Closed"}], "id": "3846000001", "name": "USPS COLLECTION BOX - BLUE BOX", "address": {"city": "GOODSPRING", "state": "TN", "street": "184 OAK GROVE RD", "postcode": "38460"}}},
{"geometry": {"type": "Point", "coordinates": [-87.1086218718, 35.1334781635]}, "type": "Feature", "properties": {"collection_times": [{"days": "Mon-Fri", "time": "11:30am"}, {"days": "Sat", "time": "11:15am"}, {"days": "Sun", "time": "Closed"}], "id": "3846000002", "name": "USPS COLLECTION BOX - PO LOBBY", "address": {"city": "GOODSPRING", "state": "TN", "street": "184 OAK GROVE RD", "postcode": "38460"}}},
{"geometry": {"type": "Point", "coordinates": [-87.2935418499, 35.5965682797]}, "type": "Feature", "properties": {"collection_times": [{"days": "Mon-Fri", "time": "11:30am"}, {"days": "Sat", "time": "10:30am"}, {"days": "Sun", "time": "Closed"}], "id": "3846100001", "name": "USPS COLLECTION BOX - PO LOBBY", "address": {"city": "HAMPSHIRE", "state": "TN", "street": "4116 HAMPSHIRE PIKE", "postcode": "38461"}}},
{"geometry": {"type": "Point", "coordinates": [-87.2935418499, 35.5965682797]}, "type": "Feature", "properties": {"collection_times": [{"days": "Mon-Fri", "time": "11:30am"}, {"days": "Sat", "time": "10:30am"}, {"days": "Sun", "time": "Closed"}], "id": "3846100002", "name": "USPS COLLECTION BOX - BLUE BOX", "address": {"city": "HAMPSHIRE", "state": "TN", "street": "4116 HAMPSHIRE PKE", "postcode": "38461"}}},
{"geometry": {"type": "Point", "coordinates": [-87.5535028006, 35.5489475221]}, "type": "Feature", "properties": {"collection_times": [{"days": "Mon-Fri", "time": "4:30pm"}, {"days": "Sat", "time": "12:00pm"}, {"days": "Sun", "time": "Closed"}], "id": "3846200001", "name": "USPS COLLECTION BOX - BLUE BOX", "address": {"city": "HOHENWALD", "state": "TN", "street": "26 N COURT ST", "postcode": "38462"}}},
{"geometry": {"type": "Point", "coordinates": [-87.5535028006, 35.5489475221]}, "type": "Feature", "properties": {"collection_times": [{"days": "Mon-Fri", "time": "4:30pm"}, {"days": "Sat", "time": "12:00pm"}, {"days": "Sun", "time": "Closed"}], "id": "3846200002", "name": "USPS COLLECTION BOX - BLUE BOX", "address": {"city": "HOHENWALD", "state": "TN", "street": "26 N COURT ST", "postcode": "38462"}}},
{"geometry": {"type": "Point", "coordinates": [-87.5524464183, 35.5479538366]}, "type": "Feature", "properties": {"collection_times": [{"days": "Mon-Fri", "time": "3:00pm"}, {"days": "Sat", "time": "12:00pm"}, {"days": "Sun", "time": "Closed"}], "id": "3846200005", "name": "USPS COLLECTION BOX - BLUE BOX", "address": {"city": "HOHENWALD", "state": "TN", "street": "10 E MAIN ST", "postcode": "38462"}}},
{"geometry": {"type": "Point", "coordinates": [-87.5519922101, 35.5495836853]}, "type": "Feature", "properties": {"collection_times": [{"days": "Mon-Fri", "time": "3:00pm"}, {"days": "Sat", "time": "12:00pm"}, {"days": "Sun", "time": "Closed"}], "id": "3846200007", "name": "USPS COLLECTION BOX - BLUE BOX", "address": {"city": "HOHENWALD", "state": "TN", "street": "110 N PARK ST", "postcode": "38462"}}},
{"geometry": {"type": "Point", "coordinates": [-87.5535028006, 35.5489475221]}, "type": "Feature", "properties": {"collection_times": [{"days": "Mon-Fri", "time": "4:30pm"}, {"days": "Sat", "time": "12:00pm"}, {"days": "Sun", "time": "Closed"}], "id": "3846200009", "name": "USPS COLLECTION BOX - PO LOBBY", "address": {"city": "HOHENWALD", "state": "TN", "street": "26 N COURT ST", "postcode": "38462"}}},
{"geometry": {"type": "Point", "coordinates": [-87.5816123398, 35.0214658364]}, "type": "Feature", "properties": {"collection_times": [{"days": "Mon-Fri", "time": "11:00am"}, {"days": "Sat", "time": "10:30am"}, {"days": "Sun", "time": "Closed"}], "id": "3846300001", "name": "USPS COLLECTION BOX - PO LOBBY", "address": {"city": "IRON CITY", "state": "TN", "street": "33 W 2ND ST", "postcode": "38463"}}},
{"geometry": {"type": "Point", "coordinates": [-87.5816123398, 35.0214658364]}, "type": "Feature", "properties": {"collection_times": [{"days": "Mon-Fri", "time": "11:00am"}, {"days": "Sat", "time": "10:30am"}, {"days": "Sun", "time": "Closed"}], "id": "3846300002", "name": "USPS COLLECTION BOX - BLUE BOX", "address": {"city": "IRON CITY", "state": "TN", "street": "33 W 2ND ST", "postcode": "38463"}}},
{"geometry": {"type": "Point", "coordinates": [-87.334210172, 35.2424074487]}, "type": "Feature", "properties": {"collection_times": [{"days": "Mon-Fri", "time": "4:45pm"}, {"days": "Sat", "time": "3:45pm"}, {"days": "Sun", "time": "Closed"}], "id": "3846400005", "name": "USPS COLLECTION BOX - PO LOBBY", "address": {"city": "LAWRENCEBURG", "state": "TN", "street": "218 N MILITARY AVE", "postcode": "38464"}}},
{"geometry": {"type": "Point", "coordinates": [-87.337814608, 35.2430225853]}, "type": "Feature", "properties": {"collection_times": [{"days": "Mon-Fri", "time": "3:00pm"}, {"days": "Sat-Sun", "time": "Closed"}], "id": "3846400008", "name": "USPS COLLECTION BOX - BLUE BOX", "address": {"city": "LAWRENCEBURG", "state": "TN", "street": "200 W GAINES ST", "postcode": "38464"}}},
{"geometry": {"type": "Point", "coordinates": [-87.3358348022, 35.2237769448]}, "type": "Feature", "properties": {"collection_times": [{"days": "Mon-Sat", "time": "9:00am"}, {"days": "Sun", "time": "Closed"}], "id": "3846400012", "name": "USPS COLLECTION BOX - BLUE BOX", "address": {"city": "LAWRENCEBURG", "state": "TN", "street": "200 PROSSER RD", "postcode": "38464"}}},
{"geometry": {"type": "Point", "coordinates": [-87.3250886657, 35.2568436222]}, "type": "Feature", "properties": {"collection_times": [{"days": "Mon-Sat", "time": "10:00am"}, {"days": "Sun", "time": "Closed"}], "id": "3846400022", "name": "USPS COLLECTION BOX - BLUE BOX", "address": {"city": "LAWRENCEBURG", "state": "TN", "street": "1400 N LOCUST AVE", "postcode": "38464"}}},
{"geometry": {"type": "Point", "coordinates": [-87.3209543614, 35.269172995]}, "type": "Feature", "properties": {"collection_times": [{"days": "Mon-Sat", "time": "12:00pm"}, {"days": "Sun", "time": "Closed"}], "id": "3846400030", "name": "USPS COLLECTION BOX - BLUE BOX", "address": {"city": "LAWRENCEBURG", "state": "TN", "street": "2100 N LOCUST AVE", "postcode": "38464"}}},
{"geometry": {"type": "Point", "coordinates": [-87.3294456238, 35.2529947533]}, "type": "Feature", "properties": {"collection_times": [{"days": "Mon-Fri", "time": "11:00am"}, {"days": "Sat", "time": "9:00am"}, {"days": "Sun", "time": "Closed"}], "id": "3846400036", "name": "USPS COLLECTION BOX - BLUE BOX", "address": {"city": "LAWRENCEBURG", "state": "TN", "street": "900 N MILITARY AVE", "postcode": "38464"}}},
{"geometry": {"type": "Point", "coordinates": [-87.3475164236, 35.2568208471]}, "type": "Feature", "properties": {"collection_times": [{"days": "Mon-Sat", "time": "1:15pm"}, {"days": "Sun", "time": "Closed"}], "id": "3846400158", "name": "USPS COLLECTION BOX - BLUE BOX", "address": {"city": "LAWRENCEBURG", "state": "TN", "street": "811 MAHR AVE", "postcode": "38464"}}},
{"geometry": {"type": "Point", "coordinates": [-87.3657565662, 35.2456321116]}, "type": "Feature", "properties": {"collection_times": [{"days": "Mon-Sat", "time": "11:00am"}, {"days": "Sun", "time": "Closed"}], "id": "3846400179", "name": "USPS COLLECTION BOX - BLUE BOX", "address": {"city": "LAWRENCEBURG", "state": "TN", "street": "1905 W GAINES ST", "postcode": "38464"}}},
{"geometry": {"type": "Point", "coordinates": [-87.3182134454, 35.2389377469]}, "type": "Feature", "properties": {"collection_times": [{"days": "Mon-Fri", "time": "12:00pm"}, {"days": "Sat", "time": "9:00am"}, {"days": "Sun", "time": "Closed"}], "id": "3846400191", "name": "USPS COLLECTION BOX - BLUE BOX", "address": {"city": "LAWRENCEBURG", "state": "TN", "street": "710 E GAINES ST", "postcode": "38464"}}},
{"geometry": {"type": "Point", "coordinates": [-87.334210172, 35.2424074487]}, "type": "Feature", "properties": {"collection_times": [{"days": "Mon-Fri", "time": "4:45pm"}, {"days": "Sat", "time": "3:45pm"}, {"days": "Sun", "time": "Closed"}], "id": "3846400192", "name": "USPS COLLECTION BOX - BLUE BOX", "address": {"city": "LAWRENCEBURG", "state": "TN", "street": "218 N MILITARY AVE", "postcode": "38464"}}},
{"geometry": {"type": "Point", "coordinates": [-87.3485641534, 35.1590848769]}, "type": "Feature", "properties": {"collection_times": [{"days": "Mon-Fri", "time": "4:30pm"}, {"days": "Sat", "time": "12:00pm"}, {"days": "Sun", "time": "Closed"}], "id": "3846800001", "name": "USPS COLLECTION BOX - PO LOBBY", "address": {"city": "LEOMA", "state": "TN", "street": "1 RABBIT TRAIL RD", "postcode": "38468"}}},
{"geometry": {"type": "Point", "coordinates": [-87.3485641534, 35.1590848769]}, "type": "Feature", "properties": {"collection_times": [{"days": "Mon-Fri", "time": "4:30pm"}, {"days": "Sat", "time": "12:00pm"}, {"days": "Sun", "time": "Closed"}], "id": "3846800002", "name": "USPS COLLECTION BOX - BLUE BOX", "address": {"city": "LEOMA", "state": "TN", "street": "1 RABBIT TRAIL RD", "postcode": "38468"}}},
{"geometry": {"type": "Point", "coordinates": [-87.4366950665, 35.0786846618]}, "type": "Feature", "properties": {"collection_times": [{"days": "Mon-Fri", "time": "3:45pm"}, {"days": "Sat", "time": "11:00am"}, {"days": "Sun", "time": "Closed"}], "id": "3846900001", "name": "USPS COLLECTION BOX - PO LOBBY", "address": {"city": "LORETTO", "state": "TN", "street": "100 W COMMERCE ST", "postcode": "38469"}}},
{"geometry": {"type": "Point", "coordinates": [-87.4366950665, 35.0786846618]}, "type": "Feature", "properties": {"collection_times": [{"days": "Mon-Fri", "time": "3:15pm"}, {"days": "Sat", "time": "11:00am"}, {"days": "Sun", "time": "Closed"}], "id": "3846900003", "name": "USPS COLLECTION BOX - BLUE BOX", "address": {"city": "LORETTO", "state": "TN", "street": "100 W COMMERCE ST", "postcode": "38469"}}},
{"geometry": {"type": "Point", "coordinates": [-87.0036784018, 35.3773883612]}, "type": "Feature", "properties": {"collection_times": [{"days": "Mon-Fri", "time": "3:00pm"}, {"days": "Sat", "time": "11:15am"}, {"days": "Sun", "time": "Closed"}], "id": "3847200002", "name": "USPS COLLECTION BOX - BLUE BOX", "address": {"city": "LYNNVILLE", "state": "TN", "street": "1832 MAIN ST", "postcode": "38472"}}},
{"geometry": {"type": "Point", "coordinates": [-87.0036784018, 35.3773883612]}, "type": "Feature", "properties": {"collection_times": [{"days": "Mon-Fri", "time": "2:45pm"}, {"days": "Sat", "time": "11:15am"}, {"days": "Sun", "time": "Closed"}], "id": "3847200003", "name": "USPS COLLECTION BOX - PO LOBBY", "address": {"city": "LYNNVILLE", "state": "TN", "street": "1832 MAIN ST", "postcode": "38472"}}},
{"geometry": {"type": "Point", "coordinates": [-87.157302758, 35.0566458091]}, "type": "Feature", "properties": {"collection_times": [{"days": "Mon-Fri", "time": "11:30am"}, {"days": "Sat", "time": "10:45am"}, {"days": "Sun", "time": "Closed"}], "id": "3847300001", "name": "USPS COLLECTION BOX - PO LOBBY", "address": {"city": "MINOR HILL", "state": "TN", "street": "12883 MINOR HILL HWY", "postcode": "38473"}}},
{"geometry": {"type": "Point", "coordinates": [-87.157302758, 35.0566458091]}, "type": "Feature", "properties": {"collection_times": [{"days": "Mon-Fri", "time": "11:30am"}, {"days": "Sat", "time": "10:45am"}, {"days": "Sun", "time": "Closed"}], "id": "3847300002", "name": "USPS COLLECTION BOX - BLUE BOX", "address": {"city": "MINOR HILL", "state": "TN", "street": "12883 MINOR HILL HWY", "postcode": "38473"}}},
{"geometry": {"type": "Point", "coordinates": [-87.206238635, 35.5357735532]}, "type": "Feature", "properties": {"collection_times": [{"days": "Mon-Fri", "time": "4:30pm"}, {"days": "Sat", "time": "11:30am"}, {"days": "Sun", "time": "Closed"}], "id": "3847400011", "name": "USPS COLLECTION BOX - PO LOBBY", "address": {"city": "MOUNT PLEASANT", "state": "TN", "street": "201 N MAIN ST", "postcode": "38474"}}},
{"geometry": {"type": "Point", "coordinates": [-87.206238635, 35.5357735532]}, "type": "Feature", "properties": {"collection_times": [{"days": "Mon-Fri", "time": "4:30pm"}, {"days": "Sat", "time": "11:30am"}, {"days": "Sun", "time": "Closed"}], "id": "3847400012", "name": "USPS COLLECTION BOX - BLUE BOX", "address": {"city": "MOUNT PLEASANT", "state": "TN", "street": "201 N MAIN ST", "postcode": "38474"}}},
{"geometry": {"type": "Point", "coordinates": [-86.9989751111, 35.0267426243]}, "type": "Feature", "properties": {"collection_times": [{"days": "Mon-Sat", "time": "11:30am"}, {"days": "Sun", "time": "Closed"}], "id": "3847700001", "name": "USPS COLLECTION BOX - PO LOBBY", "address": {"city": "PROSPECT", "state": "TN", "street": "400 MAIN ST", "postcode": "38477"}}},
{"geometry": {"type": "Point", "coordinates": [-86.9989751111, 35.0267426243]}, "type": "Feature", "properties": {"collection_times": [{"days": "Mon-Sat", "time": "11:30am"}, {"days": "Sun", "time": "Closed"}], "id": "3847700002", "name": "USPS COLLECTION BOX - BLUE BOX", "address": {"city": "PROSPECT", "state": "TN", "street": "400 MAIN ST", "postcode": "38477"}}},
{"geometry": {"type": "Point", "coordinates": [-87.032121327, 35.1968151398]}, "type": "Feature", "properties": {"collection_times": [{"days": "Mon-Fri", "time": "3:30pm"}, {"days": "Sat", "time": "12:00pm"}, {"days": "Sun", "time": "Closed"}], "id": "3847800001", "name": "USPS COLLECTION BOX - PO LOBBY", "address": {"city": "PULASKI", "state": "TN", "street": "111 W COLLEGE ST", "postcode": "38478"}}},
{"geometry": {"type": "Point", "coordinates": [-87.032121327, 35.1968151398]}, "type": "Feature", "properties": {"collection_times": [{"days": "Mon-Fri", "time": "3:30pm"}, {"days": "Sat", "time": "12:00pm"}, {"days": "Sun", "time": "Closed"}], "id": "3847800004", "name": "USPS COLLECTION BOX - BLUE BOX", "address": {"city": "PULASKI", "state": "TN", "street": "111 W COLLEGE ST", "postcode": "38478"}}},
{"geometry": {"type": "Point", "coordinates": [-87.030724843, 35.1996067272]}, "type": "Feature", "properties": {"collection_times": [{"days": "Mon-Fri", "time": "11:00am"}, {"days": "Sat", "time": "9:30am"}, {"days": "Sun", "time": "Closed"}], "id": "3847800010", "name": "USPS COLLECTION BOX - BLUE BOX", "address": {"city": "PULASKI", "state": "TN", "street": "119 N 1ST ST", "postcode": "38478"}}},
{"geometry": {"type": "Point", "coordinates": [-87.030724843, 35.1996067272]}, "type": "Feature", "properties": {"collection_times": [{"days": "Mon-Fri", "time": "11:00am"}, {"days": "Sat", "time": "9:30am"}, {"days": "Sun", "time": "Closed"}], "id": "3847800014", "name": "USPS COLLECTION BOX - BLUE BOX", "address": {"city": "PULASKI", "state": "TN", "street": "119 N 1ST ST", "postcode": "38478"}}},
{"geometry": {"type": "Point", "coordinates": [-87.0318515506, 35.1992517245]}, "type": "Feature", "properties": {"collection_times": [{"days": "Mon-Fri", "time": "12:00pm"}, {"days": "Sat", "time": "11:30am"}, {"days": "Sun", "time": "Closed"}], "id": "3847800020", "name": "USPS COLLECTION BOX - BLUE BOX", "address": {"city": "PULASKI", "state": "TN", "street": "100 S 2ND ST", "postcode": "38478"}}},
{"geometry": {"type": "Point", "coordinates": [-87.0603903348, 35.2038667922]}, "type": "Feature", "properties": {"collection_times": [{"days": "Mon-Sat", "time": "8:30am"}, {"days": "Sun", "time": "Closed"}], "id": "3847800036", "name": "USPS COLLECTION BOX - BLUE BOX", "address": {"city": "PULASKI", "state": "TN", "street": "1655 W COLLEGE ST", "postcode": "38478"}}},
{"geometry": {"type": "Point", "coordinates": [-87.5061525021, 35.0350098168]}, "type": "Feature", "properties": {"collection_times": [{"days": "Mon-Fri", "time": "12:00pm"}, {"days": "Sat", "time": "11:00am"}, {"days": "Sun", "time": "Closed"}], "id": "3848100001", "name": "USPS COLLECTION BOX - PO LOBBY", "address": {"city": "SAINT JOSEPH", "state": "TN", "street": "211 WALNUT AVE", "postcode": "38481"}}},
{"geometry": {"type": "Point", "coordinates": [-87.5061525021, 35.0350098168]}, "type": "Feature", "properties": {"collection_times": [{"days": "Mon-Fri", "time": "12:00pm"}, {"days": "Sat", "time": "11:00am"}, {"days": "Sun", "time": "Closed"}], "id": "3848100002", "name": "USPS COLLECTION BOX - BLUE BOX", "address": {"city": "SAINT JOSEPH", "state": "TN", "street": "211 WALNUT AVE", "postcode": "38481"}}},
{"geometry": {"type": "Point", "coordinates": [-87.1295551497, 35.7296326744]}, "type": "Feature", "properties": {"collection_times": [{"days": "Mon-Sat", "time": "11:30am"}, {"days": "Sun", "time": "Closed"}], "id": "3848200001", "name": "USPS COLLECTION BOX - BLUE BOX", "address": {"city": "SANTA FE", "state": "TN", "street": "2581 SANTA FE PIKE", "postcode": "38482"}}},
{"geometry": {"type": "Point", "coordinates": [-87.1295551497, 35.7296326744]}, "type": "Feature", "properties": {"collection_times": [{"days": "Mon-Sat", "time": "11:30am"}, {"days": "Sun", "time": "Closed"}], "id": "3848200002", "name": "USPS COLLECTION BOX - PO LOBBY", "address": {"city": "SANTA FE", "state": "TN", "street": "2581 SANTA FE PIKE", "postcode": "38482"}}},
{"geometry": {"type": "Point", "coordinates": [-87.3048280886, 35.4356246375]}, "type": "Feature", "properties": {"collection_times": [{"days": "Mon-Fri", "time": "3:30pm"}, {"days": "Sat", "time": "11:00am"}, {"days": "Sun", "time": "Closed"}], "id": "3848300001", "name": "USPS COLLECTION BOX - BLUE BOX", "address": {"city": "SUMMERTOWN", "state": "TN", "street": "100 HIGHWAY 20", "postcode": "38483"}}},
{"geometry": {"type": "Point", "coordinates": [-87.3048280886, 35.4356246375]}, "type": "Feature", "properties": {"collection_times": [{"days": "Mon-Fri", "time": "3:30pm"}, {"days": "Sat", "time": "11:00am"}, {"days": "Sun", "time": "Closed"}], "id": "3848300002", "name": "USPS COLLECTION BOX - PO LOBBY", "address": {"city": "SUMMERTOWN", "state": "TN", "street": "100 HIGHWAY 20", "postcode": "38483"}}},
{"geometry": {"type": "Point", "coordinates": [-87.7633745983, 35.3122857781]}, "type": "Feature", "properties": {"collection_times": [{"days": "Mon-Fri", "time": "4:00pm"}, {"days": "Sat", "time": "12:00pm"}, {"days": "Sun", "time": "Closed"}], "id": "3848500001", "name": "USPS COLLECTION BOX - PO LOBBY", "address": {"city": "WAYNESBORO", "state": "TN", "street": "422 S MAIN ST", "postcode": "38485"}}},
{"geometry": {"type": "Point", "coordinates": [-87.7633745983, 35.3122857781]}, "type": "Feature", "properties": {"collection_times": [{"days": "Mon-Fri", "time": "4:00pm"}, {"days": "Sat", "time": "12:00pm"}, {"days": "Sun", "time": "Closed"}], "id": "3848500003", "name": "USPS COLLECTION BOX - BLUE BOX", "address": {"city": "WAYNESBORO", "state": "TN", "street": "422 S MAIN ST", "postcode": "38485"}}},
{"geometry": {"type": "Point", "coordinates": [-87.7628584554, 35.3280956364]}, "type": "Feature", "properties": {"collection_times": [{"days": "Mon-Sat", "time": "1:00pm"}, {"days": "Sun", "time": "Closed"}], "id": "3848500006", "name": "USPS COLLECTION BOX - BLUE BOX", "address": {"city": "WAYNESBORO", "state": "TN", "street": "122 COURTHOUSE SQ", "postcode": "38485"}}},
{"geometry": {"type": "Point", "coordinates": [-87.7598374621, 35.3229421995]}, "type": "Feature", "properties": {"collection_times": [{"days": "Mon-Sat", "time": "1:00pm"}, {"days": "Sun", "time": "Closed"}], "id": "3848500008", "name": "USPS COLLECTION BOX - BLUE BOX", "address": {"city": "WAYNESBORO", "state": "TN", "street": "205 DEXTER L WOOD MEMORIAL DR", "postcode": "38485"}}},
{"geometry": {"type": "Point", "coordinates": [-87.5335342228, 35.1332034568]}, "type": "Feature", "properties": {"collection_times": [{"days": "Mon-Fri", "time": "11:30am"}, {"days": "Sat", "time": "10:45am"}, {"days": "Sun", "time": "Closed"}], "id": "3848600001", "name": "USPS COLLECTION BOX - BLUE BOX", "address": {"city": "WESTPOINT", "state": "TN", "street": "2023 TENNESSEE ST", "postcode": "38486"}}},
{"geometry": {"type": "Point", "coordinates": [-87.5335342228, 35.1332034568]}, "type": "Feature", "properties": {"collection_times": [{"days": "Mon-Fri", "time": "11:30am"}, {"days": "Sat", "time": "10:45am"}, {"days": "Sun", "time": "Closed"}], "id": "3848600002", "name": "USPS COLLECTION BOX - PO LOBBY", "address": {"city": "WESTPOINT", "state": "TN", "street": "2023 TENNESSEE ST", "postcode": "38486"}}},
{"geometry": {"type": "Point", "coordinates": [-87.2199054126, 35.6876504883]}, "type": "Feature", "properties": {"collection_times": [{"days": "Mon-Fri", "time": "2:45pm"}, {"days": "Sat", "time": "10:30am"}, {"days": "Sun", "time": "Closed"}], "id": "3848700001", "name": "USPS COLLECTION BOX - PO LOBBY", "address": {"city": "WILLIAMSPORT", "state": "TN", "street": "3568 WILLIAMSPORT PIKE", "postcode": "38487"}}},
{"geometry": {"type": "Point", "coordinates": [-87.2199054126, 35.6876504883]}, "type": "Feature", "properties": {"collection_times": [{"days": "Mon-Fri", "time": "2:45pm"}, {"days": "Sat", "time": "10:30am"}, {"days": "Sun", "time": "Closed"}], "id": "3848700002", "name": "USPS COLLECTION BOX - BLUE BOX", "address": {"city": "WILLIAMSPORT", "state": "TN", "street": "3568 WILLIAMSPORT PIKE", "postcode": "38487"}}},
{"geometry": {"type": "Point", "coordinates": [-86.7180142518, 35.0214156612]}, "type": "Feature", "properties": {"collection_times": [{"days": "Mon-Fri", "time": "3:30pm"}, {"days": "Sat", "time": "10:00am"}, {"days": "Sun", "time": "Closed"}], "id": "3848800001", "name": "USPS COLLECTION BOX - PO LOBBY", "address": {"city": "TAFT", "state": "TN", "street": "1111 OLD RAILROAD BED RD", "postcode": "38488"}}},
{"geometry": {"type": "Point", "coordinates": [-86.7180142518, 35.0214156612]}, "type": "Feature", "properties": {"collection_times": [{"days": "Mon-Fri", "time": "3:30pm"}, {"days": "Sat", "time": "10:00am"}, {"days": "Sun", "time": "Closed"}], "id": "3848800002", "name": "USPS COLLECTION BOX - BLUE BOX", "address": {"city": "TAFT", "state": "TN", "street": "1111 OLD RAILROAD BED RD", "postcode": "38488"}}}
]}
