{"type": "FeatureCollection", "features": [
{"geometry": {"type": "Point", "coordinates": [-85.5055973632, 36.1634107143]}, "type": "Feature", "properties": {"collection_times": [{"days": "Mon-Sat", "time": "4:00pm"}, {"days": "Sun", "time": "Closed"}], "id": "3850100001", "name": "USPS COLLECTION BOX - PO LOBBY", "address": {"city": "COOKEVILLE", "state": "TN", "street": "9 E BROAD ST", "postcode": "38501"}}},
{"geometry": {"type": "Point", "coordinates": [-85.5055973632, 36.1634107143]}, "type": "Feature", "properties": {"collection_times": [{"days": "Mon-Sat", "time": "4:00pm"}, {"days": "Sun", "time": "Closed"}], "id": "3850100002", "name": "USPS COLLECTION BOX - BLUE BOX", "address": {"city": "COOKEVILLE", "state": "TN", "street": "9 E BROAD ST", "postcode": "38501"}}},
{"geometry": {"type": "Point", "coordinates": [-85.5055973632, 36.1634107143]}, "type": "Feature", "properties": {"collection_times": [{"days": "Mon-Sat", "time": "4:00pm"}, {"days": "Sun", "time": "Closed"}], "id": "3850100003", "name": "USPS COLLECTION BOX - BLUE BOX", "address": {"city": "COOKEVILLE", "state": "TN", "street": "9 E BROAD ST", "postcode": "38501"}}},
{"geometry": {"type": "Point", "coordinates": [-85.5055973632, 36.1634107143]}, "type": "Feature", "properties": {"collection_times": [{"days": "Mon-Sat", "time": "4:00pm"}, {"days": "Sun", "time": "Closed"}], "id": "3850100004", "name": "USPS COLLECTION BOX - BLUE BOX", "address": {"city": "COOKEVILLE", "state": "TN", "street": "9 E BROAD ST", "postcode": "38501"}}},
{"geometry": {"type": "Point", "coordinates": [-85.4488981401, 36.1940138628]}, "type": "Feature", "properties": {"collection_times": [{"days": "Mon-Sat", "time": "4:00pm"}, {"days": "Sun", "time": "Closed"}], "id": "3850100006", "name": "USPS COLLECTION BOX - PO LOBBY", "address": {"city": "COOKEVILLE", "state": "TN", "street": "122 MAIN ST", "postcode": "38501"}}},
{"geometry": {"type": "Point", "coordinates": [-85.4488981401, 36.1940138628]}, "type": "Feature", "properties": {"collection_times": [{"days": "Mon-Sat", "time": "4:00pm"}, {"days": "Sun", "time": "Closed"}], "id": "3850100007", "name": "USPS COLLECTION BOX - BLUE BOX", "address": {"city": "COOKEVILLE", "state": "TN", "street": "122 MAIN ST", "postcode": "38501"}}},
{"geometry": {"type": "Point", "coordinates": [-85.4488981401, 36.1940138628]}, "type": "Feature", "properties": {"collection_times": [{"days": "Mon-Sat", "time": "4:00pm"}, {"days": "Sun", "time": "Closed"}], "id": "3850100008", "name": "USPS COLLECTION BOX - BLUE BOX", "address": {"city": "COOKEVILLE", "state": "TN", "street": "122 MAIN ST", "postcode": "38501"}}},
{"geometry": {"type": "Point", "coordinates": [-85.5240881948, 36.1438410242]}, "type": "Feature", "properties": {"collection_times": [{"days": "Mon-Sat", "time": "5:00pm"}, {"days": "Sun", "time": "Closed"}], "id": "3850100009", "name": "USPS COLLECTION BOX - PO LOBBY", "address": {"city": "COOKEVILLE", "state": "TN", "street": "900 S WILLOW AVE", "postcode": "38501"}}},
{"geometry": {"type": "Point", "coordinates": [-85.5240881948, 36.1438410242]}, "type": "Feature", "properties": {"collection_times": [{"days": "Mon-Sat", "time": "5:00pm"}, {"days": "Sun", "time": "Closed"}], "id": "3850100011", "name": "USPS COLLECTION BOX - BLUE BOX", "address": {"city": "COOKEVILLE", "state": "TN", "street": "900 S WILLOW AVE", "postcode": "38501"}}},
{"geometry": {"type": "Point", "coordinates": [-85.5240881948, 36.1438410242]}, "type": "Feature", "properties": {"collection_times": [{"days": "Mon-Sat", "time": "5:00pm"}, {"days": "Sun", "time": "Closed"}], "id": "3850100012", "name": "USPS COLLECTION BOX - BLUE BOX", "address": {"city": "COOKEVILLE", "state": "TN", "street": "900 S WILLOW AVE", "postcode": "38501"}}},
{"geometry": {"type": "Point", "coordinates": [-85.5082152514, 36.1683921545]}, "type": "Feature", "properties": {"collection_times": [{"days": "Mon-Sat", "time": "9:15am"}, {"days": "Sun", "time": "Closed"}], "id": "3850100025", "name": "USPS COLLECTION BOX - BLUE BOX", "address": {"city": "COOKEVILLE", "state": "TN", "street": "100 W 4TH ST", "postcode": "38501"}}},
{"geometry": {"type": "Point", "coordinates": [-85.500588715, 36.1552790544]}, "type": "Feature", "properties": {"collection_times": [{"days": "Mon-Sat", "time": "3:00pm"}, {"days": "Sun", "time": "Closed"}], "id": "3850100030", "name": "USPS COLLECTION BOX - BLUE BOX", "address": {"city": "COOKEVILLE", "state": "TN", "street": "345 S JEFFERSON AVE", "postcode": "38501"}}},
{"geometry": {"type": "Point", "coordinates": [-85.500588715, 36.1552790544]}, "type": "Feature", "properties": {"collection_times": [{"days": "Mon-Sat", "time": "3:00pm"}, {"days": "Sun", "time": "Closed"}], "id": "3850100031", "name": "USPS COLLECTION BOX - BLUE BOX", "address": {"city": "COOKEVILLE", "state": "TN", "street": "345 S JEFFERSON AVE", "postcode": "38501"}}},
{"geometry": {"type": "Point", "coordinates": [-85.500588715, 36.1552790544]}, "type": "Feature", "properties": {"collection_times": [{"days": "Mon-Sat", "time": "3:00pm"}, {"days": "Sun", "time": "Closed"}], "id": "3850100032", "name": "USPS COLLECTION BOX - BLUE BOX", "address": {"city": "COOKEVILLE", "state": "TN", "street": "345 S JEFFERSON AVE", "postcode": "38501"}}},
{"geometry": {"type": "Point", "coordinates": [-85.4979424358, 36.1618492085]}, "type": "Feature", "properties": {"collection_times": [{"days": "Mon-Sat", "time": "9:30am"}, {"days": "Sun", "time": "Closed"}], "id": "3850100035", "name": "USPS COLLECTION BOX - BLUE BOX", "address": {"city": "COOKEVILLE", "state": "TN", "street": "421 E SPRING ST", "postcode": "38501"}}},
{"geometry": {"type": "Point", "coordinates": [-85.4853285443, 36.1757383297]}, "type": "Feature", "properties": {"collection_times": [{"days": "Mon-Sat", "time": "9:00am"}, {"days": "Sun", "time": "Closed"}], "id": "3850100039", "name": "USPS COLLECTION BOX - BLUE BOX", "address": {"city": "COOKEVILLE", "state": "TN", "street": "880 E 10TH ST", "postcode": "38501"}}},
{"geometry": {"type": "Point", "coordinates": [-85.5002515717, 36.1624761768]}, "type": "Feature", "properties": {"collection_times": [{"days": "Mon-Sat", "time": "9:00am"}, {"days": "Sun", "time": "Closed"}], "id": "3850100043", "name": "USPS COLLECTION BOX - BLUE BOX", "address": {"city": "COOKEVILLE", "state": "TN", "street": "1 S JEFFERSON AVE", "postcode": "38501"}}},
{"geometry": {"type": "Point", "coordinates": [-85.4989976352, 36.1363410643]}, "type": "Feature", "properties": {"collection_times": [{"days": "Mon-Fri", "time": "1:15pm"}, {"days": "Sat", "time": "12:00pm"}, {"days": "Sun", "time": "Closed"}], "id": "3850100046", "name": "USPS COLLECTION BOX - BLUE BOX", "address": {"city": "COOKEVILLE", "state": "TN", "street": "400 DUBOIS RD", "postcode": "38501"}}},
{"geometry": {"type": "Point", "coordinates": [-85.4781124947, 36.1538689673]}, "type": "Feature", "properties": {"collection_times": [{"days": "Mon-Sat", "time": "12:00pm"}, {"days": "Sun", "time": "Closed"}], "id": "3850100047", "name": "USPS COLLECTION BOX - BLUE BOX", "address": {"city": "COOKEVILLE", "state": "TN", "street": "1245 E SPRING ST", "postcode": "38501"}}},
{"geometry": {"type": "Point", "coordinates": [-85.5055973632, 36.1634107143]}, "type": "Feature", "properties": {"collection_times": [{"days": "Mon-Sat", "time": "4:00pm"}, {"days": "Sun", "time": "Closed"}], "id": "3850100048", "name": "USPS COLLECTION BOX - BLUE BOX", "address": {"city": "COOKEVILLE", "state": "TN", "street": "9 E BROAD ST", "postcode": "38501"}}},
{"geometry": {"type": "Point", "coordinates": [-85.49857177, 36.1666330946]}, "type": "Feature", "properties": {"collection_times": [{"days": "Mon-Sat", "time": "9:30am"}, {"days": "Sun", "time": "Closed"}], "id": "3850100050", "name": "USPS COLLECTION BOX - BLUE BOX", "address": {"city": "COOKEVILLE", "state": "TN", "street": "315 N WASHINGTON AVE", "postcode": "38501"}}},
{"geometry": {"type": "Point", "coordinates": [-84.8845180408, 36.3832558329]}, "type": "Feature", "properties": {"collection_times": [{"days": "Mon-Fri", "time": "3:30pm"}, {"days": "Sat", "time": "10:45am"}, {"days": "Sun", "time": "Closed"}], "id": "3850400001", "name": "USPS COLLECTION BOX - PO LOBBY", "address": {"city": "ALLARDT", "state": "TN", "street": "1716 PENNSYLVANIA ST", "postcode": "38504"}}},
{"geometry": {"type": "Point", "coordinates": [-84.8845180408, 36.3832558329]}, "type": "Feature", "properties": {"collection_times": [{"days": "Mon-Fri", "time": "3:30pm"}, {"days": "Sat", "time": "10:45am"}, {"days": "Sun", "time": "Closed"}], "id": "3850400002", "name": "USPS COLLECTION BOX - BLUE BOX", "address": {"city": "ALLARDT", "state": "TN", "street": "1716 PENNSYLVANIA ST", "postcode": "38504"}}},
{"geometry": {"type": "Point", "coordinates": [-84.8845180408, 36.3832558329]}, "type": "Feature", "properties": {"collection_times": [{"days": "Mon-Fri", "time": "3:30pm"}, {"days": "Sat", "time": "10:45am"}, {"days": "Sun", "time": "Closed"}], "id": "3850400003", "name": "USPS COLLECTION BOX - BLUE BOX", "address": {"city": "ALLARDT", "state": "TN", "street": "1716 PENNSYLVANIA ST", "postcode": "38504"}}},
{"geometry": {"type": "Point", "coordinates": [-85.3474418357, 36.4359446869]}, "type": "Feature", "properties": {"collection_times": [{"days": "Mon-Fri", "time": "3:15pm"}, {"days": "Sat", "time": "11:15am"}, {"days": "Sun", "time": "Closed"}], "id": "3854100001", "name": "USPS COLLECTION BOX - BLUE BOX", "address": {"city": "ALLONS", "state": "TN", "street": "2415 CELINA HWY", "postcode": "38541"}}},
{"geometry": {"type": "Point", "coordinates": [-85.3474418357, 36.4359446869]}, "type": "Feature", "properties": {"collection_times": [{"days": "Mon-Fri", "time": "3:15pm"}, {"days": "Sat", "time": "11:15am"}, {"days": "Sun", "time": "Closed"}], "id": "3854100002", "name": "USPS COLLECTION BOX - PO LOBBY", "address": {"city": "ALLONS", "state": "TN", "street": "2415 CELINA HWY", "postcode": "38541"}}},
{"geometry": {"type": "Point", "coordinates": [-85.3358657772, 36.5141524686]}, "type": "Feature", "properties": {"collection_times": [{"days": "Mon-Sat", "time": "9:00am"}, {"days": "Sun", "time": "Closed"}], "id": "3854100006", "name": "USPS COLLECTION BOX - BLUE BOX", "address": {"city": "ALLONS", "state": "TN", "street": "2307 WILLOW GROVE HWY", "postcode": "38541"}}},
{"geometry": {"type": "Point", "coordinates": [-85.215449469, 36.3938203638]}, "type": "Feature", "properties": {"collection_times": [{"days": "Mon-Fri", "time": "11:30am"}, {"days": "Sat", "time": "10:30am"}, {"days": "Sun", "time": "Closed"}], "id": "3854300001", "name": "USPS COLLECTION BOX - PO LOBBY", "address": {"city": "ALPINE", "state": "TN", "street": "2311 JAMESTOWN HWY", "postcode": "38543"}}},
{"geometry": {"type": "Point", "coordinates": [-85.215449469, 36.3938203638]}, "type": "Feature", "properties": {"collection_times": [{"days": "Mon-Fri", "time": "11:30am"}, {"days": "Sat", "time": "10:30am"}, {"days": "Sun", "time": "Closed"}], "id": "3854300002", "name": "USPS COLLECTION BOX - BLUE BOX", "address": {"city": "ALPINE", "state": "TN", "street": "2311 JAMESTOWN HWY", "postcode": "38543"}}},
{"geometry": {"type": "Point", "coordinates": [-85.6410556284, 36.1564750259]}, "type": "Feature", "properties": {"collection_times": [{"days": "Mon-Fri", "time": "4:00pm"}, {"days": "Sat", "time": "12:00pm"}, {"days": "Sun", "time": "Closed"}], "id": "3854400001", "name": "USPS COLLECTION BOX - PO LOBBY", "address": {"city": "BAXTER", "state": "TN", "street": "216 4TH AVE N", "postcode": "38544"}}},
{"geometry": {"type": "Point", "coordinates": [-85.6410556284, 36.1564750259]}, "type": "Feature", "properties": {"collection_times": [{"days": "Mon-Fri", "time": "4:00pm"}, {"days": "Sat", "time": "12:00pm"}, {"days": "Sun", "time": "Closed"}], "id": "3854400002", "name": "USPS COLLECTION BOX - BLUE BOX", "address": {"city": "BAXTER", "state": "TN", "street": "216 4TH AVE N", "postcode": "38544"}}},
{"geometry": {"type": "Point", "coordinates": [-85.6766970889, 36.2417314387]}, "type": "Feature", "properties": {"collection_times": [{"days": "Mon-Fri", "time": "2:00pm"}, {"days": "Sat", "time": "10:30am"}, {"days": "Sun", "time": "Closed"}], "id": "3854500002", "name": "USPS COLLECTION BOX - BLUE BOX", "address": {"city": "BLMNGTON SPGS", "state": "TN", "street": "1685 GAINESBORO HWY", "postcode": "38545"}}},
{"geometry": {"type": "Point", "coordinates": [-85.6766970889, 36.2417314387]}, "type": "Feature", "properties": {"collection_times": [{"days": "Mon-Fri", "time": "2:00pm"}, {"days": "Sat", "time": "10:30am"}, {"days": "Sun", "time": "Closed"}], "id": "3854500003", "name": "USPS COLLECTION BOX - PO LOBBY", "address": {"city": "BLMNGTON SPGS", "state": "TN", "street": "1685 GAINESBORO HWY", "postcode": "38545"}}},
{"geometry": {"type": "Point", "coordinates": [-86.0227744914, 36.1179591698]}, "type": "Feature", "properties": {"collection_times": [{"days": "Mon-Fri", "time": "2:00pm"}, {"days": "Sat", "time": "10:45am"}, {"days": "Sun", "time": "Closed"}], "id": "3854700001", "name": "USPS COLLECTION BOX - PO LOBBY", "address": {"city": "BRUSH CREEK", "state": "TN", "street": "407 ALEXANDRIA HWY", "postcode": "38547"}}},
{"geometry": {"type": "Point", "coordinates": [-86.0227744914, 36.1179591698]}, "type": "Feature", "properties": {"collection_times": [{"days": "Mon-Fri", "time": "2:00pm"}, {"days": "Sat", "time": "10:45am"}, {"days": "Sun", "time": "Closed"}], "id": "3854700002", "name": "USPS COLLECTION BOX - BLUE BOX", "address": {"city": "BRUSH CREEK", "state": "TN", "street": "407 ALEXANDRIA HWY", "postcode": "38547"}}},
{"geometry": {"type": "Point", "coordinates": [-86.0227744914, 36.1179591698]}, "type": "Feature", "properties": {"collection_times": [{"days": "Mon-Fri", "time": "2:00pm"}, {"days": "Sat", "time": "10:45am"}, {"days": "Sun", "time": "Closed"}], "id": "3854700003", "name": "USPS COLLECTION BOX - PO LOBBY", "address": {"city": "BRUSH CREEK", "state": "TN", "street": "407 ALEXANDRIA HWY", "postcode": "38547"}}},
{"geometry": {"type": "Point", "coordinates": [-85.7890911133, 36.1363954805]}, "type": "Feature", "properties": {"collection_times": [{"days": "Mon-Fri", "time": "11:00am"}, {"days": "Sat", "time": "10:45am"}, {"days": "Sun", "time": "Closed"}], "id": "3854800001", "name": "USPS COLLECTION BOX - PO LOBBY", "address": {"city": "BUFFALO VALLEY", "state": "TN", "street": "18545 BUFFALO VALLEY RD", "postcode": "38548"}}},
{"geometry": {"type": "Point", "coordinates": [-85.7890911133, 36.1363954805]}, "type": "Feature", "properties": {"collection_times": [{"days": "Mon-Fri", "time": "11:00am"}, {"days": "Sat", "time": "10:45am"}, {"days": "Sun", "time": "Closed"}], "id": "3854800002", "name": "USPS COLLECTION BOX - BLUE BOX", "address": {"city": "BUFFALO VALLEY", "state": "TN", "street": "18545 BUFFALO VALLEY RD", "postcode": "38548"}}},
{"geometry": {"type": "Point", "coordinates": [-85.133866704, 36.5708620025]}, "type": "Feature", "properties": {"collection_times": [{"days": "Mon-Fri", "time": "3:30pm"}, {"days": "Sat", "time": "11:30am"}, {"days": "Sun", "time": "Closed"}], "id": "3854900001", "name": "USPS COLLECTION BOX - BLUE BOX", "address": {"city": "BYRDSTOWN", "state": "TN", "street": "300 W MAIN ST", "postcode": "38549"}}},
{"geometry": {"type": "Point", "coordinates": [-85.133866704, 36.5708620025]}, "type": "Feature", "properties": {"collection_times": [{"days": "Mon-Fri", "time": "3:30pm"}, {"days": "Sat", "time": "11:30am"}, {"days": "Sun", "time": "Closed"}], "id": "3854900002", "name": "USPS COLLECTION BOX - PO LOBBY", "address": {"city": "BYRDSTOWN", "state": "TN", "street": "300 W MAIN ST", "postcode": "38549"}}},
{"geometry": {"type": "Point", "coordinates": [-85.6320691471, 35.7690318204]}, "type": "Feature", "properties": {"collection_times": [{"days": "Mon-Sat", "time": "9:00am"}, {"days": "Sun", "time": "Closed"}], "id": "3855000001", "name": "USPS COLLECTION BOX - BLUE BOX", "address": {"city": "CAMPAIGN", "state": "TN", "street": "379 PINE BLUFF RD", "postcode": "38550"}}},
{"geometry": {"type": "Point", "coordinates": [-85.6320691471, 35.7690318204]}, "type": "Feature", "properties": {"collection_times": [{"days": "Mon-Sat", "time": "9:00am"}, {"days": "Sun", "time": "Closed"}], "id": "3855000002", "name": "USPS COLLECTION BOX - PO LOBBY", "address": {"city": "CAMPAIGN", "state": "TN", "street": "379 PINE BLUFF RD", "postcode": "38550"}}},
{"geometry": {"type": "Point", "coordinates": [-85.5053382952, 36.5494054928]}, "type": "Feature", "properties": {"collection_times": [{"days": "Mon-Fri", "time": "4:00pm"}, {"days": "Sat", "time": "12:00pm"}, {"days": "Sun", "time": "Closed"}], "id": "3855100001", "name": "USPS COLLECTION BOX - PO LOBBY", "address": {"city": "CELINA", "state": "TN", "street": "403 BROWN ST", "postcode": "38551"}}},
{"geometry": {"type": "Point", "coordinates": [-85.5053382952, 36.5494054928]}, "type": "Feature", "properties": {"collection_times": [{"days": "Mon-Fri", "time": "4:00pm"}, {"days": "Sat", "time": "12:00pm"}, {"days": "Sun", "time": "Closed"}], "id": "3855100002", "name": "USPS COLLECTION BOX - BLUE BOX", "address": {"city": "CELINA", "state": "TN", "street": "403 BROWN ST", "postcode": "38551"}}},
{"geometry": {"type": "Point", "coordinates": [-85.5053382952, 36.5494054928]}, "type": "Feature", "properties": {"collection_times": [{"days": "Mon-Fri", "time": "4:00pm"}, {"days": "Sat", "time": "12:00pm"}, {"days": "Sun", "time": "Closed"}], "id": "3855100003", "name": "USPS COLLECTION BOX - BLUE BOX", "address": {"city": "CELINA", "state": "TN", "street": "403 BROWN ST", "postcode": "38551"}}},
{"geometry": {"type": "Point", "coordinates": [-85.8267655251, 36.2023032182]}, "type": "Feature", "properties": {"collection_times": [{"days": "Mon-Fri", "time": "10:30am"}, {"days": "Sat", "time": "11:00am"}, {"days": "Sun", "time": "Closed"}], "id": "3855200001", "name": "USPS COLLECTION BOX - PO LOBBY", "address": {"city": "CHESTNUT MOUND", "state": "TN", "street": "892 COOKEVILLE HWY", "postcode": "38552"}}},
{"geometry": {"type": "Point", "coordinates": [-85.8267655251, 36.2023032182]}, "type": "Feature", "properties": {"collection_times": [{"days": "Mon-Fri", "time": "10:30am"}, {"days": "Sat", "time": "11:00am"}, {"days": "Sun", "time": "Closed"}], "id": "3855200002", "name": "USPS COLLECTION BOX - BLUE BOX", "address": {"city": "CHESTNUT MOUND", "state": "TN", "street": "892 COOKEVILLE HWY", "postcode": "38552"}}},
{"geometry": {"type": "Point", "coordinates": [-85.028035023, 36.1858414107]}, "type": "Feature", "properties": {"collection_times": [{"days": "Mon-Fri", "time": "3:15pm"}, {"days": "Sat", "time": "10:15am"}, {"days": "Sun", "time": "Closed"}], "id": "3855300001", "name": "USPS COLLECTION BOX - BLUE BOX", "address": {"city": "CLARKRANGE", "state": "TN", "street": "1105 CLARKRANGE MONTEREY HWY", "postcode": "38553"}}},
{"geometry": {"type": "Point", "coordinates": [-85.028035023, 36.1858414107]}, "type": "Feature", "properties": {"collection_times": [{"days": "Mon-Fri", "time": "3:15pm"}, {"days": "Sat", "time": "10:15am"}, {"days": "Sun", "time": "Closed"}], "id": "3855300002", "name": "USPS COLLECTION BOX - PO LOBBY", "address": {"city": "CLARKRANGE", "state": "TN", "street": "1105 CLARKRANGE MONTEREY HWY", "postcode": "38553"}}},
{"geometry": {"type": "Point", "coordinates": [-85.1610482098, 36.2701717997]}, "type": "Feature", "properties": {"collection_times": [{"days": "Mon-Fri", "time": "11:00am"}, {"days": "Sat", "time": "1:00pm"}, {"days": "Sun", "time": "Closed"}], "id": "3855400001", "name": "USPS COLLECTION BOX - BLUE BOX", "address": {"city": "CRAWFORD", "state": "TN", "street": "202 HONEY SPRINGS RD", "postcode": "38554"}}},
{"geometry": {"type": "Point", "coordinates": [-85.0291512001, 35.9475932534]}, "type": "Feature", "properties": {"collection_times": [{"days": "Mon-Fri", "time": "10:00am"}, {"days": "Sat", "time": "9:00am"}, {"days": "Sun", "time": "Closed"}], "id": "3855500028", "name": "USPS COLLECTION BOX - BLUE BOX", "address": {"city": "CROSSVILLE", "state": "TN", "street": "174 FOURTH ST", "postcode": "38555"}}},
{"geometry": {"type": "Point", "coordinates": [-84.8865951575, 36.0083425384]}, "type": "Feature", "properties": {"collection_times": [{"days": "Mon-Sat", "time": "10:00am"}, {"days": "Sun", "time": "Closed"}], "id": "3855500029", "name": "USPS COLLECTION BOX - BLUE BOX", "address": {"city": "CROSSVILLE", "state": "TN", "street": "126 STONEHENGE DR", "postcode": "38555"}}},
{"geometry": {"type": "Point", "coordinates": [-85.0270857301, 35.949284495]}, "type": "Feature", "properties": {"collection_times": [{"days": "Mon-Sat", "time": "9:00am"}, {"days": "Sun", "time": "Closed"}], "id": "3855500032", "name": "USPS COLLECTION BOX - BLUE BOX", "address": {"city": "CROSSVILLE", "state": "TN", "street": "97 N MAIN ST", "postcode": "38555"}}},
{"geometry": {"type": "Point", "coordinates": [-85.0306332002, 35.9576764444]}, "type": "Feature", "properties": {"collection_times": [{"days": "Mon-Fri", "time": "11:00am"}, {"days": "Sat", "time": "10:00am"}, {"days": "Sun", "time": "Closed"}], "id": "3855500035", "name": "USPS COLLECTION BOX - BLUE BOX", "address": {"city": "CROSSVILLE", "state": "TN", "street": "142 WOODMERE MALL", "postcode": "38555"}}},
{"geometry": {"type": "Point", "coordinates": [-85.0505958565, 35.9369817218]}, "type": "Feature", "properties": {"collection_times": [{"days": "Mon-Fri", "time": "11:00am"}, {"days": "Sat", "time": "10:00am"}, {"days": "Sun", "time": "Closed"}], "id": "3855500036", "name": "USPS COLLECTION BOX - BLUE BOX", "address": {"city": "CROSSVILLE", "state": "TN", "street": "164 CUMBERLAND PLZ", "postcode": "38555"}}},
{"geometry": {"type": "Point", "coordinates": [-85.0382140114, 35.9614087857]}, "type": "Feature", "properties": {"collection_times": [{"days": "Mon-Sat", "time": "1:30pm"}, {"days": "Sun", "time": "Closed"}], "id": "3855500038", "name": "USPS COLLECTION BOX - BLUE BOX", "address": {"city": "CROSSVILLE", "state": "TN", "street": "139 ELMORE RD", "postcode": "38555"}}},
{"geometry": {"type": "Point", "coordinates": [-85.0262806483, 35.9481175125]}, "type": "Feature", "properties": {"collection_times": [{"days": "Mon-Sat", "time": "9:15am"}, {"days": "Sun", "time": "Closed"}], "id": "3855500040", "name": "USPS COLLECTION BOX - BLUE BOX", "address": {"city": "CROSSVILLE", "state": "TN", "street": "2 N MAIN ST", "postcode": "38555"}}},
{"geometry": {"type": "Point", "coordinates": [-85.0389595982, 35.9833701397]}, "type": "Feature", "properties": {"collection_times": [{"days": "Mon-Sat", "time": "9:00am"}, {"days": "Sun", "time": "Closed"}], "id": "3855500047", "name": "USPS COLLECTION BOX - BLUE BOX", "address": {"city": "CROSSVILLE", "state": "TN", "street": "2547 N MAIN ST", "postcode": "38555"}}},
{"geometry": {"type": "Point", "coordinates": [-85.0360879094, 35.9658198936]}, "type": "Feature", "properties": {"collection_times": [{"days": "Mon-Sat", "time": "4:45pm"}, {"days": "Sun", "time": "Closed"}], "id": "3855500048", "name": "USPS COLLECTION BOX - PO LOBBY", "address": {"city": "CROSSVILLE", "state": "TN", "street": "240 OLD JAMESTOWN HWY", "postcode": "38555"}}},
{"geometry": {"type": "Point", "coordinates": [-85.0614081015, 35.8678401362]}, "type": "Feature", "properties": {"collection_times": [{"days": "Mon-Sat", "time": "10:00am"}, {"days": "Sun", "time": "Closed"}], "id": "3855500049", "name": "USPS COLLECTION BOX - BLUE BOX", "address": {"city": "CROSSVILLE", "state": "TN", "street": "5050 SHOSHONE LOOP", "postcode": "38555"}}},
{"geometry": {"type": "Point", "coordinates": [-85.0360879094, 35.9658198936]}, "type": "Feature", "properties": {"collection_times": [{"days": "Mon-Sat", "time": "4:45pm"}, {"days": "Sun", "time": "Closed"}], "id": "3855500050", "name": "USPS COLLECTION BOX - BLUE BOX", "address": {"city": "CROSSVILLE", "state": "TN", "street": "240 OLD JAMESTOWN HWY", "postcode": "38555"}}},
{"geometry": {"type": "Point", "coordinates": [-85.0360879094, 35.9658198936]}, "type": "Feature", "properties": {"collection_times": [{"days": "Mon-Sat", "time": "4:45pm"}, {"days": "Sun", "time": "Closed"}], "id": "3855500051", "name": "USPS COLLECTION BOX - APC", "address": {"city": "CROSSVILLE", "state": "TN", "street": "240 OLD JAMESTOWN HWY", "postcode": "38555"}}},
{"geometry": {"type": "Point", "coordinates": [-85.0432295447, 35.9583900172]}, "type": "Feature", "properties": {"collection_times": [{"days": "Mon-Sat", "time": "1:00pm"}, {"days": "Sun", "time": "Closed"}], "id": "3855500052", "name": "USPS COLLECTION BOX - BLUE BOX", "address": {"city": "CROSSVILLE", "state": "TN", "street": "207 HIGHLAND SQ", "postcode": "38555"}}},
{"geometry": {"type": "Point", "coordinates": [-85.0236505113, 35.9411974122]}, "type": "Feature", "properties": {"collection_times": [{"days": "Mon-Sat", "time": "12:00pm"}, {"days": "Sun", "time": "Closed"}], "id": "3855500053", "name": "USPS COLLECTION BOX - BLUE BOX", "address": {"city": "CROSSVILLE", "state": "TN", "street": "60 JUSTICE CENTER DR", "postcode": "38555"}}},
{"geometry": {"type": "Point", "coordinates": [-84.9318835585, 36.4285745152]}, "type": "Feature", "properties": {"collection_times": [{"days": "Mon-Sat", "time": "4:00pm"}, {"days": "Sun", "time": "Closed"}], "id": "3855600001", "name": "USPS COLLECTION BOX - PO LOBBY", "address": {"city": "JAMESTOWN", "state": "TN", "street": "124 N MAIN ST", "postcode": "38556"}}},
{"geometry": {"type": "Point", "coordinates": [-84.9318835585, 36.4285745152]}, "type": "Feature", "properties": {"collection_times": [{"days": "Mon-Sat", "time": "4:00pm"}, {"days": "Sun", "time": "Closed"}], "id": "3855600002", "name": "USPS COLLECTION BOX - PO LOBBY", "address": {"city": "JAMESTOWN", "state": "TN", "street": "124 N MAIN ST", "postcode": "38556"}}},
{"geometry": {"type": "Point", "coordinates": [-84.9318835585, 36.4285745152]}, "type": "Feature", "properties": {"collection_times": [{"days": "Mon-Sat", "time": "4:00pm"}, {"days": "Sun", "time": "Closed"}], "id": "3855600003", "name": "USPS COLLECTION BOX - BLUE BOX", "address": {"city": "JAMESTOWN", "state": "TN", "street": "124 N MAIN ST", "postcode": "38556"}}},
{"geometry": {"type": "Point", "coordinates": [-84.9318835585, 36.4285745152]}, "type": "Feature", "properties": {"collection_times": [{"days": "Mon-Sat", "time": "4:00pm"}, {"days": "Sun", "time": "Closed"}], "id": "3855600004", "name": "USPS COLLECTION BOX - BLUE BOX", "address": {"city": "JAMESTOWN", "state": "TN", "street": "124 N MAIN ST", "postcode": "38556"}}},
{"geometry": {"type": "Point", "coordinates": [-85.512206734, 35.8518215457]}, "type": "Feature", "properties": {"collection_times": [{"days": "Mon-Fri", "time": "3:45pm"}, {"days": "Sat", "time": "11:00am"}, {"days": "Sun", "time": "Closed"}], "id": "3855900001", "name": "USPS COLLECTION BOX - PO LOBBY", "address": {"city": "DOYLE", "state": "TN", "street": "5375 MCMINNVILLE HWY", "postcode": "38559"}}},
{"geometry": {"type": "Point", "coordinates": [-85.512206734, 35.8518215457]}, "type": "Feature", "properties": {"collection_times": [{"days": "Mon-Fri", "time": "3:45pm"}, {"days": "Sat", "time": "11:00am"}, {"days": "Sun", "time": "Closed"}], "id": "3855900002", "name": "USPS COLLECTION BOX - BLUE BOX", "address": {"city": "DOYLE", "state": "TN", "street": "5375 MCMINNVILLE HWY", "postcode": "38559"}}},
{"geometry": {"type": "Point", "coordinates": [-85.8843230052, 36.2247364448]}, "type": "Feature", "properties": {"collection_times": [{"days": "Mon-Fri", "time": "3:30pm"}, {"days": "Sat", "time": "11:00am"}, {"days": "Sun", "time": "Closed"}], "id": "3856000001", "name": "USPS COLLECTION BOX - PO LOBBY", "address": {"city": "ELMWOOD", "state": "TN", "street": "500 COOKEVILLE HWY", "postcode": "38560"}}},
{"geometry": {"type": "Point", "coordinates": [-85.8843230052, 36.2247364448]}, "type": "Feature", "properties": {"collection_times": [{"days": "Mon-Fri", "time": "3:30pm"}, {"days": "Sat", "time": "11:00am"}, {"days": "Sun", "time": "Closed"}], "id": "3856000002", "name": "USPS COLLECTION BOX - BLUE BOX", "address": {"city": "ELMWOOD", "state": "TN", "street": "500 COOKEVILLE HWY", "postcode": "38560"}}},
{"geometry": {"type": "Point", "coordinates": [-85.6592508615, 36.3559715736]}, "type": "Feature", "properties": {"collection_times": [{"days": "Mon-Fri", "time": "4:00pm"}, {"days": "Sat", "time": "11:30am"}, {"days": "Sun", "time": "Closed"}], "id": "3856200001", "name": "USPS COLLECTION BOX - PO LOBBY", "address": {"city": "GAINESBORO", "state": "TN", "street": "103 W COX AVE", "postcode": "38562"}}},
{"geometry": {"type": "Point", "coordinates": [-85.6592508615, 36.3559715736]}, "type": "Feature", "properties": {"collection_times": [{"days": "Mon-Fri", "time": "4:00pm"}, {"days": "Sat", "time": "11:30am"}, {"days": "Sun", "time": "Closed"}], "id": "3856200003", "name": "USPS COLLECTION BOX - BLUE BOX", "address": {"city": "GAINESBORO", "state": "TN", "street": "103 W COX AVE", "postcode": "38562"}}},
{"geometry": {"type": "Point", "coordinates": [-85.6592508615, 36.3559715736]}, "type": "Feature", "properties": {"collection_times": [{"days": "Mon-Fri", "time": "4:00pm"}, {"days": "Sat", "time": "11:30am"}, {"days": "Sun", "time": "Closed"}], "id": "3856200004", "name": "USPS COLLECTION BOX - BLUE BOX", "address": {"city": "GAINESBORO", "state": "TN", "street": "103 W COX AVE", "postcode": "38562"}}},
{"geometry": {"type": "Point", "coordinates": [-85.6554013718, 36.3552629993]}, "type": "Feature", "properties": {"collection_times": [{"days": "Mon-Fri", "time": "2:00pm"}, {"days": "Sat", "time": "12:00pm"}, {"days": "Sun", "time": "Closed"}], "id": "3856200006", "name": "USPS COLLECTION BOX - BLUE BOX", "address": {"city": "GAINESBORO", "state": "TN", "street": "116 S GRUNDY QUARLES HWY", "postcode": "38562"}}},
{"geometry": {"type": "Point", "coordinates": [-85.9371712874, 36.1701711571]}, "type": "Feature", "properties": {"collection_times": [{"days": "Mon-Fri", "time": "4:00pm"}, {"days": "Sat", "time": "11:45am"}, {"days": "Sun", "time": "Closed"}], "id": "3856300001", "name": "USPS COLLECTION BOX - PO LOBBY", "address": {"city": "GORDONSVILLE", "state": "TN", "street": "25 HICKMAN HWY", "postcode": "38563"}}},
{"geometry": {"type": "Point", "coordinates": [-85.9371712874, 36.1701711571]}, "type": "Feature", "properties": {"collection_times": [{"days": "Mon-Fri", "time": "4:00pm"}, {"days": "Sat", "time": "11:45am"}, {"days": "Sun", "time": "Closed"}], "id": "3856300002", "name": "USPS COLLECTION BOX - BLUE BOX", "address": {"city": "GORDONSVILLE", "state": "TN", "street": "25 HICKMAN HWY", "postcode": "38563"}}},
{"geometry": {"type": "Point", "coordinates": [-85.8001597198, 36.2549420773]}, "type": "Feature", "properties": {"collection_times": [{"days": "Mon-Fri", "time": "2:00pm"}, {"days": "Sat", "time": "10:00am"}, {"days": "Sun", "time": "Closed"}], "id": "3856400001", "name": "USPS COLLECTION BOX - BLUE BOX", "address": {"city": "GRANVILLE", "state": "TN", "street": "7688 GRANVILLE HWY", "postcode": "38564"}}},
{"geometry": {"type": "Point", "coordinates": [-85.8001597198, 36.2549420773]}, "type": "Feature", "properties": {"collection_times": [{"days": "Mon-Fri", "time": "2:00pm"}, {"days": "Sat", "time": "10:00am"}, {"days": "Sun", "time": "Closed"}], "id": "3856400002", "name": "USPS COLLECTION BOX - PO LOBBY", "address": {"city": "GRANVILLE", "state": "TN", "street": "7688 GRANVILLE HWY", "postcode": "38564"}}},
{"geometry": {"type": "Point", "coordinates": [-84.986160192, 36.2647457943]}, "type": "Feature", "properties": {"collection_times": [{"days": "Mon-Fri", "time": "3:30pm"}, {"days": "Sat", "time": "11:30am"}, {"days": "Sun", "time": "Closed"}], "id": "3856500001", "name": "USPS COLLECTION BOX - PO LOBBY", "address": {"city": "GRIMSLEY", "state": "TN", "street": "5100 S YORK HWY", "postcode": "38565"}}},
{"geometry": {"type": "Point", "coordinates": [-84.986160192, 36.2647457943]}, "type": "Feature", "properties": {"collection_times": [{"days": "Mon-Fri", "time": "3:30pm"}, {"days": "Sat", "time": "11:30am"}, {"days": "Sun", "time": "Closed"}], "id": "3856500002", "name": "USPS COLLECTION BOX - BLUE BOX", "address": {"city": "GRIMSLEY", "state": "TN", "street": "5100 S YORK HWY", "postcode": "38565"}}},
{"geometry": {"type": "Point", "coordinates": [-85.9404494859, 36.1446695466]}, "type": "Feature", "properties": {"collection_times": [{"days": "Mon-Fri", "time": "11:30am"}, {"days": "Sat", "time": "10:30am"}, {"days": "Sun", "time": "Closed"}], "id": "3856700001", "name": "USPS COLLECTION BOX - BLUE BOX", "address": {"city": "HICKMAN", "state": "TN", "street": "214 HICKMAN HWY", "postcode": "38567"}}},
{"geometry": {"type": "Point", "coordinates": [-85.9404494859, 36.1446695466]}, "type": "Feature", "properties": {"collection_times": [{"days": "Mon-Fri", "time": "11:30am"}, {"days": "Sat", "time": "10:30am"}, {"days": "Sun", "time": "Closed"}], "id": "3856700002", "name": "USPS COLLECTION BOX - PO LOBBY", "address": {"city": "HICKMAN", "state": "TN", "street": "214 HICKMAN HWY", "postcode": "38567"}}},
{"geometry": {"type": "Point", "coordinates": [-85.4403338807, 36.4140845764]}, "type": "Feature", "properties": {"collection_times": [{"days": "Mon-Fri", "time": "2:30pm"}, {"days": "Sat", "time": "10:45am"}, {"days": "Sun", "time": "Closed"}], "id": "3856800001", "name": "USPS COLLECTION BOX - PO LOBBY", "address": {"city": "HILHAM", "state": "TN", "street": "2483 HILHAM HWY", "postcode": "38568"}}},
{"geometry": {"type": "Point", "coordinates": [-85.4403338807, 36.4140845764]}, "type": "Feature", "properties": {"collection_times": [{"days": "Mon-Fri", "time": "2:30pm"}, {"days": "Sat", "time": "10:45am"}, {"days": "Sun", "time": "Closed"}], "id": "3856800002", "name": "USPS COLLECTION BOX - BLUE BOX", "address": {"city": "HILHAM", "state": "TN", "street": "2483 HILHAM HWY", "postcode": "38568"}}},
{"geometry": {"type": "Point", "coordinates": [-85.3226243683, 36.3834671069]}, "type": "Feature", "properties": {"collection_times": [{"days": "Mon-Fri", "time": "5:00pm"}, {"days": "Sat", "time": "4:30pm"}, {"days": "Sun", "time": "Closed"}], "id": "3857000001", "name": "USPS COLLECTION BOX - PO LOBBY", "address": {"city": "LIVINGSTON", "state": "TN", "street": "105 S COURT SQ", "postcode": "38570"}}},
{"geometry": {"type": "Point", "coordinates": [-85.3226243683, 36.3834671069]}, "type": "Feature", "properties": {"collection_times": [{"days": "Mon-Fri", "time": "5:00pm"}, {"days": "Sat", "time": "4:30pm"}, {"days": "Sun", "time": "Closed"}], "id": "3857000002", "name": "USPS COLLECTION BOX - PO LOBBY", "address": {"city": "LIVINGSTON", "state": "TN", "street": "105 S COURT SQ", "postcode": "38570"}}},
{"geometry": {"type": "Point", "coordinates": [-85.3226243683, 36.3834671069]}, "type": "Feature", "properties": {"collection_times": [{"days": "Mon-Fri", "time": "5:00pm"}, {"days": "Sat", "time": "4:30pm"}, {"days": "Sun", "time": "Closed"}], "id": "3857000003", "name": "USPS COLLECTION BOX - PO LOBBY", "address": {"city": "LIVINGSTON", "state": "TN", "street": "105 S COURT SQ", "postcode": "38570"}}},
{"geometry": {"type": "Point", "coordinates": [-85.3231553102, 36.3828309941]}, "type": "Feature", "properties": {"collection_times": [{"days": "Mon-Fri", "time": "4:45pm"}, {"days": "Sat", "time": "4:30pm"}, {"days": "Sun", "time": "Closed"}], "id": "3857000004", "name": "USPS COLLECTION BOX - BLUE BOX", "address": {"city": "LIVINGSTON", "state": "TN", "street": "115 S SPRING ST", "postcode": "38570"}}},
{"geometry": {"type": "Point", "coordinates": [-85.3231553102, 36.3828309941]}, "type": "Feature", "properties": {"collection_times": [{"days": "Mon-Fri", "time": "4:45pm"}, {"days": "Sat", "time": "4:30pm"}, {"days": "Sun", "time": "Closed"}], "id": "3857000005", "name": "USPS COLLECTION BOX - BLUE BOX", "address": {"city": "LIVINGSTON", "state": "TN", "street": "115 S SPRING ST", "postcode": "38570"}}},
{"geometry": {"type": "Point", "coordinates": [-85.3231553102, 36.3828309941]}, "type": "Feature", "properties": {"collection_times": [{"days": "Mon-Fri", "time": "4:45pm"}, {"days": "Sat", "time": "4:30pm"}, {"days": "Sun", "time": "Closed"}], "id": "3857000006", "name": "USPS COLLECTION BOX - BLUE BOX", "address": {"city": "LIVINGSTON", "state": "TN", "street": "115 S SPRING ST", "postcode": "38570"}}},
{"geometry": {"type": "Point", "coordinates": [-85.3240378027, 36.3958513831]}, "type": "Feature", "properties": {"collection_times": [{"days": "Mon-Sat", "time": "8:30am"}, {"days": "Sun", "time": "Closed"}], "id": "3857000012", "name": "USPS COLLECTION BOX - BLUE BOX", "address": {"city": "LIVINGSTON", "state": "TN", "street": "1010 JOHN T POINDEXTER DR", "postcode": "38570"}}},
{"geometry": {"type": "Point", "coordinates": [-85.2442352569, 36.4410420967]}, "type": "Feature", "properties": {"collection_times": [{"days": "Mon-Fri", "time": "2:00pm"}, {"days": "Sat", "time": "10:30am"}, {"days": "Sun", "time": "Closed"}], "id": "3857300001", "name": "USPS COLLECTION BOX - PO LOBBY", "address": {"city": "MONROE", "state": "TN", "street": "108 POST OFFICE LN", "postcode": "38573"}}},
{"geometry": {"type": "Point", "coordinates": [-85.2442352569, 36.4410420967]}, "type": "Feature", "properties": {"collection_times": [{"days": "Mon-Fri", "time": "2:00pm"}, {"days": "Sat", "time": "10:30am"}, {"days": "Sun", "time": "Closed"}], "id": "3857300002", "name": "USPS COLLECTION BOX - BLUE BOX", "address": {"city": "MONROE", "state": "TN", "street": "108 POST OFFICE LN", "postcode": "38573"}}},
{"geometry": {"type": "Point", "coordinates": [-85.2705292214, 36.1500480099]}, "type": "Feature", "properties": {"collection_times": [{"days": "Mon-Fri", "time": "3:30pm"}, {"days": "Sat", "time": "11:00am"}, {"days": "Sun", "time": "Closed"}], "id": "3857400001", "name": "USPS COLLECTION BOX - BLUE BOX", "address": {"city": "MONTEREY", "state": "TN", "street": "304 W COMMERCIAL AVE", "postcode": "38574"}}},
{"geometry": {"type": "Point", "coordinates": [-85.2705292214, 36.1500480099]}, "type": "Feature", "properties": {"collection_times": [{"days": "Mon-Fri", "time": "3:30pm"}, {"days": "Sat", "time": "11:00am"}, {"days": "Sun", "time": "Closed"}], "id": "3857400002", "name": "USPS COLLECTION BOX - BLUE BOX", "address": {"city": "MONTEREY", "state": "TN", "street": "304 W COMMERCIAL AVE", "postcode": "38574"}}},
{"geometry": {"type": "Point", "coordinates": [-85.2705292214, 36.1500480099]}, "type": "Feature", "properties": {"collection_times": [{"days": "Mon-Fri", "time": "3:30pm"}, {"days": "Sat", "time": "11:00am"}, {"days": "Sun", "time": "Closed"}], "id": "3857400003", "name": "USPS COLLECTION BOX - PO LOBBY", "address": {"city": "MONTEREY", "state": "TN", "street": "304 W COMMERCIAL AVE", "postcode": "38574"}}},
{"geometry": {"type": "Point", "coordinates": [-85.2705292214, 36.1500480099]}, "type": "Feature", "properties": {"collection_times": [{"days": "Mon-Fri", "time": "3:30pm"}, {"days": "Sat", "time": "11:00am"}, {"days": "Sun", "time": "Closed"}], "id": "3857400004", "name": "USPS COLLECTION BOX - PO LOBBY", "address": {"city": "MONTEREY", "state": "TN", "street": "304 W COMMERCIAL AVE", "postcode": "38574"}}},
{"geometry": {"type": "Point", "coordinates": [-85.268204707, 36.1479518066]}, "type": "Feature", "properties": {"collection_times": [{"days": "Mon-Sat", "time": "1:00pm"}, {"days": "Sun", "time": "Closed"}], "id": "3857400007", "name": "USPS COLLECTION BOX - BLUE BOX", "address": {"city": "MONTEREY", "state": "TN", "street": "100 W COMMERCIAL AVE", "postcode": "38574"}}},
{"geometry": {"type": "Point", "coordinates": [-85.6203344431, 36.590610202]}, "type": "Feature", "properties": {"collection_times": [{"days": "Mon-Fri", "time": "11:30am"}, {"days": "Sat", "time": "10:30am"}, {"days": "Sun", "time": "Closed"}], "id": "3857500001", "name": "USPS COLLECTION BOX - PO LOBBY", "address": {"city": "MOSS", "state": "TN", "street": "3100 CLAY COUNTY HWY", "postcode": "38575"}}},
{"geometry": {"type": "Point", "coordinates": [-85.6203344431, 36.590610202]}, "type": "Feature", "properties": {"collection_times": [{"days": "Mon-Fri", "time": "11:30am"}, {"days": "Sat", "time": "10:30am"}, {"days": "Sun", "time": "Closed"}], "id": "3857500002", "name": "USPS COLLECTION BOX - BLUE BOX", "address": {"city": "MOSS", "state": "TN", "street": "3100 CLAY CO HWY", "postcode": "38575"}}},
{"geometry": {"type": "Point", "coordinates": [-84.958192047, 36.5414318452]}, "type": "Feature", "properties": {"collection_times": [{"days": "Mon-Fri", "time": "11:00am"}, {"days": "Sat", "time": "10:45am"}, {"days": "Sun", "time": "Closed"}], "id": "3857700001", "name": "USPS COLLECTION BOX - BLUE BOX", "address": {"city": "PALL MALL", "state": "TN", "street": "2606 N YORK HWY", "postcode": "38577"}}},
{"geometry": {"type": "Point", "coordinates": [-84.958192047, 36.5414318452]}, "type": "Feature", "properties": {"collection_times": [{"days": "Mon-Sat", "time": "10:45am"}, {"days": "Sun", "time": "Closed"}], "id": "3857700002", "name": "USPS COLLECTION BOX - PO LOBBY", "address": {"city": "PALL MALL", "state": "TN", "street": "2606 N YORK HWY", "postcode": "38577"}}},
{"geometry": {"type": "Point", "coordinates": [-85.1972493888, 35.9775866096]}, "type": "Feature", "properties": {"collection_times": [{"days": "Mon-Fri", "time": "3:45pm"}, {"days": "Sat", "time": "10:00am"}, {"days": "Sun", "time": "Closed"}], "id": "3857800001", "name": "USPS COLLECTION BOX - PO LOBBY", "address": {"city": "PLEASANT HILL", "state": "TN", "street": "626 E MAIN ST", "postcode": "38578"}}},
{"geometry": {"type": "Point", "coordinates": [-85.1972493888, 35.9775866096]}, "type": "Feature", "properties": {"collection_times": [{"days": "Mon-Fri", "time": "3:45pm"}, {"days": "Sat", "time": "10:00am"}, {"days": "Sun", "time": "Closed"}], "id": "3857800002", "name": "USPS COLLECTION BOX - BLUE BOX", "address": {"city": "PLEASANT HILL", "state": "TN", "street": "626 E MAIN ST", "postcode": "38578"}}},
{"geometry": {"type": "Point", "coordinates": [-85.3754245587, 36.2619594768]}, "type": "Feature", "properties": {"collection_times": [{"days": "Mon-Fri", "time": "3:15pm"}, {"days": "Sat", "time": "10:45am"}, {"days": "Sun", "time": "Closed"}], "id": "3858000001", "name": "USPS COLLECTION BOX - PO LOBBY", "address": {"city": "RICKMAN", "state": "TN", "street": "3907 RICKMAN RD", "postcode": "38580"}}},
{"geometry": {"type": "Point", "coordinates": [-85.3754245587, 36.2619594768]}, "type": "Feature", "properties": {"collection_times": [{"days": "Mon-Fri", "time": "3:15pm"}, {"days": "Sat", "time": "10:45am"}, {"days": "Sun", "time": "Closed"}], "id": "3858000002", "name": "USPS COLLECTION BOX - BLUE BOX", "address": {"city": "RICKMAN", "state": "TN", "street": "3907 RICKMAN RD", "postcode": "38580"}}},
{"geometry": {"type": "Point", "coordinates": [-85.6132915815, 35.7922135696]}, "type": "Feature", "properties": {"collection_times": [{"days": "Mon-Fri", "time": "2:30pm"}, {"days": "Sat", "time": "10:45am"}, {"days": "Sun", "time": "Closed"}], "id": "3858100001", "name": "USPS COLLECTION BOX - PO LOBBY", "address": {"city": "ROCK ISLAND", "state": "TN", "street": "1190 ROCK ISLAND RD", "postcode": "38581"}}},
{"geometry": {"type": "Point", "coordinates": [-85.6132915815, 35.7922135696]}, "type": "Feature", "properties": {"collection_times": [{"days": "Mon-Fri", "time": "2:30pm"}, {"days": "Sat", "time": "10:45am"}, {"days": "Sun", "time": "Closed"}], "id": "3858100002", "name": "USPS COLLECTION BOX - BLUE BOX", "address": {"city": "ROCK ISLAND", "state": "TN", "street": "1190 ROCK ISLAND RD", "postcode": "38581"}}},
{"geometry": {"type": "Point", "coordinates": [-85.7241573127, 36.0854028513]}, "type": "Feature", "properties": {"collection_times": [{"days": "Mon-Fri", "time": "1:00pm"}, {"days": "Sat", "time": "10:00am"}, {"days": "Sun", "time": "Closed"}], "id": "3858200001", "name": "USPS COLLECTION BOX - BLUE BOX", "address": {"city": "SILVER POINT", "state": "TN", "street": "6860 SMITHVILLE HWY", "postcode": "38582"}}},
{"geometry": {"type": "Point", "coordinates": [-85.7241573127, 36.0854028513]}, "type": "Feature", "properties": {"collection_times": [{"days": "Mon-Fri", "time": "1:00pm"}, {"days": "Sat", "time": "10:00am"}, {"days": "Sun", "time": "Closed"}], "id": "3858200003", "name": "USPS COLLECTION BOX - PO LOBBY", "address": {"city": "SILVER POINT", "state": "TN", "street": "6860 SMITHVILLE HWY", "postcode": "38582"}}},
{"geometry": {"type": "Point", "coordinates": [-85.4575692293, 35.9244328931]}, "type": "Feature", "properties": {"collection_times": [{"days": "Mon-Sat", "time": "4:45pm"}, {"days": "Sun", "time": "Closed"}], "id": "3858300001", "name": "USPS COLLECTION BOX - PO LOBBY", "address": {"city": "SPARTA", "state": "TN", "street": "309 E BOCKMAN WAY", "postcode": "38583"}}},
{"geometry": {"type": "Point", "coordinates": [-85.4575692293, 35.9244328931]}, "type": "Feature", "properties": {"collection_times": [{"days": "Mon-Sat", "time": "4:45pm"}, {"days": "Sun", "time": "Closed"}], "id": "3858300002", "name": "USPS COLLECTION BOX - PO LOBBY", "address": {"city": "SPARTA", "state": "TN", "street": "309 E BOCKMAN WAY", "postcode": "38583"}}},
{"geometry": {"type": "Point", "coordinates": [-85.4575692293, 35.9244328931]}, "type": "Feature", "properties": {"collection_times": [{"days": "Mon-Sat", "time": "4:45pm"}, {"days": "Sun", "time": "Closed"}], "id": "3858300003", "name": "USPS COLLECTION BOX - BLUE BOX", "address": {"city": "SPARTA", "state": "TN", "street": "309 E BOCKMAN WAY", "postcode": "38583"}}},
{"geometry": {"type": "Point", "coordinates": [-85.4575692293, 35.9244328931]}, "type": "Feature", "properties": {"collection_times": [{"days": "Mon-Sat", "time": "4:45pm"}, {"days": "Sun", "time": "Closed"}], "id": "3858300004", "name": "USPS COLLECTION BOX - BLUE BOX", "address": {"city": "SPARTA", "state": "TN", "street": "309 E BOCKMAN WAY", "postcode": "38583"}}},
{"geometry": {"type": "Point", "coordinates": [-85.4847512604, 35.9436252194]}, "type": "Feature", "properties": {"collection_times": [{"days": "Mon-Fri", "time": "4:15pm"}, {"days": "Sat", "time": "11:30am"}, {"days": "Sun", "time": "Closed"}], "id": "3858300007", "name": "USPS COLLECTION BOX - BLUE BOX", "address": {"city": "SPARTA", "state": "TN", "street": "189 MOSE DR", "postcode": "38583"}}},
{"geometry": {"type": "Point", "coordinates": [-85.4784315128, 35.9331392172]}, "type": "Feature", "properties": {"collection_times": [{"days": "Mon-Fri", "time": "4:15pm"}, {"days": "Sat", "time": "10:30am"}, {"days": "Sun", "time": "Closed"}], "id": "3858300009", "name": "USPS COLLECTION BOX - BLUE BOX", "address": {"city": "SPARTA", "state": "TN", "street": "524 W BOCKMAN WAY", "postcode": "38583"}}},
{"geometry": {"type": "Point", "coordinates": [-85.4798857501, 35.9338468805]}, "type": "Feature", "properties": {"collection_times": [{"days": "Mon-Fri", "time": "4:15pm"}, {"days": "Sat", "time": "12:15pm"}, {"days": "Sun", "time": "Closed"}], "id": "3858300011", "name": "USPS COLLECTION BOX - BLUE BOX", "address": {"city": "SPARTA", "state": "TN", "street": "577 W BOCKMAN WAY", "postcode": "38583"}}},
{"geometry": {"type": "Point", "coordinates": [-85.4639085726, 35.9257044633]}, "type": "Feature", "properties": {"collection_times": [{"days": "Mon-Fri", "time": "4:15pm"}, {"days": "Sat", "time": "2:00pm"}, {"days": "Sun", "time": "Closed"}], "id": "3858300022", "name": "USPS COLLECTION BOX - BLUE BOX", "address": {"city": "SPARTA", "state": "TN", "street": "9 E BOCKMAN WAY", "postcode": "38583"}}},
{"geometry": {"type": "Point", "coordinates": [-85.4798857501, 35.9338468805]}, "type": "Feature", "properties": {"collection_times": [{"days": "Mon-Fri", "time": "4:15pm"}, {"days": "Sat", "time": "12:15pm"}, {"days": "Sun", "time": "Closed"}], "id": "3858300024", "name": "USPS COLLECTION BOX - BLUE BOX", "address": {"city": "SPARTA", "state": "TN", "street": "577 W BOCKMAN WAY", "postcode": "38583"}}},
{"geometry": {"type": "Point", "coordinates": [-85.4847512604, 35.9436252194]}, "type": "Feature", "properties": {"collection_times": [{"days": "Mon-Fri", "time": "4:15pm"}, {"days": "Sat", "time": "11:30am"}, {"days": "Sun", "time": "Closed"}], "id": "3858300025", "name": "USPS COLLECTION BOX - BLUE BOX", "address": {"city": "SPARTA", "state": "TN", "street": "189 MOSE DR", "postcode": "38583"}}},
{"geometry": {"type": "Point", "coordinates": [-85.4874659686, 35.9297783282]}, "type": "Feature", "properties": {"collection_times": [{"days": "Mon-Sat", "time": "9:00am"}, {"days": "Sun", "time": "Closed"}], "id": "3858300026", "name": "USPS COLLECTION BOX - BLUE BOX", "address": {"city": "SPARTA", "state": "TN", "street": "130 SAM WALTON DR", "postcode": "38583"}}},
{"geometry": {"type": "Point", "coordinates": [-85.4668671151, 35.7479506974]}, "type": "Feature", "properties": {"collection_times": [{"days": "Mon-Fri", "time": "3:30pm"}, {"days": "Sat", "time": "12:00pm"}, {"days": "Sun", "time": "Closed"}], "id": "3858500001", "name": "USPS COLLECTION BOX - PO LOBBY", "address": {"city": "SPENCER", "state": "TN", "street": "37 VETERANS SQ", "postcode": "38585"}}},
{"geometry": {"type": "Point", "coordinates": [-85.4668671151, 35.7479506974]}, "type": "Feature", "properties": {"collection_times": [{"days": "Mon-Fri", "time": "3:30pm"}, {"days": "Sat", "time": "12:00pm"}, {"days": "Sun", "time": "Closed"}], "id": "3858500002", "name": "USPS COLLECTION BOX - BLUE BOX", "address": {"city": "SPENCER", "state": "TN", "street": "37 VETERANS SQ", "postcode": "38585"}}},
{"geometry": {"type": "Point", "coordinates": [-85.6028933722, 35.807193379]}, "type": "Feature", "properties": {"collection_times": [{"days": "Mon-Fri", "time": "2:30pm"}, {"days": "Sat", "time": "10:15am"}, {"days": "Sun", "time": "Closed"}], "id": "3858700002", "name": "USPS COLLECTION BOX - BLUE BOX", "address": {"city": "WALLING", "state": "TN", "street": "11839 MCMINNVILLE HWY", "postcode": "38587"}}},
{"geometry": {"type": "Point", "coordinates": [-85.6720645318, 36.4463804136]}, "type": "Feature", "properties": {"collection_times": [{"days": "Mon-Fri", "time": "11:30am"}, {"days": "Sat", "time": "10:30am"}, {"days": "Sun", "time": "Closed"}], "id": "3858800001", "name": "USPS COLLECTION BOX - BLUE BOX", "address": {"city": "WHITLEYVILLE", "state": "TN", "street": "3277 JENNINGS CREEK HWY", "postcode": "38588"}}},
{"geometry": {"type": "Point", "coordinates": [-85.1031859508, 36.2587387584]}, "type": "Feature", "properties": {"collection_times": [{"days": "Mon-Sat", "time": "1:00pm"}, {"days": "Sun", "time": "Closed"}], "id": "3858900000", "name": "USPS COLLECTION BOX - BLUE BOX", "address": {"city": "WILDER", "state": "TN", "street": "1010 VINES RIDGE RD", "postcode": "38589"}}}
]}
