{"type": "FeatureCollection", "features": [
{"geometry": {"type": "Point", "coordinates": [-112.4402444513, 42.8934502875]}, "type": "Feature", "properties": {"collection_times": [{"days": "Mon-Fri", "time": "5:00pm"}, {"days": "Sat", "time": "2:45pm"}, {"days": "Sun", "time": "Closed"}], "id": "8320100001", "name": "USPS COLLECTION BOX - BLUE BOX", "address": {"city": "POCATELLO", "state": "ID", "street": "1000 POCATELLO CREEK RD", "postcode": "83201"}}},
{"geometry": {"type": "Point", "coordinates": [-112.4513218507, 42.8976586487]}, "type": "Feature", "properties": {"collection_times": [{"days": "Mon-Fri", "time": "3:00pm"}, {"days": "Sat", "time": "2:45pm"}, {"days": "Sun", "time": "Closed"}], "id": "8320100003", "name": "USPS COLLECTION BOX - BLUE BOX", "address": {"city": "POCATELLO", "state": "ID", "street": "1246 YELLOWSTONE AVE", "postcode": "83201"}}},
{"geometry": {"type": "Point", "coordinates": [-112.4348799767, 42.8720684857]}, "type": "Feature", "properties": {"collection_times": [{"days": "Mon-Fri", "time": "1:15pm"}, {"days": "Sat", "time": "4:00pm"}, {"days": "Sun", "time": "Closed"}], "id": "8320100004", "name": "USPS COLLECTION BOX - BLUE BOX", "address": {"city": "POCATELLO", "state": "ID", "street": "1448 E CENTER ST", "postcode": "83201"}}},
{"geometry": {"type": "Point", "coordinates": [-112.4428076263, 42.8619357445]}, "type": "Feature", "properties": {"collection_times": [{"days": "Mon-Fri", "time": "2:00pm"}, {"days": "Sat", "time": "3:15pm"}, {"days": "Sun", "time": "Closed"}], "id": "8320100011", "name": "USPS COLLECTION BOX - BLUE BOX", "address": {"city": "POCATELLO", "state": "ID", "street": "330 E BENTON ST", "postcode": "83201"}}},
{"geometry": {"type": "Point", "coordinates": [-112.4431173832, 42.8668669719]}, "type": "Feature", "properties": {"collection_times": [{"days": "Mon-Fri", "time": "4:30pm"}, {"days": "Sat", "time": "3:45pm"}, {"days": "Sun", "time": "Closed"}], "id": "8320100018", "name": "USPS COLLECTION BOX - BLUE BOX", "address": {"city": "POCATELLO", "state": "ID", "street": "640 E CENTER ST", "postcode": "83201"}}},
{"geometry": {"type": "Point", "coordinates": [-112.4188052, 42.8732504495]}, "type": "Feature", "properties": {"collection_times": [{"days": "Mon-Fri", "time": "1:30pm"}, {"days": "Sat", "time": "4:00pm"}, {"days": "Sun", "time": "Closed"}], "id": "8320100019", "name": "USPS COLLECTION BOX - BLUE BOX", "address": {"city": "POCATELLO", "state": "ID", "street": "777 HOSPITAL WAY", "postcode": "83201"}}},
{"geometry": {"type": "Point", "coordinates": [-112.4460748496, 42.86564208]}, "type": "Feature", "properties": {"collection_times": [{"days": "Mon-Fri", "time": "2:30pm"}, {"days": "Sat", "time": "3:30pm"}, {"days": "Sun", "time": "Closed"}], "id": "8320100025", "name": "USPS COLLECTION BOX - BLUE BOX", "address": {"city": "POCATELLO", "state": "ID", "street": "151 N 3RD AVE", "postcode": "83201"}}},
{"geometry": {"type": "Point", "coordinates": [-112.4475664128, 42.8639943572]}, "type": "Feature", "properties": {"collection_times": [{"days": "Mon-Fri", "time": "2:00pm"}, {"days": "Sat-Sun", "time": "Closed"}], "id": "8320100030", "name": "USPS COLLECTION BOX - BLUE BOX", "address": {"city": "POCATELLO", "state": "ID", "street": "201 E CENTER ST", "postcode": "83201"}}},
{"geometry": {"type": "Point", "coordinates": [-112.4431173832, 42.8668669719]}, "type": "Feature", "properties": {"collection_times": [{"days": "Mon-Fri", "time": "4:30pm"}, {"days": "Sat", "time": "3:45pm"}, {"days": "Sun", "time": "Closed"}], "id": "8320100031", "name": "USPS COLLECTION BOX - BLUE BOX", "address": {"city": "POCATELLO", "state": "ID", "street": "640 E CENTER ST", "postcode": "83201"}}},
{"geometry": {"type": "Point", "coordinates": [-112.4430665205, 42.868249959]}, "type": "Feature", "properties": {"collection_times": [{"days": "Mon-Fri", "time": "5:00pm"}, {"days": "Sat", "time": "4:30pm"}, {"days": "Sun", "time": "Closed"}], "id": "8320100034", "name": "USPS COLLECTION BOX - PO LOBBY", "address": {"city": "POCATELLO", "state": "ID", "street": "730 E CLARK ST", "postcode": "83201"}}},
{"geometry": {"type": "Point", "coordinates": [-112.4430665205, 42.868249959]}, "type": "Feature", "properties": {"collection_times": [{"days": "Mon-Sat", "time": "4:30pm"}, {"days": "Sun", "time": "Closed"}], "id": "8320100035", "name": "USPS COLLECTION BOX - BLUE BOX", "address": {"city": "POCATELLO", "state": "ID", "street": "730 E CLARK ST", "postcode": "83201"}}},
{"geometry": {"type": "Point", "coordinates": [-112.4430665205, 42.868249959]}, "type": "Feature", "properties": {"collection_times": [{"days": "Mon-Sat", "time": "4:30pm"}, {"days": "Sun", "time": "Closed"}], "id": "8320100036", "name": "USPS COLLECTION BOX - BLUE BOX", "address": {"city": "POCATELLO", "state": "ID", "street": "730 E CLARK ST", "postcode": "83201"}}},
{"geometry": {"type": "Point", "coordinates": [-112.4430665205, 42.868249959]}, "type": "Feature", "properties": {"collection_times": [{"days": "Mon-Sat", "time": "4:30pm"}, {"days": "Sun", "time": "Closed"}], "id": "8320100038", "name": "USPS COLLECTION BOX - BLUE BOX", "address": {"city": "POCATELLO", "state": "ID", "street": "730 E CLARK ST", "postcode": "83201"}}},
{"geometry": {"type": "Point", "coordinates": [-112.4430665205, 42.868249959]}, "type": "Feature", "properties": {"collection_times": [{"days": "Mon-Sat", "time": "4:30pm"}, {"days": "Sun", "time": "Closed"}], "id": "8320100039", "name": "USPS COLLECTION BOX - BLUE BOX", "address": {"city": "POCATELLO", "state": "ID", "street": "730 E CLARK ST", "postcode": "83201"}}},
{"geometry": {"type": "Point", "coordinates": [-112.4501361761, 42.8841086779]}, "type": "Feature", "properties": {"collection_times": [{"days": "Mon-Fri", "time": "2:30pm"}, {"days": "Sat", "time": "2:45pm"}, {"days": "Sun", "time": "Closed"}], "id": "8320100045", "name": "USPS COLLECTION BOX - BLUE BOX", "address": {"city": "POCATELLO", "state": "ID", "street": "496 PERSHING AVE", "postcode": "83201"}}},
{"geometry": {"type": "Point", "coordinates": [-112.451258127, 42.9064120399]}, "type": "Feature", "properties": {"collection_times": [{"days": "Mon-Fri", "time": "4:30pm"}, {"days": "Sat", "time": "5:35pm"}, {"days": "Sun", "time": "Closed"}], "id": "8320100048", "name": "USPS COLLECTION BOX - BLUE BOX", "address": {"city": "POCATELLO", "state": "ID", "street": "1750 FLANDRO DR", "postcode": "83201"}}},
{"geometry": {"type": "Point", "coordinates": [-112.451258127, 42.9064120399]}, "type": "Feature", "properties": {"collection_times": [{"days": "Mon-Fri", "time": "4:30pm"}, {"days": "Sat", "time": "5:35pm"}, {"days": "Sun", "time": "Closed"}], "id": "8320100049", "name": "USPS COLLECTION BOX - BLUE BOX", "address": {"city": "POCATELLO", "state": "ID", "street": "1750 FLANDRO DR", "postcode": "83201"}}},
{"geometry": {"type": "Point", "coordinates": [-112.4261112192, 42.8666113188]}, "type": "Feature", "properties": {"collection_times": [{"days": "Mon-Fri", "time": "1:30pm"}, {"days": "Sat", "time": "4:00pm"}, {"days": "Sun", "time": "Closed"}], "id": "8320100059", "name": "USPS COLLECTION BOX - BLUE BOX", "address": {"city": "POCATELLO", "state": "ID", "street": "1619 E TERRY ST", "postcode": "83201"}}},
{"geometry": {"type": "Point", "coordinates": [-112.4337885799, 42.8674754138]}, "type": "Feature", "properties": {"collection_times": [{"days": "Mon-Fri", "time": "1:30pm"}, {"days": "Sat-Sun", "time": "Closed"}], "id": "8320100063", "name": "USPS COLLECTION BOX - BLUE BOX", "address": {"city": "POCATELLO", "state": "ID", "street": "500 S 11TH AVE", "postcode": "83201"}}},
{"geometry": {"type": "Point", "coordinates": [-112.4272896429, 42.8755464178]}, "type": "Feature", "properties": {"collection_times": [{"days": "Mon-Fri", "time": "1:30pm"}, {"days": "Sat-Sun", "time": "Closed"}], "id": "8320100064", "name": "USPS COLLECTION BOX - BLUE BOX", "address": {"city": "POCATELLO", "state": "ID", "street": "2231 E CENTER ST", "postcode": "83201"}}},
{"geometry": {"type": "Point", "coordinates": [-112.4379375186, 42.8850906481]}, "type": "Feature", "properties": {"collection_times": [{"days": "Mon-Fri", "time": "4:30pm"}, {"days": "Sat", "time": "5:35pm"}, {"days": "Sun", "time": "Closed"}], "id": "8320100065", "name": "USPS COLLECTION BOX - EXPRESS", "address": {"city": "POCATELLO", "state": "ID", "street": "1750 FLANDRO DR", "postcode": "83201"}}},
{"geometry": {"type": "Point", "coordinates": [-112.451258127, 42.9064120399]}, "type": "Feature", "properties": {"collection_times": [{"days": "Mon-Fri", "time": "4:30pm"}, {"days": "Sat", "time": "5:35pm"}, {"days": "Sun", "time": "Closed"}], "id": "8320100066", "name": "USPS COLLECTION BOX - PO LOBBY", "address": {"city": "POCATELLO", "state": "ID", "street": "1750 FLANDRO DR", "postcode": "83201"}}},
{"geometry": {"type": "Point", "coordinates": [-112.4430665205, 42.868249959]}, "type": "Feature", "properties": {"collection_times": [{"days": "Mon-Fri", "time": "5:00pm"}, {"days": "Sat", "time": "4:30pm"}, {"days": "Sun", "time": "Closed"}], "id": "8320100074", "name": "USPS COLLECTION BOX - APC", "address": {"city": "POCATELLO", "state": "ID", "street": "730 E CLARK ST", "postcode": "83201"}}},
{"geometry": {"type": "Point", "coordinates": [-112.4501361761, 42.8841086779]}, "type": "Feature", "properties": {"collection_times": [{"days": "Mon-Fri", "time": "2:30pm"}, {"days": "Sat", "time": "2:45pm"}, {"days": "Sun", "time": "Closed"}], "id": "8320100076", "name": "USPS COLLECTION BOX - BLUE BOX", "address": {"city": "POCATELLO", "state": "ID", "street": "496 PERSHING AVE", "postcode": "83201"}}},
{"geometry": {"type": "Point", "coordinates": [-112.451258127, 42.9064120399]}, "type": "Feature", "properties": {"collection_times": [{"days": "Mon-Fri", "time": "4:30pm"}, {"days": "Sat", "time": "5:35pm"}, {"days": "Sun", "time": "Closed"}], "id": "8320100078", "name": "USPS COLLECTION BOX - PO LOBBY", "address": {"city": "POCATELLO", "state": "ID", "street": "1750 FLANDRO DR", "postcode": "83201"}}},
{"geometry": {"type": "Point", "coordinates": [-112.4663878905, 42.9090147253]}, "type": "Feature", "properties": {"collection_times": [{"days": "Mon-Fri", "time": "3:30pm"}, {"days": "Sat", "time": "3:00pm"}, {"days": "Sun", "time": "Closed"}], "id": "8320200003", "name": "USPS COLLECTION BOX - BLUE BOX", "address": {"city": "POCATELLO", "state": "ID", "street": "4155 YELLOWSTONE AVE", "postcode": "83202"}}},
{"geometry": {"type": "Point", "coordinates": [-112.4725759024, 42.9251733238]}, "type": "Feature", "properties": {"collection_times": [{"days": "Mon-Fri", "time": "3:30pm"}, {"days": "Sat", "time": "3:00pm"}, {"days": "Sun", "time": "Closed"}], "id": "8320200006", "name": "USPS COLLECTION BOX - BLUE BOX", "address": {"city": "POCATELLO", "state": "ID", "street": "4845 YELLOWSTONE AVE", "postcode": "83202"}}},
{"geometry": {"type": "Point", "coordinates": [-112.466341735, 42.9197959898]}, "type": "Feature", "properties": {"collection_times": [{"days": "Mon-Fri", "time": "3:30pm"}, {"days": "Sat-Sun", "time": "Closed"}], "id": "8320200008", "name": "USPS COLLECTION BOX - BLUE BOX", "address": {"city": "POCATELLO", "state": "ID", "street": "4750 YELLOWSTONE AVE", "postcode": "83202"}}},
{"geometry": {"type": "Point", "coordinates": [-112.4662381034, 42.9102355811]}, "type": "Feature", "properties": {"collection_times": [{"days": "Mon-Fri", "time": "3:30pm"}, {"days": "Sat", "time": "3:00pm"}, {"days": "Sun", "time": "Closed"}], "id": "8320200009", "name": "USPS COLLECTION BOX - BLUE BOX", "address": {"city": "POCATELLO", "state": "ID", "street": "4240 YELLOWSTONE AVE", "postcode": "83202"}}},
{"geometry": {"type": "Point", "coordinates": [-112.2402577343, 42.9635704709]}, "type": "Feature", "properties": {"collection_times": [{"days": "Mon-Fri", "time": "4:35pm"}, {"days": "Sat", "time": "12:00pm"}, {"days": "Sun", "time": "Closed"}], "id": "8320300000", "name": "USPS COLLECTION BOX - BLUE BOX", "address": {"city": "FORT HALL", "state": "ID", "street": "100 TRADING POST COMPLEX", "postcode": "83203"}}},
{"geometry": {"type": "Point", "coordinates": [-112.4517053029, 42.8615127854]}, "type": "Feature", "properties": {"collection_times": [{"days": "Mon-Fri", "time": "2:00pm"}, {"days": "Sat-Sun", "time": "Closed"}], "id": "8320400002", "name": "USPS COLLECTION BOX - BLUE BOX", "address": {"city": "POCATELLO", "state": "ID", "street": "105 N ARTHUR AVE", "postcode": "83204"}}},
{"geometry": {"type": "Point", "coordinates": [-112.4585572015, 42.8675911263]}, "type": "Feature", "properties": {"collection_times": [{"days": "Mon-Fri", "time": "2:00pm"}, {"days": "Sat", "time": "3:15pm"}, {"days": "Sun", "time": "Closed"}], "id": "8320400004", "name": "USPS COLLECTION BOX - BLUE BOX", "address": {"city": "POCATELLO", "state": "ID", "street": "900 N ARTHUR AVE", "postcode": "83204"}}},
{"geometry": {"type": "Point", "coordinates": [-112.4585572015, 42.8675911263]}, "type": "Feature", "properties": {"collection_times": [{"days": "Mon-Fri", "time": "2:00pm"}, {"days": "Sat", "time": "3:15pm"}, {"days": "Sun", "time": "Closed"}], "id": "8320400005", "name": "USPS COLLECTION BOX - BLUE BOX", "address": {"city": "POCATELLO", "state": "ID", "street": "900 N ARTHUR AVE", "postcode": "83204"}}},
{"geometry": {"type": "Point", "coordinates": [-112.4469143112, 42.8588997614]}, "type": "Feature", "properties": {"collection_times": [{"days": "Mon-Fri", "time": "2:00pm"}, {"days": "Sat", "time": "3:15pm"}, {"days": "Sun", "time": "Closed"}], "id": "8320400007", "name": "USPS COLLECTION BOX - BLUE BOX", "address": {"city": "POCATELLO", "state": "ID", "street": "525 S MAIN ST", "postcode": "83204"}}},
{"geometry": {"type": "Point", "coordinates": [-112.450496399, 42.86204649]}, "type": "Feature", "properties": {"collection_times": [{"days": "Mon-Fri", "time": "4:30pm"}, {"days": "Sat", "time": "3:30pm"}, {"days": "Sun", "time": "Closed"}], "id": "8320400009", "name": "USPS COLLECTION BOX - BLUE BOX", "address": {"city": "POCATELLO", "state": "ID", "street": "102 S MAIN ST", "postcode": "83204"}}},
{"geometry": {"type": "Point", "coordinates": [-112.450496399, 42.86204649]}, "type": "Feature", "properties": {"collection_times": [{"days": "Mon-Fri", "time": "4:30pm"}, {"days": "Sat", "time": "3:30pm"}, {"days": "Sun", "time": "Closed"}], "id": "8320400010", "name": "USPS COLLECTION BOX - PO LOBBY", "address": {"city": "POCATELLO", "state": "ID", "street": "102 S MAIN ST", "postcode": "83204"}}},
{"geometry": {"type": "Point", "coordinates": [-112.450496399, 42.86204649]}, "type": "Feature", "properties": {"collection_times": [{"days": "Mon-Fri", "time": "4:30pm"}, {"days": "Sat", "time": "3:30pm"}, {"days": "Sun", "time": "Closed"}], "id": "8320400015", "name": "USPS COLLECTION BOX - PO LOBBY", "address": {"city": "POCATELLO", "state": "ID", "street": "102 S MAIN ST", "postcode": "83204"}}},
{"geometry": {"type": "Point", "coordinates": [-112.8375046242, 42.9440970578]}, "type": "Feature", "properties": {"collection_times": [{"days": "Mon-Fri", "time": "4:05pm"}, {"days": "Sat", "time": "1:00pm"}, {"days": "Sun", "time": "Closed"}], "id": "8321000000", "name": "USPS COLLECTION BOX - BLUE BOX", "address": {"city": "ABERDEEN", "state": "ID", "street": "82 W CENTRAL ST", "postcode": "83210"}}},
{"geometry": {"type": "Point", "coordinates": [-112.8375046242, 42.9440970578]}, "type": "Feature", "properties": {"collection_times": [{"days": "Mon-Fri", "time": "4:05pm"}, {"days": "Sat", "time": "1:00pm"}, {"days": "Sun", "time": "Closed"}], "id": "8321000001", "name": "USPS COLLECTION BOX - PO LOBBY", "address": {"city": "ABERDEEN", "state": "ID", "street": "82 W CENTRAL ST", "postcode": "83210"}}},
{"geometry": {"type": "Point", "coordinates": [-112.8561294837, 42.7847713984]}, "type": "Feature", "properties": {"collection_times": [{"days": "Mon-Fri", "time": "4:25pm"}, {"days": "Sat", "time": "1:45pm"}, {"days": "Sun", "time": "Closed"}], "id": "8321100000", "name": "USPS COLLECTION BOX - BLUE BOX", "address": {"city": "AMERICAN FALLS", "state": "ID", "street": "136 IDAHO ST", "postcode": "83211"}}},
{"geometry": {"type": "Point", "coordinates": [-112.8561294837, 42.7847713984]}, "type": "Feature", "properties": {"collection_times": [{"days": "Mon-Fri", "time": "4:25pm"}, {"days": "Sat", "time": "1:45pm"}, {"days": "Sun", "time": "Closed"}], "id": "8321100002", "name": "USPS COLLECTION BOX - BLUE BOX", "address": {"city": "AMERICAN FALLS", "state": "ID", "street": "136 IDAHO ST", "postcode": "83211"}}},
{"geometry": {"type": "Point", "coordinates": [-112.8561294837, 42.7847713984]}, "type": "Feature", "properties": {"collection_times": [{"days": "Mon-Fri", "time": "4:25pm"}, {"days": "Sat", "time": "1:45pm"}, {"days": "Sun", "time": "Closed"}], "id": "8321100003", "name": "USPS COLLECTION BOX - PO LOBBY", "address": {"city": "AMERICAN FALLS", "state": "ID", "street": "136 IDAHO ST", "postcode": "83211"}}},
{"geometry": {"type": "Point", "coordinates": [-112.5558460861, 42.530982444]}, "type": "Feature", "properties": {"collection_times": [{"days": "Mon-Sat", "time": "10:00am"}, {"days": "Sun", "time": "Closed"}], "id": "8321200000", "name": "USPS COLLECTION BOX - PO LOBBY", "address": {"city": "ARBON", "state": "ID", "street": "4351 ARBON VALLEY HWY", "postcode": "83212"}}},
{"geometry": {"type": "Point", "coordinates": [-113.3170579083, 43.4957993782]}, "type": "Feature", "properties": {"collection_times": [{"days": "Mon-Sat", "time": "3:50pm"}, {"days": "Sun", "time": "Closed"}], "id": "8321300000", "name": "USPS COLLECTION BOX - BLUE BOX", "address": {"city": "ARCO", "state": "ID", "street": "147 LOST RIVER AVE", "postcode": "83213"}}},
{"geometry": {"type": "Point", "coordinates": [-113.3170579083, 43.4957993782]}, "type": "Feature", "properties": {"collection_times": [{"days": "Mon-Fri", "time": "3:50pm"}, {"days": "Sat", "time": "10:00am"}, {"days": "Sun", "time": "Closed"}], "id": "8321300001", "name": "USPS COLLECTION BOX - PO LOBBY", "address": {"city": "ARCO", "state": "ID", "street": "147 LOST RIVER AVE", "postcode": "83213"}}},
{"geometry": {"type": "Point", "coordinates": [-112.1758607432, 42.5611855056]}, "type": "Feature", "properties": {"collection_times": [{"days": "Mon-Sat", "time": "3:35pm"}, {"days": "Sun", "time": "Closed"}], "id": "8321400000", "name": "USPS COLLECTION BOX - BLUE BOX", "address": {"city": "ARIMO", "state": "ID", "street": "25 N MEADOWVIEW ST", "postcode": "83214"}}},
{"geometry": {"type": "Point", "coordinates": [-112.1758607432, 42.5611855056]}, "type": "Feature", "properties": {"collection_times": [{"days": "Mon-Fri", "time": "11:45am"}, {"days": "Sat", "time": "9:00am"}, {"days": "Sun", "time": "Closed"}], "id": "8321400001", "name": "USPS COLLECTION BOX - PO LOBBY", "address": {"city": "ARIMO", "state": "ID", "street": "25 N MEADOWVIEW ST", "postcode": "83214"}}},
{"geometry": {"type": "Point", "coordinates": [-111.8844701569, 42.7208485721]}, "type": "Feature", "properties": {"collection_times": [{"days": "Mon-Sat", "time": "4:00pm"}, {"days": "Sun", "time": "Closed"}], "id": "8321700000", "name": "USPS COLLECTION BOX - BLUE BOX", "address": {"city": "BANCROFT", "state": "ID", "street": "11 S MAIN ST", "postcode": "83217"}}},
{"geometry": {"type": "Point", "coordinates": [-111.8844701569, 42.7208485721]}, "type": "Feature", "properties": {"collection_times": [{"days": "Mon-Fri", "time": "2:15pm"}, {"days": "Sat", "time": "8:30am"}, {"days": "Sun", "time": "Closed"}], "id": "8321700001", "name": "USPS COLLECTION BOX - PO LOBBY", "address": {"city": "BANCROFT", "state": "ID", "street": "11 S MAIN ST", "postcode": "83217"}}},
{"geometry": {"type": "Point", "coordinates": [-111.8844701569, 42.7208485721]}, "type": "Feature", "properties": {"collection_times": [{"days": "Mon-Fri", "time": "2:15pm"}, {"days": "Sat", "time": "8:30am"}, {"days": "Sun", "time": "Closed"}], "id": "8321700002", "name": "USPS COLLECTION BOX - PO LOBBY", "address": {"city": "BANCROFT", "state": "ID", "street": "11 S MAIN ST", "postcode": "83217"}}},
{"geometry": {"type": "Point", "coordinates": [-112.1636561104, 43.3151451431]}, "type": "Feature", "properties": {"collection_times": [{"days": "Mon-Sat", "time": "3:55pm"}, {"days": "Sun", "time": "Closed"}], "id": "8321800000", "name": "USPS COLLECTION BOX - BLUE BOX", "address": {"city": "BASALT", "state": "ID", "street": "678 E 825 N", "postcode": "83218"}}},
{"geometry": {"type": "Point", "coordinates": [-112.1636561104, 43.3151451431]}, "type": "Feature", "properties": {"collection_times": [{"days": "Mon-Fri", "time": "11:45am"}, {"days": "Sat", "time": "9:15am"}, {"days": "Sun", "time": "Closed"}], "id": "8321800001", "name": "USPS COLLECTION BOX - PO LOBBY", "address": {"city": "BASALT", "state": "ID", "street": "678 E 825 N", "postcode": "83218"}}},
{"geometry": {"type": "Point", "coordinates": [-112.3475722101, 43.1901740511]}, "type": "Feature", "properties": {"collection_times": [{"days": "Mon-Sat", "time": "2:30pm"}, {"days": "Sun", "time": "Closed"}], "id": "8322100001", "name": "USPS COLLECTION BOX - BLUE BOX", "address": {"city": "BLACKFOOT", "state": "ID", "street": "250 W BRIDGE ST", "postcode": "83221"}}},
{"geometry": {"type": "Point", "coordinates": [-112.3581602971, 43.1963966737]}, "type": "Feature", "properties": {"collection_times": [{"days": "Mon-Sat", "time": "2:30pm"}, {"days": "Sun", "time": "Closed"}], "id": "8322100002", "name": "USPS COLLECTION BOX - BLUE BOX", "address": {"city": "BLACKFOOT", "state": "ID", "street": "1350 PARKWAY DR", "postcode": "83221"}}},
{"geometry": {"type": "Point", "coordinates": [-112.3586518205, 43.1963466465]}, "type": "Feature", "properties": {"collection_times": [{"days": "Mon-Sat", "time": "2:30pm"}, {"days": "Sun", "time": "Closed"}], "id": "8322100003", "name": "USPS COLLECTION BOX - BLUE BOX", "address": {"city": "BLACKFOOT", "state": "ID", "street": "1295 PARKWAY DR", "postcode": "83221"}}},
{"geometry": {"type": "Point", "coordinates": [-112.3576118564, 43.1985713319]}, "type": "Feature", "properties": {"collection_times": [{"days": "Mon-Sat", "time": "2:30pm"}, {"days": "Sun", "time": "Closed"}], "id": "8322100012", "name": "USPS COLLECTION BOX - BLUE BOX", "address": {"city": "BLACKFOOT", "state": "ID", "street": "565 JENSEN GROVE DR", "postcode": "83221"}}},
{"geometry": {"type": "Point", "coordinates": [-112.3457761435, 43.190514444]}, "type": "Feature", "properties": {"collection_times": [{"days": "Mon-Fri", "time": "4:30pm"}, {"days": "Sat", "time": "4:15pm"}, {"days": "Sun", "time": "Closed"}], "id": "8322100018", "name": "USPS COLLECTION BOX - BLUE BOX", "address": {"city": "BLACKFOOT", "state": "ID", "street": "165 W PACIFIC ST", "postcode": "83221"}}},
{"geometry": {"type": "Point", "coordinates": [-112.3457761435, 43.190514444]}, "type": "Feature", "properties": {"collection_times": [{"days": "Mon-Fri", "time": "4:30pm"}, {"days": "Sat", "time": "4:15pm"}, {"days": "Sun", "time": "Closed"}], "id": "8322100019", "name": "USPS COLLECTION BOX - BLUE BOX", "address": {"city": "BLACKFOOT", "state": "ID", "street": "165 W PACIFIC ST", "postcode": "83221"}}},
{"geometry": {"type": "Point", "coordinates": [-112.3457761435, 43.190514444]}, "type": "Feature", "properties": {"collection_times": [{"days": "Mon-Fri", "time": "4:30pm"}, {"days": "Sat", "time": "4:15pm"}, {"days": "Sun", "time": "Closed"}], "id": "8322100020", "name": "USPS COLLECTION BOX - PO LOBBY", "address": {"city": "BLACKFOOT", "state": "ID", "street": "165 W PACIFIC ST", "postcode": "83221"}}},
{"geometry": {"type": "Point", "coordinates": [-112.3457761435, 43.190514444]}, "type": "Feature", "properties": {"collection_times": [{"days": "Mon-Fri", "time": "4:30pm"}, {"days": "Sat", "time": "4:15pm"}, {"days": "Sun", "time": "Closed"}], "id": "8322100022", "name": "USPS COLLECTION BOX - PO LOBBY", "address": {"city": "BLACKFOOT", "state": "ID", "street": "165 W PACIFIC ST", "postcode": "83221"}}},
{"geometry": {"type": "Point", "coordinates": [-112.3457761435, 43.190514444]}, "type": "Feature", "properties": {"collection_times": [{"days": "Mon-Fri", "time": "4:30pm"}, {"days": "Sat", "time": "4:15pm"}, {"days": "Sun", "time": "Closed"}], "id": "8322100023", "name": "USPS COLLECTION BOX - PO LOBBY", "address": {"city": "BLACKFOOT", "state": "ID", "street": "165 W PACIFIC ST", "postcode": "83221"}}},
{"geometry": {"type": "Point", "coordinates": [-112.3457761435, 43.190514444]}, "type": "Feature", "properties": {"collection_times": [{"days": "Mon-Fri", "time": "4:30pm"}, {"days": "Sat", "time": "4:15pm"}, {"days": "Sun", "time": "Closed"}], "id": "8322100024", "name": "USPS COLLECTION BOX - PO LOBBY", "address": {"city": "BLACKFOOT", "state": "ID", "street": "165 W PACIFIC ST", "postcode": "83221"}}},
{"geometry": {"type": "Point", "coordinates": [-111.4012699766, 42.1908708588]}, "type": "Feature", "properties": {"collection_times": [{"days": "Mon-Fri", "time": "1:40pm"}, {"days": "Sat", "time": "9:30am"}, {"days": "Sun", "time": "Closed"}], "id": "8322300000", "name": "USPS COLLECTION BOX - BLUE BOX", "address": {"city": "BLOOMINGTON", "state": "ID", "street": "11 N MAIN ST", "postcode": "83223"}}},
{"geometry": {"type": "Point", "coordinates": [-111.4012699766, 42.1908708588]}, "type": "Feature", "properties": {"collection_times": [{"days": "Mon-Fri", "time": "12:45pm"}, {"days": "Sat", "time": "9:30am"}, {"days": "Sun", "time": "Closed"}], "id": "8322300001", "name": "USPS COLLECTION BOX - PO LOBBY", "address": {"city": "BLOOMINGTON", "state": "ID", "street": "11 N MAIN ST", "postcode": "83223"}}},
{"geometry": {"type": "Point", "coordinates": [-114.2332532805, 44.5050253664]}, "type": "Feature", "properties": {"collection_times": [{"days": "Mon-Sat", "time": "1:45pm"}, {"days": "Sun", "time": "Closed"}], "id": "8322600000", "name": "USPS COLLECTION BOX - BLUE BOX", "address": {"city": "CHALLIS", "state": "ID", "street": "601 N MAIN ST", "postcode": "83226"}}},
{"geometry": {"type": "Point", "coordinates": [-114.2332532805, 44.5050253664]}, "type": "Feature", "properties": {"collection_times": [{"days": "Mon-Fri", "time": "1:45pm"}, {"days": "Sat", "time": "9:00am"}, {"days": "Sun", "time": "Closed"}], "id": "8322600001", "name": "USPS COLLECTION BOX - PO LOBBY", "address": {"city": "CHALLIS", "state": "ID", "street": "601 N MAIN ST", "postcode": "83226"}}},
{"geometry": {"type": "Point", "coordinates": [-114.440761037, 44.3073816138]}, "type": "Feature", "properties": {"collection_times": [{"days": "Mon-Sat", "time": "12:30pm"}, {"days": "Sun", "time": "Closed"}], "id": "8322700000", "name": "USPS COLLECTION BOX - BLUE BOX", "address": {"city": "CLAYTON", "state": "ID", "street": "101 MAIN ST", "postcode": "83227"}}},
{"geometry": {"type": "Point", "coordinates": [-114.440761037, 44.3073816138]}, "type": "Feature", "properties": {"collection_times": [{"days": "Mon-Fri", "time": "12:30pm"}, {"days": "Sat", "time": "10:45am"}, {"days": "Sun", "time": "Closed"}], "id": "8322700001", "name": "USPS COLLECTION BOX - PO LOBBY", "address": {"city": "CLAYTON", "state": "ID", "street": "101 MAIN ST", "postcode": "83227"}}},
{"geometry": {"type": "Point", "coordinates": [-112.0036952253, 42.1861423361]}, "type": "Feature", "properties": {"collection_times": [{"days": "Mon-Fri", "time": "2:10pm"}, {"days": "Sat", "time": "10:45am"}, {"days": "Sun", "time": "Closed"}], "id": "8322800000", "name": "USPS COLLECTION BOX - BLUE BOX", "address": {"city": "CLIFTON", "state": "ID", "street": "30 S MAIN HWY", "postcode": "83228"}}},
{"geometry": {"type": "Point", "coordinates": [-112.0036000712, 42.1861809664]}, "type": "Feature", "properties": {"collection_times": [{"days": "Mon-Fri", "time": "11:45am"}, {"days": "Sat", "time": "10:45am"}, {"days": "Sun", "time": "Closed"}], "id": "8322800001", "name": "USPS COLLECTION BOX - PO LOBBY", "address": {"city": "CLIFTON", "state": "ID", "street": "30 S MAIN HWY", "postcode": "83228"}}},
{"geometry": {"type": "Point", "coordinates": [-112.0036000712, 42.1861809664]}, "type": "Feature", "properties": {"collection_times": [{"days": "Mon-Fri", "time": "11:45am"}, {"days": "Sat", "time": "10:45am"}, {"days": "Sun", "time": "Closed"}], "id": "8322800002", "name": "USPS COLLECTION BOX - PO LOBBY", "address": {"city": "CLIFTON", "state": "ID", "street": "30 S MAIN HWY", "postcode": "83228"}}},
{"geometry": {"type": "Point", "coordinates": [-114.6594436928, 44.3889950523]}, "type": "Feature", "properties": {"collection_times": [{"days": "Mon-Sat", "time": "2:00pm"}, {"days": "Sun", "time": "Closed"}], "id": "8322800003", "name": "USPS COLLECTION BOX - BLUE BOX", "address": {"city": "CLIFTON", "state": "ID", "street": "10 S MAIN HWY", "postcode": "83228"}}},
{"geometry": {"type": "Point", "coordinates": [-111.993234098, 42.1116842915]}, "type": "Feature", "properties": {"collection_times": [{"days": "Mon-Fri", "time": "2:25pm"}, {"days": "Sat", "time": "9:45am"}, {"days": "Sun", "time": "Closed"}], "id": "8323200000", "name": "USPS COLLECTION BOX - BLUE BOX", "address": {"city": "DAYTON", "state": "ID", "street": "816 N WESTSIDE HWY", "postcode": "83232"}}},
{"geometry": {"type": "Point", "coordinates": [-111.993234098, 42.1116842915]}, "type": "Feature", "properties": {"collection_times": [{"days": "Mon-Fri", "time": "11:45am"}, {"days": "Sat", "time": "9:45am"}, {"days": "Sun", "time": "Closed"}], "id": "8323200001", "name": "USPS COLLECTION BOX - PO LOBBY", "address": {"city": "DAYTON", "state": "ID", "street": "816 N WESTSIDE HWY", "postcode": "83232"}}},
{"geometry": {"type": "Point", "coordinates": [-111.993234098, 42.1116842915]}, "type": "Feature", "properties": {"collection_times": [{"days": "Mon-Fri", "time": "11:45am"}, {"days": "Sat", "time": "9:45am"}, {"days": "Sun", "time": "Closed"}], "id": "8323200002", "name": "USPS COLLECTION BOX - PO LOBBY", "address": {"city": "DAYTON", "state": "ID", "street": "816 N WESTSIDE HWY", "postcode": "83232"}}},
{"geometry": {"type": "Point", "coordinates": [-112.1244509384, 42.4291864544]}, "type": "Feature", "properties": {"collection_times": [{"days": "Mon-Sat", "time": "3:15pm"}, {"days": "Sun", "time": "Closed"}], "id": "8323400000", "name": "USPS COLLECTION BOX - BLUE BOX", "address": {"city": "DOWNEY", "state": "ID", "street": "35 N MAIN ST", "postcode": "83234"}}},
{"geometry": {"type": "Point", "coordinates": [-112.1244509384, 42.4291864544]}, "type": "Feature", "properties": {"collection_times": [{"days": "Mon-Fri", "time": "2:15pm"}, {"days": "Sat", "time": "9:30am"}, {"days": "Sun", "time": "Closed"}], "id": "8323400001", "name": "USPS COLLECTION BOX - PO LOBBY", "address": {"city": "DOWNEY", "state": "ID", "street": "35 N MAIN ST", "postcode": "83234"}}},
{"geometry": {"type": "Point", "coordinates": [-114.0912266121, 44.8492235525]}, "type": "Feature", "properties": {"collection_times": [{"days": "Mon-Sat", "time": "12:35pm"}, {"days": "Sun", "time": "Closed"}], "id": "8323500000", "name": "USPS COLLECTION BOX - BLUE BOX", "address": {"city": "ELLIS", "state": "ID", "street": "26375 HIGHWAY 93", "postcode": "83235"}}},
{"geometry": {"type": "Point", "coordinates": [-114.0912266121, 44.8492235525]}, "type": "Feature", "properties": {"collection_times": [{"days": "Mon-Fri", "time": "11:45am"}, {"days": "Sat", "time": "12:35pm"}, {"days": "Sun", "time": "Closed"}], "id": "8323500001", "name": "USPS COLLECTION BOX - PO LOBBY", "address": {"city": "ELLIS", "state": "ID", "street": "26375 HIGHWAY 93", "postcode": "83235"}}},
{"geometry": {"type": "Point", "coordinates": [-114.0912266121, 44.8492235525]}, "type": "Feature", "properties": {"collection_times": [{"days": "Mon-Fri", "time": "11:45am"}, {"days": "Sat", "time": "12:35pm"}, {"days": "Sun", "time": "Closed"}], "id": "8323500002", "name": "USPS COLLECTION BOX - PO LOBBY", "address": {"city": "ELLIS", "state": "ID", "street": "26375 HIGHWAY 93", "postcode": "83235"}}},
{"geometry": {"type": "Point", "coordinates": [-112.0070827604, 43.1455630855]}, "type": "Feature", "properties": {"collection_times": [{"days": "Mon-Sat", "time": "4:05pm"}, {"days": "Sun", "time": "Closed"}], "id": "8323600000", "name": "USPS COLLECTION BOX - BLUE BOX", "address": {"city": "FIRTH", "state": "ID", "street": "323 N MAIN ST", "postcode": "83236"}}},
{"geometry": {"type": "Point", "coordinates": [-112.0070827604, 43.1455630855]}, "type": "Feature", "properties": {"collection_times": [{"days": "Mon-Fri", "time": "4:05pm"}, {"days": "Sat", "time": "1:00pm"}, {"days": "Sun", "time": "Closed"}], "id": "8323600001", "name": "USPS COLLECTION BOX - PO LOBBY", "address": {"city": "FIRTH", "state": "ID", "street": "323 N MAIN ST", "postcode": "83236"}}},
{"geometry": {"type": "Point", "coordinates": [-111.8014295054, 42.0162085102]}, "type": "Feature", "properties": {"collection_times": [{"days": "Mon-Sat", "time": "3:15pm"}, {"days": "Sun", "time": "Closed"}], "id": "8323700000", "name": "USPS COLLECTION BOX - BLUE BOX", "address": {"city": "FRANKLIN", "state": "ID", "street": "45 S 1ST E", "postcode": "83237"}}},
{"geometry": {"type": "Point", "coordinates": [-111.8014295054, 42.0162085102]}, "type": "Feature", "properties": {"collection_times": [{"days": "Mon-Fri", "time": "11:45am"}, {"days": "Sat", "time": "8:45am"}, {"days": "Sun", "time": "Closed"}], "id": "8323700001", "name": "USPS COLLECTION BOX - PO LOBBY", "address": {"city": "FRANKLIN", "state": "ID", "street": "45 S 1ST E", "postcode": "83237"}}},
{"geometry": {"type": "Point", "coordinates": [-111.8014295054, 42.0162085102]}, "type": "Feature", "properties": {"collection_times": [{"days": "Mon-Fri", "time": "11:45am"}, {"days": "Sat", "time": "8:45am"}, {"days": "Sun", "time": "Closed"}], "id": "8323700002", "name": "USPS COLLECTION BOX - PO LOBBY", "address": {"city": "FRANKLIN", "state": "ID", "street": "45 S 1ST E", "postcode": "83237"}}},
{"geometry": {"type": "Point", "coordinates": [-111.0948920913, 42.35249202]}, "type": "Feature", "properties": {"collection_times": [{"days": "Mon-Sat", "time": "11:25am"}, {"days": "Sun", "time": "Closed"}], "id": "8323800000", "name": "USPS COLLECTION BOX - BLUE BOX", "address": {"city": "GENEVA", "state": "ID", "street": "40462 US HIGHWAY 89", "postcode": "83238"}}},
{"geometry": {"type": "Point", "coordinates": [-111.0948920913, 42.35249202]}, "type": "Feature", "properties": {"collection_times": [{"days": "Mon-Sat", "time": "10:45am"}, {"days": "Sun", "time": "Closed"}], "id": "8323800001", "name": "USPS COLLECTION BOX - PO LOBBY", "address": {"city": "GENEVA", "state": "ID", "street": "40462 US HIGHWAY 89", "postcode": "83238"}}},
{"geometry": {"type": "Point", "coordinates": [-111.3684630674, 42.4730005236]}, "type": "Feature", "properties": {"collection_times": [{"days": "Mon-Sat", "time": "2:50pm"}, {"days": "Sun", "time": "Closed"}], "id": "8323900000", "name": "USPS COLLECTION BOX - BLUE BOX", "address": {"city": "GEORGETOWN", "state": "ID", "street": "223 MAIN ST", "postcode": "83239"}}},
{"geometry": {"type": "Point", "coordinates": [-111.3684630674, 42.4730005236]}, "type": "Feature", "properties": {"collection_times": [{"days": "Mon-Fri", "time": "11:45am"}, {"days": "Sat", "time": "9:45am"}, {"days": "Sun", "time": "Closed"}], "id": "8323900001", "name": "USPS COLLECTION BOX - PO LOBBY", "address": {"city": "GEORGETOWN", "state": "ID", "street": "223 MAIN ST", "postcode": "83239"}}},
{"geometry": {"type": "Point", "coordinates": [-111.7303343385, 42.5772966724]}, "type": "Feature", "properties": {"collection_times": [{"days": "Mon-Sat", "time": "3:40pm"}, {"days": "Sun", "time": "Closed"}], "id": "8324100000", "name": "USPS COLLECTION BOX - BLUE BOX", "address": {"city": "GRACE", "state": "ID", "street": "19 N MAIN ST", "postcode": "83241"}}},
{"geometry": {"type": "Point", "coordinates": [-111.7303343385, 42.5772966724]}, "type": "Feature", "properties": {"collection_times": [{"days": "Mon-Fri", "time": "3:40pm"}, {"days": "Sat", "time": "9:45am"}, {"days": "Sun", "time": "Closed"}], "id": "8324100001", "name": "USPS COLLECTION BOX - PO LOBBY", "address": {"city": "GRACE", "state": "ID", "street": "19 N MAIN ST", "postcode": "83241"}}},
{"geometry": {"type": "Point", "coordinates": [-111.7303343385, 42.5772966724]}, "type": "Feature", "properties": {"collection_times": [{"days": "Mon-Fri", "time": "3:40pm"}, {"days": "Sat", "time": "9:45am"}, {"days": "Sun", "time": "Closed"}], "id": "8324100002", "name": "USPS COLLECTION BOX - PO LOBBY", "address": {"city": "GRACE", "state": "ID", "street": "19 N MAIN ST", "postcode": "83241"}}},
{"geometry": {"type": "Point", "coordinates": [-113.0421061884, 43.8421432845]}, "type": "Feature", "properties": {"collection_times": [{"days": "Mon-Fri", "time": "11:45am"}, {"days": "Sat", "time": "9:30am"}, {"days": "Sun", "time": "Closed"}], "id": "8324400000", "name": "USPS COLLECTION BOX - BLUE BOX", "address": {"city": "HOWE", "state": "ID", "street": "1531 HIGHWAY 33", "postcode": "83244"}}},
{"geometry": {"type": "Point", "coordinates": [-113.0213531687, 43.75430713]}, "type": "Feature", "properties": {"collection_times": [{"days": "Mon-Fri", "time": "11:45am"}, {"days": "Sat", "time": "9:30am"}, {"days": "Sun", "time": "Closed"}], "id": "8324400001", "name": "USPS COLLECTION BOX - PO LOBBY", "address": {"city": "HOWE", "state": "ID", "street": "1531 HIGHWAY 33", "postcode": "83244"}}},
{"geometry": {"type": "Point", "coordinates": [-113.0213531687, 43.75430713]}, "type": "Feature", "properties": {"collection_times": [{"days": "Mon-Fri", "time": "11:45am"}, {"days": "Sat", "time": "9:30am"}, {"days": "Sun", "time": "Closed"}], "id": "8324400002", "name": "USPS COLLECTION BOX - PO LOBBY", "address": {"city": "HOWE", "state": "ID", "street": "1531 HIGHWAY 33", "postcode": "83244"}}},
{"geometry": {"type": "Point", "coordinates": [-112.25183574, 42.7930680487]}, "type": "Feature", "properties": {"collection_times": [{"days": "Mon-Fri", "time": "4:10pm"}, {"days": "Sat", "time": "9:00am"}, {"days": "Sun", "time": "Closed"}], "id": "8324500000", "name": "USPS COLLECTION BOX - BLUE BOX", "address": {"city": "INKOM", "state": "ID", "street": "210 HIGHWAY 30 E", "postcode": "83245"}}},
{"geometry": {"type": "Point", "coordinates": [-112.25183574, 42.7930680487]}, "type": "Feature", "properties": {"collection_times": [{"days": "Mon-Fri", "time": "4:10pm"}, {"days": "Sat", "time": "9:00am"}, {"days": "Sun", "time": "Closed"}], "id": "8324500001", "name": "USPS COLLECTION BOX - PO LOBBY", "address": {"city": "INKOM", "state": "ID", "street": "210 HIGHWAY 30 E", "postcode": "83245"}}},
{"geometry": {"type": "Point", "coordinates": [-112.0123306667, 42.6190987968]}, "type": "Feature", "properties": {"collection_times": [{"days": "Mon-Sat", "time": "4:30pm"}, {"days": "Sun", "time": "Closed"}], "id": "8324600000", "name": "USPS COLLECTION BOX - BLUE BOX", "address": {"city": "LAVA HOT SPGS", "state": "ID", "street": "15 S CENTER ST", "postcode": "83246"}}},
{"geometry": {"type": "Point", "coordinates": [-112.0123306667, 42.6190987968]}, "type": "Feature", "properties": {"collection_times": [{"days": "Mon-Fri", "time": "4:30pm"}, {"days": "Sat-Sun", "time": "Closed"}], "id": "8324600001", "name": "USPS COLLECTION BOX - PO LOBBY", "address": {"city": "LAVA HOT SPGS", "state": "ID", "street": "15 S CENTER ST", "postcode": "83246"}}},
{"geometry": {"type": "Point", "coordinates": [-112.1919467515, 42.6487928747]}, "type": "Feature", "properties": {"collection_times": [{"days": "Mon-Sat", "time": "3:45pm"}, {"days": "Sun", "time": "Closed"}], "id": "8325000000", "name": "USPS COLLECTION BOX - BLUE BOX", "address": {"city": "MCCAMMON", "state": "ID", "street": "809 CENTER ST", "postcode": "83250"}}},
{"geometry": {"type": "Point", "coordinates": [-112.1919467515, 42.6487928747]}, "type": "Feature", "properties": {"collection_times": [{"days": "Mon-Fri", "time": "3:45pm"}, {"days": "Sat", "time": "10:00am"}, {"days": "Sun", "time": "Closed"}], "id": "8325000002", "name": "USPS COLLECTION BOX - PO LOBBY", "address": {"city": "MCCAMMON", "state": "ID", "street": "809 CENTER ST", "postcode": "83250"}}},
{"geometry": {"type": "Point", "coordinates": [-113.6116083826, 43.9153598254]}, "type": "Feature", "properties": {"collection_times": [{"days": "Mon-Sat", "time": "3:10pm"}, {"days": "Sun", "time": "Closed"}], "id": "8325100000", "name": "USPS COLLECTION BOX - BLUE BOX", "address": {"city": "MACKAY", "state": "ID", "street": "111 S MAIN ST", "postcode": "83251"}}},
{"geometry": {"type": "Point", "coordinates": [-113.6116083826, 43.9153598254]}, "type": "Feature", "properties": {"collection_times": [{"days": "Mon-Fri", "time": "3:10pm"}, {"days": "Sat", "time": "7:15am"}, {"days": "Sun", "time": "Closed"}], "id": "8325100001", "name": "USPS COLLECTION BOX - PO LOBBY", "address": {"city": "MACKAY", "state": "ID", "street": "111 S MAIN ST", "postcode": "83251"}}},
{"geometry": {"type": "Point", "coordinates": [-112.2461724916, 42.1877868444]}, "type": "Feature", "properties": {"collection_times": [{"days": "Mon-Sat", "time": "2:45pm"}, {"days": "Sun", "time": "Closed"}], "id": "8325200002", "name": "USPS COLLECTION BOX - BLUE BOX", "address": {"city": "MALAD CITY", "state": "ID", "street": "68 W 100 N", "postcode": "83252"}}},
{"geometry": {"type": "Point", "coordinates": [-112.2461724916, 42.1877868444]}, "type": "Feature", "properties": {"collection_times": [{"days": "Mon-Sat", "time": "2:45pm"}, {"days": "Sun", "time": "Closed"}], "id": "8325200003", "name": "USPS COLLECTION BOX - PO LOBBY", "address": {"city": "MALAD CITY", "state": "ID", "street": "68 W 100 N", "postcode": "83252"}}},
{"geometry": {"type": "Point", "coordinates": [-112.2461724916, 42.1877868444]}, "type": "Feature", "properties": {"collection_times": [{"days": "Mon-Sat", "time": "2:45pm"}, {"days": "Sun", "time": "Closed"}], "id": "8325200005", "name": "USPS COLLECTION BOX - PO LOBBY", "address": {"city": "MALAD CITY", "state": "ID", "street": "68 W 100 N", "postcode": "83252"}}},
{"geometry": {"type": "Point", "coordinates": [-111.3066321127, 42.3189014558]}, "type": "Feature", "properties": {"collection_times": [{"days": "Mon-Sat", "time": "2:25pm"}, {"days": "Sun", "time": "Closed"}], "id": "8325400000", "name": "USPS COLLECTION BOX - PO LOBBY", "address": {"city": "MONTPELIER", "state": "ID", "street": "804 GRANT ST", "postcode": "83254"}}},
{"geometry": {"type": "Point", "coordinates": [-111.3066321127, 42.3189014558]}, "type": "Feature", "properties": {"collection_times": [{"days": "Mon-Sat", "time": "2:25pm"}, {"days": "Sun", "time": "Closed"}], "id": "8325400001", "name": "USPS COLLECTION BOX - BLUE BOX", "address": {"city": "MONTPELIER", "state": "ID", "street": "804 GRANT ST", "postcode": "83254"}}},
{"geometry": {"type": "Point", "coordinates": [-111.2976530704, 42.3168215007]}, "type": "Feature", "properties": {"collection_times": [{"days": "Mon-Sat", "time": "2:00pm"}, {"days": "Sun", "time": "Closed"}], "id": "8325400003", "name": "USPS COLLECTION BOX - BLUE BOX", "address": {"city": "MONTPELIER", "state": "ID", "street": "130 S 4TH ST", "postcode": "83254"}}},
{"geometry": {"type": "Point", "coordinates": [-111.3948181784, 42.2884172212]}, "type": "Feature", "properties": {"collection_times": [{"days": "Mon-Fri", "time": "2:00pm"}, {"days": "Sat", "time": "11:00am"}, {"days": "Sun", "time": "Closed"}], "id": "8325400005", "name": "USPS COLLECTION BOX - BLUE BOX", "address": {"city": "MONTPELIER", "state": "ID", "street": "20335 HIGHWAY 89", "postcode": "83254"}}},
{"geometry": {"type": "Point", "coordinates": [-111.3066321127, 42.3189014558]}, "type": "Feature", "properties": {"collection_times": [{"days": "Mon-Sat", "time": "2:25pm"}, {"days": "Sun", "time": "Closed"}], "id": "8325400006", "name": "USPS COLLECTION BOX - PO LOBBY", "address": {"city": "MONTPELIER", "state": "ID", "street": "804 GRANT ST", "postcode": "83254"}}},
{"geometry": {"type": "Point", "coordinates": [-113.2678745935, 43.9390331538]}, "type": "Feature", "properties": {"collection_times": [{"days": "Mon-Sat", "time": "3:40pm"}, {"days": "Sun", "time": "Closed"}], "id": "8325500000", "name": "USPS COLLECTION BOX - BLUE BOX", "address": {"city": "MOORE", "state": "ID", "street": "3252 W 3160 N", "postcode": "83255"}}},
{"geometry": {"type": "Point", "coordinates": [-113.2678745935, 43.9390331538]}, "type": "Feature", "properties": {"collection_times": [{"days": "Mon-Fri", "time": "2:15pm"}, {"days": "Sat", "time": "11:45am"}, {"days": "Sun", "time": "Closed"}], "id": "8325500001", "name": "USPS COLLECTION BOX - PO LOBBY", "address": {"city": "MOORE", "state": "ID", "street": "3252 W 3160 N", "postcode": "83255"}}},
{"geometry": {"type": "Point", "coordinates": [-112.4422969577, 43.2253271482]}, "type": "Feature", "properties": {"collection_times": [{"days": "Mon-Fri", "time": "4:45pm"}, {"days": "Sat", "time": "10:30am"}, {"days": "Sun", "time": "Closed"}], "id": "8325600000", "name": "USPS COLLECTION BOX - BLUE BOX", "address": {"city": "MORELAND", "state": "ID", "street": "180 N 740 W", "postcode": "83256"}}},
{"geometry": {"type": "Point", "coordinates": [-112.4422969577, 43.2253271482]}, "type": "Feature", "properties": {"collection_times": [{"days": "Mon-Fri", "time": "4:15pm"}, {"days": "Sat", "time": "10:15am"}, {"days": "Sun", "time": "Closed"}], "id": "8325600001", "name": "USPS COLLECTION BOX - PO LOBBY", "address": {"city": "MORELAND", "state": "ID", "street": "180 N 740 W", "postcode": "83256"}}},
{"geometry": {"type": "Point", "coordinates": [-111.4009021728, 42.2283754143]}, "type": "Feature", "properties": {"collection_times": [{"days": "Mon-Fri", "time": "1:55pm"}, {"days": "Sat", "time": "10:45am"}, {"days": "Sun", "time": "Closed"}], "id": "8326100000", "name": "USPS COLLECTION BOX - BLUE BOX", "address": {"city": "PARIS", "state": "ID", "street": "70 N MAIN ST", "postcode": "83261"}}},
{"geometry": {"type": "Point", "coordinates": [-111.4009021728, 42.2283754143]}, "type": "Feature", "properties": {"collection_times": [{"days": "Mon-Fri", "time": "1:55pm"}, {"days": "Sat", "time": "10:45am"}, {"days": "Sun", "time": "Closed"}], "id": "8326100001", "name": "USPS COLLECTION BOX - PO LOBBY", "address": {"city": "PARIS", "state": "ID", "street": "70 N MAIN ST", "postcode": "83261"}}},
{"geometry": {"type": "Point", "coordinates": [-111.4009021728, 42.2283754143]}, "type": "Feature", "properties": {"collection_times": [{"days": "Mon-Fri", "time": "1:55pm"}, {"days": "Sat", "time": "10:45am"}, {"days": "Sun", "time": "Closed"}], "id": "8326100002", "name": "USPS COLLECTION BOX - PO LOBBY", "address": {"city": "PARIS", "state": "ID", "street": "70 N MAIN ST", "postcode": "83261"}}},
{"geometry": {"type": "Point", "coordinates": [-112.5949881433, 43.119186208]}, "type": "Feature", "properties": {"collection_times": [{"days": "Mon-Sat", "time": "3:35pm"}, {"days": "Sun", "time": "Closed"}], "id": "8326200000", "name": "USPS COLLECTION BOX - BLUE BOX", "address": {"city": "PINGREE", "state": "ID", "street": "1507 W HIGHWAY 39", "postcode": "83262"}}},
{"geometry": {"type": "Point", "coordinates": [-112.5949881433, 43.119186208]}, "type": "Feature", "properties": {"collection_times": [{"days": "Mon-Fri", "time": "2:15pm"}, {"days": "Sat", "time": "11:30am"}, {"days": "Sun", "time": "Closed"}], "id": "8326200001", "name": "USPS COLLECTION BOX - PO LOBBY", "address": {"city": "PINGREE", "state": "ID", "street": "1507 W HIGHWAY 39", "postcode": "83262"}}},
{"geometry": {"type": "Point", "coordinates": [-112.5949881433, 43.119186208]}, "type": "Feature", "properties": {"collection_times": [{"days": "Mon-Fri", "time": "2:15pm"}, {"days": "Sat", "time": "11:30am"}, {"days": "Sun", "time": "Closed"}], "id": "8326200002", "name": "USPS COLLECTION BOX - PO LOBBY", "address": {"city": "PINGREE", "state": "ID", "street": "1507 W HIGHWAY 39", "postcode": "83262"}}},
{"geometry": {"type": "Point", "coordinates": [-111.8752170121, 42.0962546619]}, "type": "Feature", "properties": {"collection_times": [{"days": "Mon-Sat", "time": "3:45pm"}, {"days": "Sun", "time": "Closed"}], "id": "8326300001", "name": "USPS COLLECTION BOX - BLUE BOX", "address": {"city": "PRESTON", "state": "ID", "street": "55 E ONEIDA ST", "postcode": "83263"}}},
{"geometry": {"type": "Point", "coordinates": [-111.8752170121, 42.0962546619]}, "type": "Feature", "properties": {"collection_times": [{"days": "Mon-Sat", "time": "3:45pm"}, {"days": "Sun", "time": "Closed"}], "id": "8326300004", "name": "USPS COLLECTION BOX - PO LOBBY", "address": {"city": "PRESTON", "state": "ID", "street": "55 E ONEIDA ST", "postcode": "83263"}}},
{"geometry": {"type": "Point", "coordinates": [-111.8752170121, 42.0962546619]}, "type": "Feature", "properties": {"collection_times": [{"days": "Mon-Sat", "time": "3:45pm"}, {"days": "Sun", "time": "Closed"}], "id": "8326300005", "name": "USPS COLLECTION BOX - BLUE BOX", "address": {"city": "PRESTON", "state": "ID", "street": "55 E ONEIDA ST", "postcode": "83263"}}},
{"geometry": {"type": "Point", "coordinates": [-111.8777698616, 42.0962017638]}, "type": "Feature", "properties": {"collection_times": [{"days": "Mon-Sat", "time": "2:45pm"}, {"days": "Sun", "time": "Closed"}], "id": "8326300006", "name": "USPS COLLECTION BOX - BLUE BOX", "address": {"city": "PRESTON", "state": "ID", "street": "39 W ONEIDA ST", "postcode": "83263"}}},
{"geometry": {"type": "Point", "coordinates": [-111.8765217597, 42.0918134581]}, "type": "Feature", "properties": {"collection_times": [{"days": "Mon-Sat", "time": "2:45pm"}, {"days": "Sun", "time": "Closed"}], "id": "8326300007", "name": "USPS COLLECTION BOX - BLUE BOX", "address": {"city": "PRESTON", "state": "ID", "street": "227 S STATE ST", "postcode": "83263"}}},
{"geometry": {"type": "Point", "coordinates": [-111.8752170121, 42.0962546619]}, "type": "Feature", "properties": {"collection_times": [{"days": "Mon-Sat", "time": "3:45pm"}, {"days": "Sun", "time": "Closed"}], "id": "8326300009", "name": "USPS COLLECTION BOX - PO LOBBY", "address": {"city": "PRESTON", "state": "ID", "street": "55 E ONEIDA ST", "postcode": "83263"}}},
{"geometry": {"type": "Point", "coordinates": [-112.8759573338, 42.5734338792]}, "type": "Feature", "properties": {"collection_times": [{"days": "Mon-Fri", "time": "2:00pm"}, {"days": "Sat", "time": "12:45pm"}, {"days": "Sun", "time": "Closed"}], "id": "8327100000", "name": "USPS COLLECTION BOX - BLUE BOX", "address": {"city": "ROCKLAND", "state": "ID", "street": "150 S MAIN ST", "postcode": "83271"}}},
{"geometry": {"type": "Point", "coordinates": [-112.8759573338, 42.5734338792]}, "type": "Feature", "properties": {"collection_times": [{"days": "Mon-Fri", "time": "2:00pm"}, {"days": "Sat", "time": "12:45pm"}, {"days": "Sun", "time": "Closed"}], "id": "8327100001", "name": "USPS COLLECTION BOX - PO LOBBY", "address": {"city": "ROCKLAND", "state": "ID", "street": "150 S MAIN ST", "postcode": "83271"}}},
{"geometry": {"type": "Point", "coordinates": [-111.3888689821, 42.115511264]}, "type": "Feature", "properties": {"collection_times": [{"days": "Mon-Fri", "time": "1:30pm"}, {"days": "Sat", "time": "9:45am"}, {"days": "Sun", "time": "Closed"}], "id": "8327200000", "name": "USPS COLLECTION BOX - BLUE BOX", "address": {"city": "SAINT CHARLES", "state": "ID", "street": "195 N MAIN ST", "postcode": "83272"}}},
{"geometry": {"type": "Point", "coordinates": [-111.3888689821, 42.115511264]}, "type": "Feature", "properties": {"collection_times": [{"days": "Mon-Fri", "time": "12:45pm"}, {"days": "Sat", "time": "9:45am"}, {"days": "Sun", "time": "Closed"}], "id": "8327200001", "name": "USPS COLLECTION BOX - PO LOBBY", "address": {"city": "SAINT CHARLES", "state": "ID", "street": "195 N MAIN ST", "postcode": "83272"}}},
{"geometry": {"type": "Point", "coordinates": [-111.3888689821, 42.115511264]}, "type": "Feature", "properties": {"collection_times": [{"days": "Mon-Fri", "time": "12:45pm"}, {"days": "Sat", "time": "9:45am"}, {"days": "Sun", "time": "Closed"}], "id": "8327200002", "name": "USPS COLLECTION BOX - PO LOBBY", "address": {"city": "SAINT CHARLES", "state": "ID", "street": "195 N MAIN ST", "postcode": "83272"}}},
{"geometry": {"type": "Point", "coordinates": [-112.1294735708, 43.3736150323]}, "type": "Feature", "properties": {"collection_times": [{"days": "Mon-Sat", "time": "12:00pm"}, {"days": "Sun", "time": "Closed"}], "id": "8327400000", "name": "USPS COLLECTION BOX - BLUE BOX", "address": {"city": "SHELLEY", "state": "ID", "street": "570 S STATE ST", "postcode": "83274"}}},
{"geometry": {"type": "Point", "coordinates": [-112.1269176309, 43.3796539649]}, "type": "Feature", "properties": {"collection_times": [{"days": "Mon-Sat", "time": "3:45pm"}, {"days": "Sun", "time": "Closed"}], "id": "8327400001", "name": "USPS COLLECTION BOX - BLUE BOX", "address": {"city": "SHELLEY", "state": "ID", "street": "244 W PINE ST", "postcode": "83274"}}},
{"geometry": {"type": "Point", "coordinates": [-112.1269176309, 43.3796539649]}, "type": "Feature", "properties": {"collection_times": [{"days": "Mon-Fri", "time": "3:45pm"}, {"days": "Sat", "time": "8:00am"}, {"days": "Sun", "time": "Closed"}], "id": "8327400002", "name": "USPS COLLECTION BOX - PO LOBBY", "address": {"city": "SHELLEY", "state": "ID", "street": "244 W PINE ST", "postcode": "83274"}}},
{"geometry": {"type": "Point", "coordinates": [-112.1269176309, 43.3796539649]}, "type": "Feature", "properties": {"collection_times": [{"days": "Mon-Fri", "time": "3:45pm"}, {"days": "Sat", "time": "8:00am"}, {"days": "Sun", "time": "Closed"}], "id": "8327400003", "name": "USPS COLLECTION BOX - PO LOBBY", "address": {"city": "SHELLEY", "state": "ID", "street": "244 W PINE ST", "postcode": "83274"}}},
{"geometry": {"type": "Point", "coordinates": [-111.6038004253, 42.65572731]}, "type": "Feature", "properties": {"collection_times": [{"days": "Mon-Fri", "time": "3:15pm"}, {"days": "Sat", "time": "3:00pm"}, {"days": "Sun", "time": "Closed"}], "id": "8327600000", "name": "USPS COLLECTION BOX - BLUE BOX", "address": {"city": "SODA SPRINGS", "state": "ID", "street": "220 S MAIN ST", "postcode": "83276"}}},
{"geometry": {"type": "Point", "coordinates": [-111.6038004253, 42.65572731]}, "type": "Feature", "properties": {"collection_times": [{"days": "Mon-Fri", "time": "3:15pm"}, {"days": "Sat", "time": "3:00pm"}, {"days": "Sun", "time": "Closed"}], "id": "8327600001", "name": "USPS COLLECTION BOX - PO LOBBY", "address": {"city": "SODA SPRINGS", "state": "ID", "street": "220 S MAIN ST", "postcode": "83276"}}},
{"geometry": {"type": "Point", "coordinates": [-111.6040330228, 42.6545867327]}, "type": "Feature", "properties": {"collection_times": [{"days": "Mon-Sat", "time": "3:00pm"}, {"days": "Sun", "time": "Closed"}], "id": "8327600002", "name": "USPS COLLECTION BOX - BLUE BOX", "address": {"city": "SODA SPRINGS", "state": "ID", "street": "9 W 2ND S", "postcode": "83276"}}},
{"geometry": {"type": "Point", "coordinates": [-111.6038004253, 42.65572731]}, "type": "Feature", "properties": {"collection_times": [{"days": "Mon-Fri", "time": "3:15pm"}, {"days": "Sat", "time": "3:00pm"}, {"days": "Sun", "time": "Closed"}], "id": "8327600003", "name": "USPS COLLECTION BOX - PO LOBBY", "address": {"city": "SODA SPRINGS", "state": "ID", "street": "220 S MAIN ST", "postcode": "83276"}}},
{"geometry": {"type": "Point", "coordinates": [-114.9365067751, 44.2162167796]}, "type": "Feature", "properties": {"collection_times": [{"days": "Mon-Sat", "time": "11:15am"}, {"days": "Sun", "time": "Closed"}], "id": "8327800000", "name": "USPS COLLECTION BOX - PO LOBBY", "address": {"city": "STANLEY", "state": "ID", "street": "36 ACE OF DIAMONDS BLVD", "postcode": "83278"}}},
{"geometry": {"type": "Point", "coordinates": [-111.9822857996, 42.2894733386]}, "type": "Feature", "properties": {"collection_times": [{"days": "Mon-Fri", "time": "10:45am"}, {"days": "Sat", "time": "11:45am"}, {"days": "Sun", "time": "Closed"}], "id": "8328100001", "name": "USPS COLLECTION BOX - PO LOBBY", "address": {"city": "SWAN LAKE", "state": "ID", "street": "31078 S HIGHWAY 91", "postcode": "83281"}}},
{"geometry": {"type": "Point", "coordinates": [-111.9822857996, 42.2894733386]}, "type": "Feature", "properties": {"collection_times": [{"days": "Mon-Sat", "time": "4:15pm"}, {"days": "Sun", "time": "Closed"}], "id": "8328100002", "name": "USPS COLLECTION BOX - BLUE BOX", "address": {"city": "SWAN LAKE", "state": "ID", "street": "31078 S HIGHWAY 91", "postcode": "83281"}}},
{"geometry": {"type": "Point", "coordinates": [-111.7285252413, 42.4083411905]}, "type": "Feature", "properties": {"collection_times": [{"days": "Mon-Sat", "time": "9:30am"}, {"days": "Sun", "time": "Closed"}], "id": "8328300000", "name": "USPS COLLECTION BOX - BLUE BOX", "address": {"city": "THATCHER", "state": "ID", "street": "6143 E THATCHER RD", "postcode": "83283"}}},
{"geometry": {"type": "Point", "coordinates": [-111.9732956654, 42.0428330569]}, "type": "Feature", "properties": {"collection_times": [{"days": "Mon-Fri", "time": "11:45am"}, {"days": "Sat", "time": "9:45am"}, {"days": "Sun", "time": "Closed"}], "id": "8328600001", "name": "USPS COLLECTION BOX - PO LOBBY", "address": {"city": "WESTON", "state": "ID", "street": "77 W DEPOT ST", "postcode": "83286"}}},
{"geometry": {"type": "Point", "coordinates": [-111.9732956654, 42.0428330569]}, "type": "Feature", "properties": {"collection_times": [{"days": "Mon-Fri", "time": "2:40pm"}, {"days": "Sat", "time": "9:45am"}, {"days": "Sun", "time": "Closed"}], "id": "8328600002", "name": "USPS COLLECTION BOX - BLUE BOX", "address": {"city": "WESTON", "state": "ID", "street": "77 W DEPOT ST", "postcode": "83286"}}}
]}
