{"type": "FeatureCollection", "features": [
{"geometry": {"type": "Point", "coordinates": [-114.4736962112, 42.5572068174]}, "type": "Feature", "properties": {"collection_times": [{"days": "Mon-Sat", "time": "5:00pm"}, {"days": "Sun", "time": "Closed"}], "id": "8330100005", "name": "USPS COLLECTION BOX - BLUE BOX", "address": {"city": "TWIN FALLS", "state": "ID", "street": "320 2ND AVE W", "postcode": "83301"}}},
{"geometry": {"type": "Point", "coordinates": [-114.4596791274, 42.5705463828]}, "type": "Feature", "properties": {"collection_times": [{"days": "Mon-Sat", "time": "5:00pm"}, {"days": "Sun", "time": "Closed"}], "id": "8330100006", "name": "USPS COLLECTION BOX - BLUE BOX", "address": {"city": "TWIN FALLS", "state": "ID", "street": "1147 FILER AVE E", "postcode": "83301"}}},
{"geometry": {"type": "Point", "coordinates": [-114.4671225843, 42.5581566012]}, "type": "Feature", "properties": {"collection_times": [{"days": "Mon-Sat", "time": "5:00pm"}, {"days": "Sun", "time": "Closed"}], "id": "8330100008", "name": "USPS COLLECTION BOX - BLUE BOX", "address": {"city": "TWIN FALLS", "state": "ID", "street": "425 SHOSHONE ST N", "postcode": "83301"}}},
{"geometry": {"type": "Point", "coordinates": [-114.4672918487, 42.5919694243]}, "type": "Feature", "properties": {"collection_times": [{"days": "Mon-Sat", "time": "5:00pm"}, {"days": "Sun", "time": "Closed"}], "id": "8330100012", "name": "USPS COLLECTION BOX - BLUE BOX", "address": {"city": "TWIN FALLS", "state": "ID", "street": "601 POLE LINE RD", "postcode": "83301"}}},
{"geometry": {"type": "Point", "coordinates": [-114.4690885497, 42.5566516823]}, "type": "Feature", "properties": {"collection_times": [{"days": "Mon-Sat", "time": "5:00pm"}, {"days": "Sun", "time": "Closed"}], "id": "8330100013", "name": "USPS COLLECTION BOX - EXPRESS", "address": {"city": "TWIN FALLS", "state": "ID", "street": "253 2ND AVE W", "postcode": "83301"}}},
{"geometry": {"type": "Point", "coordinates": [-114.4736962112, 42.5572068174]}, "type": "Feature", "properties": {"collection_times": [{"days": "Mon-Sat", "time": "5:00pm"}, {"days": "Sun", "time": "Closed"}], "id": "8330100015", "name": "USPS COLLECTION BOX - BLUE BOX", "address": {"city": "TWIN FALLS", "state": "ID", "street": "320 2ND AVE W", "postcode": "83301"}}},
{"geometry": {"type": "Point", "coordinates": [-114.4736962112, 42.5572068174]}, "type": "Feature", "properties": {"collection_times": [{"days": "Mon-Sat", "time": "5:00pm"}, {"days": "Sun", "time": "Closed"}], "id": "8330100016", "name": "USPS COLLECTION BOX - BLUE BOX", "address": {"city": "TWIN FALLS", "state": "ID", "street": "320 2ND AVE W", "postcode": "83301"}}},
{"geometry": {"type": "Point", "coordinates": [-114.4736962112, 42.5572068174]}, "type": "Feature", "properties": {"collection_times": [{"days": "Mon-Sat", "time": "5:00pm"}, {"days": "Sun", "time": "Closed"}], "id": "8330100017", "name": "USPS COLLECTION BOX - BLUE BOX", "address": {"city": "TWIN FALLS", "state": "ID", "street": "320 2ND AVE W", "postcode": "83301"}}},
{"geometry": {"type": "Point", "coordinates": [-114.4729712897, 42.5565188909]}, "type": "Feature", "properties": {"collection_times": [{"days": "Mon-Sat", "time": "5:00pm"}, {"days": "Sun", "time": "Closed"}], "id": "8330100018", "name": "USPS COLLECTION BOX - BLUE BOX", "address": {"city": "TWIN FALLS", "state": "ID", "street": "253 2ND AVE W", "postcode": "83301"}}},
{"geometry": {"type": "Point", "coordinates": [-114.4674817103, 42.5849316417]}, "type": "Feature", "properties": {"collection_times": [{"days": "Mon-Sat", "time": "5:00pm"}, {"days": "Sun", "time": "Closed"}], "id": "8330100020", "name": "USPS COLLECTION BOX - BLUE BOX", "address": {"city": "TWIN FALLS", "state": "ID", "street": "621 N COLLEGE RD", "postcode": "83301"}}},
{"geometry": {"type": "Point", "coordinates": [-114.4405171255, 42.5496188633]}, "type": "Feature", "properties": {"collection_times": [{"days": "Mon-Sat", "time": "5:00pm"}, {"days": "Sun", "time": "Closed"}], "id": "8330100021", "name": "USPS COLLECTION BOX - BLUE BOX", "address": {"city": "TWIN FALLS", "state": "ID", "street": "220 EASTLAND DR", "postcode": "83301"}}},
{"geometry": {"type": "Point", "coordinates": [-114.4780635067, 42.5499747094]}, "type": "Feature", "properties": {"collection_times": [{"days": "Mon-Sat", "time": "5:00pm"}, {"days": "Sun", "time": "Closed"}], "id": "8330100022", "name": "USPS COLLECTION BOX - BLUE BOX", "address": {"city": "TWIN FALLS", "state": "ID", "street": "880 SHOSHONE ST W", "postcode": "83301"}}},
{"geometry": {"type": "Point", "coordinates": [-114.4390166417, 42.5630450774]}, "type": "Feature", "properties": {"collection_times": [{"days": "Mon-Sat", "time": "5:00pm"}, {"days": "Sun", "time": "Closed"}], "id": "8330100024", "name": "USPS COLLECTION BOX - BLUE BOX", "address": {"city": "TWIN FALLS", "state": "ID", "street": "2258 ADDISON AVE E", "postcode": "83301"}}},
{"geometry": {"type": "Point", "coordinates": [-114.4693593207, 42.5552559548]}, "type": "Feature", "properties": {"collection_times": [{"days": "Mon-Sat", "time": "5:00pm"}, {"days": "Sun", "time": "Closed"}], "id": "8330100028", "name": "USPS COLLECTION BOX - BLUE BOX", "address": {"city": "TWIN FALLS", "state": "ID", "street": "160 MAIN AVE S", "postcode": "83301"}}},
{"geometry": {"type": "Point", "coordinates": [-114.4672918487, 42.5919694243]}, "type": "Feature", "properties": {"collection_times": [{"days": "Mon-Sat", "time": "5:00pm"}, {"days": "Sun", "time": "Closed"}], "id": "8330100029", "name": "USPS COLLECTION BOX - BLUE BOX", "address": {"city": "TWIN FALLS", "state": "ID", "street": "601 POLE LINE RD", "postcode": "83301"}}},
{"geometry": {"type": "Point", "coordinates": [-114.4602838851, 42.5774624601]}, "type": "Feature", "properties": {"collection_times": [{"days": "Mon-Sat", "time": "5:00pm"}, {"days": "Sun", "time": "Closed"}], "id": "8330100031", "name": "USPS COLLECTION BOX - BLUE BOX", "address": {"city": "TWIN FALLS", "state": "ID", "street": "886 BLUE LAKES BLVD N", "postcode": "83301"}}},
{"geometry": {"type": "Point", "coordinates": [-114.4690885497, 42.5566516823]}, "type": "Feature", "properties": {"collection_times": [{"days": "Mon-Sat", "time": "5:00pm"}, {"days": "Sun", "time": "Closed"}], "id": "8330100034", "name": "USPS COLLECTION BOX - BLUE BOX", "address": {"city": "TWIN FALLS", "state": "ID", "street": "1485 POLE LINE RD E", "postcode": "83301"}}},
{"geometry": {"type": "Point", "coordinates": [-114.4590064499, 42.5778352963]}, "type": "Feature", "properties": {"collection_times": [{"days": "Mon-Sat", "time": "5:00pm"}, {"days": "Sun", "time": "Closed"}], "id": "8330100035", "name": "USPS COLLECTION BOX - BLUE BOX", "address": {"city": "TWIN FALLS", "state": "ID", "street": "1201 FALLS AVE E", "postcode": "83301"}}},
{"geometry": {"type": "Point", "coordinates": [-114.4635024392, 42.5511150763]}, "type": "Feature", "properties": {"collection_times": [{"days": "Mon-Sat", "time": "5:00pm"}, {"days": "Sun", "time": "Closed"}], "id": "8330100036", "name": "USPS COLLECTION BOX - BLUE BOX", "address": {"city": "TWIN FALLS", "state": "ID", "street": "633 MAIN AVE E", "postcode": "83301"}}},
{"geometry": {"type": "Point", "coordinates": [-114.4855545492, 42.4837583326]}, "type": "Feature", "properties": {"collection_times": [{"days": "Mon-Sat", "time": "11:00am"}, {"days": "Sun", "time": "Closed"}], "id": "8330100037", "name": "USPS COLLECTION BOX - BLUE BOX", "address": {"city": "TWIN FALLS", "state": "ID", "street": "524 AIRPORT LOOP", "postcode": "83301"}}},
{"geometry": {"type": "Point", "coordinates": [-114.4665080621, 42.5705302103]}, "type": "Feature", "properties": {"collection_times": [{"days": "Mon-Sat", "time": "5:00pm"}, {"days": "Sun", "time": "Closed"}], "id": "8330100038", "name": "USPS COLLECTION BOX - BLUE BOX", "address": {"city": "TWIN FALLS", "state": "ID", "street": "647 FILER AVE", "postcode": "83301"}}},
{"geometry": {"type": "Point", "coordinates": [-114.4476055825, 42.5631822549]}, "type": "Feature", "properties": {"collection_times": [{"days": "Mon-Sat", "time": "5:00pm"}, {"days": "Sun", "time": "Closed"}], "id": "8330100040", "name": "USPS COLLECTION BOX - BLUE BOX", "address": {"city": "TWIN FALLS", "state": "ID", "street": "1913 ADDISON AVE E", "postcode": "83301"}}},
{"geometry": {"type": "Point", "coordinates": [-114.456088704, 42.5632616115]}, "type": "Feature", "properties": {"collection_times": [{"days": "Mon-Sat", "time": "5:00pm"}, {"days": "Sun", "time": "Closed"}], "id": "8330100041", "name": "USPS COLLECTION BOX - BLUE BOX", "address": {"city": "TWIN FALLS", "state": "ID", "street": "1445 ADDISON AVE E", "postcode": "83301"}}},
{"geometry": {"type": "Point", "coordinates": [-114.4598517756, 42.5632777867]}, "type": "Feature", "properties": {"collection_times": [{"days": "Mon-Sat", "time": "5:00pm"}, {"days": "Sun", "time": "Closed"}], "id": "8330100042", "name": "USPS COLLECTION BOX - BLUE BOX", "address": {"city": "TWIN FALLS", "state": "ID", "street": "1139 ADDISON AVE E", "postcode": "83301"}}},
{"geometry": {"type": "Point", "coordinates": [-114.5748145581, 42.389650809]}, "type": "Feature", "properties": {"collection_times": [{"days": "Mon-Sat", "time": "11:30am"}, {"days": "Sun", "time": "Closed"}], "id": "8330100044", "name": "USPS COLLECTION BOX - BLUE BOX", "address": {"city": "TWIN FALLS", "state": "ID", "street": "2701 HIGHWAY 93", "postcode": "83301"}}},
{"geometry": {"type": "Point", "coordinates": [-114.4709159716, 42.5199304291]}, "type": "Feature", "properties": {"collection_times": [{"days": "Mon-Fri", "time": "9:00am"}, {"days": "Sat", "time": "10:00am"}, {"days": "Sun", "time": "Closed"}], "id": "8330100045", "name": "USPS COLLECTION BOX - BLUE BOX", "address": {"city": "TWIN FALLS", "state": "ID", "street": "2913 E 3600 N", "postcode": "83301"}}},
{"geometry": {"type": "Point", "coordinates": [-114.4711715893, 42.5918739635]}, "type": "Feature", "properties": {"collection_times": [{"days": "Mon-Sat", "time": "5:00pm"}, {"days": "Sun", "time": "Closed"}], "id": "8330100046", "name": "USPS COLLECTION BOX - BLUE BOX", "address": {"city": "TWIN FALLS", "state": "ID", "street": "450 POLE LINE RD", "postcode": "83301"}}},
{"geometry": {"type": "Point", "coordinates": [-114.4644647089, 42.5871015362]}, "type": "Feature", "properties": {"collection_times": [{"days": "Mon-Fri", "time": "6:00pm"}, {"days": "Sat", "time": "5:30pm"}, {"days": "Sun", "time": "Closed"}], "id": "8330100047", "name": "USPS COLLECTION BOX - BLUE BOX", "address": {"city": "TWIN FALLS", "state": "ID", "street": "1376 FILLMORE ST", "postcode": "83301"}}},
{"geometry": {"type": "Point", "coordinates": [-114.4644647089, 42.5871015362]}, "type": "Feature", "properties": {"collection_times": [{"days": "Mon-Fri", "time": "6:00pm"}, {"days": "Sat", "time": "5:30pm"}, {"days": "Sun", "time": "Closed"}], "id": "8330100048", "name": "USPS COLLECTION BOX - BLUE BOX", "address": {"city": "TWIN FALLS", "state": "ID", "street": "1376 FILLMORE ST", "postcode": "83301"}}},
{"geometry": {"type": "Point", "coordinates": [-114.4690885497, 42.5566516823]}, "type": "Feature", "properties": {"collection_times": [{"days": "Mon-Fri", "time": "6:00pm"}, {"days": "Sat", "time": "5:30pm"}, {"days": "Sun", "time": "Closed"}], "id": "8330100049", "name": "USPS COLLECTION BOX - EXPRESS", "address": {"city": "TWIN FALLS", "state": "ID", "street": "1376 FILLMORE ST", "postcode": "83301"}}},
{"geometry": {"type": "Point", "coordinates": [-114.4729712897, 42.5565188909]}, "type": "Feature", "properties": {"collection_times": [{"days": "Mon-Sat", "time": "5:00pm"}, {"days": "Sun", "time": "Closed"}], "id": "8330100050", "name": "USPS COLLECTION BOX - BLUE BOX", "address": {"city": "TWIN FALLS", "state": "ID", "street": "253 2ND AVE W", "postcode": "83301"}}},
{"geometry": {"type": "Point", "coordinates": [-114.4729712897, 42.5565188909]}, "type": "Feature", "properties": {"collection_times": [{"days": "Mon-Sat", "time": "5:00pm"}, {"days": "Sun", "time": "Closed"}], "id": "8330100051", "name": "USPS COLLECTION BOX - PO LOBBY", "address": {"city": "TWIN FALLS", "state": "ID", "street": "253 2ND AVE W", "postcode": "83301"}}},
{"geometry": {"type": "Point", "coordinates": [-114.4644647089, 42.5871015362]}, "type": "Feature", "properties": {"collection_times": [{"days": "Mon-Fri", "time": "6:00pm"}, {"days": "Sat", "time": "5:30pm"}, {"days": "Sun", "time": "Closed"}], "id": "8330100052", "name": "USPS COLLECTION BOX - PO LOBBY", "address": {"city": "TWIN FALLS", "state": "ID", "street": "1376 FILLMORE ST", "postcode": "83301"}}},
{"geometry": {"type": "Point", "coordinates": [-114.4729712897, 42.5565188909]}, "type": "Feature", "properties": {"collection_times": [{"days": "Mon-Sat", "time": "5:00pm"}, {"days": "Sun", "time": "Closed"}], "id": "8330100057", "name": "USPS COLLECTION BOX - BLUE BOX", "address": {"city": "TWIN FALLS", "state": "ID", "street": "253 2ND AVE W", "postcode": "83301"}}},
{"geometry": {"type": "Point", "coordinates": [-114.4729712897, 42.5565188909]}, "type": "Feature", "properties": {"collection_times": [{"days": "Mon-Sat", "time": "5:00pm"}, {"days": "Sun", "time": "Closed"}], "id": "8330100058", "name": "USPS COLLECTION BOX - BLUE BOX", "address": {"city": "TWIN FALLS", "state": "ID", "street": "253 2ND AVE W", "postcode": "83301"}}},
{"geometry": {"type": "Point", "coordinates": [-114.4736962112, 42.5572068174]}, "type": "Feature", "properties": {"collection_times": [{"days": "Mon-Sat", "time": "5:00pm"}, {"days": "Sun", "time": "Closed"}], "id": "8330100064", "name": "USPS COLLECTION BOX - BLUE BOX", "address": {"city": "TWIN FALLS", "state": "ID", "street": "320 2ND AVE W", "postcode": "83301"}}},
{"geometry": {"type": "Point", "coordinates": [-114.4690885497, 42.5566516823]}, "type": "Feature", "properties": {"collection_times": [{"days": "Mon-Sat", "time": "5:00pm"}, {"days": "Sun", "time": "Closed"}], "id": "8330100065", "name": "USPS COLLECTION BOX - BLUE BOX", "address": {"city": "TWIN FALLS", "state": "ID", "street": "601 POLE LINE RD", "postcode": "83301"}}},
{"geometry": {"type": "Point", "coordinates": [-114.4604405189, 42.5742627288]}, "type": "Feature", "properties": {"collection_times": [{"days": "Mon-Sat", "time": "5:00pm"}, {"days": "Sun", "time": "Closed"}], "id": "8330100066", "name": "USPS COLLECTION BOX - BLUE BOX", "address": {"city": "TWIN FALLS", "state": "ID", "street": "705 BLUE LAKES BLVD N", "postcode": "83301"}}},
{"geometry": {"type": "Point", "coordinates": [-114.490471749, 42.565664924]}, "type": "Feature", "properties": {"collection_times": [{"days": "Mon-Sat", "time": "5:00pm"}, {"days": "Sun", "time": "Closed"}], "id": "8330100067", "name": "USPS COLLECTION BOX - BLUE BOX", "address": {"city": "TWIN FALLS", "state": "ID", "street": "526 SHOUP AVE W", "postcode": "83301"}}},
{"geometry": {"type": "Point", "coordinates": [-114.4644647089, 42.5871015362]}, "type": "Feature", "properties": {"collection_times": [{"days": "Mon-Fri", "time": "6:00pm"}, {"days": "Sat", "time": "5:30pm"}, {"days": "Sun", "time": "Closed"}], "id": "8330100069", "name": "USPS COLLECTION BOX - APC", "address": {"city": "TWIN FALLS", "state": "ID", "street": "1376 FILLMORE ST", "postcode": "83301"}}},
{"geometry": {"type": "Point", "coordinates": [-114.4729712897, 42.5565188909]}, "type": "Feature", "properties": {"collection_times": [{"days": "Mon-Sat", "time": "5:00pm"}, {"days": "Sun", "time": "Closed"}], "id": "8330100070", "name": "USPS COLLECTION BOX - BLUE BOX", "address": {"city": "TWIN FALLS", "state": "ID", "street": "253 2ND AVE W", "postcode": "83301"}}},
{"geometry": {"type": "Point", "coordinates": [-114.4690885497, 42.5566516823]}, "type": "Feature", "properties": {"collection_times": [{"days": "Mon-Sat", "time": "5:00pm"}, {"days": "Sun", "time": "Closed"}], "id": "8330100071", "name": "USPS COLLECTION BOX - BLUE BOX", "address": {"city": "TWIN FALLS", "state": "ID", "street": "1485 POLE LINE RD E", "postcode": "83301"}}},
{"geometry": {"type": "Point", "coordinates": [-114.4644647089, 42.5871015362]}, "type": "Feature", "properties": {"collection_times": [{"days": "Mon-Fri", "time": "6:00pm"}, {"days": "Sat", "time": "5:30pm"}, {"days": "Sun", "time": "Closed"}], "id": "8330100072", "name": "USPS COLLECTION BOX - PO LOBBY", "address": {"city": "TWIN FALLS", "state": "ID", "street": "1376 FILLMORE ST", "postcode": "83301"}}},
{"geometry": {"type": "Point", "coordinates": [-114.4644647089, 42.5871015362]}, "type": "Feature", "properties": {"collection_times": [{"days": "Mon-Fri", "time": "6:00pm"}, {"days": "Sat", "time": "5:30pm"}, {"days": "Sun", "time": "Closed"}], "id": "8330100073", "name": "USPS COLLECTION BOX - PO LOBBY", "address": {"city": "TWIN FALLS", "state": "ID", "street": "1376 FILLMORE ST", "postcode": "83301"}}},
{"geometry": {"type": "Point", "coordinates": [-114.4729712897, 42.5565188909]}, "type": "Feature", "properties": {"collection_times": [{"days": "Mon-Sat", "time": "5:00pm"}, {"days": "Sun", "time": "Closed"}], "id": "8330100074", "name": "USPS COLLECTION BOX - PO LOBBY", "address": {"city": "TWIN FALLS", "state": "ID", "street": "253 2ND AVE W", "postcode": "83301"}}},
{"geometry": {"type": "Point", "coordinates": [-114.4729712897, 42.5565188909]}, "type": "Feature", "properties": {"collection_times": [{"days": "Mon-Sat", "time": "5:00pm"}, {"days": "Sun", "time": "Closed"}], "id": "8330100075", "name": "USPS COLLECTION BOX - PO LOBBY", "address": {"city": "TWIN FALLS", "state": "ID", "street": "253 2ND AVE W", "postcode": "83301"}}},
{"geometry": {"type": "Point", "coordinates": [-113.5773053089, 42.4116101534]}, "type": "Feature", "properties": {"collection_times": [{"days": "Mon-Fri", "time": "3:30pm"}, {"days": "Sat", "time": "11:30am"}, {"days": "Sun", "time": "Closed"}], "id": "8331100000", "name": "USPS COLLECTION BOX - BLUE BOX", "address": {"city": "ALBION", "state": "ID", "street": "150 W MARKET ST", "postcode": "83311"}}},
{"geometry": {"type": "Point", "coordinates": [-113.5773053089, 42.4116101534]}, "type": "Feature", "properties": {"collection_times": [{"days": "Mon-Fri", "time": "12:45pm"}, {"days": "Sat", "time": "9:30am"}, {"days": "Sun", "time": "Closed"}], "id": "8331100001", "name": "USPS COLLECTION BOX - PO LOBBY", "address": {"city": "ALBION", "state": "ID", "street": "150 W MARKET ST", "postcode": "83311"}}},
{"geometry": {"type": "Point", "coordinates": [-113.6232725981, 42.1227925241]}, "type": "Feature", "properties": {"collection_times": [{"days": "Mon-Sat", "time": "11:45am"}, {"days": "Sun", "time": "Closed"}], "id": "8331200000", "name": "USPS COLLECTION BOX - BLUE BOX", "address": {"city": "ALMO", "state": "ID", "street": "3001 ELBA ALMO RD", "postcode": "83312"}}},
{"geometry": {"type": "Point", "coordinates": [-113.6232725981, 42.1227925241]}, "type": "Feature", "properties": {"collection_times": [{"days": "Mon-Sat", "time": "11:45am"}, {"days": "Sun", "time": "Closed"}], "id": "8331200001", "name": "USPS COLLECTION BOX - PO LOBBY", "address": {"city": "ALMO", "state": "ID", "street": "3001 ELBA ALMO RD", "postcode": "83312"}}},
{"geometry": {"type": "Point", "coordinates": [-114.2601659912, 43.4628753321]}, "type": "Feature", "properties": {"collection_times": [{"days": "Mon-Fri", "time": "4:00pm"}, {"days": "Sat", "time": "3:15pm"}, {"days": "Sun", "time": "Closed"}], "id": "8331300000", "name": "USPS COLLECTION BOX - BLUE BOX", "address": {"city": "BELLEVUE", "state": "ID", "street": "101 E PINE ST", "postcode": "83313"}}},
{"geometry": {"type": "Point", "coordinates": [-114.2601659912, 43.4628753321]}, "type": "Feature", "properties": {"collection_times": [{"days": "Mon-Fri", "time": "4:00pm"}, {"days": "Sat-Sun", "time": "Closed"}], "id": "8331300001", "name": "USPS COLLECTION BOX - PO LOBBY", "address": {"city": "BELLEVUE", "state": "ID", "street": "101 E PINE ST", "postcode": "83313"}}},
{"geometry": {"type": "Point", "coordinates": [-114.2669567831, 43.4759276438]}, "type": "Feature", "properties": {"collection_times": [{"days": "Mon-Sat", "time": "10:00am"}, {"days": "Sun", "time": "Closed"}], "id": "8331300002", "name": "USPS COLLECTION BOX - BLUE BOX", "address": {"city": "BELLEVUE", "state": "ID", "street": "757 N MAIN ST", "postcode": "83313"}}},
{"geometry": {"type": "Point", "coordinates": [-114.949478042, 42.9242238129]}, "type": "Feature", "properties": {"collection_times": [{"days": "Mon-Fri", "time": "3:40pm"}, {"days": "Sat", "time": "3:30pm"}, {"days": "Sun", "time": "Closed"}], "id": "8331400000", "name": "USPS COLLECTION BOX - BLUE BOX", "address": {"city": "BLISS", "state": "ID", "street": "100 E HIGHWAY 30", "postcode": "83314"}}},
{"geometry": {"type": "Point", "coordinates": [-114.8677936011, 43.0643083907]}, "type": "Feature", "properties": {"collection_times": [{"days": "Mon-Fri", "time": "12:15pm"}, {"days": "Sat", "time": "9:30am"}, {"days": "Sun", "time": "Closed"}], "id": "8331400001", "name": "USPS COLLECTION BOX - PO LOBBY", "address": {"city": "BLISS", "state": "ID", "street": "100 E HIGHWAY 30", "postcode": "83314"}}},
{"geometry": {"type": "Point", "coordinates": [-114.7581929239, 42.6002516616]}, "type": "Feature", "properties": {"collection_times": [{"days": "Mon-Fri", "time": "4:35pm"}, {"days": "Sat", "time": "4:00pm"}, {"days": "Sun", "time": "Closed"}], "id": "8331600000", "name": "USPS COLLECTION BOX - BLUE BOX", "address": {"city": "BUHL", "state": "ID", "street": "830 MAIN ST", "postcode": "83316"}}},
{"geometry": {"type": "Point", "coordinates": [-114.7581929239, 42.6002516616]}, "type": "Feature", "properties": {"collection_times": [{"days": "Mon-Fri", "time": "4:35pm"}, {"days": "Sat", "time": "4:00pm"}, {"days": "Sun", "time": "Closed"}], "id": "8331600002", "name": "USPS COLLECTION BOX - PO LOBBY", "address": {"city": "BUHL", "state": "ID", "street": "830 MAIN ST", "postcode": "83316"}}},
{"geometry": {"type": "Point", "coordinates": [-114.7673042027, 42.6044291698]}, "type": "Feature", "properties": {"collection_times": [{"days": "Mon-Fri", "time": "3:00pm"}, {"days": "Sat", "time": "2:00pm"}, {"days": "Sun", "time": "Closed"}], "id": "8331600003", "name": "USPS COLLECTION BOX - BLUE BOX", "address": {"city": "BUHL", "state": "ID", "street": "705 HIGHWAY 30", "postcode": "83316"}}},
{"geometry": {"type": "Point", "coordinates": [-114.7581929239, 42.6002516616]}, "type": "Feature", "properties": {"collection_times": [{"days": "Mon-Fri", "time": "4:35pm"}, {"days": "Sat", "time": "4:00pm"}, {"days": "Sun", "time": "Closed"}], "id": "8331600004", "name": "USPS COLLECTION BOX - PO LOBBY", "address": {"city": "BUHL", "state": "ID", "street": "830 MAIN ST", "postcode": "83316"}}},
{"geometry": {"type": "Point", "coordinates": [-114.7581929239, 42.6002516616]}, "type": "Feature", "properties": {"collection_times": [{"days": "Mon-Fri", "time": "4:35pm"}, {"days": "Sat", "time": "4:00pm"}, {"days": "Sun", "time": "Closed"}], "id": "8331600005", "name": "USPS COLLECTION BOX - PO LOBBY", "address": {"city": "BUHL", "state": "ID", "street": "830 MAIN ST", "postcode": "83316"}}},
{"geometry": {"type": "Point", "coordinates": [-113.776818226, 42.5360586418]}, "type": "Feature", "properties": {"collection_times": [{"days": "Mon-Fri", "time": "3:25pm"}, {"days": "Sat", "time": "3:45pm"}, {"days": "Sun", "time": "Closed"}], "id": "8331800000", "name": "USPS COLLECTION BOX - BLUE BOX", "address": {"city": "BURLEY", "state": "ID", "street": "1350 POMERELLE AVE", "postcode": "83318"}}},
{"geometry": {"type": "Point", "coordinates": [-113.7931903918, 42.5244623925]}, "type": "Feature", "properties": {"collection_times": [{"days": "Mon-Sat", "time": "3:55pm"}, {"days": "Sun", "time": "Closed"}], "id": "8331800004", "name": "USPS COLLECTION BOX - BLUE BOX", "address": {"city": "BURLEY", "state": "ID", "street": "2301 OVERLAND AVE", "postcode": "83318"}}},
{"geometry": {"type": "Point", "coordinates": [-113.7918625939, 42.5360519832]}, "type": "Feature", "properties": {"collection_times": [{"days": "Mon-Sat", "time": "3:55pm"}, {"days": "Sun", "time": "Closed"}], "id": "8331800005", "name": "USPS COLLECTION BOX - BLUE BOX", "address": {"city": "BURLEY", "state": "ID", "street": "1359 ALBION AVE", "postcode": "83318"}}},
{"geometry": {"type": "Point", "coordinates": [-113.7918625939, 42.5360519832]}, "type": "Feature", "properties": {"collection_times": [{"days": "Mon-Sat", "time": "3:55pm"}, {"days": "Sun", "time": "Closed"}], "id": "8331800006", "name": "USPS COLLECTION BOX - BLUE BOX", "address": {"city": "BURLEY", "state": "ID", "street": "1359 ALBION AVE", "postcode": "83318"}}},
{"geometry": {"type": "Point", "coordinates": [-113.7918625939, 42.5360519832]}, "type": "Feature", "properties": {"collection_times": [{"days": "Mon-Sat", "time": "3:55pm"}, {"days": "Sun", "time": "Closed"}], "id": "8331800007", "name": "USPS COLLECTION BOX - BLUE BOX", "address": {"city": "BURLEY", "state": "ID", "street": "1359 ALBION AVE", "postcode": "83318"}}},
{"geometry": {"type": "Point", "coordinates": [-113.7931772572, 42.5361283269]}, "type": "Feature", "properties": {"collection_times": [{"days": "Mon-Fri", "time": "4:30pm"}, {"days": "Sat", "time": "4:15pm"}, {"days": "Sun", "time": "Closed"}], "id": "8331800009", "name": "USPS COLLECTION BOX - BLUE BOX", "address": {"city": "BURLEY", "state": "ID", "street": "1353 OVERLAND AVE", "postcode": "83318"}}},
{"geometry": {"type": "Point", "coordinates": [-113.7931772572, 42.5361283269]}, "type": "Feature", "properties": {"collection_times": [{"days": "Mon-Fri", "time": "4:30pm"}, {"days": "Sat", "time": "4:15pm"}, {"days": "Sun", "time": "Closed"}], "id": "8331800010", "name": "USPS COLLECTION BOX - PO LOBBY", "address": {"city": "BURLEY", "state": "ID", "street": "1353 OVERLAND AVE", "postcode": "83318"}}},
{"geometry": {"type": "Point", "coordinates": [-113.7931772572, 42.5361283269]}, "type": "Feature", "properties": {"collection_times": [{"days": "Mon-Fri", "time": "4:30pm"}, {"days": "Sat", "time": "4:15pm"}, {"days": "Sun", "time": "Closed"}], "id": "8331800014", "name": "USPS COLLECTION BOX - PO LOBBY", "address": {"city": "BURLEY", "state": "ID", "street": "1353 OVERLAND AVE", "postcode": "83318"}}},
{"geometry": {"type": "Point", "coordinates": [-113.7931772572, 42.5361283269]}, "type": "Feature", "properties": {"collection_times": [{"days": "Mon-Fri", "time": "4:30pm"}, {"days": "Sat", "time": "4:15pm"}, {"days": "Sun", "time": "Closed"}], "id": "8331800015", "name": "USPS COLLECTION BOX - PO LOBBY", "address": {"city": "BURLEY", "state": "ID", "street": "1353 OVERLAND AVE", "postcode": "83318"}}},
{"geometry": {"type": "Point", "coordinates": [-113.9458300108, 43.3104724468]}, "type": "Feature", "properties": {"collection_times": [{"days": "Mon-Fri", "time": "1:30pm"}, {"days": "Sat", "time": "8:30am"}, {"days": "Sun", "time": "Closed"}], "id": "8332000000", "name": "USPS COLLECTION BOX - BLUE BOX", "address": {"city": "CAREY", "state": "ID", "street": "20492 N MAIN ST", "postcode": "83320"}}},
{"geometry": {"type": "Point", "coordinates": [-113.9458300108, 43.3104724468]}, "type": "Feature", "properties": {"collection_times": [{"days": "Mon-Fri", "time": "11:45am"}, {"days": "Sat", "time": "8:30am"}, {"days": "Sun", "time": "Closed"}], "id": "8332000001", "name": "USPS COLLECTION BOX - PO LOBBY", "address": {"city": "CAREY", "state": "ID", "street": "20492 N MAIN ST", "postcode": "83320"}}},
{"geometry": {"type": "Point", "coordinates": [-114.8723298549, 42.5206181867]}, "type": "Feature", "properties": {"collection_times": [{"days": "Mon-Fri", "time": "4:00pm"}, {"days": "Sat", "time": "9:00am"}, {"days": "Sun", "time": "Closed"}], "id": "8332100000", "name": "USPS COLLECTION BOX - BLUE BOX", "address": {"city": "CASTLEFORD", "state": "ID", "street": "357 MAIN ST", "postcode": "83321"}}},
{"geometry": {"type": "Point", "coordinates": [-114.8723298549, 42.5206181867]}, "type": "Feature", "properties": {"collection_times": [{"days": "Mon-Fri", "time": "11:45am"}, {"days": "Sat", "time": "9:00am"}, {"days": "Sun", "time": "Closed"}], "id": "8332100001", "name": "USPS COLLECTION BOX - PO LOBBY", "address": {"city": "CASTLEFORD", "state": "ID", "street": "357 MAIN ST", "postcode": "83321"}}},
{"geometry": {"type": "Point", "coordinates": [-113.6473494158, 42.5178622651]}, "type": "Feature", "properties": {"collection_times": [{"days": "Mon-Fri", "time": "3:45pm"}, {"days": "Sat", "time": "11:00am"}, {"days": "Sun", "time": "Closed"}], "id": "8332300000", "name": "USPS COLLECTION BOX - BLUE BOX", "address": {"city": "DECLO", "state": "ID", "street": "17 W MAIN ST", "postcode": "83323"}}},
{"geometry": {"type": "Point", "coordinates": [-113.6473494158, 42.5178622651]}, "type": "Feature", "properties": {"collection_times": [{"days": "Mon-Fri", "time": "12:45pm"}, {"days": "Sat", "time": "9:00am"}, {"days": "Sun", "time": "Closed"}], "id": "8332300001", "name": "USPS COLLECTION BOX - PO LOBBY", "address": {"city": "DECLO", "state": "ID", "street": "17 W MAIN ST", "postcode": "83323"}}},
{"geometry": {"type": "Point", "coordinates": [-114.2119915495, 42.6057048772]}, "type": "Feature", "properties": {"collection_times": [{"days": "Mon-Sat", "time": "4:20pm"}, {"days": "Sun", "time": "Closed"}], "id": "8332500000", "name": "USPS COLLECTION BOX - BLUE BOX", "address": {"city": "EDEN", "state": "ID", "street": "220 WILSON ST E", "postcode": "83325"}}},
{"geometry": {"type": "Point", "coordinates": [-114.2119915495, 42.6057048772]}, "type": "Feature", "properties": {"collection_times": [{"days": "Mon-Fri", "time": "11:45am"}, {"days": "Sat", "time": "9:00am"}, {"days": "Sun", "time": "Closed"}], "id": "8332500001", "name": "USPS COLLECTION BOX - PO LOBBY", "address": {"city": "EDEN", "state": "ID", "street": "220 WILSON ST E", "postcode": "83325"}}},
{"geometry": {"type": "Point", "coordinates": [-114.7919728153, 43.3460874446]}, "type": "Feature", "properties": {"collection_times": [{"days": "Mon-Fri", "time": "3:15pm"}, {"days": "Sat", "time": "1:15pm"}, {"days": "Sun", "time": "Closed"}], "id": "8332700000", "name": "USPS COLLECTION BOX - BLUE BOX", "address": {"city": "FAIRFIELD", "state": "ID", "street": "518 SOLDIER RD", "postcode": "83327"}}},
{"geometry": {"type": "Point", "coordinates": [-114.7919728153, 43.3460874446]}, "type": "Feature", "properties": {"collection_times": [{"days": "Mon-Fri", "time": "3:00pm"}, {"days": "Sat", "time": "9:15am"}, {"days": "Sun", "time": "Closed"}], "id": "8332700001", "name": "USPS COLLECTION BOX - PO LOBBY", "address": {"city": "FAIRFIELD", "state": "ID", "street": "518 SOLDIER RD", "postcode": "83327"}}},
{"geometry": {"type": "Point", "coordinates": [-114.6094136952, 42.5701632237]}, "type": "Feature", "properties": {"collection_times": [{"days": "Mon-Fri", "time": "4:30pm"}, {"days": "Sat", "time": "1:00pm"}, {"days": "Sun", "time": "Closed"}], "id": "8332800001", "name": "USPS COLLECTION BOX - PO LOBBY", "address": {"city": "FILER", "state": "ID", "street": "413 MAIN ST", "postcode": "83328"}}},
{"geometry": {"type": "Point", "coordinates": [-114.6128846588, 42.5639260417]}, "type": "Feature", "properties": {"collection_times": [{"days": "Mon-Sat", "time": "1:00pm"}, {"days": "Sun", "time": "Closed"}], "id": "8332800002", "name": "USPS COLLECTION BOX - BLUE BOX", "address": {"city": "FILER", "state": "ID", "street": "130 HIGHWAY 30", "postcode": "83328"}}},
{"geometry": {"type": "Point", "coordinates": [-114.7115960023, 42.9427850304]}, "type": "Feature", "properties": {"collection_times": [{"days": "Mon-Sat", "time": "4:00pm"}, {"days": "Sun", "time": "Closed"}], "id": "8333000000", "name": "USPS COLLECTION BOX - BLUE BOX", "address": {"city": "GOODING", "state": "ID", "street": "201 3RD AVE E", "postcode": "83330"}}},
{"geometry": {"type": "Point", "coordinates": [-114.7115960023, 42.9427850304]}, "type": "Feature", "properties": {"collection_times": [{"days": "Mon-Sat", "time": "4:00pm"}, {"days": "Sun", "time": "Closed"}], "id": "8333000001", "name": "USPS COLLECTION BOX - PO LOBBY", "address": {"city": "GOODING", "state": "ID", "street": "201 3RD AVE E", "postcode": "83330"}}},
{"geometry": {"type": "Point", "coordinates": [-114.7112193294, 42.9427117562]}, "type": "Feature", "properties": {"collection_times": [{"days": "Mon-Sat", "time": "4:00pm"}, {"days": "Sun", "time": "Closed"}], "id": "8333000002", "name": "USPS COLLECTION BOX - BLUE BOX", "address": {"city": "GOODING", "state": "ID", "street": "201 3RD AVE E", "postcode": "83330"}}},
{"geometry": {"type": "Point", "coordinates": [-114.898567407, 42.819489445]}, "type": "Feature", "properties": {"collection_times": [{"days": "Mon-Fri", "time": "3:25pm"}, {"days": "Sat", "time": "3:15pm"}, {"days": "Sun", "time": "Closed"}], "id": "8333200000", "name": "USPS COLLECTION BOX - BLUE BOX", "address": {"city": "HAGERMAN", "state": "ID", "street": "444 N STATE ST", "postcode": "83332"}}},
{"geometry": {"type": "Point", "coordinates": [-114.8984991001, 42.8198536874]}, "type": "Feature", "properties": {"collection_times": [{"days": "Mon-Fri", "time": "3:25pm"}, {"days": "Sat", "time": "10:30am"}, {"days": "Sun", "time": "Closed"}], "id": "8333200001", "name": "USPS COLLECTION BOX - PO LOBBY", "address": {"city": "HAGERMAN", "state": "ID", "street": "444 N STATE ST", "postcode": "83332"}}},
{"geometry": {"type": "Point", "coordinates": [-114.3147933166, 43.5187091471]}, "type": "Feature", "properties": {"collection_times": [{"days": "Mon-Fri", "time": "2:00pm"}, {"days": "Sat", "time": "12:15pm"}, {"days": "Sun", "time": "Closed"}], "id": "8333300000", "name": "USPS COLLECTION BOX - BLUE BOX", "address": {"city": "HAILEY", "state": "ID", "street": "7 W CROY ST", "postcode": "83333"}}},
{"geometry": {"type": "Point", "coordinates": [-114.309664244, 43.512861287]}, "type": "Feature", "properties": {"collection_times": [{"days": "Mon-Fri", "time": "3:45pm"}, {"days": "Sat", "time": "1:00pm"}, {"days": "Sun", "time": "Closed"}], "id": "8333300002", "name": "USPS COLLECTION BOX - PO LOBBY", "address": {"city": "HAILEY", "state": "ID", "street": "820 S MAIN ST", "postcode": "83333"}}},
{"geometry": {"type": "Point", "coordinates": [-114.3135821018, 43.5191954951]}, "type": "Feature", "properties": {"collection_times": [{"days": "Mon-Fri", "time": "11:30am"}, {"days": "Sat", "time": "10:30am"}, {"days": "Sun", "time": "Closed"}], "id": "8333300004", "name": "USPS COLLECTION BOX - BLUE BOX", "address": {"city": "HAILEY", "state": "ID", "street": "93 E CROY ST", "postcode": "83333"}}},
{"geometry": {"type": "Point", "coordinates": [-114.309664244, 43.512861287]}, "type": "Feature", "properties": {"collection_times": [{"days": "Mon-Fri", "time": "3:45pm"}, {"days": "Sat", "time": "3:30pm"}, {"days": "Sun", "time": "Closed"}], "id": "8333300008", "name": "USPS COLLECTION BOX - BLUE BOX", "address": {"city": "HAILEY", "state": "ID", "street": "820 S MAIN ST", "postcode": "83333"}}},
{"geometry": {"type": "Point", "coordinates": [-114.3078280155, 43.5251100045]}, "type": "Feature", "properties": {"collection_times": [{"days": "Mon-Fri", "time": "12:30pm"}, {"days": "Sat", "time": "11:30am"}, {"days": "Sun", "time": "Closed"}], "id": "8333300013", "name": "USPS COLLECTION BOX - BLUE BOX", "address": {"city": "HAILEY", "state": "ID", "street": "911 N MAIN ST", "postcode": "83333"}}},
{"geometry": {"type": "Point", "coordinates": [-114.3053053071, 42.5332696778]}, "type": "Feature", "properties": {"collection_times": [{"days": "Mon-Sat", "time": "3:40pm"}, {"days": "Sun", "time": "Closed"}], "id": "8333400000", "name": "USPS COLLECTION BOX - BLUE BOX", "address": {"city": "HANSEN", "state": "ID", "street": "217 HIGHWAY 30", "postcode": "83334"}}},
{"geometry": {"type": "Point", "coordinates": [-114.3053053071, 42.5332696778]}, "type": "Feature", "properties": {"collection_times": [{"days": "Mon-Fri", "time": "12:15pm"}, {"days": "Sat", "time": "9:00am"}, {"days": "Sun", "time": "Closed"}], "id": "8333400001", "name": "USPS COLLECTION BOX - PO LOBBY", "address": {"city": "HANSEN", "state": "ID", "street": "217 HIGHWAY 30", "postcode": "83334"}}},
{"geometry": {"type": "Point", "coordinates": [-114.1323980199, 42.5963555861]}, "type": "Feature", "properties": {"collection_times": [{"days": "Mon-Sat", "time": "4:10pm"}, {"days": "Sun", "time": "Closed"}], "id": "8333500000", "name": "USPS COLLECTION BOX - BLUE BOX", "address": {"city": "HAZELTON", "state": "ID", "street": "360 MAIN ST", "postcode": "83335"}}},
{"geometry": {"type": "Point", "coordinates": [-114.1323980199, 42.5963555861]}, "type": "Feature", "properties": {"collection_times": [{"days": "Mon-Fri", "time": "1:45pm"}, {"days": "Sat", "time": "1:00pm"}, {"days": "Sun", "time": "Closed"}], "id": "8333500001", "name": "USPS COLLECTION BOX - PO LOBBY", "address": {"city": "HAZELTON", "state": "ID", "street": "360 MAIN ST", "postcode": "83335"}}},
{"geometry": {"type": "Point", "coordinates": [-113.7549508613, 42.5574015338]}, "type": "Feature", "properties": {"collection_times": [{"days": "Mon-Fri", "time": "4:15pm"}, {"days": "Sat", "time": "1:30pm"}, {"days": "Sun", "time": "Closed"}], "id": "8333600000", "name": "USPS COLLECTION BOX - BLUE BOX", "address": {"city": "HEYBURN", "state": "ID", "street": "1030 17TH ST", "postcode": "83336"}}},
{"geometry": {"type": "Point", "coordinates": [-113.7549508613, 42.5574015338]}, "type": "Feature", "properties": {"collection_times": [{"days": "Mon-Fri", "time": "4:15pm"}, {"days": "Sat", "time": "1:30pm"}, {"days": "Sun", "time": "Closed"}], "id": "8333600001", "name": "USPS COLLECTION BOX - PO LOBBY", "address": {"city": "HEYBURN", "state": "ID", "street": "1030 17TH ST", "postcode": "83336"}}},
{"geometry": {"type": "Point", "coordinates": [-113.7549508613, 42.5574015338]}, "type": "Feature", "properties": {"collection_times": [{"days": "Mon-Fri", "time": "4:15pm"}, {"days": "Sat", "time": "1:30pm"}, {"days": "Sun", "time": "Closed"}], "id": "8333600003", "name": "USPS COLLECTION BOX - PO LOBBY", "address": {"city": "HEYBURN", "state": "ID", "street": "1030 17TH ST", "postcode": "83336"}}},
{"geometry": {"type": "Point", "coordinates": [-115.0530113977, 43.2994809883]}, "type": "Feature", "properties": {"collection_times": [{"days": "Mon-Sat", "time": "8:30am"}, {"days": "Sun", "time": "Closed"}], "id": "8333700000", "name": "USPS COLLECTION BOX - BLUE BOX", "address": {"city": "HILL CITY", "state": "ID", "street": "601 MAIN ST", "postcode": "83337"}}},
{"geometry": {"type": "Point", "coordinates": [-114.5178855283, 42.7252040503]}, "type": "Feature", "properties": {"collection_times": [{"days": "Mon-Fri", "time": "4:45pm"}, {"days": "Sat", "time": "4:00pm"}, {"days": "Sun", "time": "Closed"}], "id": "8333800005", "name": "USPS COLLECTION BOX - BLUE BOX", "address": {"city": "JEROME", "state": "ID", "street": "154 1ST AVE E", "postcode": "83338"}}},
{"geometry": {"type": "Point", "coordinates": [-114.5178855283, 42.7252040503]}, "type": "Feature", "properties": {"collection_times": [{"days": "Mon-Fri", "time": "4:45pm"}, {"days": "Sat", "time": "4:00pm"}, {"days": "Sun", "time": "Closed"}], "id": "8333800007", "name": "USPS COLLECTION BOX - PO LOBBY", "address": {"city": "JEROME", "state": "ID", "street": "154 1ST AVE E", "postcode": "83338"}}},
{"geometry": {"type": "Point", "coordinates": [-114.5182887665, 42.7150638335]}, "type": "Feature", "properties": {"collection_times": [{"days": "Mon-Sat", "time": "3:15pm"}, {"days": "Sun", "time": "Closed"}], "id": "8333800008", "name": "USPS COLLECTION BOX - BLUE BOX", "address": {"city": "JEROME", "state": "ID", "street": "1016 S LINCOLN AVE", "postcode": "83338"}}},
{"geometry": {"type": "Point", "coordinates": [-114.5178855283, 42.7252040503]}, "type": "Feature", "properties": {"collection_times": [{"days": "Mon-Fri", "time": "4:45pm"}, {"days": "Sat", "time": "4:00pm"}, {"days": "Sun", "time": "Closed"}], "id": "8333800010", "name": "USPS COLLECTION BOX - PO LOBBY", "address": {"city": "JEROME", "state": "ID", "street": "154 1ST AVE E", "postcode": "83338"}}},
{"geometry": {"type": "Point", "coordinates": [-114.3638803352, 43.6820497531]}, "type": "Feature", "properties": {"collection_times": [{"days": "Mon-Sat", "time": "2:00pm"}, {"days": "Sun", "time": "Closed"}], "id": "8334000001", "name": "USPS COLLECTION BOX - BLUE BOX", "address": {"city": "KETCHUM", "state": "ID", "street": "451 4TH ST E", "postcode": "83340"}}},
{"geometry": {"type": "Point", "coordinates": [-114.3666074211, 43.6826254186]}, "type": "Feature", "properties": {"collection_times": [{"days": "Mon-Sat", "time": "2:00pm"}, {"days": "Sun", "time": "Closed"}], "id": "8334000002", "name": "USPS COLLECTION BOX - BLUE BOX", "address": {"city": "KETCHUM", "state": "ID", "street": "640 N MAIN ST", "postcode": "83340"}}},
{"geometry": {"type": "Point", "coordinates": [-114.3676851186, 43.6857614646]}, "type": "Feature", "properties": {"collection_times": [{"days": "Mon-Sat", "time": "2:00pm"}, {"days": "Sun", "time": "Closed"}], "id": "8334000004", "name": "USPS COLLECTION BOX - BLUE BOX", "address": {"city": "KETCHUM", "state": "ID", "street": "491 10TH ST E", "postcode": "83340"}}},
{"geometry": {"type": "Point", "coordinates": [-114.3692660938, 43.6908842504]}, "type": "Feature", "properties": {"collection_times": [{"days": "Mon-Sat", "time": "2:00pm"}, {"days": "Sun", "time": "Closed"}], "id": "8334000008", "name": "USPS COLLECTION BOX - BLUE BOX", "address": {"city": "KETCHUM", "state": "ID", "street": "251 NORTHWOOD WAY", "postcode": "83340"}}},
{"geometry": {"type": "Point", "coordinates": [-114.356497881, 43.6902472065]}, "type": "Feature", "properties": {"collection_times": [{"days": "Mon-Sat", "time": "2:00pm"}, {"days": "Sun", "time": "Closed"}], "id": "8334000015", "name": "USPS COLLECTION BOX - BLUE BOX", "address": {"city": "KETCHUM", "state": "ID", "street": "620 SUN VALLEY RD", "postcode": "83340"}}},
{"geometry": {"type": "Point", "coordinates": [-114.3626913829, 43.6795939867]}, "type": "Feature", "properties": {"collection_times": [{"days": "Mon-Sat", "time": "2:00pm"}, {"days": "Sun", "time": "Closed"}], "id": "8334000016", "name": "USPS COLLECTION BOX - BLUE BOX", "address": {"city": "KETCHUM", "state": "ID", "street": "100 N MAIN ST", "postcode": "83340"}}},
{"geometry": {"type": "Point", "coordinates": [-114.3671831945, 43.6796422622]}, "type": "Feature", "properties": {"collection_times": [{"days": "Mon-Sat", "time": "3:00pm"}, {"days": "Sun", "time": "Closed"}], "id": "8334000017", "name": "USPS COLLECTION BOX - BLUE BOX", "address": {"city": "KETCHUM", "state": "ID", "street": "151 4TH ST W", "postcode": "83340"}}},
{"geometry": {"type": "Point", "coordinates": [-114.3671831945, 43.6796422622]}, "type": "Feature", "properties": {"collection_times": [{"days": "Mon-Sat", "time": "3:00pm"}, {"days": "Sun", "time": "Closed"}], "id": "8334000018", "name": "USPS COLLECTION BOX - BLUE BOX", "address": {"city": "KETCHUM", "state": "ID", "street": "151 4TH ST W", "postcode": "83340"}}},
{"geometry": {"type": "Point", "coordinates": [-114.3671831945, 43.6796422622]}, "type": "Feature", "properties": {"collection_times": [{"days": "Mon-Fri", "time": "3:15pm"}, {"days": "Sat", "time": "3:00pm"}, {"days": "Sun", "time": "Closed"}], "id": "8334000019", "name": "USPS COLLECTION BOX - PO LOBBY", "address": {"city": "KETCHUM", "state": "ID", "street": "151 4TH ST W", "postcode": "83340"}}},
{"geometry": {"type": "Point", "coordinates": [-114.361318802, 43.6772191286]}, "type": "Feature", "properties": {"collection_times": [{"days": "Mon-Sat", "time": "2:00pm"}, {"days": "Sun", "time": "Closed"}], "id": "8334000020", "name": "USPS COLLECTION BOX - BLUE BOX", "address": {"city": "KETCHUM", "state": "ID", "street": "333 S MAIN ST", "postcode": "83340"}}},
{"geometry": {"type": "Point", "coordinates": [-114.3626875802, 43.6794308688]}, "type": "Feature", "properties": {"collection_times": [{"days": "Mon-Sat", "time": "2:00pm"}, {"days": "Sun", "time": "Closed"}], "id": "8334000021", "name": "USPS COLLECTION BOX - BLUE BOX", "address": {"city": "KETCHUM", "state": "ID", "street": "111 S MAIN ST", "postcode": "83340"}}},
{"geometry": {"type": "Point", "coordinates": [-114.3671831945, 43.6796422622]}, "type": "Feature", "properties": {"collection_times": [{"days": "Mon-Fri", "time": "3:15pm"}, {"days": "Sat", "time": "3:00pm"}, {"days": "Sun", "time": "Closed"}], "id": "8334000022", "name": "USPS COLLECTION BOX - PO LOBBY", "address": {"city": "KETCHUM", "state": "ID", "street": "151 4TH ST W", "postcode": "83340"}}},
{"geometry": {"type": "Point", "coordinates": [-114.3671831945, 43.6796422622]}, "type": "Feature", "properties": {"collection_times": [{"days": "Mon-Fri", "time": "3:15pm"}, {"days": "Sat", "time": "3:00pm"}, {"days": "Sun", "time": "Closed"}], "id": "8334000023", "name": "USPS COLLECTION BOX - PO LOBBY", "address": {"city": "KETCHUM", "state": "ID", "street": "151 4TH ST W", "postcode": "83340"}}},
{"geometry": {"type": "Point", "coordinates": [-114.3671831945, 43.6796422622]}, "type": "Feature", "properties": {"collection_times": [{"days": "Mon-Fri", "time": "3:15pm"}, {"days": "Sat", "time": "3:00pm"}, {"days": "Sun", "time": "Closed"}], "id": "8334000024", "name": "USPS COLLECTION BOX - PO LOBBY", "address": {"city": "KETCHUM", "state": "ID", "street": "151 4TH ST W", "postcode": "83340"}}},
{"geometry": {"type": "Point", "coordinates": [-114.3671831945, 43.6796422622]}, "type": "Feature", "properties": {"collection_times": [{"days": "Mon-Fri", "time": "3:15pm"}, {"days": "Sat", "time": "3:00pm"}, {"days": "Sun", "time": "Closed"}], "id": "8334000025", "name": "USPS COLLECTION BOX - PO LOBBY", "address": {"city": "KETCHUM", "state": "ID", "street": "151 4TH ST W", "postcode": "83340"}}},
{"geometry": {"type": "Point", "coordinates": [-114.3648493868, 42.5348578711]}, "type": "Feature", "properties": {"collection_times": [{"days": "Mon-Fri", "time": "3:25pm"}, {"days": "Sat", "time": "3:00pm"}, {"days": "Sun", "time": "Closed"}], "id": "8334100001", "name": "USPS COLLECTION BOX - BLUE BOX", "address": {"city": "KIMBERLY", "state": "ID", "street": "225 MAIN ST N", "postcode": "83341"}}},
{"geometry": {"type": "Point", "coordinates": [-114.3648493868, 42.5348578711]}, "type": "Feature", "properties": {"collection_times": [{"days": "Mon-Fri", "time": "3:25pm"}, {"days": "Sat", "time": "11:00am"}, {"days": "Sun", "time": "Closed"}], "id": "8334100002", "name": "USPS COLLECTION BOX - PO LOBBY", "address": {"city": "KIMBERLY", "state": "ID", "street": "225 MAIN ST N", "postcode": "83341"}}},
{"geometry": {"type": "Point", "coordinates": [-113.365748268, 42.2812435087]}, "type": "Feature", "properties": {"collection_times": [{"days": "Mon-Fri", "time": "2:55pm"}, {"days": "Sat", "time": "1:15pm"}, {"days": "Sun", "time": "Closed"}], "id": "8334200000", "name": "USPS COLLECTION BOX - BLUE BOX", "address": {"city": "MALTA", "state": "ID", "street": "15 S MAIN ST", "postcode": "83342"}}},
{"geometry": {"type": "Point", "coordinates": [-113.3692424017, 42.3051610027]}, "type": "Feature", "properties": {"collection_times": [{"days": "Mon-Fri", "time": "2:55pm"}, {"days": "Sat", "time": "11:00am"}, {"days": "Sun", "time": "Closed"}], "id": "8334200003", "name": "USPS COLLECTION BOX - PO LOBBY", "address": {"city": "MALTA", "state": "ID", "street": "15 S MAIN ST", "postcode": "83342"}}},
{"geometry": {"type": "Point", "coordinates": [-113.5702275896, 43.0126415437]}, "type": "Feature", "properties": {"collection_times": [{"days": "Mon-Sat", "time": "11:00am"}, {"days": "Sun", "time": "Closed"}], "id": "8334300001", "name": "USPS COLLECTION BOX - BLUE BOX", "address": {"city": "MINIDOKA", "state": "ID", "street": "402 CHERRY ST", "postcode": "83343"}}},
{"geometry": {"type": "Point", "coordinates": [-114.1618471685, 42.4917434941]}, "type": "Feature", "properties": {"collection_times": [{"days": "Mon-Sat", "time": "3:55pm"}, {"days": "Sun", "time": "Closed"}], "id": "8334400000", "name": "USPS COLLECTION BOX - BLUE BOX", "address": {"city": "MURTAUGH", "state": "ID", "street": "244 1ST ST S", "postcode": "83344"}}},
{"geometry": {"type": "Point", "coordinates": [-114.1618471685, 42.4917434941]}, "type": "Feature", "properties": {"collection_times": [{"days": "Mon-Fri", "time": "11:55am"}, {"days": "Sat", "time": "9:00am"}, {"days": "Sun", "time": "Closed"}], "id": "8334400001", "name": "USPS COLLECTION BOX - PO LOBBY", "address": {"city": "MURTAUGH", "state": "ID", "street": "244 1ST ST S", "postcode": "83344"}}},
{"geometry": {"type": "Point", "coordinates": [-113.8827773195, 42.2431648574]}, "type": "Feature", "properties": {"collection_times": [{"days": "Mon-Fri", "time": "3:45pm"}, {"days": "Sat", "time": "3:30pm"}, {"days": "Sun", "time": "Closed"}], "id": "8334600000", "name": "USPS COLLECTION BOX - BLUE BOX", "address": {"city": "OAKLEY", "state": "ID", "street": "130 W MAIN ST", "postcode": "83346"}}},
{"geometry": {"type": "Point", "coordinates": [-113.8827773195, 42.2431648574]}, "type": "Feature", "properties": {"collection_times": [{"days": "Mon-Fri", "time": "3:45pm"}, {"days": "Sat", "time": "10:30am"}, {"days": "Sun", "time": "Closed"}], "id": "8334600001", "name": "USPS COLLECTION BOX - PO LOBBY", "address": {"city": "OAKLEY", "state": "ID", "street": "130 W MAIN ST", "postcode": "83346"}}},
{"geometry": {"type": "Point", "coordinates": [-113.8827773195, 42.2431648574]}, "type": "Feature", "properties": {"collection_times": [{"days": "Mon-Fri", "time": "3:45pm"}, {"days": "Sat", "time": "10:30am"}, {"days": "Sun", "time": "Closed"}], "id": "8334600002", "name": "USPS COLLECTION BOX - PO LOBBY", "address": {"city": "OAKLEY", "state": "ID", "street": "130 W MAIN ST", "postcode": "83346"}}},
{"geometry": {"type": "Point", "coordinates": [-113.7824584518, 42.6077886794]}, "type": "Feature", "properties": {"collection_times": [{"days": "Mon-Fri", "time": "3:45pm"}, {"days": "Sat", "time": "3:30pm"}, {"days": "Sun", "time": "Closed"}], "id": "8334700000", "name": "USPS COLLECTION BOX - BLUE BOX", "address": {"city": "PAUL", "state": "ID", "street": "110 E IDAHO ST", "postcode": "83347"}}},
{"geometry": {"type": "Point", "coordinates": [-113.7824584518, 42.6077886794]}, "type": "Feature", "properties": {"collection_times": [{"days": "Mon-Fri", "time": "3:45pm"}, {"days": "Sat", "time": "9:00am"}, {"days": "Sun", "time": "Closed"}], "id": "8334700001", "name": "USPS COLLECTION BOX - PO LOBBY", "address": {"city": "PAUL", "state": "ID", "street": "110 E IDAHO ST", "postcode": "83347"}}},
{"geometry": {"type": "Point", "coordinates": [-114.1537084782, 43.0500477028]}, "type": "Feature", "properties": {"collection_times": [{"days": "Mon-Fri", "time": "2:00pm"}, {"days": "Sat", "time": "12:00pm"}, {"days": "Sun", "time": "Closed"}], "id": "8334900000", "name": "USPS COLLECTION BOX - BLUE BOX", "address": {"city": "RICHFIELD", "state": "ID", "street": "180 N MAIN ST", "postcode": "83349"}}},
{"geometry": {"type": "Point", "coordinates": [-114.1537084782, 43.0500477028]}, "type": "Feature", "properties": {"collection_times": [{"days": "Mon-Fri", "time": "11:45am"}, {"days": "Sat", "time": "8:30am"}, {"days": "Sun", "time": "Closed"}], "id": "8334900001", "name": "USPS COLLECTION BOX - PO LOBBY", "address": {"city": "RICHFIELD", "state": "ID", "street": "180 N MAIN ST", "postcode": "83349"}}},
{"geometry": {"type": "Point", "coordinates": [-113.6734735883, 42.6144155813]}, "type": "Feature", "properties": {"collection_times": [{"days": "Mon-Sat", "time": "2:30pm"}, {"days": "Sun", "time": "Closed"}], "id": "8335000001", "name": "USPS COLLECTION BOX - BLUE BOX", "address": {"city": "RUPERT", "state": "ID", "street": "310 ONEIDA ST", "postcode": "83350"}}},
{"geometry": {"type": "Point", "coordinates": [-113.6751557255, 42.6187633029]}, "type": "Feature", "properties": {"collection_times": [{"days": "Mon-Fri", "time": "4:00pm"}, {"days": "Sat", "time": "3:15pm"}, {"days": "Sun", "time": "Closed"}], "id": "8335000003", "name": "USPS COLLECTION BOX - BLUE BOX", "address": {"city": "RUPERT", "state": "ID", "street": "724 F ST", "postcode": "83350"}}},
{"geometry": {"type": "Point", "coordinates": [-113.6751557255, 42.6187633029]}, "type": "Feature", "properties": {"collection_times": [{"days": "Mon-Fri", "time": "4:00pm"}, {"days": "Sat", "time": "3:15pm"}, {"days": "Sun", "time": "Closed"}], "id": "8335000004", "name": "USPS COLLECTION BOX - BLUE BOX", "address": {"city": "RUPERT", "state": "ID", "street": "724 F ST", "postcode": "83350"}}},
{"geometry": {"type": "Point", "coordinates": [-113.6751557255, 42.6187633029]}, "type": "Feature", "properties": {"collection_times": [{"days": "Mon-Fri", "time": "4:00pm"}, {"days": "Sat", "time": "12:15pm"}, {"days": "Sun", "time": "Closed"}], "id": "8335000005", "name": "USPS COLLECTION BOX - PO LOBBY", "address": {"city": "RUPERT", "state": "ID", "street": "724 F ST", "postcode": "83350"}}},
{"geometry": {"type": "Point", "coordinates": [-114.4088210934, 42.9349987669]}, "type": "Feature", "properties": {"collection_times": [{"days": "Mon-Fri", "time": "4:45pm"}, {"days": "Sat", "time": "4:30pm"}, {"days": "Sun", "time": "Closed"}], "id": "8335200000", "name": "USPS COLLECTION BOX - BLUE BOX", "address": {"city": "SHOSHONE", "state": "ID", "street": "211 W A ST", "postcode": "83352"}}},
{"geometry": {"type": "Point", "coordinates": [-114.4088210934, 42.9349987669]}, "type": "Feature", "properties": {"collection_times": [{"days": "Mon-Fri", "time": "4:45pm"}, {"days": "Sat", "time": "9:00am"}, {"days": "Sun", "time": "Closed"}], "id": "8335200001", "name": "USPS COLLECTION BOX - PO LOBBY", "address": {"city": "SHOSHONE", "state": "ID", "street": "211 W A ST", "postcode": "83352"}}},
{"geometry": {"type": "Point", "coordinates": [-114.3567000967, 43.6956826287]}, "type": "Feature", "properties": {"collection_times": [{"days": "Mon-Fri", "time": "2:50pm"}, {"days": "Sat", "time": "12:15pm"}, {"days": "Sun", "time": "Closed"}], "id": "8335300000", "name": "USPS COLLECTION BOX - BLUE BOX", "address": {"city": "SUN VALLEY", "state": "ID", "street": "100 SUN VALLEY RD", "postcode": "83353"}}},
{"geometry": {"type": "Point", "coordinates": [-114.3567000967, 43.6956826287]}, "type": "Feature", "properties": {"collection_times": [{"days": "Mon-Fri", "time": "2:50pm"}, {"days": "Sat", "time": "12:15pm"}, {"days": "Sun", "time": "Closed"}], "id": "8335300001", "name": "USPS COLLECTION BOX - PO LOBBY", "address": {"city": "SUN VALLEY", "state": "ID", "street": "100 SUN VALLEY RD", "postcode": "83353"}}},
{"geometry": {"type": "Point", "coordinates": [-114.3571165817, 43.694385341]}, "type": "Feature", "properties": {"collection_times": [{"days": "Mon-Sat", "time": "1:00pm"}, {"days": "Sun", "time": "Closed"}], "id": "8335400000", "name": "USPS COLLECTION BOX - BLUE BOX", "address": {"city": "ELKHORN", "state": "ID", "street": "90 ELKHORN RD", "postcode": "83354"}}},
{"geometry": {"type": "Point", "coordinates": [-114.7057250751, 42.7757321884]}, "type": "Feature", "properties": {"collection_times": [{"days": "Mon-Sat", "time": "4:30pm"}, {"days": "Sun", "time": "Closed"}], "id": "8335500000", "name": "USPS COLLECTION BOX - BLUE BOX", "address": {"city": "WENDELL", "state": "ID", "street": "32 N SHOSHONE ST", "postcode": "83355"}}},
{"geometry": {"type": "Point", "coordinates": [-114.7057250751, 42.7757321884]}, "type": "Feature", "properties": {"collection_times": [{"days": "Mon-Fri", "time": "4:30pm"}, {"days": "Sat", "time": "11:00am"}, {"days": "Sun", "time": "Closed"}], "id": "8335500001", "name": "USPS COLLECTION BOX - PO LOBBY", "address": {"city": "WENDELL", "state": "ID", "street": "32 N SHOSHONE ST", "postcode": "83355"}}}
]}
