{"type": "FeatureCollection", "features": [
{"geometry": {"type": "Point", "coordinates": [-112.0176958752, 43.5103154808]}, "type": "Feature", "properties": {"collection_times": [{"days": "Mon-Sat", "time": "12:00pm"}, {"days": "Sun", "time": "Closed"}], "id": "8340100002", "name": "USPS COLLECTION BOX - BLUE BOX", "address": {"city": "IDAHO FALLS", "state": "ID", "street": "1555 NORTHGATE MILE", "postcode": "83401"}}},
{"geometry": {"type": "Point", "coordinates": [-112.0176958752, 43.5103154808]}, "type": "Feature", "properties": {"collection_times": [{"days": "Mon-Sat", "time": "12:00pm"}, {"days": "Sun", "time": "Closed"}], "id": "8340100003", "name": "USPS COLLECTION BOX - BLUE BOX", "address": {"city": "IDAHO FALLS", "state": "ID", "street": "1555 NORTHGATE MILE", "postcode": "83401"}}},
{"geometry": {"type": "Point", "coordinates": [-112.0212160962, 43.494313328]}, "type": "Feature", "properties": {"collection_times": [{"days": "Mon-Sat", "time": "3:55pm"}, {"days": "Sun", "time": "Closed"}], "id": "8340100006", "name": "USPS COLLECTION BOX - BLUE BOX", "address": {"city": "IDAHO FALLS", "state": "ID", "street": "605 4TH ST", "postcode": "83401"}}},
{"geometry": {"type": "Point", "coordinates": [-112.0212160962, 43.494313328]}, "type": "Feature", "properties": {"collection_times": [{"days": "Mon-Sat", "time": "3:55pm"}, {"days": "Sun", "time": "Closed"}], "id": "8340100007", "name": "USPS COLLECTION BOX - BLUE BOX", "address": {"city": "IDAHO FALLS", "state": "ID", "street": "605 4TH ST", "postcode": "83401"}}},
{"geometry": {"type": "Point", "coordinates": [-112.0212160962, 43.494313328]}, "type": "Feature", "properties": {"collection_times": [{"days": "Mon-Sat", "time": "3:55pm"}, {"days": "Sun", "time": "Closed"}], "id": "8340100008", "name": "USPS COLLECTION BOX - BLUE BOX", "address": {"city": "IDAHO FALLS", "state": "ID", "street": "605 4TH ST", "postcode": "83401"}}},
{"geometry": {"type": "Point", "coordinates": [-112.0212160962, 43.494313328]}, "type": "Feature", "properties": {"collection_times": [{"days": "Mon-Sat", "time": "3:55pm"}, {"days": "Sun", "time": "Closed"}], "id": "8340100009", "name": "USPS COLLECTION BOX - BLUE BOX", "address": {"city": "IDAHO FALLS", "state": "ID", "street": "605 4TH ST", "postcode": "83401"}}},
{"geometry": {"type": "Point", "coordinates": [-112.0212160962, 43.494313328]}, "type": "Feature", "properties": {"collection_times": [{"days": "Mon-Sat", "time": "3:55pm"}, {"days": "Sun", "time": "Closed"}], "id": "8340100010", "name": "USPS COLLECTION BOX - PO LOBBY", "address": {"city": "IDAHO FALLS", "state": "ID", "street": "605 4TH ST", "postcode": "83401"}}},
{"geometry": {"type": "Point", "coordinates": [-111.9648646078, 43.496273587]}, "type": "Feature", "properties": {"collection_times": [{"days": "Mon-Sat", "time": "1:00pm"}, {"days": "Sun", "time": "Closed"}], "id": "8340100013", "name": "USPS COLLECTION BOX - BLUE BOX", "address": {"city": "IDAHO FALLS", "state": "ID", "street": "3480 1ST ST", "postcode": "83401"}}},
{"geometry": {"type": "Point", "coordinates": [-112.0212160962, 43.494313328]}, "type": "Feature", "properties": {"collection_times": [{"days": "Mon-Sat", "time": "3:55pm"}, {"days": "Sun", "time": "Closed"}], "id": "8340100014", "name": "USPS COLLECTION BOX - APC", "address": {"city": "IDAHO FALLS", "state": "ID", "street": "605 4TH ST", "postcode": "83401"}}},
{"geometry": {"type": "Point", "coordinates": [-112.0212160962, 43.494313328]}, "type": "Feature", "properties": {"collection_times": [{"days": "Mon-Sat", "time": "3:55pm"}, {"days": "Sun", "time": "Closed"}], "id": "8340100015", "name": "USPS COLLECTION BOX - PO LOBBY", "address": {"city": "IDAHO FALLS", "state": "ID", "street": "605 4TH ST", "postcode": "83401"}}},
{"geometry": {"type": "Point", "coordinates": [-112.06225487, 43.5069649168]}, "type": "Feature", "properties": {"collection_times": [{"days": "Mon-Fri", "time": "12:00pm"}, {"days": "Sat-Sun", "time": "Closed"}], "id": "8340200001", "name": "USPS COLLECTION BOX - BLUE BOX", "address": {"city": "IDAHO FALLS", "state": "ID", "street": "1580 SAWTELLE ST", "postcode": "83402"}}},
{"geometry": {"type": "Point", "coordinates": [-112.0408878705, 43.4904372657]}, "type": "Feature", "properties": {"collection_times": [{"days": "Mon-Fri", "time": "2:30pm"}, {"days": "Sat", "time": "1:30pm"}, {"days": "Sun", "time": "Closed"}], "id": "8340200005", "name": "USPS COLLECTION BOX - BLUE BOX", "address": {"city": "IDAHO FALLS", "state": "ID", "street": "150 SHOUP AVE", "postcode": "83402"}}},
{"geometry": {"type": "Point", "coordinates": [-112.0655124295, 43.496707604]}, "type": "Feature", "properties": {"collection_times": [{"days": "Mon-Sat", "time": "2:00pm"}, {"days": "Sun", "time": "Closed"}], "id": "8340200008", "name": "USPS COLLECTION BOX - BLUE BOX", "address": {"city": "IDAHO FALLS", "state": "ID", "street": "1725 W BROADWAY ST", "postcode": "83402"}}},
{"geometry": {"type": "Point", "coordinates": [-112.0406109525, 43.4927677726]}, "type": "Feature", "properties": {"collection_times": [{"days": "Mon-Fri", "time": "2:30pm"}, {"days": "Sat", "time": "1:30pm"}, {"days": "Sun", "time": "Closed"}], "id": "8340200025", "name": "USPS COLLECTION BOX - BLUE BOX", "address": {"city": "IDAHO FALLS", "state": "ID", "street": "410 PARK AVE", "postcode": "83402"}}},
{"geometry": {"type": "Point", "coordinates": [-112.0388358098, 43.4972702442]}, "type": "Feature", "properties": {"collection_times": [{"days": "Mon-Sat", "time": "3:25pm"}, {"days": "Sun", "time": "Closed"}], "id": "8340200039", "name": "USPS COLLECTION BOX - BLUE BOX", "address": {"city": "IDAHO FALLS", "state": "ID", "street": "875 N CAPITAL AVE", "postcode": "83402"}}},
{"geometry": {"type": "Point", "coordinates": [-112.0388358098, 43.4972702442]}, "type": "Feature", "properties": {"collection_times": [{"days": "Mon-Sat", "time": "3:25pm"}, {"days": "Sun", "time": "Closed"}], "id": "8340200040", "name": "USPS COLLECTION BOX - BLUE BOX", "address": {"city": "IDAHO FALLS", "state": "ID", "street": "875 N CAPITAL AVE", "postcode": "83402"}}},
{"geometry": {"type": "Point", "coordinates": [-112.0388358098, 43.4972702442]}, "type": "Feature", "properties": {"collection_times": [{"days": "Mon-Sat", "time": "3:25pm"}, {"days": "Sun", "time": "Closed"}], "id": "8340200041", "name": "USPS COLLECTION BOX - BLUE BOX", "address": {"city": "IDAHO FALLS", "state": "ID", "street": "875 N CAPITAL AVE", "postcode": "83402"}}},
{"geometry": {"type": "Point", "coordinates": [-112.045944, 43.51699]}, "type": "Feature", "properties": {"collection_times": [{"days": "Mon-Fri", "time": "9:00am"}, {"days": "Sat-Sun", "time": "Closed"}], "id": "8340200046", "name": "USPS COLLECTION BOX - BLUE BOX", "address": {"city": "IDAHO FALLS", "state": "ID", "street": "1955 FREMONT AVE", "postcode": "83402"}}},
{"geometry": {"type": "Point", "coordinates": [-112.0388358098, 43.4972702442]}, "type": "Feature", "properties": {"collection_times": [{"days": "Mon-Sat", "time": "3:25pm"}, {"days": "Sun", "time": "Closed"}], "id": "8340200048", "name": "USPS COLLECTION BOX - BLUE BOX", "address": {"city": "IDAHO FALLS", "state": "ID", "street": "875 N CAPITAL AVE", "postcode": "83402"}}},
{"geometry": {"type": "Point", "coordinates": [-112.0388358098, 43.4972702442]}, "type": "Feature", "properties": {"collection_times": [{"days": "Mon-Sat", "time": "3:25pm"}, {"days": "Sun", "time": "Closed"}], "id": "8340200051", "name": "USPS COLLECTION BOX - PO LOBBY", "address": {"city": "IDAHO FALLS", "state": "ID", "street": "875 N CAPITAL AVE", "postcode": "83402"}}},
{"geometry": {"type": "Point", "coordinates": [-112.0663044982, 43.4967358418]}, "type": "Feature", "properties": {"collection_times": [{"days": "Mon-Sat", "time": "2:00pm"}, {"days": "Sun", "time": "Closed"}], "id": "8340200054", "name": "USPS COLLECTION BOX - BLUE BOX", "address": {"city": "IDAHO FALLS", "state": "ID", "street": "1725 W BROADWAY ST", "postcode": "83402"}}},
{"geometry": {"type": "Point", "coordinates": [-112.0388358098, 43.4972702442]}, "type": "Feature", "properties": {"collection_times": [{"days": "Mon-Sat", "time": "3:25pm"}, {"days": "Sun", "time": "Closed"}], "id": "8340200056", "name": "USPS COLLECTION BOX - PO LOBBY", "address": {"city": "IDAHO FALLS", "state": "ID", "street": "875 N CAPITAL AVE", "postcode": "83402"}}},
{"geometry": {"type": "Point", "coordinates": [-112.0013432553, 43.4823426808]}, "type": "Feature", "properties": {"collection_times": [{"days": "Mon-Sat", "time": "12:00pm"}, {"days": "Sun", "time": "Closed"}], "id": "8340400002", "name": "USPS COLLECTION BOX - BLUE BOX", "address": {"city": "IDAHO FALLS", "state": "ID", "street": "1646 E 17TH ST", "postcode": "83404"}}},
{"geometry": {"type": "Point", "coordinates": [-112.0228633958, 43.482494746]}, "type": "Feature", "properties": {"collection_times": [{"days": "Mon-Sat", "time": "12:00pm"}, {"days": "Sun", "time": "Closed"}], "id": "8340400003", "name": "USPS COLLECTION BOX - BLUE BOX", "address": {"city": "IDAHO FALLS", "state": "ID", "street": "540 E 17TH ST", "postcode": "83404"}}},
{"geometry": {"type": "Point", "coordinates": [-111.9874325939, 43.4820899444]}, "type": "Feature", "properties": {"collection_times": [{"days": "Mon-Fri", "time": "1:00pm"}, {"days": "Sat", "time": "12:00pm"}, {"days": "Sun", "time": "Closed"}], "id": "8340400004", "name": "USPS COLLECTION BOX - BLUE BOX", "address": {"city": "IDAHO FALLS", "state": "ID", "street": "2300 E 17TH ST", "postcode": "83404"}}},
{"geometry": {"type": "Point", "coordinates": [-111.9902368177, 43.4695614353]}, "type": "Feature", "properties": {"collection_times": [{"days": "Mon-Fri", "time": "2:30pm"}, {"days": "Sat", "time": "1:30pm"}, {"days": "Sun", "time": "Closed"}], "id": "8340400005", "name": "USPS COLLECTION BOX - BLUE BOX", "address": {"city": "IDAHO FALLS", "state": "ID", "street": "3100 CHANNING WAY", "postcode": "83404"}}},
{"geometry": {"type": "Point", "coordinates": [-111.9976084858, 43.4823041843]}, "type": "Feature", "properties": {"collection_times": [{"days": "Mon-Fri", "time": "1:00pm"}, {"days": "Sat", "time": "12:00pm"}, {"days": "Sun", "time": "Closed"}], "id": "8340400011", "name": "USPS COLLECTION BOX - BLUE BOX", "address": {"city": "IDAHO FALLS", "state": "ID", "street": "1820 E 17TH ST", "postcode": "83404"}}},
{"geometry": {"type": "Point", "coordinates": [-111.9645161537, 43.4674668325]}, "type": "Feature", "properties": {"collection_times": [{"days": "Mon-Fri", "time": "2:00pm"}, {"days": "Sat", "time": "1:00pm"}, {"days": "Sun", "time": "Closed"}], "id": "8340600000", "name": "USPS COLLECTION BOX - BLUE BOX", "address": {"city": "AMMON", "state": "ID", "street": "3490 E SUNNYSIDE RD", "postcode": "83406"}}},
{"geometry": {"type": "Point", "coordinates": [-111.96493713, 43.4818315121]}, "type": "Feature", "properties": {"collection_times": [{"days": "Mon-Fri", "time": "2:00pm"}, {"days": "Sat", "time": "1:00pm"}, {"days": "Sun", "time": "Closed"}], "id": "8340600001", "name": "USPS COLLECTION BOX - BLUE BOX", "address": {"city": "AMMON", "state": "ID", "street": "3480 E 17TH ST", "postcode": "83406"}}},
{"geometry": {"type": "Point", "coordinates": [-111.9837396315, 43.467957012]}, "type": "Feature", "properties": {"collection_times": [{"days": "Mon-Sat", "time": "2:00pm"}, {"days": "Sun", "time": "Closed"}], "id": "8340600002", "name": "USPS COLLECTION BOX - PO LOBBY", "address": {"city": "AMMON", "state": "ID", "street": "2523 E SUNNYSIDE RD", "postcode": "83406"}}},
{"geometry": {"type": "Point", "coordinates": [-111.3338679356, 44.0381101759]}, "type": "Feature", "properties": {"collection_times": [{"days": "Mon-Sat", "time": "2:30pm"}, {"days": "Sun", "time": "Closed"}], "id": "8342000000", "name": "USPS COLLECTION BOX - BLUE BOX", "address": {"city": "ASHTON", "state": "ID", "street": "109 S 5TH ST", "postcode": "83420"}}},
{"geometry": {"type": "Point", "coordinates": [-111.3338679356, 44.0381101759]}, "type": "Feature", "properties": {"collection_times": [{"days": "Mon-Fri", "time": "2:30pm"}, {"days": "Sat", "time": "12:00pm"}, {"days": "Sun", "time": "Closed"}], "id": "8342000001", "name": "USPS COLLECTION BOX - PO LOBBY", "address": {"city": "ASHTON", "state": "ID", "street": "109 S 5TH ST", "postcode": "83420"}}},
{"geometry": {"type": "Point", "coordinates": [-111.5737762154, 43.9988070457]}, "type": "Feature", "properties": {"collection_times": [{"days": "Mon-Fri", "time": "2:45pm"}, {"days": "Sat", "time": "10:00am"}, {"days": "Sun", "time": "Closed"}], "id": "8342100000", "name": "USPS COLLECTION BOX - BLUE BOX", "address": {"city": "CHESTER", "state": "ID", "street": "797 EAST ST", "postcode": "83421"}}},
{"geometry": {"type": "Point", "coordinates": [-111.5737762154, 43.9988070457]}, "type": "Feature", "properties": {"collection_times": [{"days": "Mon-Fri", "time": "11:45am"}, {"days": "Sat", "time": "10:00am"}, {"days": "Sun", "time": "Closed"}], "id": "8342100001", "name": "USPS COLLECTION BOX - PO LOBBY", "address": {"city": "CHESTER", "state": "ID", "street": "797 EAST ST", "postcode": "83421"}}},
{"geometry": {"type": "Point", "coordinates": [-111.1109780041, 43.7225220536]}, "type": "Feature", "properties": {"collection_times": [{"days": "Mon-Fri", "time": "2:00pm"}, {"days": "Sat", "time": "12:00pm"}, {"days": "Sun", "time": "Closed"}], "id": "8342200000", "name": "USPS COLLECTION BOX - PO LOBBY", "address": {"city": "DRIGGS", "state": "ID", "street": "70 S MAIN ST", "postcode": "83422"}}},
{"geometry": {"type": "Point", "coordinates": [-111.1109780041, 43.7225220536]}, "type": "Feature", "properties": {"collection_times": [{"days": "Mon-Fri", "time": "2:00pm"}, {"days": "Sat", "time": "12:00pm"}, {"days": "Sun", "time": "Closed"}], "id": "8342200001", "name": "USPS COLLECTION BOX - BLUE BOX", "address": {"city": "DRIGGS", "state": "ID", "street": "70 S MAIN ST", "postcode": "83422"}}},
{"geometry": {"type": "Point", "coordinates": [-112.5812376126, 44.2399838352]}, "type": "Feature", "properties": {"collection_times": [{"days": "Mon-Sat", "time": "1:45pm"}, {"days": "Sun", "time": "Closed"}], "id": "8342300000", "name": "USPS COLLECTION BOX - BLUE BOX", "address": {"city": "DUBOIS", "state": "ID", "street": "72 W MAIN ST", "postcode": "83423"}}},
{"geometry": {"type": "Point", "coordinates": [-112.5812376126, 44.2399838352]}, "type": "Feature", "properties": {"collection_times": [{"days": "Mon-Fri", "time": "1:45pm"}, {"days": "Sat", "time": "9:30am"}, {"days": "Sun", "time": "Closed"}], "id": "8342300001", "name": "USPS COLLECTION BOX - PO LOBBY", "address": {"city": "DUBOIS", "state": "ID", "street": "72 W MAIN ST", "postcode": "83423"}}},
{"geometry": {"type": "Point", "coordinates": [-112.5812376126, 44.2399838352]}, "type": "Feature", "properties": {"collection_times": [{"days": "Mon-Sat", "time": "9:15am"}, {"days": "Sun", "time": "Closed"}], "id": "8342300002", "name": "USPS COLLECTION BOX - BLUE BOX", "address": {"city": "DUBOIS", "state": "ID", "street": "32 OPAL AVE", "postcode": "83423"}}},
{"geometry": {"type": "Point", "coordinates": [-112.5812376126, 44.2399838352]}, "type": "Feature", "properties": {"collection_times": [{"days": "Mon-Fri", "time": "1:45pm"}, {"days": "Sat-Sun", "time": "Closed"}], "id": "8342300003", "name": "USPS COLLECTION BOX - PO LOBBY", "address": {"city": "DUBOIS", "state": "ID", "street": "72 W MAIN ST", "postcode": "83423"}}},
{"geometry": {"type": "Point", "coordinates": [-112.2012471222, 43.9277277405]}, "type": "Feature", "properties": {"collection_times": [{"days": "Mon-Sat", "time": "2:10pm"}, {"days": "Sun", "time": "Closed"}], "id": "8342500000", "name": "USPS COLLECTION BOX - BLUE BOX", "address": {"city": "HAMER", "state": "ID", "street": "2449 E 2100 N", "postcode": "83425"}}},
{"geometry": {"type": "Point", "coordinates": [-112.2012471222, 43.9277277405]}, "type": "Feature", "properties": {"collection_times": [{"days": "Mon-Fri", "time": "12:45pm"}, {"days": "Sat", "time": "11:00am"}, {"days": "Sun", "time": "Closed"}], "id": "8342500001", "name": "USPS COLLECTION BOX - PO LOBBY", "address": {"city": "HAMER", "state": "ID", "street": "2449 E 2100 N", "postcode": "83425"}}},
{"geometry": {"type": "Point", "coordinates": [-111.9299000403, 43.5284944031]}, "type": "Feature", "properties": {"collection_times": [{"days": "Mon-Fri", "time": "3:15pm"}, {"days": "Sat", "time": "9:30am"}, {"days": "Sun", "time": "Closed"}], "id": "8342700000", "name": "USPS COLLECTION BOX - BLUE BOX", "address": {"city": "IONA", "state": "ID", "street": "3614 MAIN ST", "postcode": "83427"}}},
{"geometry": {"type": "Point", "coordinates": [-111.9299000403, 43.5284944031]}, "type": "Feature", "properties": {"collection_times": [{"days": "Mon-Fri", "time": "3:15pm"}, {"days": "Sat", "time": "9:30am"}, {"days": "Sun", "time": "Closed"}], "id": "8342700001", "name": "USPS COLLECTION BOX - PO LOBBY", "address": {"city": "IONA", "state": "ID", "street": "3614 MAIN ST", "postcode": "83427"}}},
{"geometry": {"type": "Point", "coordinates": [-111.2949614446, 43.4064515056]}, "type": "Feature", "properties": {"collection_times": [{"days": "Mon-Fri", "time": "1:05pm"}, {"days": "Sat", "time": "12:00pm"}, {"days": "Sun", "time": "Closed"}], "id": "8342800000", "name": "USPS COLLECTION BOX - PO LOBBY", "address": {"city": "IRWIN", "state": "ID", "street": "3373 SWAN VALLEY HWY", "postcode": "83428"}}},
{"geometry": {"type": "Point", "coordinates": [-111.2949614446, 43.4064515056]}, "type": "Feature", "properties": {"collection_times": [{"days": "Mon-Fri", "time": "1:05pm"}, {"days": "Sat", "time": "12:00pm"}, {"days": "Sun", "time": "Closed"}], "id": "8342800002", "name": "USPS COLLECTION BOX - BLUE BOX", "address": {"city": "IRWIN", "state": "ID", "street": "3373 SWAN VALLEY HWY", "postcode": "83428"}}},
{"geometry": {"type": "Point", "coordinates": [-111.3467880978, 44.4813551751]}, "type": "Feature", "properties": {"collection_times": [{"days": "Mon-Fri", "time": "1:05pm"}, {"days": "Sat", "time": "12:15pm"}, {"days": "Sun", "time": "Closed"}], "id": "8342900000", "name": "USPS COLLECTION BOX - BLUE BOX", "address": {"city": "ISLAND PARK", "state": "ID", "street": "3978 US HIGHWAY 20", "postcode": "83429"}}},
{"geometry": {"type": "Point", "coordinates": [-111.355091469, 44.4648140354]}, "type": "Feature", "properties": {"collection_times": [{"days": "Mon-Fri", "time": "1:05pm"}, {"days": "Sat", "time": "12:30pm"}, {"days": "Sun", "time": "Closed"}], "id": "8342900001", "name": "USPS COLLECTION BOX - BLUE BOX", "address": {"city": "ISLAND PARK", "state": "ID", "street": "3370 N HIGHWAY 20", "postcode": "83429"}}},
{"geometry": {"type": "Point", "coordinates": [-111.3467880978, 44.4813551751]}, "type": "Feature", "properties": {"collection_times": [{"days": "Mon-Fri", "time": "1:05pm"}, {"days": "Sat", "time": "12:15pm"}, {"days": "Sun", "time": "Closed"}], "id": "8342900002", "name": "USPS COLLECTION BOX - PO LOBBY", "address": {"city": "ISLAND PARK", "state": "ID", "street": "3978 US HIGHWAY 20", "postcode": "83429"}}},
{"geometry": {"type": "Point", "coordinates": [-111.3363835964, 44.4986989569]}, "type": "Feature", "properties": {"collection_times": [{"days": "Mon-Sat", "time": "12:15pm"}, {"days": "Sun", "time": "Closed"}], "id": "8342900004", "name": "USPS COLLECTION BOX - BLUE BOX", "address": {"city": "ISLAND PARK", "state": "ID", "street": "4110 S BIG SPRINGS RD", "postcode": "83429"}}},
{"geometry": {"type": "Point", "coordinates": [-111.3276042559, 44.4988442916]}, "type": "Feature", "properties": {"collection_times": [{"days": "Mon-Sat", "time": "9:15am"}, {"days": "Sun", "time": "Closed"}], "id": "8342900005", "name": "USPS COLLECTION BOX - BLUE BOX", "address": {"city": "ISLAND PARK", "state": "ID", "street": "4153 N BIG SPRINGS RD", "postcode": "83429"}}},
{"geometry": {"type": "Point", "coordinates": [-112.011123473, 43.6842821387]}, "type": "Feature", "properties": {"collection_times": [{"days": "Mon-Sat", "time": "3:05pm"}, {"days": "Sun", "time": "Closed"}], "id": "8343100000", "name": "USPS COLLECTION BOX - BLUE BOX", "address": {"city": "LEWISVILLE", "state": "ID", "street": "3444 E 480 N", "postcode": "83431"}}},
{"geometry": {"type": "Point", "coordinates": [-112.011123473, 43.6842821387]}, "type": "Feature", "properties": {"collection_times": [{"days": "Mon-Fri", "time": "12:45pm"}, {"days": "Sat", "time": "12:30pm"}, {"days": "Sun", "time": "Closed"}], "id": "8343100001", "name": "USPS COLLECTION BOX - PO LOBBY", "address": {"city": "LEWISVILLE", "state": "ID", "street": "3444 E 480 N", "postcode": "83431"}}},
{"geometry": {"type": "Point", "coordinates": [-111.9813542406, 43.7206881233]}, "type": "Feature", "properties": {"collection_times": [{"days": "Mon-Fri", "time": "2:55pm"}, {"days": "Sat", "time": "12:30pm"}, {"days": "Sun", "time": "Closed"}], "id": "8343400000", "name": "USPS COLLECTION BOX - BLUE BOX", "address": {"city": "MENAN", "state": "ID", "street": "3509 E MENAN LORENZO HWY", "postcode": "83434"}}},
{"geometry": {"type": "Point", "coordinates": [-111.9813542406, 43.7206881233]}, "type": "Feature", "properties": {"collection_times": [{"days": "Mon-Fri", "time": "2:45pm"}, {"days": "Sat", "time": "12:30pm"}, {"days": "Sun", "time": "Closed"}], "id": "8343400001", "name": "USPS COLLECTION BOX - PO LOBBY", "address": {"city": "MENAN", "state": "ID", "street": "3509 E MENAN LORENZO HWY", "postcode": "83434"}}},
{"geometry": {"type": "Point", "coordinates": [-112.536533092, 43.9687635424]}, "type": "Feature", "properties": {"collection_times": [{"days": "Mon-Fri", "time": "1:00pm"}, {"days": "Sat", "time": "11:30am"}, {"days": "Sun", "time": "Closed"}], "id": "8343500000", "name": "USPS COLLECTION BOX - BLUE BOX", "address": {"city": "MONTEVIEW", "state": "ID", "street": "2381 N 800 E", "postcode": "83435"}}},
{"geometry": {"type": "Point", "coordinates": [-112.536533092, 43.9687635424]}, "type": "Feature", "properties": {"collection_times": [{"days": "Mon-Fri", "time": "1:00pm"}, {"days": "Sat", "time": "11:30am"}, {"days": "Sun", "time": "Closed"}], "id": "8343500001", "name": "USPS COLLECTION BOX - PO LOBBY", "address": {"city": "MONTEVIEW", "state": "ID", "street": "2381 N 800 E", "postcode": "83435"}}},
{"geometry": {"type": "Point", "coordinates": [-111.6030283985, 43.8865393267]}, "type": "Feature", "properties": {"collection_times": [{"days": "Mon-Sat", "time": "2:55pm"}, {"days": "Sun", "time": "Closed"}], "id": "8343600000", "name": "USPS COLLECTION BOX - BLUE BOX", "address": {"city": "NEWDALE", "state": "ID", "street": "385 CITY ST", "postcode": "83436"}}},
{"geometry": {"type": "Point", "coordinates": [-111.6030283985, 43.8865393267]}, "type": "Feature", "properties": {"collection_times": [{"days": "Mon-Fri", "time": "11:45am"}, {"days": "Sat", "time": "8:00am"}, {"days": "Sun", "time": "Closed"}], "id": "8343600001", "name": "USPS COLLECTION BOX - PO LOBBY", "address": {"city": "NEWDALE", "state": "ID", "street": "385 CITY ST", "postcode": "83436"}}},
{"geometry": {"type": "Point", "coordinates": [-111.7580467716, 43.956530006]}, "type": "Feature", "properties": {"collection_times": [{"days": "Mon-Fri", "time": "1:00pm"}, {"days": "Sat", "time": "12:45pm"}, {"days": "Sun", "time": "Closed"}], "id": "8343800000", "name": "USPS COLLECTION BOX - PO LOBBY", "address": {"city": "PARKER", "state": "ID", "street": "31 N CENTER", "postcode": "83438"}}},
{"geometry": {"type": "Point", "coordinates": [-111.7838585976, 43.8231064619]}, "type": "Feature", "properties": {"collection_times": [{"days": "Mon-Sat", "time": "3:30pm"}, {"days": "Sun", "time": "Closed"}], "id": "8344000003", "name": "USPS COLLECTION BOX - BLUE BOX", "address": {"city": "REXBURG", "state": "ID", "street": "140 S CENTER ST", "postcode": "83440"}}},
{"geometry": {"type": "Point", "coordinates": [-111.7838585976, 43.8231064619]}, "type": "Feature", "properties": {"collection_times": [{"days": "Mon-Sat", "time": "3:30pm"}, {"days": "Sun", "time": "Closed"}], "id": "8344000004", "name": "USPS COLLECTION BOX - BLUE BOX", "address": {"city": "REXBURG", "state": "ID", "street": "140 S CENTER ST", "postcode": "83440"}}},
{"geometry": {"type": "Point", "coordinates": [-111.7838585976, 43.8231064619]}, "type": "Feature", "properties": {"collection_times": [{"days": "Mon-Sat", "time": "3:30pm"}, {"days": "Sun", "time": "Closed"}], "id": "8344000005", "name": "USPS COLLECTION BOX - BLUE BOX", "address": {"city": "REXBURG", "state": "ID", "street": "140 S CENTER ST", "postcode": "83440"}}},
{"geometry": {"type": "Point", "coordinates": [-111.7838585976, 43.8231064619]}, "type": "Feature", "properties": {"collection_times": [{"days": "Mon-Sat", "time": "3:30pm"}, {"days": "Sun", "time": "Closed"}], "id": "8344000006", "name": "USPS COLLECTION BOX - BLUE BOX", "address": {"city": "REXBURG", "state": "ID", "street": "140 S CENTER ST", "postcode": "83440"}}},
{"geometry": {"type": "Point", "coordinates": [-111.7838585976, 43.8231064619]}, "type": "Feature", "properties": {"collection_times": [{"days": "Mon-Sat", "time": "3:30pm"}, {"days": "Sun", "time": "Closed"}], "id": "8344000007", "name": "USPS COLLECTION BOX - PO LOBBY", "address": {"city": "REXBURG", "state": "ID", "street": "140 S CENTER ST", "postcode": "83440"}}},
{"geometry": {"type": "Point", "coordinates": [-111.7838585976, 43.8231064619]}, "type": "Feature", "properties": {"collection_times": [{"days": "Mon-Sat", "time": "3:30pm"}, {"days": "Sun", "time": "Closed"}], "id": "8344000008", "name": "USPS COLLECTION BOX - PO LOBBY", "address": {"city": "REXBURG", "state": "ID", "street": "140 S CENTER ST", "postcode": "83440"}}},
{"geometry": {"type": "Point", "coordinates": [-111.9148229949, 43.6737698534]}, "type": "Feature", "properties": {"collection_times": [{"days": "Mon-Sat", "time": "2:00pm"}, {"days": "Sun", "time": "Closed"}], "id": "8344200000", "name": "USPS COLLECTION BOX - BLUE BOX", "address": {"city": "RIGBY", "state": "ID", "street": "182 N STATE ST", "postcode": "83442"}}},
{"geometry": {"type": "Point", "coordinates": [-111.9148169568, 43.6708150139]}, "type": "Feature", "properties": {"collection_times": [{"days": "Mon-Fri", "time": "3:45pm"}, {"days": "Sat", "time": "2:00pm"}, {"days": "Sun", "time": "Closed"}], "id": "8344200002", "name": "USPS COLLECTION BOX - BLUE BOX", "address": {"city": "RIGBY", "state": "ID", "street": "165 S STATE ST", "postcode": "83442"}}},
{"geometry": {"type": "Point", "coordinates": [-111.9149027704, 43.6722539594]}, "type": "Feature", "properties": {"collection_times": [{"days": "Mon-Fri", "time": "3:45pm"}, {"days": "Sat", "time": "2:00pm"}, {"days": "Sun", "time": "Closed"}], "id": "8344200003", "name": "USPS COLLECTION BOX - PO LOBBY", "address": {"city": "RIGBY", "state": "ID", "street": "165 S STATE ST", "postcode": "83442"}}},
{"geometry": {"type": "Point", "coordinates": [-111.9149027704, 43.6722539594]}, "type": "Feature", "properties": {"collection_times": [{"days": "Mon-Fri", "time": "3:45pm"}, {"days": "Sat", "time": "2:00pm"}, {"days": "Sun", "time": "Closed"}], "id": "8344200004", "name": "USPS COLLECTION BOX - PO LOBBY", "address": {"city": "RIGBY", "state": "ID", "street": "165 S STATE ST", "postcode": "83442"}}},
{"geometry": {"type": "Point", "coordinates": [-111.7757612804, 43.6268050735]}, "type": "Feature", "properties": {"collection_times": [{"days": "Mon-Fri", "time": "2:40pm"}, {"days": "Sat", "time": "8:30am"}, {"days": "Sun", "time": "Closed"}], "id": "8344300000", "name": "USPS COLLECTION BOX - PO LOBBY", "address": {"city": "RIRIE", "state": "ID", "street": "120 W RIRIE HWY", "postcode": "83443"}}},
{"geometry": {"type": "Point", "coordinates": [-111.7757612804, 43.6268050735]}, "type": "Feature", "properties": {"collection_times": [{"days": "Mon-Fri", "time": "2:40pm"}, {"days": "Sat", "time": "2:00pm"}, {"days": "Sun", "time": "Closed"}], "id": "8344300001", "name": "USPS COLLECTION BOX - BLUE BOX", "address": {"city": "RIRIE", "state": "ID", "street": "120 W RIRIE HWY", "postcode": "83443"}}},
{"geometry": {"type": "Point", "coordinates": [-112.1278494739, 43.7201592135]}, "type": "Feature", "properties": {"collection_times": [{"days": "Mon-Sat", "time": "2:35pm"}, {"days": "Sun", "time": "Closed"}], "id": "8344400000", "name": "USPS COLLECTION BOX - BLUE BOX", "address": {"city": "ROBERTS", "state": "ID", "street": "2876 E 650 N", "postcode": "83444"}}},
{"geometry": {"type": "Point", "coordinates": [-112.1278494739, 43.7201592135]}, "type": "Feature", "properties": {"collection_times": [{"days": "Mon-Fri", "time": "2:35pm"}, {"days": "Sat", "time": "1:00pm"}, {"days": "Sun", "time": "Closed"}], "id": "8344400001", "name": "USPS COLLECTION BOX - PO LOBBY", "address": {"city": "ROBERTS", "state": "ID", "street": "2876 E 650 N", "postcode": "83444"}}},
{"geometry": {"type": "Point", "coordinates": [-111.6831351686, 43.9673404565]}, "type": "Feature", "properties": {"collection_times": [{"days": "Mon-Fri", "time": "3:00pm"}, {"days": "Sat", "time": "12:00pm"}, {"days": "Sun", "time": "Closed"}], "id": "8344500003", "name": "USPS COLLECTION BOX - BLUE BOX", "address": {"city": "SAINT ANTHONY", "state": "ID", "street": "50 W 1ST N", "postcode": "83445"}}},
{"geometry": {"type": "Point", "coordinates": [-111.6831351686, 43.9673404565]}, "type": "Feature", "properties": {"collection_times": [{"days": "Mon-Fri", "time": "3:00pm"}, {"days": "Sat", "time": "12:00pm"}, {"days": "Sun", "time": "Closed"}], "id": "8344500005", "name": "USPS COLLECTION BOX - PO LOBBY", "address": {"city": "SAINT ANTHONY", "state": "ID", "street": "50 W 1ST N", "postcode": "83445"}}},
{"geometry": {"type": "Point", "coordinates": [-111.7476876096, 43.8728980647]}, "type": "Feature", "properties": {"collection_times": [{"days": "Mon-Sat", "time": "3:00pm"}, {"days": "Sun", "time": "Closed"}], "id": "8344800000", "name": "USPS COLLECTION BOX - BLUE BOX", "address": {"city": "SUGAR CITY", "state": "ID", "street": "33 E CENTER ST", "postcode": "83448"}}},
{"geometry": {"type": "Point", "coordinates": [-111.7476876096, 43.8728980647]}, "type": "Feature", "properties": {"collection_times": [{"days": "Mon-Fri", "time": "3:00pm"}, {"days": "Sat", "time": "8:00am"}, {"days": "Sun", "time": "Closed"}], "id": "8344800001", "name": "USPS COLLECTION BOX - PO LOBBY", "address": {"city": "SUGAR CITY", "state": "ID", "street": "33 E CENTER ST", "postcode": "83448"}}},
{"geometry": {"type": "Point", "coordinates": [-111.7476876096, 43.8728980647]}, "type": "Feature", "properties": {"collection_times": [{"days": "Mon-Fri", "time": "3:00pm"}, {"days": "Sat", "time": "8:00am"}, {"days": "Sun", "time": "Closed"}], "id": "8344800002", "name": "USPS COLLECTION BOX - PO LOBBY", "address": {"city": "SUGAR CITY", "state": "ID", "street": "33 E CENTER ST", "postcode": "83448"}}},
{"geometry": {"type": "Point", "coordinates": [-111.3364453413, 43.4488320329]}, "type": "Feature", "properties": {"collection_times": [{"days": "Mon-Fri", "time": "1:20pm"}, {"days": "Sat", "time": "12:00pm"}, {"days": "Sun", "time": "Closed"}], "id": "8344900000", "name": "USPS COLLECTION BOX - BLUE BOX", "address": {"city": "SWAN VALLEY", "state": "ID", "street": "3004 SWAN VALLEY HWY", "postcode": "83449"}}},
{"geometry": {"type": "Point", "coordinates": [-111.3364453413, 43.4488320329]}, "type": "Feature", "properties": {"collection_times": [{"days": "Mon-Fri", "time": "1:15pm"}, {"days": "Sat", "time": "11:45am"}, {"days": "Sun", "time": "Closed"}], "id": "8344900001", "name": "USPS COLLECTION BOX - PO LOBBY", "address": {"city": "SWAN VALLEY", "state": "ID", "street": "3004 SWAN VALLEY HWY", "postcode": "83449"}}},
{"geometry": {"type": "Point", "coordinates": [-112.4372284651, 43.8413110323]}, "type": "Feature", "properties": {"collection_times": [{"days": "Mon-Sat", "time": "2:55pm"}, {"days": "Sun", "time": "Closed"}], "id": "8345000000", "name": "USPS COLLECTION BOX - BLUE BOX", "address": {"city": "TERRETON", "state": "ID", "street": "1290 E 1500 N", "postcode": "83450"}}},
{"geometry": {"type": "Point", "coordinates": [-112.4372284651, 43.8413110323]}, "type": "Feature", "properties": {"collection_times": [{"days": "Mon-Fri", "time": "2:55pm"}, {"days": "Sat", "time": "10:00am"}, {"days": "Sun", "time": "Closed"}], "id": "8345000001", "name": "USPS COLLECTION BOX - PO LOBBY", "address": {"city": "TERRETON", "state": "ID", "street": "1290 E 1500 N", "postcode": "83450"}}},
{"geometry": {"type": "Point", "coordinates": [-111.6677616057, 43.8866014328]}, "type": "Feature", "properties": {"collection_times": [{"days": "Mon-Sat", "time": "3:00pm"}, {"days": "Sun", "time": "Closed"}], "id": "8345100000", "name": "USPS COLLECTION BOX - BLUE BOX", "address": {"city": "TETON", "state": "ID", "street": "8 E MAIN ST", "postcode": "83451"}}},
{"geometry": {"type": "Point", "coordinates": [-111.6677616057, 43.8866014328]}, "type": "Feature", "properties": {"collection_times": [{"days": "Mon-Fri", "time": "2:45pm"}, {"days": "Sat", "time": "8:00am"}, {"days": "Sun", "time": "Closed"}], "id": "8345100001", "name": "USPS COLLECTION BOX - PO LOBBY", "address": {"city": "TETON", "state": "ID", "street": "8 E MAIN ST", "postcode": "83451"}}},
{"geometry": {"type": "Point", "coordinates": [-111.2237386269, 43.8105032585]}, "type": "Feature", "properties": {"collection_times": [{"days": "Mon-Sat", "time": "2:20pm"}, {"days": "Sun", "time": "Closed"}], "id": "8345200000", "name": "USPS COLLECTION BOX - BLUE BOX", "address": {"city": "TETONIA", "state": "ID", "street": "6229 S MAIN ST", "postcode": "83452"}}},
{"geometry": {"type": "Point", "coordinates": [-111.2237386269, 43.8105032585]}, "type": "Feature", "properties": {"collection_times": [{"days": "Mon-Fri", "time": "2:20pm"}, {"days": "Sat", "time": "10:30am"}, {"days": "Sun", "time": "Closed"}], "id": "8345200001", "name": "USPS COLLECTION BOX - PO LOBBY", "address": {"city": "TETONIA", "state": "ID", "street": "6229 S MAIN ST", "postcode": "83452"}}},
{"geometry": {"type": "Point", "coordinates": [-111.9637279633, 43.5949211616]}, "type": "Feature", "properties": {"collection_times": [{"days": "Mon-Fri", "time": "4:00pm"}, {"days": "Sat", "time": "8:00am"}, {"days": "Sun", "time": "Closed"}], "id": "8345400000", "name": "USPS COLLECTION BOX - BLUE BOX", "address": {"city": "UCON", "state": "ID", "street": "10990 N YELLOWSTONE HWY", "postcode": "83454"}}},
{"geometry": {"type": "Point", "coordinates": [-111.9637279633, 43.5949211616]}, "type": "Feature", "properties": {"collection_times": [{"days": "Mon-Fri", "time": "3:45pm"}, {"days": "Sat", "time": "8:00am"}, {"days": "Sun", "time": "Closed"}], "id": "8345400001", "name": "USPS COLLECTION BOX - PO LOBBY", "address": {"city": "UCON", "state": "ID", "street": "10990 N YELLOWSTONE HWY", "postcode": "83454"}}},
{"geometry": {"type": "Point", "coordinates": [-111.1112581648, 43.6006459484]}, "type": "Feature", "properties": {"collection_times": [{"days": "Mon-Fri", "time": "1:35pm"}, {"days": "Sat", "time": "12:30pm"}, {"days": "Sun", "time": "Closed"}], "id": "8345500000", "name": "USPS COLLECTION BOX - BLUE BOX", "address": {"city": "VICTOR", "state": "ID", "street": "92 S MAIN ST", "postcode": "83455"}}},
{"geometry": {"type": "Point", "coordinates": [-111.1112581648, 43.6006459484]}, "type": "Feature", "properties": {"collection_times": [{"days": "Mon-Fri", "time": "1:35pm"}, {"days": "Sat", "time": "12:30pm"}, {"days": "Sun", "time": "Closed"}], "id": "8345500001", "name": "USPS COLLECTION BOX - PO LOBBY", "address": {"city": "VICTOR", "state": "ID", "street": "92 S MAIN ST", "postcode": "83455"}}},
{"geometry": {"type": "Point", "coordinates": [-113.8580360096, 45.2518001442]}, "type": "Feature", "properties": {"collection_times": [{"days": "Mon-Sat", "time": "12:05pm"}, {"days": "Sun", "time": "Closed"}], "id": "8346200000", "name": "USPS COLLECTION BOX - BLUE BOX", "address": {"city": "CARMEN", "state": "ID", "street": "401 HIGHWAY 93 N", "postcode": "83462"}}},
{"geometry": {"type": "Point", "coordinates": [-113.8580360096, 45.2518001442]}, "type": "Feature", "properties": {"collection_times": [{"days": "Mon-Fri", "time": "12:05pm"}, {"days": "Sat", "time": "11:00am"}, {"days": "Sun", "time": "Closed"}], "id": "8346200001", "name": "USPS COLLECTION BOX - PO LOBBY", "address": {"city": "CARMEN", "state": "ID", "street": "401 HIGHWAY 93 N", "postcode": "83462"}}},
{"geometry": {"type": "Point", "coordinates": [-113.3581939324, 44.6806873905]}, "type": "Feature", "properties": {"collection_times": [{"days": "Mon-Fri", "time": "1:30pm"}, {"days": "Sat", "time": "10:45am"}, {"days": "Sun", "time": "Closed"}], "id": "8346400000", "name": "USPS COLLECTION BOX - BLUE BOX", "address": {"city": "LEADORE", "state": "ID", "street": "115 S RAILROAD ST", "postcode": "83464"}}},
{"geometry": {"type": "Point", "coordinates": [-113.3581939324, 44.6806873905]}, "type": "Feature", "properties": {"collection_times": [{"days": "Mon-Fri", "time": "1:30pm"}, {"days": "Sat", "time": "10:15am"}, {"days": "Sun", "time": "Closed"}], "id": "8346400001", "name": "USPS COLLECTION BOX - PO LOBBY", "address": {"city": "LEADORE", "state": "ID", "street": "115 S RAILROAD ST", "postcode": "83464"}}},
{"geometry": {"type": "Point", "coordinates": [-113.6195524991, 44.8518166894]}, "type": "Feature", "properties": {"collection_times": [{"days": "Mon-Fri", "time": "1:10pm"}, {"days": "Sat", "time": "10:00am"}, {"days": "Sun", "time": "Closed"}], "id": "8346500000", "name": "USPS COLLECTION BOX - BLUE BOX", "address": {"city": "LEMHI", "state": "ID", "street": "3000 LEMHI RD", "postcode": "83465"}}},
{"geometry": {"type": "Point", "coordinates": [-113.6195524991, 44.8518166894]}, "type": "Feature", "properties": {"collection_times": [{"days": "Mon-Fri", "time": "1:10pm"}, {"days": "Sat", "time": "9:45am"}, {"days": "Sun", "time": "Closed"}], "id": "8346500001", "name": "USPS COLLECTION BOX - PO LOBBY", "address": {"city": "LEMHI", "state": "ID", "street": "3000 LEMHI RD", "postcode": "83465"}}},
{"geometry": {"type": "Point", "coordinates": [-113.8732824536, 45.4121300497]}, "type": "Feature", "properties": {"collection_times": [{"days": "Mon-Sat", "time": "11:25am"}, {"days": "Sun", "time": "Closed"}], "id": "8346600000", "name": "USPS COLLECTION BOX - BLUE BOX", "address": {"city": "NORTH FORK", "state": "ID", "street": "2048 HIGHWAY 93 N", "postcode": "83466"}}},
{"geometry": {"type": "Point", "coordinates": [-113.995284355, 45.4071614482]}, "type": "Feature", "properties": {"collection_times": [{"days": "Mon-Sat", "time": "11:25am"}, {"days": "Sun", "time": "Closed"}], "id": "8346600001", "name": "USPS COLLECTION BOX - PO LOBBY", "address": {"city": "NORTH FORK", "state": "ID", "street": "2048 HIGHWAY 93 N", "postcode": "83466"}}},
{"geometry": {"type": "Point", "coordinates": [-113.8917646694, 45.1758394708]}, "type": "Feature", "properties": {"collection_times": [{"days": "Mon-Sat", "time": "12:30pm"}, {"days": "Sun", "time": "Closed"}], "id": "8346700000", "name": "USPS COLLECTION BOX - BLUE BOX", "address": {"city": "SALMON", "state": "ID", "street": "600 SHOUP ST", "postcode": "83467"}}},
{"geometry": {"type": "Point", "coordinates": [-113.8917646694, 45.1758394708]}, "type": "Feature", "properties": {"collection_times": [{"days": "Mon-Sat", "time": "12:30pm"}, {"days": "Sun", "time": "Closed"}], "id": "8346700001", "name": "USPS COLLECTION BOX - PO LOBBY", "address": {"city": "SALMON", "state": "ID", "street": "600 SHOUP ST", "postcode": "83467"}}},
{"geometry": {"type": "Point", "coordinates": [-113.8917646694, 45.1758394708]}, "type": "Feature", "properties": {"collection_times": [{"days": "Mon-Sat", "time": "12:30pm"}, {"days": "Sun", "time": "Closed"}], "id": "8346700002", "name": "USPS COLLECTION BOX - BLUE BOX", "address": {"city": "SALMON", "state": "ID", "street": "600 SHOUP ST", "postcode": "83467"}}},
{"geometry": {"type": "Point", "coordinates": [-113.6443229488, 44.9595929738]}, "type": "Feature", "properties": {"collection_times": [{"days": "Mon-Sat", "time": "12:55pm"}, {"days": "Sun", "time": "Closed"}], "id": "8346800000", "name": "USPS COLLECTION BOX - BLUE BOX", "address": {"city": "TENDOY", "state": "ID", "street": "1944 HIGHWAY 28", "postcode": "83468"}}},
{"geometry": {"type": "Point", "coordinates": [-113.6443229488, 44.9595929738]}, "type": "Feature", "properties": {"collection_times": [{"days": "Mon-Fri", "time": "11:45am"}, {"days": "Sat", "time": "10:00am"}, {"days": "Sun", "time": "Closed"}], "id": "8346800001", "name": "USPS COLLECTION BOX - PO LOBBY", "address": {"city": "TENDOY", "state": "ID", "street": "1944 HIGHWAY 28", "postcode": "83468"}}}
]}
