{"type": "FeatureCollection", "features": [
{"geometry": {"type": "Point", "coordinates": [-117.0079806948, 46.4042227505]}, "type": "Feature", "properties": {"collection_times": [{"days": "Mon-Fri", "time": "4:30pm"}, {"days": "Sat", "time": "4:15pm"}, {"days": "Sun", "time": "Closed"}], "id": "8350100005", "name": "USPS COLLECTION BOX - BLUE BOX", "address": {"city": "LEWISTON", "state": "ID", "street": "1616 17TH ST", "postcode": "83501"}}},
{"geometry": {"type": "Point", "coordinates": [-117.0282827083, 46.4216237253]}, "type": "Feature", "properties": {"collection_times": [{"days": "Mon-Fri", "time": "5:15pm"}, {"days": "Sat", "time": "4:00pm"}, {"days": "Sun", "time": "Closed"}], "id": "8350100007", "name": "USPS COLLECTION BOX - BLUE BOX", "address": {"city": "LEWISTON", "state": "ID", "street": "399 MAIN ST", "postcode": "83501"}}},
{"geometry": {"type": "Point", "coordinates": [-117.0243443649, 46.4207491099]}, "type": "Feature", "properties": {"collection_times": [{"days": "Mon-Fri", "time": "5:15pm"}, {"days": "Sat", "time": "4:00pm"}, {"days": "Sun", "time": "Closed"}], "id": "8350100009", "name": "USPS COLLECTION BOX - BLUE BOX", "address": {"city": "LEWISTON", "state": "ID", "street": "739 MAIN ST", "postcode": "83501"}}},
{"geometry": {"type": "Point", "coordinates": [-117.0149195249, 46.4161697032]}, "type": "Feature", "properties": {"collection_times": [{"days": "Mon-Fri", "time": "5:15pm"}, {"days": "Sat", "time": "4:00pm"}, {"days": "Sun", "time": "Closed"}], "id": "8350100014", "name": "USPS COLLECTION BOX - BLUE BOX", "address": {"city": "LEWISTON", "state": "ID", "street": "1240 IDAHO ST", "postcode": "83501"}}},
{"geometry": {"type": "Point", "coordinates": [-117.0041540105, 46.4008855451]}, "type": "Feature", "properties": {"collection_times": [{"days": "Mon-Fri", "time": "5:15pm"}, {"days": "Sat", "time": "4:15pm"}, {"days": "Sun", "time": "Closed"}], "id": "8350100015", "name": "USPS COLLECTION BOX - BLUE BOX", "address": {"city": "LEWISTON", "state": "ID", "street": "1920 19TH AVE", "postcode": "83501"}}},
{"geometry": {"type": "Point", "coordinates": [-117.0266106103, 46.4178093455]}, "type": "Feature", "properties": {"collection_times": [{"days": "Mon-Fri", "time": "5:00pm"}, {"days": "Sat", "time": "4:00pm"}, {"days": "Sun", "time": "Closed"}], "id": "8350100016", "name": "USPS COLLECTION BOX - BLUE BOX", "address": {"city": "LEWISTON", "state": "ID", "street": "307 SAINT JOHNS WAY", "postcode": "83501"}}},
{"geometry": {"type": "Point", "coordinates": [-117.0248741564, 46.4164647804]}, "type": "Feature", "properties": {"collection_times": [{"days": "Mon-Fri", "time": "5:00pm"}, {"days": "Sat", "time": "4:00pm"}, {"days": "Sun", "time": "Closed"}], "id": "8350100017", "name": "USPS COLLECTION BOX - BLUE BOX", "address": {"city": "LEWISTON", "state": "ID", "street": "415 6TH ST", "postcode": "83501"}}},
{"geometry": {"type": "Point", "coordinates": [-116.9825375636, 46.3852348963]}, "type": "Feature", "properties": {"collection_times": [{"days": "Mon-Sat", "time": "5:00pm"}, {"days": "Sun", "time": "Closed"}], "id": "8350100019", "name": "USPS COLLECTION BOX - BLUE BOX", "address": {"city": "LEWISTON", "state": "ID", "street": "145 THAIN RD", "postcode": "83501"}}},
{"geometry": {"type": "Point", "coordinates": [-117.0165022105, 46.4178375197]}, "type": "Feature", "properties": {"collection_times": [{"days": "Mon-Fri", "time": "5:15pm"}, {"days": "Sat", "time": "4:00pm"}, {"days": "Sun", "time": "Closed"}], "id": "8350100020", "name": "USPS COLLECTION BOX - BLUE BOX", "address": {"city": "LEWISTON", "state": "ID", "street": "1002 F ST", "postcode": "83501"}}},
{"geometry": {"type": "Point", "coordinates": [-116.970391912, 46.3773055371]}, "type": "Feature", "properties": {"collection_times": [{"days": "Mon-Fri", "time": "5:00pm"}, {"days": "Sat", "time": "4:45pm"}, {"days": "Sun", "time": "Closed"}], "id": "8350100021", "name": "USPS COLLECTION BOX - BLUE BOX", "address": {"city": "LEWISTON", "state": "ID", "street": "3501 12TH ST", "postcode": "83501"}}},
{"geometry": {"type": "Point", "coordinates": [-117.0079720052, 46.4149490937]}, "type": "Feature", "properties": {"collection_times": [{"days": "Mon-Sat", "time": "5:30pm"}, {"days": "Sun", "time": "Closed"}], "id": "8350100024", "name": "USPS COLLECTION BOX - BLUE BOX", "address": {"city": "LEWISTON", "state": "ID", "street": "1613 IDAHO ST", "postcode": "83501"}}},
{"geometry": {"type": "Point", "coordinates": [-117.0019754549, 46.410596988]}, "type": "Feature", "properties": {"collection_times": [{"days": "Mon-Fri", "time": "4:30pm"}, {"days": "Sat", "time": "5:15pm"}, {"days": "Sun", "time": "Closed"}], "id": "8350100025", "name": "USPS COLLECTION BOX - BLUE BOX", "address": {"city": "LEWISTON", "state": "ID", "street": "1024 21ST ST", "postcode": "83501"}}},
{"geometry": {"type": "Point", "coordinates": [-117.0156643985, 46.4176868133]}, "type": "Feature", "properties": {"collection_times": [{"days": "Mon-Fri", "time": "4:45pm"}, {"days": "Sat-Sun", "time": "Closed"}], "id": "8350100031", "name": "USPS COLLECTION BOX - BLUE BOX", "address": {"city": "LEWISTON", "state": "ID", "street": "1202 F ST", "postcode": "83501"}}},
{"geometry": {"type": "Point", "coordinates": [-117.0079720052, 46.4149490937]}, "type": "Feature", "properties": {"collection_times": [{"days": "Mon-Sat", "time": "5:30pm"}, {"days": "Sun", "time": "Closed"}], "id": "8350100032", "name": "USPS COLLECTION BOX - PO LOBBY", "address": {"city": "LEWISTON", "state": "ID", "street": "1613 IDAHO ST", "postcode": "83501"}}},
{"geometry": {"type": "Point", "coordinates": [-117.0323777489, 46.4011629957]}, "type": "Feature", "properties": {"collection_times": [{"days": "Mon-Fri", "time": "5:00pm"}, {"days": "Sat", "time": "4:15pm"}, {"days": "Sun", "time": "Closed"}], "id": "8350100033", "name": "USPS COLLECTION BOX - BLUE BOX", "address": {"city": "LEWISTON", "state": "ID", "street": "99 SOUTHWAY AVE", "postcode": "83501"}}},
{"geometry": {"type": "Point", "coordinates": [-117.0096296889, 46.3972355807]}, "type": "Feature", "properties": {"collection_times": [{"days": "Mon-Fri", "time": "4:30pm"}, {"days": "Sat", "time": "4:15pm"}, {"days": "Sun", "time": "Closed"}], "id": "8350100036", "name": "USPS COLLECTION BOX - BLUE BOX", "address": {"city": "LEWISTON", "state": "ID", "street": "1600 23RD AVE", "postcode": "83501"}}},
{"geometry": {"type": "Point", "coordinates": [-116.3357870373, 46.5160501679]}, "type": "Feature", "properties": {"collection_times": [{"days": "Mon-Fri", "time": "2:00pm"}, {"days": "Sat", "time": "9:45am"}, {"days": "Sun", "time": "Closed"}], "id": "8352000001", "name": "USPS COLLECTION BOX - BLUE BOX", "address": {"city": "AHSAHKA", "state": "ID", "street": "103 NORTHFORK DR", "postcode": "83520"}}},
{"geometry": {"type": "Point", "coordinates": [-116.3357870373, 46.5160501679]}, "type": "Feature", "properties": {"collection_times": [{"days": "Mon-Fri", "time": "2:00pm"}, {"days": "Sat", "time": "10:00am"}, {"days": "Sun", "time": "Closed"}], "id": "8352000002", "name": "USPS COLLECTION BOX - PO LOBBY", "address": {"city": "AHSAHKA", "state": "ID", "street": "103 NORTHFORK DR", "postcode": "83520"}}},
{"geometry": {"type": "Point", "coordinates": [-116.3512314557, 46.0478134378]}, "type": "Feature", "properties": {"collection_times": [{"days": "Mon-Fri", "time": "3:30pm"}, {"days": "Sat", "time": "10:00am"}, {"days": "Sun", "time": "Closed"}], "id": "8352200001", "name": "USPS COLLECTION BOX - BLUE BOX", "address": {"city": "COTTONWOOD", "state": "ID", "street": "301 BROADWAY", "postcode": "83522"}}},
{"geometry": {"type": "Point", "coordinates": [-116.3512314557, 46.0478134378]}, "type": "Feature", "properties": {"collection_times": [{"days": "Mon-Fri", "time": "4:00pm"}, {"days": "Sat", "time": "10:00am"}, {"days": "Sun", "time": "Closed"}], "id": "8352200003", "name": "USPS COLLECTION BOX - PO LOBBY", "address": {"city": "COTTONWOOD", "state": "ID", "street": "301 BROADWAY", "postcode": "83522"}}},
{"geometry": {"type": "Point", "coordinates": [-116.4749643846, 46.2407890933]}, "type": "Feature", "properties": {"collection_times": [{"days": "Mon-Fri", "time": "3:30pm"}, {"days": "Sat", "time": "10:00am"}, {"days": "Sun", "time": "Closed"}], "id": "8352300001", "name": "USPS COLLECTION BOX - BLUE BOX", "address": {"city": "CRAIGMONT", "state": "ID", "street": "118 W MAIN ST", "postcode": "83523"}}},
{"geometry": {"type": "Point", "coordinates": [-116.4749643846, 46.2407890933]}, "type": "Feature", "properties": {"collection_times": [{"days": "Mon-Fri", "time": "3:30pm"}, {"days": "Sat", "time": "10:00am"}, {"days": "Sun", "time": "Closed"}], "id": "8352300002", "name": "USPS COLLECTION BOX - PO LOBBY", "address": {"city": "CRAIGMONT", "state": "ID", "street": "118 W MAIN ST", "postcode": "83523"}}},
{"geometry": {"type": "Point", "coordinates": [-116.6683724002, 46.3738700481]}, "type": "Feature", "properties": {"collection_times": [{"days": "Mon-Fri", "time": "4:15pm"}, {"days": "Sat", "time": "1:00pm"}, {"days": "Sun", "time": "Closed"}], "id": "8352400001", "name": "USPS COLLECTION BOX - BLUE BOX", "address": {"city": "CULDESAC", "state": "ID", "street": "902 PHINNEY ST", "postcode": "83524"}}},
{"geometry": {"type": "Point", "coordinates": [-116.3889682285, 46.1523569026]}, "type": "Feature", "properties": {"collection_times": [{"days": "Mon-Fri", "time": "4:00pm"}, {"days": "Sat", "time": "3:45pm"}, {"days": "Sun", "time": "Closed"}], "id": "8352600001", "name": "USPS COLLECTION BOX - BLUE BOX", "address": {"city": "FERDINAND", "state": "ID", "street": "341 MAIN ST", "postcode": "83526"}}},
{"geometry": {"type": "Point", "coordinates": [-116.3889682285, 46.1523569026]}, "type": "Feature", "properties": {"collection_times": [{"days": "Mon-Fri", "time": "4:00pm"}, {"days": "Sat", "time": "10:00am"}, {"days": "Sun", "time": "Closed"}], "id": "8352600002", "name": "USPS COLLECTION BOX - PO LOBBY", "address": {"city": "FERDINAND", "state": "ID", "street": "341 MAIN ST", "postcode": "83526"}}},
{"geometry": {"type": "Point", "coordinates": [-116.1226959771, 45.9263436563]}, "type": "Feature", "properties": {"collection_times": [{"days": "Mon-Sat", "time": "3:00pm"}, {"days": "Sun", "time": "Closed"}], "id": "8353000001", "name": "USPS COLLECTION BOX - BLUE BOX", "address": {"city": "GRANGEVILLE", "state": "ID", "street": "300 W MAIN ST", "postcode": "83530"}}},
{"geometry": {"type": "Point", "coordinates": [-116.1226959771, 45.9263436563]}, "type": "Feature", "properties": {"collection_times": [{"days": "Mon-Sat", "time": "3:00pm"}, {"days": "Sun", "time": "Closed"}], "id": "8353000007", "name": "USPS COLLECTION BOX - BLUE BOX", "address": {"city": "GRANGEVILLE", "state": "ID", "street": "300 W MAIN ST", "postcode": "83530"}}},
{"geometry": {"type": "Point", "coordinates": [-116.1226959771, 45.9263436563]}, "type": "Feature", "properties": {"collection_times": [{"days": "Mon-Sat", "time": "3:30pm"}, {"days": "Sun", "time": "Closed"}], "id": "8353000008", "name": "USPS COLLECTION BOX - PO LOBBY", "address": {"city": "GRANGEVILLE", "state": "ID", "street": "300 W MAIN ST", "postcode": "83530"}}},
{"geometry": {"type": "Point", "coordinates": [-116.7078252308, 46.5767954717]}, "type": "Feature", "properties": {"collection_times": [{"days": "Mon-Fri", "time": "4:15pm"}, {"days": "Sat", "time": "4:00pm"}, {"days": "Sun", "time": "Closed"}], "id": "8353500001", "name": "USPS COLLECTION BOX - BLUE BOX", "address": {"city": "JULIAETTA", "state": "ID", "street": "195 MAIN ST", "postcode": "83535"}}},
{"geometry": {"type": "Point", "coordinates": [-116.7078252308, 46.5767954717]}, "type": "Feature", "properties": {"collection_times": [{"days": "Mon-Fri", "time": "4:15pm"}, {"days": "Sat", "time": "9:15am"}, {"days": "Sun", "time": "Closed"}], "id": "8353500002", "name": "USPS COLLECTION BOX - PO LOBBY", "address": {"city": "JULIAETTA", "state": "ID", "street": "195 MAIN ST", "postcode": "83535"}}},
{"geometry": {"type": "Point", "coordinates": [-116.0280045034, 46.2280173321]}, "type": "Feature", "properties": {"collection_times": [{"days": "Mon-Fri", "time": "3:15pm"}, {"days": "Sat", "time": "11:30am"}, {"days": "Sun", "time": "Closed"}], "id": "8353600001", "name": "USPS COLLECTION BOX - BLUE BOX", "address": {"city": "KAMIAH", "state": "ID", "street": "412 MAIN ST", "postcode": "83536"}}},
{"geometry": {"type": "Point", "coordinates": [-116.0280045034, 46.2280173321]}, "type": "Feature", "properties": {"collection_times": [{"days": "Mon-Fri", "time": "3:15pm"}, {"days": "Sat", "time": "11:30am"}, {"days": "Sun", "time": "Closed"}], "id": "8353600002", "name": "USPS COLLECTION BOX - PO LOBBY", "address": {"city": "KAMIAH", "state": "ID", "street": "412 MAIN ST", "postcode": "83536"}}},
{"geometry": {"type": "Point", "coordinates": [-116.0254289613, 46.2290977357]}, "type": "Feature", "properties": {"collection_times": [{"days": "Mon-Sat", "time": "12:15pm"}, {"days": "Sun", "time": "Closed"}], "id": "8353600003", "name": "USPS COLLECTION BOX - BLUE BOX", "address": {"city": "KAMIAH", "state": "ID", "street": "508 3RD ST", "postcode": "83536"}}},
{"geometry": {"type": "Point", "coordinates": [-116.6458919655, 46.6162295231]}, "type": "Feature", "properties": {"collection_times": [{"days": "Mon-Sat", "time": "4:30pm"}, {"days": "Sun", "time": "Closed"}], "id": "8353700001", "name": "USPS COLLECTION BOX - BLUE BOX", "address": {"city": "KENDRICK", "state": "ID", "street": "703 E MAIN ST", "postcode": "83537"}}},
{"geometry": {"type": "Point", "coordinates": [-116.6458919655, 46.6162295231]}, "type": "Feature", "properties": {"collection_times": [{"days": "Mon-Fri", "time": "4:45pm"}, {"days": "Sat", "time": "1:00pm"}, {"days": "Sun", "time": "Closed"}], "id": "8353700002", "name": "USPS COLLECTION BOX - PO LOBBY", "address": {"city": "KENDRICK", "state": "ID", "street": "703 E MAIN ST", "postcode": "83537"}}},
{"geometry": {"type": "Point", "coordinates": [-115.9741802048, 46.0828630569]}, "type": "Feature", "properties": {"collection_times": [{"days": "Mon-Fri", "time": "2:45pm"}, {"days": "Sat", "time": "11:30am"}, {"days": "Sun", "time": "Closed"}], "id": "8353900001", "name": "USPS COLLECTION BOX - BLUE BOX", "address": {"city": "KOOSKIA", "state": "ID", "street": "104 S MAIN ST", "postcode": "83539"}}},
{"geometry": {"type": "Point", "coordinates": [-115.9741802048, 46.0828630569]}, "type": "Feature", "properties": {"collection_times": [{"days": "Mon-Fri", "time": "2:45pm"}, {"days": "Sat", "time": "11:30am"}, {"days": "Sun", "time": "Closed"}], "id": "8353900002", "name": "USPS COLLECTION BOX - PO LOBBY", "address": {"city": "KOOSKIA", "state": "ID", "street": "104 S MAIN ST", "postcode": "83539"}}},
{"geometry": {"type": "Point", "coordinates": [-116.8048626523, 46.4050203976]}, "type": "Feature", "properties": {"collection_times": [{"days": "Mon-Fri", "time": "4:30pm"}, {"days": "Sat", "time": "9:30am"}, {"days": "Sun", "time": "Closed"}], "id": "8354000001", "name": "USPS COLLECTION BOX - BLUE BOX", "address": {"city": "LAPWAI", "state": "ID", "street": "102 S MAIN ST", "postcode": "83540"}}},
{"geometry": {"type": "Point", "coordinates": [-116.8048626523, 46.4050203976]}, "type": "Feature", "properties": {"collection_times": [{"days": "Mon-Fri", "time": "4:30pm"}, {"days": "Sat", "time": "9:30am"}, {"days": "Sun", "time": "Closed"}], "id": "8354000002", "name": "USPS COLLECTION BOX - PO LOBBY", "address": {"city": "LAPWAI", "state": "ID", "street": "102 S MAIN ST", "postcode": "83540"}}},
{"geometry": {"type": "Point", "coordinates": [-116.4498703906, 46.5329859253]}, "type": "Feature", "properties": {"collection_times": [{"days": "Mon-Fri", "time": "4:15pm"}, {"days": "Sat", "time": "9:15am"}, {"days": "Sun", "time": "Closed"}], "id": "8354100001", "name": "USPS COLLECTION BOX - BLUE BOX", "address": {"city": "LENORE", "state": "ID", "street": "19770 LENORE GRADE", "postcode": "83541"}}},
{"geometry": {"type": "Point", "coordinates": [-116.4498703906, 46.5329859253]}, "type": "Feature", "properties": {"collection_times": [{"days": "Mon-Fri", "time": "4:15pm"}, {"days": "Sat", "time": "9:15am"}, {"days": "Sun", "time": "Closed"}], "id": "8354100002", "name": "USPS COLLECTION BOX - PO LOBBY", "address": {"city": "LENORE", "state": "ID", "street": "19770 LENORE GRADE", "postcode": "83541"}}},
{"geometry": {"type": "Point", "coordinates": [-116.2997262666, 45.5545360679]}, "type": "Feature", "properties": {"collection_times": [{"days": "Mon-Fri", "time": "3:00pm"}, {"days": "Sat", "time": "12:00pm"}, {"days": "Sun", "time": "Closed"}], "id": "8354200001", "name": "USPS COLLECTION BOX - BLUE BOX", "address": {"city": "LUCILE", "state": "ID", "street": "106 COW CREEK RD", "postcode": "83542"}}},
{"geometry": {"type": "Point", "coordinates": [-116.2997262666, 45.5545360679]}, "type": "Feature", "properties": {"collection_times": [{"days": "Mon-Fri", "time": "3:00pm"}, {"days": "Sat", "time": "12:00pm"}, {"days": "Sun", "time": "Closed"}], "id": "8354200002", "name": "USPS COLLECTION BOX - PO LOBBY", "address": {"city": "LUCILE", "state": "ID", "street": "106 COW CREEK RD", "postcode": "83542"}}},
{"geometry": {"type": "Point", "coordinates": [-116.2405474674, 46.2369713541]}, "type": "Feature", "properties": {"collection_times": [{"days": "Mon-Fri", "time": "3:15pm"}, {"days": "Sat", "time": "11:00am"}, {"days": "Sun", "time": "Closed"}], "id": "8354300001", "name": "USPS COLLECTION BOX - BLUE BOX", "address": {"city": "NEZPERCE", "state": "ID", "street": "310 OAK ST", "postcode": "83543"}}},
{"geometry": {"type": "Point", "coordinates": [-116.2405474674, 46.2369713541]}, "type": "Feature", "properties": {"collection_times": [{"days": "Mon-Fri", "time": "3:15pm"}, {"days": "Sat", "time": "11:00am"}, {"days": "Sun", "time": "Closed"}], "id": "8354300002", "name": "USPS COLLECTION BOX - PO LOBBY", "address": {"city": "NEZPERCE", "state": "ID", "street": "310 OAK ST", "postcode": "83543"}}},
{"geometry": {"type": "Point", "coordinates": [-116.2946723566, 46.4951692473]}, "type": "Feature", "properties": {"collection_times": [{"days": "Mon-Fri", "time": "1:00pm"}, {"days": "Sat", "time": "12:00pm"}, {"days": "Sun", "time": "Closed"}], "id": "8354400001", "name": "USPS COLLECTION BOX - BLUE BOX", "address": {"city": "OROFINO", "state": "ID", "street": "10840 HIGHWAY 12", "postcode": "83544"}}},
{"geometry": {"type": "Point", "coordinates": [-116.242481873, 46.4836709412]}, "type": "Feature", "properties": {"collection_times": [{"days": "Mon-Sat", "time": "12:00pm"}, {"days": "Sun", "time": "Closed"}], "id": "8354400002", "name": "USPS COLLECTION BOX - BLUE BOX", "address": {"city": "OROFINO", "state": "ID", "street": "1130 MICHIGAN AVE", "postcode": "83544"}}},
{"geometry": {"type": "Point", "coordinates": [-116.3369093969, 46.5004746569]}, "type": "Feature", "properties": {"collection_times": [{"days": "Mon-Fri", "time": "3:15pm"}, {"days": "Sat", "time": "1:15pm"}, {"days": "Sun", "time": "Closed"}], "id": "8354400003", "name": "USPS COLLECTION BOX - BLUE BOX", "address": {"city": "OROFINO", "state": "ID", "street": "13030 HIGHWAY 12", "postcode": "83544"}}},
{"geometry": {"type": "Point", "coordinates": [-116.1758545641, 46.3910506932]}, "type": "Feature", "properties": {"collection_times": [{"days": "Mon-Fri", "time": "2:45pm"}, {"days": "Sat", "time": "12:45pm"}, {"days": "Sun", "time": "Closed"}], "id": "8354400005", "name": "USPS COLLECTION BOX - BLUE BOX", "address": {"city": "OROFINO", "state": "ID", "street": "3540 HIGHWAY 11", "postcode": "83544"}}},
{"geometry": {"type": "Point", "coordinates": [-116.2530318093, 46.480077441]}, "type": "Feature", "properties": {"collection_times": [{"days": "Mon-Fri", "time": "3:30pm"}, {"days": "Sat", "time": "2:30pm"}, {"days": "Sun", "time": "Closed"}], "id": "8354400006", "name": "USPS COLLECTION BOX - PO LOBBY", "address": {"city": "OROFINO", "state": "ID", "street": "320 MICHIGAN AVE", "postcode": "83544"}}},
{"geometry": {"type": "Point", "coordinates": [-116.2530318093, 46.480077441]}, "type": "Feature", "properties": {"collection_times": [{"days": "Mon-Fri", "time": "3:30pm"}, {"days": "Sat", "time": "2:30pm"}, {"days": "Sun", "time": "Closed"}], "id": "8354400007", "name": "USPS COLLECTION BOX - BLUE BOX", "address": {"city": "OROFINO", "state": "ID", "street": "320 MICHIGAN AVE", "postcode": "83544"}}},
{"geometry": {"type": "Point", "coordinates": [-116.4219778788, 46.4739957452]}, "type": "Feature", "properties": {"collection_times": [{"days": "Mon-Fri", "time": "3:45pm"}, {"days": "Sat", "time": "4:15pm"}, {"days": "Sun", "time": "Closed"}], "id": "8354500001", "name": "USPS COLLECTION BOX - BLUE BOX", "address": {"city": "PECK", "state": "ID", "street": "102 N MAIN ST", "postcode": "83545"}}},
{"geometry": {"type": "Point", "coordinates": [-116.4219778788, 46.4739957452]}, "type": "Feature", "properties": {"collection_times": [{"days": "Mon-Fri", "time": "11:45am"}, {"days": "Sat", "time": "8:00am"}, {"days": "Sun", "time": "Closed"}], "id": "8354500002", "name": "USPS COLLECTION BOX - PO LOBBY", "address": {"city": "PECK", "state": "ID", "street": "102 N MAIN ST", "postcode": "83545"}}},
{"geometry": {"type": "Point", "coordinates": [-115.798818973, 46.4907400864]}, "type": "Feature", "properties": {"collection_times": [{"days": "Mon-Fri", "time": "1:45pm"}, {"days": "Sat", "time": "12:00pm"}, {"days": "Sun", "time": "Closed"}], "id": "8354600001", "name": "USPS COLLECTION BOX - BLUE BOX", "address": {"city": "PIERCE", "state": "ID", "street": "111 S MAIN ST", "postcode": "83546"}}},
{"geometry": {"type": "Point", "coordinates": [-115.798818973, 46.4907400864]}, "type": "Feature", "properties": {"collection_times": [{"days": "Mon-Fri", "time": "1:45pm"}, {"days": "Sat", "time": "11:00am"}, {"days": "Sun", "time": "Closed"}], "id": "8354600002", "name": "USPS COLLECTION BOX - PO LOBBY", "address": {"city": "PIERCE", "state": "ID", "street": "111 S MAIN ST", "postcode": "83546"}}},
{"geometry": {"type": "Point", "coordinates": [-116.3595483696, 45.3122235515]}, "type": "Feature", "properties": {"collection_times": [{"days": "Mon-Fri", "time": "2:00pm"}, {"days": "Sat", "time": "1:00pm"}, {"days": "Sun", "time": "Closed"}], "id": "8354700001", "name": "USPS COLLECTION BOX - BLUE BOX", "address": {"city": "POLLOCK", "state": "ID", "street": "169 OLD POLLOCK RD", "postcode": "83547"}}},
{"geometry": {"type": "Point", "coordinates": [-116.0637464893, 45.3290595916]}, "type": "Feature", "properties": {"collection_times": [{"days": "Mon-Fri", "time": "2:45pm"}, {"days": "Sat", "time": "1:45pm"}, {"days": "Sun", "time": "Closed"}], "id": "8354900001", "name": "USPS COLLECTION BOX - BLUE BOX", "address": {"city": "RIGGINS", "state": "ID", "street": "400 S MAIN ST", "postcode": "83549"}}},
{"geometry": {"type": "Point", "coordinates": [-116.0637464893, 45.3290595916]}, "type": "Feature", "properties": {"collection_times": [{"days": "Mon-Fri", "time": "2:45pm"}, {"days": "Sat", "time": "1:45pm"}, {"days": "Sun", "time": "Closed"}], "id": "8354900002", "name": "USPS COLLECTION BOX - PO LOBBY", "address": {"city": "RIGGINS", "state": "ID", "street": "400 S MAIN ST", "postcode": "83549"}}},
{"geometry": {"type": "Point", "coordinates": [-115.9453183754, 46.0337007601]}, "type": "Feature", "properties": {"collection_times": [{"days": "Mon-Fri", "time": "2:30pm"}, {"days": "Sat", "time": "2:45pm"}, {"days": "Sun", "time": "Closed"}], "id": "8355200001", "name": "USPS COLLECTION BOX - BLUE BOX", "address": {"city": "STITES", "state": "ID", "street": "212 MAIN ST", "postcode": "83552"}}},
{"geometry": {"type": "Point", "coordinates": [-115.9453183754, 46.0337007601]}, "type": "Feature", "properties": {"collection_times": [{"days": "Mon-Fri", "time": "2:45pm"}, {"days": "Sat", "time": "10:15am"}, {"days": "Sun", "time": "Closed"}], "id": "8355200002", "name": "USPS COLLECTION BOX - PO LOBBY", "address": {"city": "STITES", "state": "ID", "street": "212 MAIN ST", "postcode": "83552"}}},
{"geometry": {"type": "Point", "coordinates": [-115.9382261648, 46.3759180564]}, "type": "Feature", "properties": {"collection_times": [{"days": "Mon-Fri", "time": "2:00pm"}, {"days": "Sat", "time": "12:00pm"}, {"days": "Sun", "time": "Closed"}], "id": "8355300001", "name": "USPS COLLECTION BOX - BLUE BOX", "address": {"city": "WEIPPE", "state": "ID", "street": "207 N MAIN ST", "postcode": "83553"}}},
{"geometry": {"type": "Point", "coordinates": [-115.9382261648, 46.3759180564]}, "type": "Feature", "properties": {"collection_times": [{"days": "Mon-Fri", "time": "2:00pm"}, {"days": "Sat", "time": "10:00am"}, {"days": "Sun", "time": "Closed"}], "id": "8355300002", "name": "USPS COLLECTION BOX - PO LOBBY", "address": {"city": "WEIPPE", "state": "ID", "street": "207 N MAIN ST", "postcode": "83553"}}},
{"geometry": {"type": "Point", "coordinates": [-116.2175351007, 45.7408627612]}, "type": "Feature", "properties": {"collection_times": [{"days": "Mon-Fri", "time": "2:45pm"}, {"days": "Sat", "time": "1:30pm"}, {"days": "Sun", "time": "Closed"}], "id": "8355400003", "name": "USPS COLLECTION BOX - BLUE BOX", "address": {"city": "WHITE BIRD", "state": "ID", "street": "255 RIVER ST", "postcode": "83554"}}},
{"geometry": {"type": "Point", "coordinates": [-116.6225389364, 46.2396692719]}, "type": "Feature", "properties": {"collection_times": [{"days": "Mon-Fri", "time": "4:00pm"}, {"days": "Sat", "time": "10:00am"}, {"days": "Sun", "time": "Closed"}], "id": "8355500001", "name": "USPS COLLECTION BOX - BLUE BOX", "address": {"city": "WINCHESTER", "state": "ID", "street": "318 NEZPERCE AVE", "postcode": "83555"}}}
]}
