{"type": "FeatureCollection", "features": [
{"geometry": {"type": "Point", "coordinates": [-116.6886875658, 43.6620029082]}, "type": "Feature", "properties": {"collection_times": [{"days": "Mon-Sat", "time": "5:00pm"}, {"days": "Sun", "time": "Closed"}], "id": "8360500001", "name": "USPS COLLECTION BOX - BLUE BOX", "address": {"city": "CALDWELL", "state": "ID", "street": "517 S 10TH AVE", "postcode": "83605"}}},
{"geometry": {"type": "Point", "coordinates": [-116.6959000303, 43.659615436]}, "type": "Feature", "properties": {"collection_times": [{"days": "Mon-Sat", "time": "5:00pm"}, {"days": "Sun", "time": "Closed"}], "id": "8360500003", "name": "USPS COLLECTION BOX - BLUE BOX", "address": {"city": "CALDWELL", "state": "ID", "street": "1118 S KIMBALL AVE", "postcode": "83605"}}},
{"geometry": {"type": "Point", "coordinates": [-116.6712941261, 43.6528866661]}, "type": "Feature", "properties": {"collection_times": [{"days": "Mon-Sat", "time": "4:45pm"}, {"days": "Sun", "time": "Closed"}], "id": "8360500005", "name": "USPS COLLECTION BOX - BLUE BOX", "address": {"city": "CALDWELL", "state": "ID", "street": "2500 BLAINE ST", "postcode": "83605"}}},
{"geometry": {"type": "Point", "coordinates": [-116.6916196636, 43.6655990368]}, "type": "Feature", "properties": {"collection_times": [{"days": "Mon-Fri", "time": "5:00pm"}, {"days": "Sat-Sun", "time": "Closed"}], "id": "8360500010", "name": "USPS COLLECTION BOX - BLUE BOX", "address": {"city": "CALDWELL", "state": "ID", "street": "621 CLEVELAND BLVD", "postcode": "83605"}}},
{"geometry": {"type": "Point", "coordinates": [-116.6877731099, 43.6654852304]}, "type": "Feature", "properties": {"collection_times": [{"days": "Mon-Sat", "time": "5:30pm"}, {"days": "Sun", "time": "Closed"}], "id": "8360500011", "name": "USPS COLLECTION BOX - PO LOBBY", "address": {"city": "CALDWELL", "state": "ID", "street": "823 ARTHUR ST", "postcode": "83605"}}},
{"geometry": {"type": "Point", "coordinates": [-116.6876554447, 43.6640429552]}, "type": "Feature", "properties": {"collection_times": [{"days": "Mon-Sat", "time": "5:00pm"}, {"days": "Sun", "time": "Closed"}], "id": "8360500017", "name": "USPS COLLECTION BOX - BLUE BOX", "address": {"city": "CALDWELL", "state": "ID", "street": "918 BLAINE ST", "postcode": "83605"}}},
{"geometry": {"type": "Point", "coordinates": [-116.6877731099, 43.6654852304]}, "type": "Feature", "properties": {"collection_times": [{"days": "Mon-Sat", "time": "5:15pm"}, {"days": "Sun", "time": "Closed"}], "id": "8360500020", "name": "USPS COLLECTION BOX - BLUE BOX", "address": {"city": "CALDWELL", "state": "ID", "street": "823 ARTHUR ST", "postcode": "83605"}}},
{"geometry": {"type": "Point", "coordinates": [-116.6877731099, 43.6654852304]}, "type": "Feature", "properties": {"collection_times": [{"days": "Mon-Sat", "time": "5:15pm"}, {"days": "Sun", "time": "Closed"}], "id": "8360500021", "name": "USPS COLLECTION BOX - BLUE BOX", "address": {"city": "CALDWELL", "state": "ID", "street": "823 ARTHUR ST", "postcode": "83605"}}},
{"geometry": {"type": "Point", "coordinates": [-116.7025604262, 43.667211986]}, "type": "Feature", "properties": {"collection_times": [{"days": "Mon-Fri", "time": "5:00pm"}, {"days": "Sat-Sun", "time": "Closed"}], "id": "8360500031", "name": "USPS COLLECTION BOX - BLUE BOX", "address": {"city": "CALDWELL", "state": "ID", "street": "311 EVANS ST", "postcode": "83605"}}},
{"geometry": {"type": "Point", "coordinates": [-116.6553313576, 43.6626318131]}, "type": "Feature", "properties": {"collection_times": [{"days": "Mon-Fri", "time": "4:30pm"}, {"days": "Sat-Sun", "time": "Closed"}], "id": "8360500035", "name": "USPS COLLECTION BOX - BLUE BOX", "address": {"city": "CALDWELL", "state": "ID", "street": "3512 FRANKLIN RD", "postcode": "83605"}}},
{"geometry": {"type": "Point", "coordinates": [-116.6877731099, 43.6654852304]}, "type": "Feature", "properties": {"collection_times": [{"days": "Mon-Sat", "time": "5:30pm"}, {"days": "Sun", "time": "Closed"}], "id": "8360500036", "name": "USPS COLLECTION BOX - PO LOBBY", "address": {"city": "CALDWELL", "state": "ID", "street": "823 ARTHUR ST", "postcode": "83605"}}},
{"geometry": {"type": "Point", "coordinates": [-116.6877731099, 43.6654852304]}, "type": "Feature", "properties": {"collection_times": [{"days": "Mon-Sat", "time": "5:30pm"}, {"days": "Sun", "time": "Closed"}], "id": "8360500037", "name": "USPS COLLECTION BOX - PO LOBBY", "address": {"city": "CALDWELL", "state": "ID", "street": "823 ARTHUR ST", "postcode": "83605"}}},
{"geometry": {"type": "Point", "coordinates": [-116.6877731099, 43.6654852304]}, "type": "Feature", "properties": {"collection_times": [{"days": "Mon-Sat", "time": "5:30pm"}, {"days": "Sun", "time": "Closed"}], "id": "8360500038", "name": "USPS COLLECTION BOX - PO LOBBY", "address": {"city": "CALDWELL", "state": "ID", "street": "823 ARTHUR ST", "postcode": "83605"}}},
{"geometry": {"type": "Point", "coordinates": [-116.6813380563, 43.6678134537]}, "type": "Feature", "properties": {"collection_times": [{"days": "Mon-Sat", "time": "4:00pm"}, {"days": "Sun", "time": "Closed"}], "id": "8360500039", "name": "USPS COLLECTION BOX - BLUE BOX", "address": {"city": "CALDWELL", "state": "ID", "street": "425 N 10TH AVE", "postcode": "83605"}}},
{"geometry": {"type": "Point", "coordinates": [-116.6340008549, 43.6272912221]}, "type": "Feature", "properties": {"collection_times": [{"days": "Mon-Fri", "time": "5:00pm"}, {"days": "Sat-Sun", "time": "Closed"}], "id": "8360700000", "name": "USPS COLLECTION BOX - BLUE BOX", "address": {"city": "CALDWELL", "state": "ID", "street": "317 HAPPY DAY BLVD", "postcode": "83607"}}},
{"geometry": {"type": "Point", "coordinates": [-116.6424269435, 43.6320114489]}, "type": "Feature", "properties": {"collection_times": [{"days": "Mon-Sat", "time": "4:45pm"}, {"days": "Sun", "time": "Closed"}], "id": "8360700001", "name": "USPS COLLECTION BOX - BLUE BOX", "address": {"city": "CALDWELL", "state": "ID", "street": "5210 CLEVELAND BLVD", "postcode": "83607"}}},
{"geometry": {"type": "Point", "coordinates": [-116.6817478886, 43.6335039519]}, "type": "Feature", "properties": {"collection_times": [{"days": "Mon-Fri", "time": "4:45pm"}, {"days": "Sat-Sun", "time": "Closed"}], "id": "8360700002", "name": "USPS COLLECTION BOX - BLUE BOX", "address": {"city": "CALDWELL", "state": "ID", "street": "4105 CLOCK TOWER AVE", "postcode": "83607"}}},
{"geometry": {"type": "Point", "coordinates": [-116.6743142918, 44.573731324]}, "type": "Feature", "properties": {"collection_times": [{"days": "Mon-Sat", "time": "3:30pm"}, {"days": "Sun", "time": "Closed"}], "id": "8361000000", "name": "USPS COLLECTION BOX - BLUE BOX", "address": {"city": "CAMBRIDGE", "state": "ID", "street": "210 N SUPERIOR ST", "postcode": "83610"}}},
{"geometry": {"type": "Point", "coordinates": [-116.6743142918, 44.573731324]}, "type": "Feature", "properties": {"collection_times": [{"days": "Mon-Fri", "time": "3:45pm"}, {"days": "Sat", "time": "12:00pm"}, {"days": "Sun", "time": "Closed"}], "id": "8361000001", "name": "USPS COLLECTION BOX - PO LOBBY", "address": {"city": "CAMBRIDGE", "state": "ID", "street": "210 N SUPERIOR ST", "postcode": "83610"}}},
{"geometry": {"type": "Point", "coordinates": [-116.0388426926, 44.5140833468]}, "type": "Feature", "properties": {"collection_times": [{"days": "Mon-Fri", "time": "4:15pm"}, {"days": "Sat", "time": "12:30pm"}, {"days": "Sun", "time": "Closed"}], "id": "8361100000", "name": "USPS COLLECTION BOX - BLUE BOX", "address": {"city": "CASCADE", "state": "ID", "street": "202 S FRONT ST", "postcode": "83611"}}},
{"geometry": {"type": "Point", "coordinates": [-116.0388426926, 44.5140833468]}, "type": "Feature", "properties": {"collection_times": [{"days": "Mon-Fri", "time": "4:15pm"}, {"days": "Sat", "time": "12:30pm"}, {"days": "Sun", "time": "Closed"}], "id": "8361100001", "name": "USPS COLLECTION BOX - PO LOBBY", "address": {"city": "CASCADE", "state": "ID", "street": "202 S FRONT ST", "postcode": "83611"}}},
{"geometry": {"type": "Point", "coordinates": [-116.0388426926, 44.5140833468]}, "type": "Feature", "properties": {"collection_times": [{"days": "Mon-Fri", "time": "4:15pm"}, {"days": "Sat", "time": "12:30pm"}, {"days": "Sun", "time": "Closed"}], "id": "8361100002", "name": "USPS COLLECTION BOX - BLUE BOX", "address": {"city": "CASCADE", "state": "ID", "street": "202 S FRONT ST", "postcode": "83611"}}},
{"geometry": {"type": "Point", "coordinates": [-116.0388426926, 44.5140833468]}, "type": "Feature", "properties": {"collection_times": [{"days": "Mon-Fri", "time": "4:15pm"}, {"days": "Sat", "time": "12:30pm"}, {"days": "Sun", "time": "Closed"}], "id": "8361100003", "name": "USPS COLLECTION BOX - PO LOBBY", "address": {"city": "CASCADE", "state": "ID", "street": "202 S FRONT ST", "postcode": "83611"}}},
{"geometry": {"type": "Point", "coordinates": [-116.4385851202, 44.7281335005]}, "type": "Feature", "properties": {"collection_times": [{"days": "Mon-Fri", "time": "2:30pm"}, {"days": "Sat", "time": "1:30pm"}, {"days": "Sun", "time": "Closed"}], "id": "8361200000", "name": "USPS COLLECTION BOX - BLUE BOX", "address": {"city": "COUNCIL", "state": "ID", "street": "101 CALIFORNIA AVE", "postcode": "83612"}}},
{"geometry": {"type": "Point", "coordinates": [-116.4385851202, 44.7281335005]}, "type": "Feature", "properties": {"collection_times": [{"days": "Mon-Fri", "time": "2:30pm"}, {"days": "Sat", "time": "1:30pm"}, {"days": "Sun", "time": "Closed"}], "id": "8361200001", "name": "USPS COLLECTION BOX - PO LOBBY", "address": {"city": "COUNCIL", "state": "ID", "street": "101 CALIFORNIA AVE", "postcode": "83612"}}},
{"geometry": {"type": "Point", "coordinates": [-116.1388307149, 44.7586712405]}, "type": "Feature", "properties": {"collection_times": [{"days": "Mon-Fri", "time": "3:45pm"}, {"days": "Sat", "time": "3:15pm"}, {"days": "Sun", "time": "Closed"}], "id": "8361500000", "name": "USPS COLLECTION BOX - BLUE BOX", "address": {"city": "DONNELLY", "state": "ID", "street": "186 N MAIN ST", "postcode": "83615"}}},
{"geometry": {"type": "Point", "coordinates": [-116.1388307149, 44.7586712405]}, "type": "Feature", "properties": {"collection_times": [{"days": "Mon-Fri", "time": "3:45pm"}, {"days": "Sat", "time": "9:30am"}, {"days": "Sun", "time": "Closed"}], "id": "8361500001", "name": "USPS COLLECTION BOX - PO LOBBY", "address": {"city": "DONNELLY", "state": "ID", "street": "186 N MAIN ST", "postcode": "83615"}}},
{"geometry": {"type": "Point", "coordinates": [-116.3440569063, 43.6962514581]}, "type": "Feature", "properties": {"collection_times": [{"days": "Mon-Fri", "time": "5:30pm"}, {"days": "Sat", "time": "1:00pm"}, {"days": "Sun", "time": "Closed"}], "id": "8361600000", "name": "USPS COLLECTION BOX - BLUE BOX", "address": {"city": "EAGLE", "state": "ID", "street": "141 N PALMETTO AVE", "postcode": "83616"}}},
{"geometry": {"type": "Point", "coordinates": [-116.3440569063, 43.6962514581]}, "type": "Feature", "properties": {"collection_times": [{"days": "Mon-Fri", "time": "5:30pm"}, {"days": "Sat", "time": "1:00pm"}, {"days": "Sun", "time": "Closed"}], "id": "8361600001", "name": "USPS COLLECTION BOX - BLUE BOX", "address": {"city": "EAGLE", "state": "ID", "street": "141 N PALMETTO AVE", "postcode": "83616"}}},
{"geometry": {"type": "Point", "coordinates": [-116.3440569063, 43.6962514581]}, "type": "Feature", "properties": {"collection_times": [{"days": "Mon-Fri", "time": "5:30pm"}, {"days": "Sat", "time": "1:00pm"}, {"days": "Sun", "time": "Closed"}], "id": "8361600002", "name": "USPS COLLECTION BOX - PO LOBBY", "address": {"city": "EAGLE", "state": "ID", "street": "141 N PALMETTO AVE", "postcode": "83616"}}},
{"geometry": {"type": "Point", "coordinates": [-116.3545327209, 43.6951968804]}, "type": "Feature", "properties": {"collection_times": [{"days": "Mon-Sat", "time": "12:30pm"}, {"days": "Sun", "time": "Closed"}], "id": "8361600003", "name": "USPS COLLECTION BOX - BLUE BOX", "address": {"city": "EAGLE", "state": "ID", "street": "30 W STATE ST", "postcode": "83616"}}},
{"geometry": {"type": "Point", "coordinates": [-116.3521267469, 43.6891292639]}, "type": "Feature", "properties": {"collection_times": [{"days": "Mon-Sat", "time": "12:00pm"}, {"days": "Sun", "time": "Closed"}], "id": "8361600004", "name": "USPS COLLECTION BOX - BLUE BOX", "address": {"city": "EAGLE", "state": "ID", "street": "177 EAGLE RIVER ST", "postcode": "83616"}}},
{"geometry": {"type": "Point", "coordinates": [-116.3440569063, 43.6962514581]}, "type": "Feature", "properties": {"collection_times": [{"days": "Mon-Fri", "time": "5:30pm"}, {"days": "Sat", "time": "1:00pm"}, {"days": "Sun", "time": "Closed"}], "id": "8361600005", "name": "USPS COLLECTION BOX - PO LOBBY", "address": {"city": "EAGLE", "state": "ID", "street": "141 N PALMETTO AVE", "postcode": "83616"}}},
{"geometry": {"type": "Point", "coordinates": [-116.3440569063, 43.6962514581]}, "type": "Feature", "properties": {"collection_times": [{"days": "Mon-Fri", "time": "5:30pm"}, {"days": "Sat", "time": "1:00pm"}, {"days": "Sun", "time": "Closed"}], "id": "8361600006", "name": "USPS COLLECTION BOX - PO LOBBY", "address": {"city": "EAGLE", "state": "ID", "street": "141 N PALMETTO AVE", "postcode": "83616"}}},
{"geometry": {"type": "Point", "coordinates": [-116.4999426172, 43.8661306439]}, "type": "Feature", "properties": {"collection_times": [{"days": "Mon-Sat", "time": "1:30pm"}, {"days": "Sun", "time": "Closed"}], "id": "8361700000", "name": "USPS COLLECTION BOX - BLUE BOX", "address": {"city": "EMMETT", "state": "ID", "street": "1017 S WASHINGTON AVE", "postcode": "83617"}}},
{"geometry": {"type": "Point", "coordinates": [-116.4942022325, 43.8754779485]}, "type": "Feature", "properties": {"collection_times": [{"days": "Mon-Fri", "time": "5:00pm"}, {"days": "Sat", "time": "4:30pm"}, {"days": "Sun", "time": "Closed"}], "id": "8361700001", "name": "USPS COLLECTION BOX - BLUE BOX", "address": {"city": "EMMETT", "state": "ID", "street": "521 E MAIN ST", "postcode": "83617"}}},
{"geometry": {"type": "Point", "coordinates": [-116.4942022325, 43.8754779485]}, "type": "Feature", "properties": {"collection_times": [{"days": "Mon-Fri", "time": "5:00pm"}, {"days": "Sat", "time": "3:30pm"}, {"days": "Sun", "time": "Closed"}], "id": "8361700002", "name": "USPS COLLECTION BOX - PO LOBBY", "address": {"city": "EMMETT", "state": "ID", "street": "521 E MAIN ST", "postcode": "83617"}}},
{"geometry": {"type": "Point", "coordinates": [-116.4942022325, 43.8754779485]}, "type": "Feature", "properties": {"collection_times": [{"days": "Mon-Fri", "time": "5:00pm"}, {"days": "Sat", "time": "4:30pm"}, {"days": "Sun", "time": "Closed"}], "id": "8361700003", "name": "USPS COLLECTION BOX - BLUE BOX", "address": {"city": "EMMETT", "state": "ID", "street": "521 E MAIN ST", "postcode": "83617"}}},
{"geometry": {"type": "Point", "coordinates": [-116.5022554302, 43.8930232152]}, "type": "Feature", "properties": {"collection_times": [{"days": "Mon-Fri", "time": "4:30pm"}, {"days": "Sat-Sun", "time": "Closed"}], "id": "8361700004", "name": "USPS COLLECTION BOX - BLUE BOX", "address": {"city": "EMMETT", "state": "ID", "street": "1900 N WASHINGTON AVE", "postcode": "83617"}}},
{"geometry": {"type": "Point", "coordinates": [-116.4942022325, 43.8754779485]}, "type": "Feature", "properties": {"collection_times": [{"days": "Mon-Fri", "time": "5:00pm"}, {"days": "Sat", "time": "3:30pm"}, {"days": "Sun", "time": "Closed"}], "id": "8361700005", "name": "USPS COLLECTION BOX - PO LOBBY", "address": {"city": "EMMETT", "state": "ID", "street": "521 E MAIN ST", "postcode": "83617"}}},
{"geometry": {"type": "Point", "coordinates": [-116.9193576329, 44.0089149547]}, "type": "Feature", "properties": {"collection_times": [{"days": "Mon-Fri", "time": "4:30pm"}, {"days": "Sat", "time": "2:00pm"}, {"days": "Sun", "time": "Closed"}], "id": "8361900001", "name": "USPS COLLECTION BOX - BLUE BOX", "address": {"city": "FRUITLAND", "state": "ID", "street": "501 SW 3RD ST", "postcode": "83619"}}},
{"geometry": {"type": "Point", "coordinates": [-116.9193576329, 44.0089149547]}, "type": "Feature", "properties": {"collection_times": [{"days": "Mon-Fri", "time": "5:00pm"}, {"days": "Sat", "time": "12:30pm"}, {"days": "Sun", "time": "Closed"}], "id": "8361900002", "name": "USPS COLLECTION BOX - PO LOBBY", "address": {"city": "FRUITLAND", "state": "ID", "street": "501 SW 3RD ST", "postcode": "83619"}}},
{"geometry": {"type": "Point", "coordinates": [-116.0061682448, 44.101842403]}, "type": "Feature", "properties": {"collection_times": [{"days": "Mon-Sat", "time": "4:45pm"}, {"days": "Sun", "time": "Closed"}], "id": "8362200000", "name": "USPS COLLECTION BOX - BLUE BOX", "address": {"city": "GARDEN VALLEY", "state": "ID", "street": "946 BANKS LOWMAN RD", "postcode": "83622"}}},
{"geometry": {"type": "Point", "coordinates": [-115.9688175726, 44.1156706141]}, "type": "Feature", "properties": {"collection_times": [{"days": "Mon-Sat", "time": "12:45pm"}, {"days": "Sun", "time": "Closed"}], "id": "8362200002", "name": "USPS COLLECTION BOX - BLUE BOX", "address": {"city": "GARDEN VALLEY", "state": "ID", "street": "292 VILLAGE CIR", "postcode": "83622"}}},
{"geometry": {"type": "Point", "coordinates": [-116.0061682448, 44.101842403]}, "type": "Feature", "properties": {"collection_times": [{"days": "Mon-Fri", "time": "5:00pm"}, {"days": "Sat", "time": "12:00pm"}, {"days": "Sun", "time": "Closed"}], "id": "8362200004", "name": "USPS COLLECTION BOX - PO LOBBY", "address": {"city": "GARDEN VALLEY", "state": "ID", "street": "946 BANKS LOWMAN RD", "postcode": "83622"}}},
{"geometry": {"type": "Point", "coordinates": [-115.3007139686, 42.9553985389]}, "type": "Feature", "properties": {"collection_times": [{"days": "Mon-Sat", "time": "4:30pm"}, {"days": "Sun", "time": "Closed"}], "id": "8362300000", "name": "USPS COLLECTION BOX - BLUE BOX", "address": {"city": "GLENNS FERRY", "state": "ID", "street": "22 E 2ND AVE", "postcode": "83623"}}},
{"geometry": {"type": "Point", "coordinates": [-115.3007139686, 42.9553985389]}, "type": "Feature", "properties": {"collection_times": [{"days": "Mon-Fri", "time": "4:30pm"}, {"days": "Sat", "time": "11:30am"}, {"days": "Sun", "time": "Closed"}], "id": "8362300001", "name": "USPS COLLECTION BOX - PO LOBBY", "address": {"city": "GLENNS FERRY", "state": "ID", "street": "22 E 2ND AVE", "postcode": "83623"}}},
{"geometry": {"type": "Point", "coordinates": [-116.0953509494, 42.989772644]}, "type": "Feature", "properties": {"collection_times": [{"days": "Mon-Fri", "time": "2:15pm"}, {"days": "Sat", "time": "12:00pm"}, {"days": "Sun", "time": "Closed"}], "id": "8362400001", "name": "USPS COLLECTION BOX - PO LOBBY", "address": {"city": "GRANDVIEW", "state": "ID", "street": "265 STATE ST", "postcode": "83624"}}},
{"geometry": {"type": "Point", "coordinates": [-116.0953509494, 42.989772644]}, "type": "Feature", "properties": {"collection_times": [{"days": "Mon-Fri", "time": "2:15pm"}, {"days": "Sat", "time": "12:00pm"}, {"days": "Sun", "time": "Closed"}], "id": "8362400002", "name": "USPS COLLECTION BOX - PO LOBBY", "address": {"city": "GRANDVIEW", "state": "ID", "street": "265 STATE ST", "postcode": "83624"}}},
{"geometry": {"type": "Point", "coordinates": [-116.8182025403, 43.669422736]}, "type": "Feature", "properties": {"collection_times": [{"days": "Mon-Sat", "time": "4:30pm"}, {"days": "Sun", "time": "Closed"}], "id": "8362600000", "name": "USPS COLLECTION BOX - BLUE BOX", "address": {"city": "GREENLEAF", "state": "ID", "street": "21344 MAIN ST", "postcode": "83626"}}},
{"geometry": {"type": "Point", "coordinates": [-116.8182025403, 43.669422736]}, "type": "Feature", "properties": {"collection_times": [{"days": "Mon-Fri", "time": "2:45pm"}, {"days": "Sat", "time": "10:00am"}, {"days": "Sun", "time": "Closed"}], "id": "8362600001", "name": "USPS COLLECTION BOX - PO LOBBY", "address": {"city": "GREENLEAF", "state": "ID", "street": "21344 MAIN ST", "postcode": "83626"}}},
{"geometry": {"type": "Point", "coordinates": [-115.5322606527, 42.9814950947]}, "type": "Feature", "properties": {"collection_times": [{"days": "Mon-Fri", "time": "11:45am"}, {"days": "Sat", "time": "9:00am"}, {"days": "Sun", "time": "Closed"}], "id": "8362700001", "name": "USPS COLLECTION BOX - PO LOBBY", "address": {"city": "HAMMETT", "state": "ID", "street": "9344 W KOCH CIR", "postcode": "83627"}}},
{"geometry": {"type": "Point", "coordinates": [-115.5322606527, 42.9814950947]}, "type": "Feature", "properties": {"collection_times": [{"days": "Mon-Sat", "time": "4:30pm"}, {"days": "Sun", "time": "Closed"}], "id": "8362700002", "name": "USPS COLLECTION BOX - BLUE BOX", "address": {"city": "HAMMETT", "state": "ID", "street": "9344 W KOCH CIR", "postcode": "83627"}}},
{"geometry": {"type": "Point", "coordinates": [-116.9343525442, 43.6178396013]}, "type": "Feature", "properties": {"collection_times": [{"days": "Mon-Sat", "time": "4:00pm"}, {"days": "Sun", "time": "Closed"}], "id": "8362800000", "name": "USPS COLLECTION BOX - BLUE BOX", "address": {"city": "HOMEDALE", "state": "ID", "street": "7 N MAIN ST", "postcode": "83628"}}},
{"geometry": {"type": "Point", "coordinates": [-116.9343525442, 43.6178396013]}, "type": "Feature", "properties": {"collection_times": [{"days": "Mon-Fri", "time": "4:30pm"}, {"days": "Sat", "time": "12:00pm"}, {"days": "Sun", "time": "Closed"}], "id": "8362800001", "name": "USPS COLLECTION BOX - PO LOBBY", "address": {"city": "HOMEDALE", "state": "ID", "street": "7 N MAIN ST", "postcode": "83628"}}},
{"geometry": {"type": "Point", "coordinates": [-116.9338831901, 43.6168517691]}, "type": "Feature", "properties": {"collection_times": [{"days": "Mon-Sat", "time": "10:00am"}, {"days": "Sun", "time": "Closed"}], "id": "8362800002", "name": "USPS COLLECTION BOX - BLUE BOX", "address": {"city": "HOMEDALE", "state": "ID", "street": "24 E WYOMING AVE", "postcode": "83628"}}},
{"geometry": {"type": "Point", "coordinates": [-116.2032007316, 43.9013300979]}, "type": "Feature", "properties": {"collection_times": [{"days": "Mon-Fri", "time": "5:00pm"}, {"days": "Sat", "time": "6:15pm"}, {"days": "Sun", "time": "Closed"}], "id": "8362900000", "name": "USPS COLLECTION BOX - BLUE BOX", "address": {"city": "HORSESHOE BEND", "state": "ID", "street": "449 HIGHWAY 55", "postcode": "83629"}}},
{"geometry": {"type": "Point", "coordinates": [-116.2032007316, 43.9013300979]}, "type": "Feature", "properties": {"collection_times": [{"days": "Mon-Fri", "time": "5:00pm"}, {"days": "Sat", "time": "10:30am"}, {"days": "Sun", "time": "Closed"}], "id": "8362900001", "name": "USPS COLLECTION BOX - PO LOBBY", "address": {"city": "HORSESHOE BEND", "state": "ID", "street": "449 HIGHWAY 55", "postcode": "83629"}}},
{"geometry": {"type": "Point", "coordinates": [-116.7825301519, 43.5951463494]}, "type": "Feature", "properties": {"collection_times": [{"days": "Mon-Fri", "time": "4:30pm"}, {"days": "Sat", "time": "3:30pm"}, {"days": "Sun", "time": "Closed"}], "id": "8363000000", "name": "USPS COLLECTION BOX - BLUE BOX", "address": {"city": "HUSTON", "state": "ID", "street": "16021 PRIDE LN", "postcode": "83630"}}},
{"geometry": {"type": "Point", "coordinates": [-116.7825301519, 43.5951463494]}, "type": "Feature", "properties": {"collection_times": [{"days": "Mon-Fri", "time": "4:00pm"}, {"days": "Sat", "time": "10:15am"}, {"days": "Sun", "time": "Closed"}], "id": "8363000001", "name": "USPS COLLECTION BOX - PO LOBBY", "address": {"city": "HUSTON", "state": "ID", "street": "16021 PRIDE LN", "postcode": "83630"}}},
{"geometry": {"type": "Point", "coordinates": [-115.8582652359, 43.8158998301]}, "type": "Feature", "properties": {"collection_times": [{"days": "Mon-Fri", "time": "12:30pm"}, {"days": "Sat", "time": "11:30am"}, {"days": "Sun", "time": "Closed"}], "id": "8363100000", "name": "USPS COLLECTION BOX - PO LOBBY", "address": {"city": "IDAHO CITY", "state": "ID", "street": "3860 HIGHWAY 21", "postcode": "83631"}}},
{"geometry": {"type": "Point", "coordinates": [-115.8582652359, 43.8158998301]}, "type": "Feature", "properties": {"collection_times": [{"days": "Mon-Fri", "time": "12:30pm"}, {"days": "Sat", "time": "11:30am"}, {"days": "Sun", "time": "Closed"}], "id": "8363100001", "name": "USPS COLLECTION BOX - BLUE BOX", "address": {"city": "IDAHO CITY", "state": "ID", "street": "3860 HIGHWAY 21", "postcode": "83631"}}},
{"geometry": {"type": "Point", "coordinates": [-116.4376350945, 44.5570028582]}, "type": "Feature", "properties": {"collection_times": [{"days": "Mon-Fri", "time": "1:45pm"}, {"days": "Sat", "time": "11:45am"}, {"days": "Sun", "time": "Closed"}], "id": "8363200000", "name": "USPS COLLECTION BOX - PO LOBBY", "address": {"city": "INDIAN VALLEY", "state": "ID", "street": "2293 MUNDY GULCH RD", "postcode": "83632"}}},
{"geometry": {"type": "Point", "coordinates": [-116.4376350945, 44.5570028582]}, "type": "Feature", "properties": {"collection_times": [{"days": "Mon-Fri", "time": "3:15pm"}, {"days": "Sat", "time": "12:15pm"}, {"days": "Sun", "time": "Closed"}], "id": "8363200001", "name": "USPS COLLECTION BOX - BLUE BOX", "address": {"city": "INDIAN VALLEY", "state": "ID", "street": "2293 MUNDY GULCH RD", "postcode": "83632"}}},
{"geometry": {"type": "Point", "coordinates": [-116.4176790704, 43.4907200574]}, "type": "Feature", "properties": {"collection_times": [{"days": "Mon-Sat", "time": "4:30pm"}, {"days": "Sun", "time": "Closed"}], "id": "8363400000", "name": "USPS COLLECTION BOX - BLUE BOX", "address": {"city": "KUNA", "state": "ID", "street": "398 W MAIN ST", "postcode": "83634"}}},
{"geometry": {"type": "Point", "coordinates": [-116.4176790704, 43.4907200574]}, "type": "Feature", "properties": {"collection_times": [{"days": "Mon-Fri", "time": "5:00pm"}, {"days": "Sat", "time": "11:00am"}, {"days": "Sun", "time": "Closed"}], "id": "8363400001", "name": "USPS COLLECTION BOX - PO LOBBY", "address": {"city": "KUNA", "state": "ID", "street": "398 W MAIN ST", "postcode": "83634"}}},
{"geometry": {"type": "Point", "coordinates": [-116.422418004, 43.4884949116]}, "type": "Feature", "properties": {"collection_times": [{"days": "Mon-Sat", "time": "1:00pm"}, {"days": "Sun", "time": "Closed"}], "id": "8363400002", "name": "USPS COLLECTION BOX - BLUE BOX", "address": {"city": "KUNA", "state": "ID", "street": "710 E AVALON ST", "postcode": "83634"}}},
{"geometry": {"type": "Point", "coordinates": [-116.4176790704, 43.4907200574]}, "type": "Feature", "properties": {"collection_times": [{"days": "Mon-Sat", "time": "4:30pm"}, {"days": "Sun", "time": "Closed"}], "id": "8363400003", "name": "USPS COLLECTION BOX - BLUE BOX", "address": {"city": "KUNA", "state": "ID", "street": "398 W MAIN ST", "postcode": "83634"}}},
{"geometry": {"type": "Point", "coordinates": [-116.6013672757, 43.8266788958]}, "type": "Feature", "properties": {"collection_times": [{"days": "Mon-Fri", "time": "4:00pm"}, {"days": "Sat", "time": "10:00am"}, {"days": "Sun", "time": "Closed"}], "id": "8363600001", "name": "USPS COLLECTION BOX - BLUE BOX", "address": {"city": "LETHA", "state": "ID", "street": "8381 W IDAHO BLVD", "postcode": "83636"}}},
{"geometry": {"type": "Point", "coordinates": [-116.0917576254, 44.8977410961]}, "type": "Feature", "properties": {"collection_times": [{"days": "Mon-Fri", "time": "3:00pm"}, {"days": "Sat", "time": "12:30pm"}, {"days": "Sun", "time": "Closed"}], "id": "8363800000", "name": "USPS COLLECTION BOX - BLUE BOX", "address": {"city": "MCCALL", "state": "ID", "street": "495 DEINHARD LN", "postcode": "83638"}}},
{"geometry": {"type": "Point", "coordinates": [-116.0917576254, 44.8977410961]}, "type": "Feature", "properties": {"collection_times": [{"days": "Mon-Fri", "time": "3:15pm"}, {"days": "Sat", "time": "12:30pm"}, {"days": "Sun", "time": "Closed"}], "id": "8363800002", "name": "USPS COLLECTION BOX - PO LOBBY", "address": {"city": "MCCALL", "state": "ID", "street": "495 DEINHARD LN", "postcode": "83638"}}},
{"geometry": {"type": "Point", "coordinates": [-116.104947508, 44.9104455466]}, "type": "Feature", "properties": {"collection_times": [{"days": "Mon-Fri", "time": "11:30am"}, {"days": "Sat", "time": "11:00am"}, {"days": "Sun", "time": "Closed"}], "id": "8363800005", "name": "USPS COLLECTION BOX - BLUE BOX", "address": {"city": "MCCALL", "state": "ID", "street": "132 E LAKE ST", "postcode": "83638"}}},
{"geometry": {"type": "Point", "coordinates": [-116.0917576254, 44.8977410961]}, "type": "Feature", "properties": {"collection_times": [{"days": "Mon-Fri", "time": "3:15pm"}, {"days": "Sat", "time": "12:30pm"}, {"days": "Sun", "time": "Closed"}], "id": "8363800006", "name": "USPS COLLECTION BOX - PO LOBBY", "address": {"city": "MCCALL", "state": "ID", "street": "495 DEINHARD LN", "postcode": "83638"}}},
{"geometry": {"type": "Point", "coordinates": [-116.0917576254, 44.8977410961]}, "type": "Feature", "properties": {"collection_times": [{"days": "Mon-Fri", "time": "3:15pm"}, {"days": "Sat", "time": "12:30pm"}, {"days": "Sun", "time": "Closed"}], "id": "8363800007", "name": "USPS COLLECTION BOX - PO LOBBY", "address": {"city": "MCCALL", "state": "ID", "street": "495 DEINHARD LN", "postcode": "83638"}}},
{"geometry": {"type": "Point", "coordinates": [-116.0917576254, 44.8977410961]}, "type": "Feature", "properties": {"collection_times": [{"days": "Mon-Fri", "time": "3:15pm"}, {"days": "Sat", "time": "12:30pm"}, {"days": "Sun", "time": "Closed"}], "id": "8363800008", "name": "USPS COLLECTION BOX - PO LOBBY", "address": {"city": "MCCALL", "state": "ID", "street": "495 DEINHARD LN", "postcode": "83638"}}},
{"geometry": {"type": "Point", "coordinates": [-116.0783474264, 44.74919728]}, "type": "Feature", "properties": {"collection_times": [{"days": "Mon-Sat", "time": "10:00am"}, {"days": "Sun", "time": "Closed"}], "id": "8363800009", "name": "USPS COLLECTION BOX - BLUE BOX", "address": {"city": "MCCALL", "state": "ID", "street": "13845 HIGHWAY 55", "postcode": "83638"}}},
{"geometry": {"type": "Point", "coordinates": [-116.812361737, 43.5453697056]}, "type": "Feature", "properties": {"collection_times": [{"days": "Mon-Sat", "time": "12:30pm"}, {"days": "Sun", "time": "Closed"}], "id": "8363900000", "name": "USPS COLLECTION BOX - BLUE BOX", "address": {"city": "MARSING", "state": "ID", "street": "801 W MAIN ST", "postcode": "83639"}}},
{"geometry": {"type": "Point", "coordinates": [-116.805499348, 43.5461126752]}, "type": "Feature", "properties": {"collection_times": [{"days": "Mon-Fri", "time": "4:30pm"}, {"days": "Sat", "time": "12:30pm"}, {"days": "Sun", "time": "Closed"}], "id": "8363900002", "name": "USPS COLLECTION BOX - PO LOBBY", "address": {"city": "MARSING", "state": "ID", "street": "210 W MAIN ST", "postcode": "83639"}}},
{"geometry": {"type": "Point", "coordinates": [-116.5297457764, 43.3748147409]}, "type": "Feature", "properties": {"collection_times": [{"days": "Mon-Sat", "time": "4:00pm"}, {"days": "Sun", "time": "Closed"}], "id": "8364100000", "name": "USPS COLLECTION BOX - BLUE BOX", "address": {"city": "MELBA", "state": "ID", "street": "314 CARRIE REX AVE", "postcode": "83641"}}},
{"geometry": {"type": "Point", "coordinates": [-116.5297457764, 43.3748147409]}, "type": "Feature", "properties": {"collection_times": [{"days": "Mon-Fri", "time": "4:30pm"}, {"days": "Sat", "time": "9:00am"}, {"days": "Sun", "time": "Closed"}], "id": "8364100001", "name": "USPS COLLECTION BOX - PO LOBBY", "address": {"city": "MELBA", "state": "ID", "street": "314 CARRIE REX AVE", "postcode": "83641"}}},
{"geometry": {"type": "Point", "coordinates": [-116.4139527497, 43.6191752055]}, "type": "Feature", "properties": {"collection_times": [{"days": "Mon-Sat", "time": "3:00pm"}, {"days": "Sun", "time": "Closed"}], "id": "8364200002", "name": "USPS COLLECTION BOX - BLUE BOX", "address": {"city": "MERIDIAN", "state": "ID", "street": "1605 W CHERRY LN", "postcode": "83642"}}},
{"geometry": {"type": "Point", "coordinates": [-116.3915652513, 43.6147379264]}, "type": "Feature", "properties": {"collection_times": [{"days": "Mon-Fri", "time": "5:15pm"}, {"days": "Sat", "time": "3:00pm"}, {"days": "Sun", "time": "Closed"}], "id": "8364200004", "name": "USPS COLLECTION BOX - PO LOBBY", "address": {"city": "MERIDIAN", "state": "ID", "street": "1200 N MAIN ST", "postcode": "83642"}}},
{"geometry": {"type": "Point", "coordinates": [-116.3915652513, 43.6147379264]}, "type": "Feature", "properties": {"collection_times": [{"days": "Mon-Fri", "time": "5:15pm"}, {"days": "Sat", "time": "2:30pm"}, {"days": "Sun", "time": "Closed"}], "id": "8364200005", "name": "USPS COLLECTION BOX - BLUE BOX", "address": {"city": "MERIDIAN", "state": "ID", "street": "1200 N MAIN ST", "postcode": "83642"}}},
{"geometry": {"type": "Point", "coordinates": [-116.3723575466, 43.6194804089]}, "type": "Feature", "properties": {"collection_times": [{"days": "Mon-Fri", "time": "3:30pm"}, {"days": "Sat", "time": "3:00pm"}, {"days": "Sun", "time": "Closed"}], "id": "8364200007", "name": "USPS COLLECTION BOX - BLUE BOX", "address": {"city": "MERIDIAN", "state": "ID", "street": "1850 E FAIRVIEW AVE", "postcode": "83642"}}},
{"geometry": {"type": "Point", "coordinates": [-116.3909460325, 43.6193124805]}, "type": "Feature", "properties": {"collection_times": [{"days": "Mon-Sat", "time": "2:45pm"}, {"days": "Sun", "time": "Closed"}], "id": "8364200008", "name": "USPS COLLECTION BOX - BLUE BOX", "address": {"city": "MERIDIAN", "state": "ID", "street": "104 E FAIRVIEW AVE", "postcode": "83642"}}},
{"geometry": {"type": "Point", "coordinates": [-116.3909875243, 43.5991011182]}, "type": "Feature", "properties": {"collection_times": [{"days": "Mon-Fri", "time": "3:30pm"}, {"days": "Sat-Sun", "time": "Closed"}], "id": "8364200010", "name": "USPS COLLECTION BOX - BLUE BOX", "address": {"city": "MERIDIAN", "state": "ID", "street": "280 E CORPORATE DR", "postcode": "83642"}}},
{"geometry": {"type": "Point", "coordinates": [-116.3915652513, 43.6147379264]}, "type": "Feature", "properties": {"collection_times": [{"days": "Mon-Fri", "time": "5:15pm"}, {"days": "Sat", "time": "2:30pm"}, {"days": "Sun", "time": "Closed"}], "id": "8364200012", "name": "USPS COLLECTION BOX - BLUE BOX", "address": {"city": "MERIDIAN", "state": "ID", "street": "1200 N MAIN ST", "postcode": "83642"}}},
{"geometry": {"type": "Point", "coordinates": [-116.3525063122, 43.6194472861]}, "type": "Feature", "properties": {"collection_times": [{"days": "Mon-Fri", "time": "3:30pm"}, {"days": "Sat", "time": "3:00pm"}, {"days": "Sun", "time": "Closed"}], "id": "8364200017", "name": "USPS COLLECTION BOX - BLUE BOX", "address": {"city": "MERIDIAN", "state": "ID", "street": "3499 E FAIRVIEW AVE", "postcode": "83642"}}},
{"geometry": {"type": "Point", "coordinates": [-116.3574606481, 43.5996934421]}, "type": "Feature", "properties": {"collection_times": [{"days": "Mon-Fri", "time": "3:45pm"}, {"days": "Sat", "time": "3:00pm"}, {"days": "Sun", "time": "Closed"}], "id": "8364200018", "name": "USPS COLLECTION BOX - BLUE BOX", "address": {"city": "MERIDIAN", "state": "ID", "street": "2947 E MAGIC VIEW DR", "postcode": "83642"}}},
{"geometry": {"type": "Point", "coordinates": [-116.3915652513, 43.6147379264]}, "type": "Feature", "properties": {"collection_times": [{"days": "Mon-Fri", "time": "5:15pm"}, {"days": "Sat", "time": "3:00pm"}, {"days": "Sun", "time": "Closed"}], "id": "8364200021", "name": "USPS COLLECTION BOX - APC", "address": {"city": "MERIDIAN", "state": "ID", "street": "1200 N MAIN ST", "postcode": "83642"}}},
{"geometry": {"type": "Point", "coordinates": [-116.3576616473, 43.5872577897]}, "type": "Feature", "properties": {"collection_times": [{"days": "Mon-Fri", "time": "3:45pm"}, {"days": "Sat", "time": "3:00pm"}, {"days": "Sun", "time": "Closed"}], "id": "8364200022", "name": "USPS COLLECTION BOX - BLUE BOX", "address": {"city": "MERIDIAN", "state": "ID", "street": "1940 S BONITO WAY", "postcode": "83642"}}},
{"geometry": {"type": "Point", "coordinates": [-116.3501877126, 43.5837645119]}, "type": "Feature", "properties": {"collection_times": [{"days": "Mon-Fri", "time": "3:45pm"}, {"days": "Sat", "time": "3:00pm"}, {"days": "Sun", "time": "Closed"}], "id": "8364200023", "name": "USPS COLLECTION BOX - BLUE BOX", "address": {"city": "MERIDIAN", "state": "ID", "street": "3451 E COPPER POINT DR", "postcode": "83642"}}},
{"geometry": {"type": "Point", "coordinates": [-116.3500274671, 43.5903318091]}, "type": "Feature", "properties": {"collection_times": [{"days": "Mon-Fri", "time": "3:45pm"}, {"days": "Sat", "time": "3:00pm"}, {"days": "Sun", "time": "Closed"}], "id": "8364200024", "name": "USPS COLLECTION BOX - BLUE BOX", "address": {"city": "MERIDIAN", "state": "ID", "street": "3581 E OVERLAND RD", "postcode": "83642"}}},
{"geometry": {"type": "Point", "coordinates": [-116.3842592967, 43.6194271758]}, "type": "Feature", "properties": {"collection_times": [{"days": "Mon-Fri", "time": "3:30pm"}, {"days": "Sat", "time": "3:00pm"}, {"days": "Sun", "time": "Closed"}], "id": "8364200026", "name": "USPS COLLECTION BOX - BLUE BOX", "address": {"city": "MERIDIAN", "state": "ID", "street": "841 E FAIRVIEW AVE", "postcode": "83642"}}},
{"geometry": {"type": "Point", "coordinates": [-116.3915652513, 43.6147379264]}, "type": "Feature", "properties": {"collection_times": [{"days": "Mon-Fri", "time": "5:15pm"}, {"days": "Sat", "time": "3:00pm"}, {"days": "Sun", "time": "Closed"}], "id": "8364200028", "name": "USPS COLLECTION BOX - PO LOBBY", "address": {"city": "MERIDIAN", "state": "ID", "street": "1200 N MAIN ST", "postcode": "83642"}}},
{"geometry": {"type": "Point", "coordinates": [-116.6231189325, 43.7063195503]}, "type": "Feature", "properties": {"collection_times": [{"days": "Mon-Fri", "time": "5:00pm"}, {"days": "Sat", "time": "12:00pm"}, {"days": "Sun", "time": "Closed"}], "id": "8364400000", "name": "USPS COLLECTION BOX - BLUE BOX", "address": {"city": "MIDDLETON", "state": "ID", "street": "10 S HAWTHORNE DR", "postcode": "83644"}}},
{"geometry": {"type": "Point", "coordinates": [-116.6231189325, 43.7063195503]}, "type": "Feature", "properties": {"collection_times": [{"days": "Mon-Fri", "time": "5:00pm"}, {"days": "Sat", "time": "12:00pm"}, {"days": "Sun", "time": "Closed"}], "id": "8364400001", "name": "USPS COLLECTION BOX - PO LOBBY", "address": {"city": "MIDDLETON", "state": "ID", "street": "10 S HAWTHORNE DR", "postcode": "83644"}}},
{"geometry": {"type": "Point", "coordinates": [-116.7341846635, 44.4709152352]}, "type": "Feature", "properties": {"collection_times": [{"days": "Mon-Sat", "time": "3:45pm"}, {"days": "Sun", "time": "Closed"}], "id": "8364500000", "name": "USPS COLLECTION BOX - BLUE BOX", "address": {"city": "MIDVALE", "state": "ID", "street": "85 E BRIDGE ST", "postcode": "83645"}}},
{"geometry": {"type": "Point", "coordinates": [-116.7341846635, 44.4709152352]}, "type": "Feature", "properties": {"collection_times": [{"days": "Mon-Fri", "time": "12:45pm"}, {"days": "Sat", "time": "9:45am"}, {"days": "Sun", "time": "Closed"}], "id": "8364500001", "name": "USPS COLLECTION BOX - PO LOBBY", "address": {"city": "MIDVALE", "state": "ID", "street": "85 E BRIDGE ST", "postcode": "83645"}}},
{"geometry": {"type": "Point", "coordinates": [-115.6937847661, 43.1337555388]}, "type": "Feature", "properties": {"collection_times": [{"days": "Mon-Sat", "time": "5:15pm"}, {"days": "Sun", "time": "Closed"}], "id": "8364700011", "name": "USPS COLLECTION BOX - BLUE BOX", "address": {"city": "MOUNTAIN HOME", "state": "ID", "street": "350 N 3RD E", "postcode": "83647"}}},
{"geometry": {"type": "Point", "coordinates": [-115.6937847661, 43.1337555388]}, "type": "Feature", "properties": {"collection_times": [{"days": "Mon-Fri", "time": "5:15pm"}, {"days": "Sat", "time": "3:15pm"}, {"days": "Sun", "time": "Closed"}], "id": "8364700014", "name": "USPS COLLECTION BOX - PO LOBBY", "address": {"city": "MOUNTAIN HOME", "state": "ID", "street": "350 N 3RD E", "postcode": "83647"}}},
{"geometry": {"type": "Point", "coordinates": [-115.8637115477, 43.0489847508]}, "type": "Feature", "properties": {"collection_times": [{"days": "Mon-Sat", "time": "9:00am"}, {"days": "Sun", "time": "Closed"}], "id": "8364800003", "name": "USPS COLLECTION BOX - BLUE BOX", "address": {"city": "MTN HOME AFB", "state": "ID", "street": "625 GUNFIGHTER AVE", "postcode": "83648"}}},
{"geometry": {"type": "Point", "coordinates": [-116.444367155, 43.1660734638]}, "type": "Feature", "properties": {"collection_times": [{"days": "Mon-Fri", "time": "1:45pm"}, {"days": "Sat", "time": "10:00am"}, {"days": "Sun", "time": "Closed"}], "id": "8365000000", "name": "USPS COLLECTION BOX - BLUE BOX", "address": {"city": "MURPHY", "state": "ID", "street": "17026 HAILEY ST", "postcode": "83650"}}},
{"geometry": {"type": "Point", "coordinates": [-116.444367155, 43.1660734638]}, "type": "Feature", "properties": {"collection_times": [{"days": "Mon-Fri", "time": "1:45pm"}, {"days": "Sat", "time": "11:45am"}, {"days": "Sun", "time": "Closed"}], "id": "8365000001", "name": "USPS COLLECTION BOX - PO LOBBY", "address": {"city": "MURPHY", "state": "ID", "street": "17026 HAILEY ST", "postcode": "83650"}}},
{"geometry": {"type": "Point", "coordinates": [-116.6080405163, 43.5952473814]}, "type": "Feature", "properties": {"collection_times": [{"days": "Mon-Fri", "time": "2:15pm"}, {"days": "Sat", "time": "4:00pm"}, {"days": "Sun", "time": "Closed"}], "id": "8365100001", "name": "USPS COLLECTION BOX - BLUE BOX", "address": {"city": "NAMPA", "state": "ID", "street": "1100 BURNETT DR", "postcode": "83651"}}},
{"geometry": {"type": "Point", "coordinates": [-116.5996149976, 43.6030167072]}, "type": "Feature", "properties": {"collection_times": [{"days": "Mon-Sat", "time": "4:45pm"}, {"days": "Sun", "time": "Closed"}], "id": "8365100004", "name": "USPS COLLECTION BOX - BLUE BOX", "address": {"city": "NAMPA", "state": "ID", "street": "1509 CALDWELL BLVD", "postcode": "83651"}}},
{"geometry": {"type": "Point", "coordinates": [-116.6039504431, 43.597604722]}, "type": "Feature", "properties": {"collection_times": [{"days": "Mon-Fri", "time": "2:15pm"}, {"days": "Sat", "time": "4:00pm"}, {"days": "Sun", "time": "Closed"}], "id": "8365100005", "name": "USPS COLLECTION BOX - BLUE BOX", "address": {"city": "NAMPA", "state": "ID", "street": "1907 W FLAMINGO AVE", "postcode": "83651"}}},
{"geometry": {"type": "Point", "coordinates": [-116.5597605357, 43.5787349419]}, "type": "Feature", "properties": {"collection_times": [{"days": "Mon-Sat", "time": "5:45pm"}, {"days": "Sun", "time": "Closed"}], "id": "8365100006", "name": "USPS COLLECTION BOX - BLUE BOX", "address": {"city": "NAMPA", "state": "ID", "street": "100 12TH AVE S", "postcode": "83651"}}},
{"geometry": {"type": "Point", "coordinates": [-116.575594161, 43.5874736546]}, "type": "Feature", "properties": {"collection_times": [{"days": "Mon-Sat", "time": "4:30pm"}, {"days": "Sun", "time": "Closed"}], "id": "8365100009", "name": "USPS COLLECTION BOX - BLUE BOX", "address": {"city": "NAMPA", "state": "ID", "street": "50 2ND ST S", "postcode": "83651"}}},
{"geometry": {"type": "Point", "coordinates": [-116.5658877205, 43.574146736]}, "type": "Feature", "properties": {"collection_times": [{"days": "Mon-Sat", "time": "5:00pm"}, {"days": "Sun", "time": "Closed"}], "id": "8365100010", "name": "USPS COLLECTION BOX - BLUE BOX", "address": {"city": "NAMPA", "state": "ID", "street": "715 12TH AVE S", "postcode": "83651"}}},
{"geometry": {"type": "Point", "coordinates": [-116.5930099806, 43.6011866213]}, "type": "Feature", "properties": {"collection_times": [{"days": "Mon-Sat", "time": "4:45pm"}, {"days": "Sun", "time": "Closed"}], "id": "8365100011", "name": "USPS COLLECTION BOX - BLUE BOX", "address": {"city": "NAMPA", "state": "ID", "street": "1822 N MIDLAND BLVD", "postcode": "83651"}}},
{"geometry": {"type": "Point", "coordinates": [-116.5676048887, 43.5726478624]}, "type": "Feature", "properties": {"collection_times": [{"days": "Mon-Sat", "time": "5:30pm"}, {"days": "Sun", "time": "Closed"}], "id": "8365100012", "name": "USPS COLLECTION BOX - BLUE BOX", "address": {"city": "NAMPA", "state": "ID", "street": "900 12TH AVE S", "postcode": "83651"}}},
{"geometry": {"type": "Point", "coordinates": [-116.5611270333, 43.5793592829]}, "type": "Feature", "properties": {"collection_times": [{"days": "Mon-Sat", "time": "6:00pm"}, {"days": "Sun", "time": "Closed"}], "id": "8365100016", "name": "USPS COLLECTION BOX - BLUE BOX", "address": {"city": "NAMPA", "state": "ID", "street": "123 11TH AVE S", "postcode": "83651"}}},
{"geometry": {"type": "Point", "coordinates": [-116.5129177952, 43.6050959239]}, "type": "Feature", "properties": {"collection_times": [{"days": "Mon-Fri", "time": "2:15pm"}, {"days": "Sat", "time": "4:00pm"}, {"days": "Sun", "time": "Closed"}], "id": "8365100020", "name": "USPS COLLECTION BOX - BLUE BOX", "address": {"city": "NAMPA", "state": "ID", "street": "5950 E FRANKLIN RD", "postcode": "83651"}}},
{"geometry": {"type": "Point", "coordinates": [-116.5611270333, 43.5793592829]}, "type": "Feature", "properties": {"collection_times": [{"days": "Mon-Fri", "time": "6:00pm"}, {"days": "Sat", "time": "5:45pm"}, {"days": "Sun", "time": "Closed"}], "id": "8365100021", "name": "USPS COLLECTION BOX - PO LOBBY", "address": {"city": "NAMPA", "state": "ID", "street": "123 11TH AVE S", "postcode": "83651"}}},
{"geometry": {"type": "Point", "coordinates": [-116.5906477074, 43.6003551967]}, "type": "Feature", "properties": {"collection_times": [{"days": "Mon-Sat", "time": "5:45pm"}, {"days": "Sun", "time": "Closed"}], "id": "8365100026", "name": "USPS COLLECTION BOX - BLUE BOX", "address": {"city": "NAMPA", "state": "ID", "street": "820 PARKCENTRE WAY", "postcode": "83651"}}},
{"geometry": {"type": "Point", "coordinates": [-116.5906477074, 43.6003551967]}, "type": "Feature", "properties": {"collection_times": [{"days": "Mon-Sat", "time": "5:45pm"}, {"days": "Sun", "time": "Closed"}], "id": "8365100027", "name": "USPS COLLECTION BOX - BLUE BOX", "address": {"city": "NAMPA", "state": "ID", "street": "820 PARKCENTRE WAY", "postcode": "83651"}}},
{"geometry": {"type": "Point", "coordinates": [-116.5902898197, 43.5863615008]}, "type": "Feature", "properties": {"collection_times": [{"days": "Mon-Fri", "time": "6:00pm"}, {"days": "Sat", "time": "5:45pm"}, {"days": "Sun", "time": "Closed"}], "id": "8365100028", "name": "USPS COLLECTION BOX - PO LOBBY", "address": {"city": "NAMPA", "state": "ID", "street": "123 11TH AVE S", "postcode": "83651"}}},
{"geometry": {"type": "Point", "coordinates": [-116.5611270333, 43.5793592829]}, "type": "Feature", "properties": {"collection_times": [{"days": "Mon-Fri", "time": "6:00pm"}, {"days": "Sat", "time": "5:45pm"}, {"days": "Sun", "time": "Closed"}], "id": "8365100029", "name": "USPS COLLECTION BOX - APC", "address": {"city": "NAMPA", "state": "ID", "street": "123 11TH AVE S", "postcode": "83651"}}},
{"geometry": {"type": "Point", "coordinates": [-116.2890724989, 44.9710343727]}, "type": "Feature", "properties": {"collection_times": [{"days": "Mon-Fri", "time": "2:45pm"}, {"days": "Sat", "time": "12:00pm"}, {"days": "Sun", "time": "Closed"}], "id": "8365400001", "name": "USPS COLLECTION BOX - PO LOBBY", "address": {"city": "NEW MEADOWS", "state": "ID", "street": "221 VIRGINIA ST", "postcode": "83654"}}},
{"geometry": {"type": "Point", "coordinates": [-116.8198166153, 43.9730473446]}, "type": "Feature", "properties": {"collection_times": [{"days": "Mon-Fri", "time": "4:00pm"}, {"days": "Sat", "time": "4:45pm"}, {"days": "Sun", "time": "Closed"}], "id": "8365500000", "name": "USPS COLLECTION BOX - BLUE BOX", "address": {"city": "NEW PLYMOUTH", "state": "ID", "street": "325 N PLYMOUTH AVE", "postcode": "83655"}}},
{"geometry": {"type": "Point", "coordinates": [-116.8198166153, 43.9730473446]}, "type": "Feature", "properties": {"collection_times": [{"days": "Mon-Fri", "time": "4:30pm"}, {"days": "Sat", "time": "10:00am"}, {"days": "Sun", "time": "Closed"}], "id": "8365500001", "name": "USPS COLLECTION BOX - PO LOBBY", "address": {"city": "NEW PLYMOUTH", "state": "ID", "street": "325 N PLYMOUTH AVE", "postcode": "83655"}}},
{"geometry": {"type": "Point", "coordinates": [-116.8198166153, 43.9730473446]}, "type": "Feature", "properties": {"collection_times": [{"days": "Mon-Fri", "time": "4:30pm"}, {"days": "Sat", "time": "10:00am"}, {"days": "Sun", "time": "Closed"}], "id": "8365500003", "name": "USPS COLLECTION BOX - PO LOBBY", "address": {"city": "NEW PLYMOUTH", "state": "ID", "street": "325 N PLYMOUTH AVE", "postcode": "83655"}}},
{"geometry": {"type": "Point", "coordinates": [-116.8004952528, 43.7259837285]}, "type": "Feature", "properties": {"collection_times": [{"days": "Mon-Fri", "time": "5:00pm"}, {"days": "Sat", "time": "9:45am"}, {"days": "Sun", "time": "Closed"}], "id": "8365600000", "name": "USPS COLLECTION BOX - BLUE BOX", "address": {"city": "NOTUS", "state": "ID", "street": "385 FARGO AVE", "postcode": "83656"}}},
{"geometry": {"type": "Point", "coordinates": [-116.8004952528, 43.7259837285]}, "type": "Feature", "properties": {"collection_times": [{"days": "Mon-Fri", "time": "2:45pm"}, {"days": "Sat", "time": "9:45am"}, {"days": "Sun", "time": "Closed"}], "id": "8365600001", "name": "USPS COLLECTION BOX - PO LOBBY", "address": {"city": "NOTUS", "state": "ID", "street": "385 FARGO AVE", "postcode": "83656"}}},
{"geometry": {"type": "Point", "coordinates": [-116.2791033984, 44.2923056641]}, "type": "Feature", "properties": {"collection_times": [{"days": "Mon-Fri", "time": "1:00pm"}, {"days": "Sat", "time": "12:30pm"}, {"days": "Sun", "time": "Closed"}], "id": "8365700000", "name": "USPS COLLECTION BOX - PO LOBBY", "address": {"city": "OLA", "state": "ID", "street": "11000 OLA SCHOOL RD", "postcode": "83657"}}},
{"geometry": {"type": "Point", "coordinates": [-116.9439678986, 43.7855798092]}, "type": "Feature", "properties": {"collection_times": [{"days": "Mon-Fri", "time": "4:30pm"}, {"days": "Sat", "time": "2:00pm"}, {"days": "Sun", "time": "Closed"}], "id": "8366000000", "name": "USPS COLLECTION BOX - BLUE BOX", "address": {"city": "PARMA", "state": "ID", "street": "207 N 3RD ST", "postcode": "83660"}}},
{"geometry": {"type": "Point", "coordinates": [-116.9439678986, 43.7855798092]}, "type": "Feature", "properties": {"collection_times": [{"days": "Mon-Fri", "time": "4:45pm"}, {"days": "Sat", "time": "2:00pm"}, {"days": "Sun", "time": "Closed"}], "id": "8366000001", "name": "USPS COLLECTION BOX - PO LOBBY", "address": {"city": "PARMA", "state": "ID", "street": "207 N 3RD ST", "postcode": "83660"}}},
{"geometry": {"type": "Point", "coordinates": [-116.933183628, 44.074870441]}, "type": "Feature", "properties": {"collection_times": [{"days": "Mon-Fri", "time": "5:00pm"}, {"days": "Sat", "time": "3:00pm"}, {"days": "Sun", "time": "Closed"}], "id": "8366100004", "name": "USPS COLLECTION BOX - BLUE BOX", "address": {"city": "PAYETTE", "state": "ID", "street": "915 CENTER AVE", "postcode": "83661"}}},
{"geometry": {"type": "Point", "coordinates": [-116.933183628, 44.074870441]}, "type": "Feature", "properties": {"collection_times": [{"days": "Mon-Fri", "time": "5:00pm"}, {"days": "Sat", "time": "3:00pm"}, {"days": "Sun", "time": "Closed"}], "id": "8366100005", "name": "USPS COLLECTION BOX - BLUE BOX", "address": {"city": "PAYETTE", "state": "ID", "street": "915 CENTER AVE", "postcode": "83661"}}},
{"geometry": {"type": "Point", "coordinates": [-116.933183628, 44.074870441]}, "type": "Feature", "properties": {"collection_times": [{"days": "Mon-Fri", "time": "5:00pm"}, {"days": "Sat", "time": "3:00pm"}, {"days": "Sun", "time": "Closed"}], "id": "8366100006", "name": "USPS COLLECTION BOX - PO LOBBY", "address": {"city": "PAYETTE", "state": "ID", "street": "915 CENTER AVE", "postcode": "83661"}}},
{"geometry": {"type": "Point", "coordinates": [-116.933183628, 44.074870441]}, "type": "Feature", "properties": {"collection_times": [{"days": "Mon-Fri", "time": "5:00pm"}, {"days": "Sat", "time": "3:00pm"}, {"days": "Sun", "time": "Closed"}], "id": "8366100008", "name": "USPS COLLECTION BOX - PO LOBBY", "address": {"city": "PAYETTE", "state": "ID", "street": "915 CENTER AVE", "postcode": "83661"}}},
{"geometry": {"type": "Point", "coordinates": [-116.4880568481, 43.6919733173]}, "type": "Feature", "properties": {"collection_times": [{"days": "Mon-Fri", "time": "5:00pm"}, {"days": "Sat", "time": "12:00pm"}, {"days": "Sun", "time": "Closed"}], "id": "8366900000", "name": "USPS COLLECTION BOX - BLUE BOX", "address": {"city": "STAR", "state": "ID", "street": "10780 W STATE ST", "postcode": "83669"}}},
{"geometry": {"type": "Point", "coordinates": [-116.4880568481, 43.6919733173]}, "type": "Feature", "properties": {"collection_times": [{"days": "Mon-Fri", "time": "5:00pm"}, {"days": "Sat", "time": "12:00pm"}, {"days": "Sun", "time": "Closed"}], "id": "8366900001", "name": "USPS COLLECTION BOX - PO LOBBY", "address": {"city": "STAR", "state": "ID", "street": "10780 W STATE ST", "postcode": "83669"}}},
{"geometry": {"type": "Point", "coordinates": [-116.9712634552, 44.2467770885]}, "type": "Feature", "properties": {"collection_times": [{"days": "Mon-Fri", "time": "5:00pm"}, {"days": "Sat", "time": "3:00pm"}, {"days": "Sun", "time": "Closed"}], "id": "8367200012", "name": "USPS COLLECTION BOX - BLUE BOX", "address": {"city": "WEISER", "state": "ID", "street": "106 W MAIN ST", "postcode": "83672"}}},
{"geometry": {"type": "Point", "coordinates": [-116.9712634552, 44.2467770885]}, "type": "Feature", "properties": {"collection_times": [{"days": "Mon-Fri", "time": "5:00pm"}, {"days": "Sat", "time": "3:00pm"}, {"days": "Sun", "time": "Closed"}], "id": "8367200013", "name": "USPS COLLECTION BOX - PO LOBBY", "address": {"city": "WEISER", "state": "ID", "street": "106 W MAIN ST", "postcode": "83672"}}},
{"geometry": {"type": "Point", "coordinates": [-116.9712634552, 44.2467770885]}, "type": "Feature", "properties": {"collection_times": [{"days": "Mon-Fri", "time": "5:00pm"}, {"days": "Sat", "time": "3:00pm"}, {"days": "Sun", "time": "Closed"}], "id": "8367200015", "name": "USPS COLLECTION BOX - BLUE BOX", "address": {"city": "WEISER", "state": "ID", "street": "106 W MAIN ST", "postcode": "83672"}}},
{"geometry": {"type": "Point", "coordinates": [-116.9125859704, 43.6581752141]}, "type": "Feature", "properties": {"collection_times": [{"days": "Mon-Fri", "time": "4:30pm"}, {"days": "Sat", "time": "12:00pm"}, {"days": "Sun", "time": "Closed"}], "id": "8367600000", "name": "USPS COLLECTION BOX - BLUE BOX", "address": {"city": "WILDER", "state": "ID", "street": "109 5TH ST STE B", "postcode": "83676"}}},
{"geometry": {"type": "Point", "coordinates": [-116.9125859704, 43.6581752141]}, "type": "Feature", "properties": {"collection_times": [{"days": "Mon-Fri", "time": "4:45pm"}, {"days": "Sat", "time": "12:00pm"}, {"days": "Sun", "time": "Closed"}], "id": "8367600001", "name": "USPS COLLECTION BOX - PO LOBBY", "address": {"city": "WILDER", "state": "ID", "street": "109 5TH ST STE B", "postcode": "83676"}}},
{"geometry": {"type": "Point", "coordinates": [-115.2909332144, 45.0813784027]}, "type": "Feature", "properties": {"collection_times": [{"days": "Mon-Sat", "time": "12:30pm"}, {"days": "Sun", "time": "Closed"}], "id": "8367700000", "name": "USPS COLLECTION BOX - PO LOBBY", "address": {"city": "YELLOW PINE", "state": "ID", "street": "390 STIBNITE RD", "postcode": "83677"}}},
{"geometry": {"type": "Point", "coordinates": [-115.2909332144, 45.0813784027]}, "type": "Feature", "properties": {"collection_times": [{"days": "Mon-Sat", "time": "10:30am"}, {"days": "Sun", "time": "Closed"}], "id": "8367700001", "name": "USPS COLLECTION BOX - BLUE BOX", "address": {"city": "YELLOW PINE", "state": "ID", "street": "390 STIBNITE RD", "postcode": "83677"}}},
{"geometry": {"type": "Point", "coordinates": [-116.5730127519, 43.5654465041]}, "type": "Feature", "properties": {"collection_times": [{"days": "Mon-Fri", "time": "5:30pm"}, {"days": "Sat", "time": "4:45pm"}, {"days": "Sun", "time": "Closed"}], "id": "8368600003", "name": "USPS COLLECTION BOX - BLUE BOX", "address": {"city": "NAMPA", "state": "ID", "street": "407 12TH AVE RD", "postcode": "83686"}}},
{"geometry": {"type": "Point", "coordinates": [-116.5642747727, 43.5684038756]}, "type": "Feature", "properties": {"collection_times": [{"days": "Mon-Sat", "time": "5:15pm"}, {"days": "Sun", "time": "Closed"}], "id": "8368600005", "name": "USPS COLLECTION BOX - BLUE BOX", "address": {"city": "NAMPA", "state": "ID", "street": "120 HOLLY ST", "postcode": "83686"}}},
{"geometry": {"type": "Point", "coordinates": [-116.5726364806, 43.546062664]}, "type": "Feature", "properties": {"collection_times": [{"days": "Mon-Fri", "time": "5:00pm"}, {"days": "Sat", "time": "3:45pm"}, {"days": "Sun", "time": "Closed"}], "id": "8368600008", "name": "USPS COLLECTION BOX - BLUE BOX", "address": {"city": "NAMPA", "state": "ID", "street": "2400 12TH AVE RD", "postcode": "83686"}}},
{"geometry": {"type": "Point", "coordinates": [-116.5727873343, 43.5541423775]}, "type": "Feature", "properties": {"collection_times": [{"days": "Mon-Fri", "time": "5:00pm"}, {"days": "Sat", "time": "3:45pm"}, {"days": "Sun", "time": "Closed"}], "id": "8368600009", "name": "USPS COLLECTION BOX - BLUE BOX", "address": {"city": "NAMPA", "state": "ID", "street": "1512 12TH AVE RD", "postcode": "83686"}}},
{"geometry": {"type": "Point", "coordinates": [-116.5530398295, 43.6009532923]}, "type": "Feature", "properties": {"collection_times": [{"days": "Mon-Sat", "time": "4:30pm"}, {"days": "Sun", "time": "Closed"}], "id": "8368700002", "name": "USPS COLLECTION BOX - BLUE BOX", "address": {"city": "NAMPA", "state": "ID", "street": "1802 N FRANKLIN BLVD", "postcode": "83687"}}},
{"geometry": {"type": "Point", "coordinates": [-116.5179109299, 43.5945383515]}, "type": "Feature", "properties": {"collection_times": [{"days": "Mon-Fri", "time": "2:45pm"}, {"days": "Sat", "time": "4:15pm"}, {"days": "Sun", "time": "Closed"}], "id": "8368700003", "name": "USPS COLLECTION BOX - BLUE BOX", "address": {"city": "NAMPA", "state": "ID", "street": "4315 GARRITY BLVD", "postcode": "83687"}}}
]}
