{"type": "FeatureCollection", "features": [
{"geometry": {"type": "Point", "coordinates": [-116.1994361539, 43.6203770918]}, "type": "Feature", "properties": {"collection_times": [{"days": "Mon-Fri", "time": "3:30pm"}, {"days": "Sat-Sun", "time": "Closed"}], "id": "8370200005", "name": "USPS COLLECTION BOX - BLUE BOX", "address": {"city": "BOISE", "state": "ID", "street": "805 W FRANKLIN ST", "postcode": "83702"}}},
{"geometry": {"type": "Point", "coordinates": [-116.1810636183, 43.6085711614]}, "type": "Feature", "properties": {"collection_times": [{"days": "Mon-Fri", "time": "3:45pm"}, {"days": "Sat", "time": "1:00pm"}, {"days": "Sun", "time": "Closed"}], "id": "8370200008", "name": "USPS COLLECTION BOX - BLUE BOX", "address": {"city": "BOISE", "state": "ID", "street": "1101 W JEFFERSON ST", "postcode": "83702"}}},
{"geometry": {"type": "Point", "coordinates": [-116.2134530347, 43.613223739]}, "type": "Feature", "properties": {"collection_times": [{"days": "Mon-Fri", "time": "4:15pm"}, {"days": "Sat", "time": "1:00pm"}, {"days": "Sun", "time": "Closed"}], "id": "8370200011", "name": "USPS COLLECTION BOX - BLUE BOX", "address": {"city": "BOISE", "state": "ID", "street": "1161 W RIVER ST", "postcode": "83702"}}},
{"geometry": {"type": "Point", "coordinates": [-116.2090230021, 43.6207709028]}, "type": "Feature", "properties": {"collection_times": [{"days": "Mon-Fri", "time": "3:45pm"}, {"days": "Sat-Sun", "time": "Closed"}], "id": "8370200015", "name": "USPS COLLECTION BOX - BLUE BOX", "address": {"city": "BOISE", "state": "ID", "street": "1398 W BANNOCK ST", "postcode": "83702"}}},
{"geometry": {"type": "Point", "coordinates": [-116.2192524199, 43.6155225991]}, "type": "Feature", "properties": {"collection_times": [{"days": "Mon-Fri", "time": "9:00am"}, {"days": "Sat-Sun", "time": "Closed"}], "id": "8370200016", "name": "USPS COLLECTION BOX - BLUE BOX", "address": {"city": "BOISE", "state": "ID", "street": "1471 W SHORELINE DR", "postcode": "83702"}}},
{"geometry": {"type": "Point", "coordinates": [-116.2063138774, 43.6250036443]}, "type": "Feature", "properties": {"collection_times": [{"days": "Mon-Fri", "time": "3:30pm"}, {"days": "Sat", "time": "3:15pm"}, {"days": "Sun", "time": "Closed"}], "id": "8370200017", "name": "USPS COLLECTION BOX - BLUE BOX", "address": {"city": "BOISE", "state": "ID", "street": "1499 W HAYS ST", "postcode": "83702"}}},
{"geometry": {"type": "Point", "coordinates": [-116.1990292831, 43.6128162839]}, "type": "Feature", "properties": {"collection_times": [{"days": "Mon-Fri", "time": "4:15pm"}, {"days": "Sat-Sun", "time": "Closed"}], "id": "8370200018", "name": "USPS COLLECTION BOX - BLUE BOX", "address": {"city": "BOISE", "state": "ID", "street": "150 S 4TH ST", "postcode": "83702"}}},
{"geometry": {"type": "Point", "coordinates": [-116.2196955092, 43.6163290062]}, "type": "Feature", "properties": {"collection_times": [{"days": "Mon-Fri", "time": "4:15pm"}, {"days": "Sat", "time": "1:00pm"}, {"days": "Sun", "time": "Closed"}], "id": "8370200019", "name": "USPS COLLECTION BOX - BLUE BOX", "address": {"city": "BOISE", "state": "ID", "street": "1555 W SHORELINE DR", "postcode": "83702"}}},
{"geometry": {"type": "Point", "coordinates": [-116.2081663911, 43.6419081279]}, "type": "Feature", "properties": {"collection_times": [{"days": "Mon-Fri", "time": "3:45pm"}, {"days": "Sat-Sun", "time": "Closed"}], "id": "8370200029", "name": "USPS COLLECTION BOX - BLUE BOX", "address": {"city": "BOISE", "state": "ID", "street": "2405 N BOGUS BASIN RD", "postcode": "83702"}}},
{"geometry": {"type": "Point", "coordinates": [-116.1983760832, 43.6153810405]}, "type": "Feature", "properties": {"collection_times": [{"days": "Mon-Fri", "time": "4:45pm"}, {"days": "Sat", "time": "1:00pm"}, {"days": "Sun", "time": "Closed"}], "id": "8370200031", "name": "USPS COLLECTION BOX - BLUE BOX", "address": {"city": "BOISE", "state": "ID", "street": "304 N 5TH ST", "postcode": "83702"}}},
{"geometry": {"type": "Point", "coordinates": [-116.2058442426, 43.6131669569]}, "type": "Feature", "properties": {"collection_times": [{"days": "Mon-Fri", "time": "4:45pm"}, {"days": "Sat", "time": "1:00pm"}, {"days": "Sun", "time": "Closed"}], "id": "8370200034", "name": "USPS COLLECTION BOX - BLUE BOX", "address": {"city": "BOISE", "state": "ID", "street": "401 S 8TH ST", "postcode": "83702"}}},
{"geometry": {"type": "Point", "coordinates": [-116.2104666542, 43.6228290541]}, "type": "Feature", "properties": {"collection_times": [{"days": "Mon-Fri", "time": "4:00pm"}, {"days": "Sat", "time": "1:00pm"}, {"days": "Sun", "time": "Closed"}], "id": "8370200036", "name": "USPS COLLECTION BOX - BLUE BOX", "address": {"city": "BOISE", "state": "ID", "street": "420 N 16TH ST", "postcode": "83702"}}},
{"geometry": {"type": "Point", "coordinates": [-116.1952177223, 43.6200151064]}, "type": "Feature", "properties": {"collection_times": [{"days": "Mon-Fri", "time": "9:30am"}, {"days": "Sat-Sun", "time": "Closed"}], "id": "8370200037", "name": "USPS COLLECTION BOX - BLUE BOX", "address": {"city": "BOISE", "state": "ID", "street": "550 W FORT ST", "postcode": "83702"}}},
{"geometry": {"type": "Point", "coordinates": [-116.1969708675, 43.6188013905]}, "type": "Feature", "properties": {"collection_times": [{"days": "Mon-Fri", "time": "5:00pm"}, {"days": "Sat", "time": "1:00pm"}, {"days": "Sun", "time": "Closed"}], "id": "8370200039", "name": "USPS COLLECTION BOX - BLUE BOX", "address": {"city": "BOISE", "state": "ID", "street": "620 N 6TH ST", "postcode": "83702"}}},
{"geometry": {"type": "Point", "coordinates": [-116.2016234451, 43.614692974]}, "type": "Feature", "properties": {"collection_times": [{"days": "Mon-Fri", "time": "4:45pm"}, {"days": "Sat-Sun", "time": "Closed"}], "id": "8370200041", "name": "USPS COLLECTION BOX - BLUE BOX", "address": {"city": "BOISE", "state": "ID", "street": "650 W MAIN ST", "postcode": "83702"}}},
{"geometry": {"type": "Point", "coordinates": [-116.1965229483, 43.6211115772]}, "type": "Feature", "properties": {"collection_times": [{"days": "Mon-Fri", "time": "2:15pm"}, {"days": "Sat-Sun", "time": "Closed"}], "id": "8370200043", "name": "USPS COLLECTION BOX - BLUE BOX", "address": {"city": "BOISE", "state": "ID", "street": "701 W FORT ST", "postcode": "83702"}}},
{"geometry": {"type": "Point", "coordinates": [-116.201856488, 43.6159374468]}, "type": "Feature", "properties": {"collection_times": [{"days": "Mon-Fri", "time": "5:00pm"}, {"days": "Sat", "time": "1:00pm"}, {"days": "Sun", "time": "Closed"}], "id": "8370200045", "name": "USPS COLLECTION BOX - BLUE BOX", "address": {"city": "BOISE", "state": "ID", "street": "702 W IDAHO ST", "postcode": "83702"}}},
{"geometry": {"type": "Point", "coordinates": [-116.1982484631, 43.6220829187]}, "type": "Feature", "properties": {"collection_times": [{"days": "Mon-Fri", "time": "2:15pm"}, {"days": "Sat", "time": "3:00pm"}, {"days": "Sun", "time": "Closed"}], "id": "8370200050", "name": "USPS COLLECTION BOX - BLUE BOX", "address": {"city": "BOISE", "state": "ID", "street": "888 W FORT ST", "postcode": "83702"}}},
{"geometry": {"type": "Point", "coordinates": [-116.1999149296, 43.619435962]}, "type": "Feature", "properties": {"collection_times": [{"days": "Mon-Fri", "time": "5:00pm"}, {"days": "Sat", "time": "4:30pm"}, {"days": "Sun", "time": "Closed"}], "id": "8370200058", "name": "USPS COLLECTION BOX - BLUE BOX", "address": {"city": "BOISE", "state": "ID", "street": "399 N 8TH ST", "postcode": "83702"}}},
{"geometry": {"type": "Point", "coordinates": [-116.2113355382, 43.6120443289]}, "type": "Feature", "properties": {"collection_times": [{"days": "Mon-Fri", "time": "4:15pm"}, {"days": "Sat", "time": "1:00pm"}, {"days": "Sun", "time": "Closed"}], "id": "8370200060", "name": "USPS COLLECTION BOX - BLUE BOX", "address": {"city": "BOISE", "state": "ID", "street": "1087 W RIVER ST", "postcode": "83702"}}},
{"geometry": {"type": "Point", "coordinates": [-116.2028171481, 43.6163820068]}, "type": "Feature", "properties": {"collection_times": [{"days": "Mon-Fri", "time": "5:00pm"}, {"days": "Sat", "time": "3:00pm"}, {"days": "Sun", "time": "Closed"}], "id": "8370200063", "name": "USPS COLLECTION BOX - BLUE BOX", "address": {"city": "BOISE", "state": "ID", "street": "801 W IDAHO ST", "postcode": "83702"}}},
{"geometry": {"type": "Point", "coordinates": [-116.2053332044, 43.6165454877]}, "type": "Feature", "properties": {"collection_times": [{"days": "Mon-Fri", "time": "4:30pm"}, {"days": "Sat", "time": "1:00pm"}, {"days": "Sun", "time": "Closed"}], "id": "8370200066", "name": "USPS COLLECTION BOX - BLUE BOX", "address": {"city": "BOISE", "state": "ID", "street": "999 W MAIN ST", "postcode": "83702"}}},
{"geometry": {"type": "Point", "coordinates": [-116.2033564799, 43.6296171843]}, "type": "Feature", "properties": {"collection_times": [{"days": "Mon-Fri", "time": "3:45pm"}, {"days": "Sat", "time": "3:15pm"}, {"days": "Sun", "time": "Closed"}], "id": "8370200071", "name": "USPS COLLECTION BOX - BLUE BOX", "address": {"city": "BOISE", "state": "ID", "street": "1507 N 13TH ST", "postcode": "83702"}}},
{"geometry": {"type": "Point", "coordinates": [-116.2118783386, 43.6244818195]}, "type": "Feature", "properties": {"collection_times": [{"days": "Mon-Fri", "time": "4:00pm"}, {"days": "Sat", "time": "3:15pm"}, {"days": "Sun", "time": "Closed"}], "id": "8370200074", "name": "USPS COLLECTION BOX - BLUE BOX", "address": {"city": "BOISE", "state": "ID", "street": "1764 W STATE ST", "postcode": "83702"}}},
{"geometry": {"type": "Point", "coordinates": [-116.2064085838, 43.6274218027]}, "type": "Feature", "properties": {"collection_times": [{"days": "Mon-Fri", "time": "5:00pm"}, {"days": "Sat", "time": "1:00pm"}, {"days": "Sun", "time": "Closed"}], "id": "8370200076", "name": "USPS COLLECTION BOX - BLUE BOX", "address": {"city": "BOISE", "state": "ID", "street": "317 N 9TH ST", "postcode": "83702"}}},
{"geometry": {"type": "Point", "coordinates": [-116.2120997297, 43.6124252417]}, "type": "Feature", "properties": {"collection_times": [{"days": "Mon-Fri", "time": "4:15pm"}, {"days": "Sat-Sun", "time": "Closed"}], "id": "8370200083", "name": "USPS COLLECTION BOX - BLUE BOX", "address": {"city": "BOISE", "state": "ID", "street": "1101 W RIVER ST", "postcode": "83702"}}},
{"geometry": {"type": "Point", "coordinates": [-116.2064085838, 43.6274218027]}, "type": "Feature", "properties": {"collection_times": [{"days": "Mon-Fri", "time": "5:15pm"}, {"days": "Sat-Sun", "time": "Closed"}], "id": "8370200105", "name": "USPS COLLECTION BOX - PO LOBBY", "address": {"city": "BOISE", "state": "ID", "street": "750 W BANNOCK ST", "postcode": "83702"}}},
{"geometry": {"type": "Point", "coordinates": [-116.2064085838, 43.6274218027]}, "type": "Feature", "properties": {"collection_times": [{"days": "Mon-Fri", "time": "5:15pm"}, {"days": "Sat", "time": "3:30pm"}, {"days": "Sun", "time": "Closed"}], "id": "8370200111", "name": "USPS COLLECTION BOX - BLUE BOX", "address": {"city": "BOISE", "state": "ID", "street": "770 S 13TH ST", "postcode": "83702"}}},
{"geometry": {"type": "Point", "coordinates": [-116.2013750237, 43.6123637278]}, "type": "Feature", "properties": {"collection_times": [{"days": "Mon-Fri", "time": "2:45pm"}, {"days": "Sat", "time": "1:00pm"}, {"days": "Sun", "time": "Closed"}], "id": "8370200128", "name": "USPS COLLECTION BOX - BLUE BOX", "address": {"city": "BOISE", "state": "ID", "street": "250 S 5TH ST", "postcode": "83702"}}},
{"geometry": {"type": "Point", "coordinates": [-116.2064085838, 43.6274218027]}, "type": "Feature", "properties": {"collection_times": [{"days": "Mon-Fri", "time": "5:30pm"}, {"days": "Sat", "time": "3:00pm"}, {"days": "Sun", "time": "Closed"}], "id": "8370200133", "name": "USPS COLLECTION BOX - APC", "address": {"city": "BOISE", "state": "ID", "street": "770 S 13TH ST", "postcode": "83702"}}},
{"geometry": {"type": "Point", "coordinates": [-116.2036959892, 43.6180289183]}, "type": "Feature", "properties": {"collection_times": [{"days": "Mon-Fri", "time": "2:30pm"}, {"days": "Sat", "time": "1:00pm"}, {"days": "Sun", "time": "Closed"}], "id": "8370200134", "name": "USPS COLLECTION BOX - BLUE BOX", "address": {"city": "BOISE", "state": "ID", "street": "950 W BANNOCK ST", "postcode": "83702"}}},
{"geometry": {"type": "Point", "coordinates": [-116.2010568077, 43.6117616017]}, "type": "Feature", "properties": {"collection_times": [{"days": "Mon-Fri", "time": "2:30pm"}, {"days": "Sat-Sun", "time": "Closed"}], "id": "8370200135", "name": "USPS COLLECTION BOX - BLUE BOX", "address": {"city": "BOISE", "state": "ID", "street": "401 W FRONT ST", "postcode": "83702"}}},
{"geometry": {"type": "Point", "coordinates": [-116.2064085838, 43.6274218027]}, "type": "Feature", "properties": {"collection_times": [{"days": "Mon-Fri", "time": "5:15pm"}, {"days": "Sat-Sun", "time": "Closed"}], "id": "8370200136", "name": "USPS COLLECTION BOX - PO LOBBY", "address": {"city": "BOISE", "state": "ID", "street": "750 W BANNOCK ST", "postcode": "83702"}}},
{"geometry": {"type": "Point", "coordinates": [-116.2064085838, 43.6274218027]}, "type": "Feature", "properties": {"collection_times": [{"days": "Mon-Fri", "time": "5:30pm"}, {"days": "Sat", "time": "3:00pm"}, {"days": "Sun", "time": "Closed"}], "id": "8370200137", "name": "USPS COLLECTION BOX - PO LOBBY", "address": {"city": "BOISE", "state": "ID", "street": "770 S 13TH ST", "postcode": "83702"}}},
{"geometry": {"type": "Point", "coordinates": [-116.2064085838, 43.6274218027]}, "type": "Feature", "properties": {"collection_times": [{"days": "Mon-Fri", "time": "5:30pm"}, {"days": "Sat", "time": "3:00pm"}, {"days": "Sun", "time": "Closed"}], "id": "8370200138", "name": "USPS COLLECTION BOX - PO LOBBY", "address": {"city": "BOISE", "state": "ID", "street": "770 S 13TH ST", "postcode": "83702"}}},
{"geometry": {"type": "Point", "coordinates": [-116.201441362, 43.6168838435]}, "type": "Feature", "properties": {"collection_times": [{"days": "Mon-Fri", "time": "4:30pm"}, {"days": "Sat-Sun", "time": "Closed"}], "id": "8370200142", "name": "USPS COLLECTION BOX - PO LOBBY", "address": {"city": "BOISE", "state": "ID", "street": "750 W BANNOCK ST", "postcode": "83702"}}},
{"geometry": {"type": "Point", "coordinates": [-116.2401227408, 43.6617641171]}, "type": "Feature", "properties": {"collection_times": [{"days": "Mon-Fri", "time": "4:45pm"}, {"days": "Sat-Sun", "time": "Closed"}], "id": "8370300007", "name": "USPS COLLECTION BOX - BLUE BOX", "address": {"city": "BOISE", "state": "ID", "street": "7154 W STATE ST", "postcode": "83703"}}},
{"geometry": {"type": "Point", "coordinates": [-116.2530819057, 43.6513363381]}, "type": "Feature", "properties": {"collection_times": [{"days": "Mon-Fri", "time": "9:00am"}, {"days": "Sat-Sun", "time": "Closed"}], "id": "8370300009", "name": "USPS COLLECTION BOX - BLUE BOX", "address": {"city": "BOISE", "state": "ID", "street": "3150 N LAKEHARBOR LN", "postcode": "83703"}}},
{"geometry": {"type": "Point", "coordinates": [-116.247020062, 43.648222613]}, "type": "Feature", "properties": {"collection_times": [{"days": "Mon-Fri", "time": "5:15pm"}, {"days": "Sat", "time": "4:45pm"}, {"days": "Sun", "time": "Closed"}], "id": "8370300011", "name": "USPS COLLECTION BOX - BLUE BOX", "address": {"city": "BOISE", "state": "ID", "street": "4650 W STATE ST", "postcode": "83703"}}},
{"geometry": {"type": "Point", "coordinates": [-116.247020062, 43.648222613]}, "type": "Feature", "properties": {"collection_times": [{"days": "Mon-Fri", "time": "5:00pm"}, {"days": "Sat-Sun", "time": "Closed"}], "id": "8370300015", "name": "USPS COLLECTION BOX - PO LOBBY", "address": {"city": "BOISE", "state": "ID", "street": "4650 W STATE ST", "postcode": "83703"}}},
{"geometry": {"type": "Point", "coordinates": [-116.2882268194, 43.6065406335]}, "type": "Feature", "properties": {"collection_times": [{"days": "Mon-Fri", "time": "3:00pm"}, {"days": "Sat-Sun", "time": "Closed"}], "id": "8370400010", "name": "USPS COLLECTION BOX - BLUE BOX", "address": {"city": "BOISE", "state": "ID", "street": "153 N BENJAMIN LN", "postcode": "83704"}}},
{"geometry": {"type": "Point", "coordinates": [-116.2841809683, 43.6107016704]}, "type": "Feature", "properties": {"collection_times": [{"days": "Mon-Fri", "time": "3:00pm"}, {"days": "Sat", "time": "5:15pm"}, {"days": "Sun", "time": "Closed"}], "id": "8370400016", "name": "USPS COLLECTION BOX - BLUE BOX", "address": {"city": "BOISE", "state": "ID", "street": "350 N MILWAUKEE ST", "postcode": "83704"}}},
{"geometry": {"type": "Point", "coordinates": [-116.2567942853, 43.6116835264]}, "type": "Feature", "properties": {"collection_times": [{"days": "Mon-Fri", "time": "4:00pm"}, {"days": "Sat-Sun", "time": "Closed"}], "id": "8370400020", "name": "USPS COLLECTION BOX - BLUE BOX", "address": {"city": "BOISE", "state": "ID", "street": "6060 W EMERALD ST", "postcode": "83704"}}},
{"geometry": {"type": "Point", "coordinates": [-116.2708785947, 43.6108223323]}, "type": "Feature", "properties": {"collection_times": [{"days": "Mon-Fri", "time": "4:15pm"}, {"days": "Sat-Sun", "time": "Closed"}], "id": "8370400023", "name": "USPS COLLECTION BOX - BLUE BOX", "address": {"city": "BOISE", "state": "ID", "street": "7150 W POTOMAC DR", "postcode": "83704"}}},
{"geometry": {"type": "Point", "coordinates": [-116.2793030351, 43.6194813778]}, "type": "Feature", "properties": {"collection_times": [{"days": "Mon-Fri", "time": "2:45pm"}, {"days": "Sat-Sun", "time": "Closed"}], "id": "8370400025", "name": "USPS COLLECTION BOX - BLUE BOX", "address": {"city": "BOISE", "state": "ID", "street": "7736 W FAIRVIEW AVE", "postcode": "83704"}}},
{"geometry": {"type": "Point", "coordinates": [-116.2818197822, 43.6114824234]}, "type": "Feature", "properties": {"collection_times": [{"days": "Mon-Fri", "time": "4:15pm"}, {"days": "Sat-Sun", "time": "Closed"}], "id": "8370400026", "name": "USPS COLLECTION BOX - BLUE BOX", "address": {"city": "BOISE", "state": "ID", "street": "8030 W EMERALD ST", "postcode": "83704"}}},
{"geometry": {"type": "Point", "coordinates": [-116.3006406593, 43.619449652]}, "type": "Feature", "properties": {"collection_times": [{"days": "Mon-Fri", "time": "2:45pm"}, {"days": "Sat-Sun", "time": "Closed"}], "id": "8370400034", "name": "USPS COLLECTION BOX - BLUE BOX", "address": {"city": "BOISE", "state": "ID", "street": "9500 W FAIRVIEW AVE", "postcode": "83704"}}},
{"geometry": {"type": "Point", "coordinates": [-116.2743212955, 43.636544797]}, "type": "Feature", "properties": {"collection_times": [{"days": "Mon-Fri", "time": "4:30pm"}, {"days": "Sat", "time": "5:15pm"}, {"days": "Sun", "time": "Closed"}], "id": "8370400039", "name": "USPS COLLECTION BOX - BLUE BOX", "address": {"city": "BOISE", "state": "ID", "street": "3485 N COLE RD", "postcode": "83704"}}},
{"geometry": {"type": "Point", "coordinates": [-116.2835646466, 43.6195336421]}, "type": "Feature", "properties": {"collection_times": [{"days": "Mon-Fri", "time": "2:45pm"}, {"days": "Sat-Sun", "time": "Closed"}], "id": "8370400066", "name": "USPS COLLECTION BOX - BLUE BOX", "address": {"city": "BOISE", "state": "ID", "street": "8100 W FAIRVIEW AVE", "postcode": "83704"}}},
{"geometry": {"type": "Point", "coordinates": [-116.2917601864, 43.6111713052]}, "type": "Feature", "properties": {"collection_times": [{"days": "Mon-Fri", "time": "4:30pm"}, {"days": "Sat-Sun", "time": "Closed"}], "id": "8370400067", "name": "USPS COLLECTION BOX - BLUE BOX", "address": {"city": "BOISE", "state": "ID", "street": "8850 W EMERALD ST", "postcode": "83704"}}},
{"geometry": {"type": "Point", "coordinates": [-116.2743212955, 43.636544797]}, "type": "Feature", "properties": {"collection_times": [{"days": "Mon-Fri", "time": "5:30pm"}, {"days": "Sat-Sun", "time": "Closed"}], "id": "8370400069", "name": "USPS COLLECTION BOX - APC", "address": {"city": "BOISE", "state": "ID", "street": "3485 N COLE RD", "postcode": "83704"}}},
{"geometry": {"type": "Point", "coordinates": [-116.2743212955, 43.636544797]}, "type": "Feature", "properties": {"collection_times": [{"days": "Mon-Fri", "time": "5:30pm"}, {"days": "Sat-Sun", "time": "Closed"}], "id": "8370400070", "name": "USPS COLLECTION BOX - PO LOBBY", "address": {"city": "BOISE", "state": "ID", "street": "3485 N COLE RD", "postcode": "83704"}}},
{"geometry": {"type": "Point", "coordinates": [-116.2436137565, 43.593243562]}, "type": "Feature", "properties": {"collection_times": [{"days": "Mon-Fri", "time": "3:30pm"}, {"days": "Sat-Sun", "time": "Closed"}], "id": "8370500002", "name": "USPS COLLECTION BOX - BLUE BOX", "address": {"city": "BOISE", "state": "ID", "street": "1203 S ORCHARD ST", "postcode": "83705"}}},
{"geometry": {"type": "Point", "coordinates": [-116.2273688903, 43.5866613062]}, "type": "Feature", "properties": {"collection_times": [{"days": "Mon-Fri", "time": "5:00pm"}, {"days": "Sat", "time": "4:15pm"}, {"days": "Sun", "time": "Closed"}], "id": "8370500005", "name": "USPS COLLECTION BOX - BLUE BOX", "address": {"city": "BOISE", "state": "ID", "street": "1650 W TARGEE ST", "postcode": "83705"}}},
{"geometry": {"type": "Point", "coordinates": [-116.2306707123, 43.5897144534]}, "type": "Feature", "properties": {"collection_times": [{"days": "Mon-Fri", "time": "9:00am"}, {"days": "Sat-Sun", "time": "Closed"}], "id": "8370500017", "name": "USPS COLLECTION BOX - BLUE BOX", "address": {"city": "BOISE", "state": "ID", "street": "3929 W OVERLAND RD", "postcode": "83705"}}},
{"geometry": {"type": "Point", "coordinates": [-116.2435557915, 43.6004643436]}, "type": "Feature", "properties": {"collection_times": [{"days": "Mon-Fri", "time": "3:45pm"}, {"days": "Sat-Sun", "time": "Closed"}], "id": "8370500018", "name": "USPS COLLECTION BOX - BLUE BOX", "address": {"city": "BOISE", "state": "ID", "street": "410 S ORCHARD ST", "postcode": "83705"}}},
{"geometry": {"type": "Point", "coordinates": [-116.2495297343, 43.6030254497]}, "type": "Feature", "properties": {"collection_times": [{"days": "Mon-Fri", "time": "2:30pm"}, {"days": "Sat-Sun", "time": "Closed"}], "id": "8370500023", "name": "USPS COLLECTION BOX - BLUE BOX", "address": {"city": "BOISE", "state": "ID", "street": "5460 W FRANKLIN RD", "postcode": "83705"}}},
{"geometry": {"type": "Point", "coordinates": [-116.2286733476, 43.5958538414]}, "type": "Feature", "properties": {"collection_times": [{"days": "Mon-Fri", "time": "2:30pm"}, {"days": "Sat-Sun", "time": "Closed"}], "id": "8370500026", "name": "USPS COLLECTION BOX - BLUE BOX", "address": {"city": "BOISE", "state": "ID", "street": "913 S LATAH ST", "postcode": "83705"}}},
{"geometry": {"type": "Point", "coordinates": [-116.2273688903, 43.5866613062]}, "type": "Feature", "properties": {"collection_times": [{"days": "Mon-Fri", "time": "5:00pm"}, {"days": "Sat", "time": "4:15pm"}, {"days": "Sun", "time": "Closed"}], "id": "8370500027", "name": "USPS COLLECTION BOX - BLUE BOX", "address": {"city": "BOISE", "state": "ID", "street": "1650 W TARGEE ST", "postcode": "83705"}}},
{"geometry": {"type": "Point", "coordinates": [-116.2472986737, 43.5897822241]}, "type": "Feature", "properties": {"collection_times": [{"days": "Mon-Fri", "time": "3:45pm"}, {"days": "Sat", "time": "1:15pm"}, {"days": "Sun", "time": "Closed"}], "id": "8370500032", "name": "USPS COLLECTION BOX - BLUE BOX", "address": {"city": "BOISE", "state": "ID", "street": "5100 W OVERLAND RD", "postcode": "83705"}}},
{"geometry": {"type": "Point", "coordinates": [-116.2273688903, 43.5866613062]}, "type": "Feature", "properties": {"collection_times": [{"days": "Mon-Fri", "time": "5:00pm"}, {"days": "Sat", "time": "1:45pm"}, {"days": "Sun", "time": "Closed"}], "id": "8370500036", "name": "USPS COLLECTION BOX - BLUE BOX", "address": {"city": "BOISE", "state": "ID", "street": "2625 W APOLLO ST", "postcode": "83705"}}},
{"geometry": {"type": "Point", "coordinates": [-116.2148359137, 43.569373816]}, "type": "Feature", "properties": {"collection_times": [{"days": "Mon-Fri", "time": "1:15pm"}, {"days": "Sat", "time": "1:00pm"}, {"days": "Sun", "time": "Closed"}], "id": "8370500037", "name": "USPS COLLECTION BOX - BLUE BOX", "address": {"city": "BOISE", "state": "ID", "street": "3201 W AIRPORT WAY", "postcode": "83705"}}},
{"geometry": {"type": "Point", "coordinates": [-116.2158012083, 43.5734857814]}, "type": "Feature", "properties": {"collection_times": [{"days": "Mon-Fri", "time": "4:15pm"}, {"days": "Sat-Sun", "time": "Closed"}], "id": "8370500050", "name": "USPS COLLECTION BOX - BLUE BOX", "address": {"city": "BOISE", "state": "ID", "street": "2773 W ELDER ST", "postcode": "83705"}}},
{"geometry": {"type": "Point", "coordinates": [-116.2115780448, 43.5910692835]}, "type": "Feature", "properties": {"collection_times": [{"days": "Mon-Fri", "time": "2:45pm"}, {"days": "Sat-Sun", "time": "Closed"}], "id": "8370500051", "name": "USPS COLLECTION BOX - BLUE BOX", "address": {"city": "BOISE", "state": "ID", "street": "2417 W BANK DR", "postcode": "83705"}}},
{"geometry": {"type": "Point", "coordinates": [-116.2273688903, 43.5866613062]}, "type": "Feature", "properties": {"collection_times": [{"days": "Mon-Fri", "time": "5:00pm"}, {"days": "Sat", "time": "4:00pm"}, {"days": "Sun", "time": "Closed"}], "id": "8370500057", "name": "USPS COLLECTION BOX - PO LOBBY", "address": {"city": "BOISE", "state": "ID", "street": "1650 W TARGEE ST", "postcode": "83705"}}},
{"geometry": {"type": "Point", "coordinates": [-116.2273688903, 43.5866613062]}, "type": "Feature", "properties": {"collection_times": [{"days": "Mon-Fri", "time": "5:00pm"}, {"days": "Sat", "time": "4:00pm"}, {"days": "Sun", "time": "Closed"}], "id": "8370500058", "name": "USPS COLLECTION BOX - PO LOBBY", "address": {"city": "BOISE", "state": "ID", "street": "1650 W TARGEE ST", "postcode": "83705"}}},
{"geometry": {"type": "Point", "coordinates": [-116.2273688903, 43.5866613062]}, "type": "Feature", "properties": {"collection_times": [{"days": "Mon-Fri", "time": "5:00pm"}, {"days": "Sat", "time": "4:00pm"}, {"days": "Sun", "time": "Closed"}], "id": "8370500059", "name": "USPS COLLECTION BOX - PO LOBBY", "address": {"city": "BOISE", "state": "ID", "street": "1650 W TARGEE ST", "postcode": "83705"}}},
{"geometry": {"type": "Point", "coordinates": [-116.2136528689, 43.5675438696]}, "type": "Feature", "properties": {"collection_times": [{"days": "Mon-Fri", "time": "5:00pm"}, {"days": "Sat-Sun", "time": "Closed"}], "id": "8370500060", "name": "USPS COLLECTION BOX - PO LOBBY", "address": {"city": "BOISE", "state": "ID", "street": "2625 W APOLLO ST", "postcode": "83705"}}},
{"geometry": {"type": "Point", "coordinates": [-116.2136528689, 43.5675438696]}, "type": "Feature", "properties": {"collection_times": [{"days": "Mon-Fri", "time": "5:00pm"}, {"days": "Sat-Sun", "time": "Closed"}], "id": "8370500061", "name": "USPS COLLECTION BOX - PO LOBBY", "address": {"city": "BOISE", "state": "ID", "street": "2625 W APOLLO ST", "postcode": "83705"}}},
{"geometry": {"type": "Point", "coordinates": [-116.2273688903, 43.5866613062]}, "type": "Feature", "properties": {"collection_times": [{"days": "Mon-Fri", "time": "5:00pm"}, {"days": "Sat", "time": "4:00pm"}, {"days": "Sun", "time": "Closed"}], "id": "8370500062", "name": "USPS COLLECTION BOX - APC", "address": {"city": "BOISE", "state": "ID", "street": "1650 W TARGEE ST", "postcode": "83705"}}},
{"geometry": {"type": "Point", "coordinates": [-116.1936762356, 43.5981702894]}, "type": "Feature", "properties": {"collection_times": [{"days": "Mon-Fri", "time": "4:30pm"}, {"days": "Sat", "time": "2:45pm"}, {"days": "Sun", "time": "Closed"}], "id": "8370600005", "name": "USPS COLLECTION BOX - BLUE BOX", "address": {"city": "BOISE", "state": "ID", "street": "1217 S BROADWAY AVE", "postcode": "83706"}}},
{"geometry": {"type": "Point", "coordinates": [-116.1796948009, 43.5959806129]}, "type": "Feature", "properties": {"collection_times": [{"days": "Mon-Fri", "time": "3:45pm"}, {"days": "Sat", "time": "1:00pm"}, {"days": "Sun", "time": "Closed"}], "id": "8370600036", "name": "USPS COLLECTION BOX - BLUE BOX", "address": {"city": "BOISE", "state": "ID", "street": "1401 S TYRELL LN", "postcode": "83706"}}},
{"geometry": {"type": "Point", "coordinates": [-116.1777983617, 43.5974442501]}, "type": "Feature", "properties": {"collection_times": [{"days": "Mon-Fri", "time": "4:00pm"}, {"days": "Sat-Sun", "time": "Closed"}], "id": "8370600051", "name": "USPS COLLECTION BOX - BLUE BOX", "address": {"city": "BOISE", "state": "ID", "street": "485 E BAYBROOK CT", "postcode": "83706"}}},
{"geometry": {"type": "Point", "coordinates": [-116.1847248762, 43.5972336826]}, "type": "Feature", "properties": {"collection_times": [{"days": "Mon-Fri", "time": "3:45pm"}, {"days": "Sat-Sun", "time": "Closed"}], "id": "8370600052", "name": "USPS COLLECTION BOX - BLUE BOX", "address": {"city": "BOISE", "state": "ID", "street": "250 W BOBWHITE CT", "postcode": "83706"}}},
{"geometry": {"type": "Point", "coordinates": [-116.1934480157, 43.6018720647]}, "type": "Feature", "properties": {"collection_times": [{"days": "Mon-Fri", "time": "4:45pm"}, {"days": "Sat-Sun", "time": "Closed"}], "id": "8370600056", "name": "USPS COLLECTION BOX - BLUE BOX", "address": {"city": "BOISE", "state": "ID", "street": "960 S BROADWAY AVE", "postcode": "83706"}}},
{"geometry": {"type": "Point", "coordinates": [-116.253689829, 43.6080775387]}, "type": "Feature", "properties": {"collection_times": [{"days": "Mon-Fri", "time": "9:00am"}, {"days": "Sat-Sun", "time": "Closed"}], "id": "8370600062", "name": "USPS COLLECTION BOX - BLUE BOX", "address": {"city": "BOISE", "state": "ID", "street": "415 N CURTIS RD", "postcode": "83706"}}},
{"geometry": {"type": "Point", "coordinates": [-116.2536215893, 43.6131988968]}, "type": "Feature", "properties": {"collection_times": [{"days": "Mon-Fri", "time": "3:45pm"}, {"days": "Sat", "time": "12:15pm"}, {"days": "Sun", "time": "Closed"}], "id": "8370600063", "name": "USPS COLLECTION BOX - BLUE BOX", "address": {"city": "BOISE", "state": "ID", "street": "999 N CURTIS RD", "postcode": "83706"}}},
{"geometry": {"type": "Point", "coordinates": [-116.2434374956, 43.6167465908]}, "type": "Feature", "properties": {"collection_times": [{"days": "Mon-Fri", "time": "3:30pm"}, {"days": "Sat", "time": "1:00pm"}, {"days": "Sun", "time": "Closed"}], "id": "8370600076", "name": "USPS COLLECTION BOX - BLUE BOX", "address": {"city": "BOISE", "state": "ID", "street": "1365 N ORCHARD ST", "postcode": "83706"}}},
{"geometry": {"type": "Point", "coordinates": [-116.1759370836, 43.5796506168]}, "type": "Feature", "properties": {"collection_times": [{"days": "Mon-Sat", "time": "9:00am"}, {"days": "Sun", "time": "Closed"}], "id": "8370600080", "name": "USPS COLLECTION BOX - BLUE BOX", "address": {"city": "BOISE", "state": "ID", "street": "582 E BOISE AVE", "postcode": "83706"}}},
{"geometry": {"type": "Point", "coordinates": [-116.1700644658, 43.5823970113]}, "type": "Feature", "properties": {"collection_times": [{"days": "Mon-Fri", "time": "4:00pm"}, {"days": "Sat", "time": "2:15pm"}, {"days": "Sun", "time": "Closed"}], "id": "8370600081", "name": "USPS COLLECTION BOX - BLUE BOX", "address": {"city": "BOISE", "state": "ID", "street": "1001 E PARKCENTER BLVD", "postcode": "83706"}}},
{"geometry": {"type": "Point", "coordinates": [-116.1937657193, 43.5778594809]}, "type": "Feature", "properties": {"collection_times": [{"days": "Mon-Fri", "time": "2:15pm"}, {"days": "Sat-Sun", "time": "Closed"}], "id": "8370600083", "name": "USPS COLLECTION BOX - BLUE BOX", "address": {"city": "BOISE", "state": "ID", "street": "2721 S BROADWAY AVE", "postcode": "83706"}}},
{"geometry": {"type": "Point", "coordinates": [-116.1750257957, 43.5909533535]}, "type": "Feature", "properties": {"collection_times": [{"days": "Mon-Fri", "time": "4:00pm"}, {"days": "Sat-Sun", "time": "Closed"}], "id": "8370600084", "name": "USPS COLLECTION BOX - BLUE BOX", "address": {"city": "BOISE", "state": "ID", "street": "670 E RIVERPARK LN", "postcode": "83706"}}},
{"geometry": {"type": "Point", "coordinates": [-116.2535399652, 43.6158049554]}, "type": "Feature", "properties": {"collection_times": [{"days": "Mon-Fri", "time": "3:15pm"}, {"days": "Sat-Sun", "time": "Closed"}], "id": "8370600085", "name": "USPS COLLECTION BOX - BLUE BOX", "address": {"city": "BOISE", "state": "ID", "street": "1200 N CURTIS RD", "postcode": "83706"}}},
{"geometry": {"type": "Point", "coordinates": [-116.3142233941, 43.5925870198]}, "type": "Feature", "properties": {"collection_times": [{"days": "Mon-Fri", "time": "5:00pm"}, {"days": "Sat", "time": "5:30pm"}, {"days": "Sun", "time": "Closed"}], "id": "8370900016", "name": "USPS COLLECTION BOX - BLUE BOX", "address": {"city": "BOISE", "state": "ID", "street": "1350 S FIVE MILE RD", "postcode": "83709"}}},
{"geometry": {"type": "Point", "coordinates": [-116.3162438881, 43.5903062749]}, "type": "Feature", "properties": {"collection_times": [{"days": "Mon-Fri", "time": "2:00pm"}, {"days": "Sat-Sun", "time": "Closed"}], "id": "8370900020", "name": "USPS COLLECTION BOX - BLUE BOX", "address": {"city": "BOISE", "state": "ID", "street": "10751 W OVERLAND RD", "postcode": "83709"}}},
{"geometry": {"type": "Point", "coordinates": [-116.2740873665, 43.6032643164]}, "type": "Feature", "properties": {"collection_times": [{"days": "Mon-Fri", "time": "4:00pm"}, {"days": "Sat", "time": "1:00pm"}, {"days": "Sun", "time": "Closed"}], "id": "8370900023", "name": "USPS COLLECTION BOX - BLUE BOX", "address": {"city": "BOISE", "state": "ID", "street": "200 S COLE RD", "postcode": "83709"}}},
{"geometry": {"type": "Point", "coordinates": [-116.3116426614, 43.5903189647]}, "type": "Feature", "properties": {"collection_times": [{"days": "Mon-Sat", "time": "8:30am"}, {"days": "Sun", "time": "Closed"}], "id": "8370900025", "name": "USPS COLLECTION BOX - BLUE BOX", "address": {"city": "BOISE", "state": "ID", "street": "10400 W OVERLAND RD", "postcode": "83709"}}},
{"geometry": {"type": "Point", "coordinates": [-116.2968570333, 43.5933043236]}, "type": "Feature", "properties": {"collection_times": [{"days": "Mon-Fri", "time": "5:00pm"}, {"days": "Sat", "time": "1:00pm"}, {"days": "Sun", "time": "Closed"}], "id": "8370900029", "name": "USPS COLLECTION BOX - BLUE BOX", "address": {"city": "BOISE", "state": "ID", "street": "9196 W BARNES DR", "postcode": "83709"}}},
{"geometry": {"type": "Point", "coordinates": [-116.2741801087, 43.5811416698]}, "type": "Feature", "properties": {"collection_times": [{"days": "Mon-Sat", "time": "8:00pm"}, {"days": "Sun", "time": "Closed"}], "id": "8370900031", "name": "USPS COLLECTION BOX - BLUE BOX", "address": {"city": "BOISE", "state": "ID", "street": "2201 S COLE RD", "postcode": "83709"}}},
{"geometry": {"type": "Point", "coordinates": [-116.2996567468, 43.5720925027]}, "type": "Feature", "properties": {"collection_times": [{"days": "Mon-Sat", "time": "8:00pm"}, {"days": "Sun", "time": "Closed"}], "id": "8370900033", "name": "USPS COLLECTION BOX - EXPRESS", "address": {"city": "BOISE", "state": "ID", "street": "2201 S COLE RD", "postcode": "83709"}}},
{"geometry": {"type": "Point", "coordinates": [-116.3142233941, 43.5925870198]}, "type": "Feature", "properties": {"collection_times": [{"days": "Mon-Fri", "time": "5:00pm"}, {"days": "Sat", "time": "3:00pm"}, {"days": "Sun", "time": "Closed"}], "id": "8370900034", "name": "USPS COLLECTION BOX - APC", "address": {"city": "BOISE", "state": "ID", "street": "1350 S FIVE MILE RD", "postcode": "83709"}}},
{"geometry": {"type": "Point", "coordinates": [-116.3127411466, 43.5464811942]}, "type": "Feature", "properties": {"collection_times": [{"days": "Mon-Fri", "time": "5:15pm"}, {"days": "Sat", "time": "1:00pm"}, {"days": "Sun", "time": "Closed"}], "id": "8370900035", "name": "USPS COLLECTION BOX - BLUE BOX", "address": {"city": "BOISE", "state": "ID", "street": "10565 W LAKE HAZEL RD", "postcode": "83709"}}},
{"geometry": {"type": "Point", "coordinates": [-116.3142233941, 43.5925870198]}, "type": "Feature", "properties": {"collection_times": [{"days": "Mon-Fri", "time": "5:00pm"}, {"days": "Sat", "time": "3:00pm"}, {"days": "Sun", "time": "Closed"}], "id": "8370900036", "name": "USPS COLLECTION BOX - PO LOBBY", "address": {"city": "BOISE", "state": "ID", "street": "1350 S FIVE MILE RD", "postcode": "83709"}}},
{"geometry": {"type": "Point", "coordinates": [-116.3142233941, 43.5925870198]}, "type": "Feature", "properties": {"collection_times": [{"days": "Mon-Fri", "time": "5:00pm"}, {"days": "Sat", "time": "3:00pm"}, {"days": "Sun", "time": "Closed"}], "id": "8370900037", "name": "USPS COLLECTION BOX - PO LOBBY", "address": {"city": "BOISE", "state": "ID", "street": "1350 S FIVE MILE RD", "postcode": "83709"}}},
{"geometry": {"type": "Point", "coordinates": [-116.1896495344, 43.6035707938]}, "type": "Feature", "properties": {"collection_times": [{"days": "Mon-Fri", "time": "5:00pm"}, {"days": "Sat-Sun", "time": "Closed"}], "id": "8371200004", "name": "USPS COLLECTION BOX - BLUE BOX", "address": {"city": "BOISE", "state": "ID", "street": "815 E PARK BLVD", "postcode": "83712"}}},
{"geometry": {"type": "Point", "coordinates": [-116.1903116645, 43.6038735907]}, "type": "Feature", "properties": {"collection_times": [{"days": "Mon-Fri", "time": "2:45pm"}, {"days": "Sat-Sun", "time": "Closed"}], "id": "8371200008", "name": "USPS COLLECTION BOX - BLUE BOX", "address": {"city": "BOISE", "state": "ID", "street": "815 E PARK BLVD", "postcode": "83712"}}},
{"geometry": {"type": "Point", "coordinates": [-116.189962805, 43.6037852243]}, "type": "Feature", "properties": {"collection_times": [{"days": "Mon-Fri", "time": "5:00pm"}, {"days": "Sat", "time": "1:00pm"}, {"days": "Sun", "time": "Closed"}], "id": "8371200009", "name": "USPS COLLECTION BOX - BLUE BOX", "address": {"city": "BOISE", "state": "ID", "street": "800 E PARK BLVD", "postcode": "83712"}}},
{"geometry": {"type": "Point", "coordinates": [-116.3144150691, 43.6355822305]}, "type": "Feature", "properties": {"collection_times": [{"days": "Mon-Fri", "time": "3:15pm"}, {"days": "Sat-Sun", "time": "Closed"}], "id": "8371300000", "name": "USPS COLLECTION BOX - BLUE BOX", "address": {"city": "BOISE", "state": "ID", "street": "3355 N FIVE MILE RD", "postcode": "83713"}}},
{"geometry": {"type": "Point", "coordinates": [-116.3156587674, 43.6099777202]}, "type": "Feature", "properties": {"collection_times": [{"days": "Mon-Fri", "time": "4:45pm"}, {"days": "Sat", "time": "1:00pm"}, {"days": "Sun", "time": "Closed"}], "id": "8371300001", "name": "USPS COLLECTION BOX - BLUE BOX", "address": {"city": "BOISE", "state": "ID", "street": "10688 W EXECUTIVE DR", "postcode": "83713"}}},
{"geometry": {"type": "Point", "coordinates": [-116.3355568761, 43.6595318506]}, "type": "Feature", "properties": {"collection_times": [{"days": "Mon-Fri", "time": "3:45pm"}, {"days": "Sat", "time": "1:00pm"}, {"days": "Sun", "time": "Closed"}], "id": "8371300003", "name": "USPS COLLECTION BOX - BLUE BOX", "address": {"city": "BOISE", "state": "ID", "street": "12302 W EXPLORER DR", "postcode": "83713"}}},
{"geometry": {"type": "Point", "coordinates": [-116.238889289, 43.6215533127]}, "type": "Feature", "properties": {"collection_times": [{"days": "Mon-Fri", "time": "2:00pm"}, {"days": "Sat-Sun", "time": "Closed"}], "id": "8371400000", "name": "USPS COLLECTION BOX - BLUE BOX", "address": {"city": "BOISE", "state": "ID", "street": "100 W 33RD ST", "postcode": "83714"}}},
{"geometry": {"type": "Point", "coordinates": [-116.2752910316, 43.6467275028]}, "type": "Feature", "properties": {"collection_times": [{"days": "Mon-Fri", "time": "2:15pm"}, {"days": "Sat-Sun", "time": "Closed"}], "id": "8371400004", "name": "USPS COLLECTION BOX - BLUE BOX", "address": {"city": "BOISE", "state": "ID", "street": "5425 W CHINDEN BLVD", "postcode": "83714"}}},
{"geometry": {"type": "Point", "coordinates": [-116.2778882693, 43.6694206259]}, "type": "Feature", "properties": {"collection_times": [{"days": "Mon-Fri", "time": "4:45pm"}, {"days": "Sat", "time": "5:00pm"}, {"days": "Sun", "time": "Closed"}], "id": "8371400005", "name": "USPS COLLECTION BOX - BLUE BOX", "address": {"city": "BOISE", "state": "ID", "street": "8100 W MARIGOLD ST", "postcode": "83714"}}},
{"geometry": {"type": "Point", "coordinates": [-116.2778882693, 43.6694206259]}, "type": "Feature", "properties": {"collection_times": [{"days": "Mon-Fri", "time": "4:45pm"}, {"days": "Sat", "time": "3:30pm"}, {"days": "Sun", "time": "Closed"}], "id": "8371400007", "name": "USPS COLLECTION BOX - PO LOBBY", "address": {"city": "BOISE", "state": "ID", "street": "8100 W MARIGOLD ST", "postcode": "83714"}}},
{"geometry": {"type": "Point", "coordinates": [-116.2510013352, 43.6309480131]}, "type": "Feature", "properties": {"collection_times": [{"days": "Mon-Fri", "time": "2:00pm"}, {"days": "Sat-Sun", "time": "Closed"}], "id": "8371400008", "name": "USPS COLLECTION BOX - BLUE BOX", "address": {"city": "BOISE", "state": "ID", "street": "4168 W CHINDEN BLVD", "postcode": "83714"}}},
{"geometry": {"type": "Point", "coordinates": [-116.2778882693, 43.6694206259]}, "type": "Feature", "properties": {"collection_times": [{"days": "Mon-Fri", "time": "4:45pm"}, {"days": "Sat", "time": "3:30pm"}, {"days": "Sun", "time": "Closed"}], "id": "8371400009", "name": "USPS COLLECTION BOX - PO LOBBY", "address": {"city": "BOISE", "state": "ID", "street": "8100 W MARIGOLD ST", "postcode": "83714"}}},
{"geometry": {"type": "Point", "coordinates": [-116.2778882693, 43.6694206259]}, "type": "Feature", "properties": {"collection_times": [{"days": "Mon-Fri", "time": "4:45pm"}, {"days": "Sat", "time": "3:30pm"}, {"days": "Sun", "time": "Closed"}], "id": "8371400010", "name": "USPS COLLECTION BOX - APC", "address": {"city": "BOISE", "state": "ID", "street": "8100 W MARIGOLD ST", "postcode": "83714"}}},
{"geometry": {"type": "Point", "coordinates": [-116.155029286, 43.5467365073]}, "type": "Feature", "properties": {"collection_times": [{"days": "Mon-Fri", "time": "4:45pm"}, {"days": "Sat", "time": "2:00pm"}, {"days": "Sun", "time": "Closed"}], "id": "8371600001", "name": "USPS COLLECTION BOX - BLUE BOX", "address": {"city": "BOISE", "state": "ID", "street": "2208 E SUMMERSWEET DR", "postcode": "83716"}}},
{"geometry": {"type": "Point", "coordinates": [-116.155029286, 43.5467365073]}, "type": "Feature", "properties": {"collection_times": [{"days": "Mon-Fri", "time": "5:00pm"}, {"days": "Sat-Sun", "time": "Closed"}], "id": "8371600002", "name": "USPS COLLECTION BOX - PO LOBBY", "address": {"city": "BOISE", "state": "ID", "street": "2208 E SUMMERSWEET DR", "postcode": "83716"}}},
{"geometry": {"type": "Point", "coordinates": [-116.155029286, 43.5467365073]}, "type": "Feature", "properties": {"collection_times": [{"days": "Mon-Fri", "time": "5:00pm"}, {"days": "Sat-Sun", "time": "Closed"}], "id": "8371600003", "name": "USPS COLLECTION BOX - PO LOBBY", "address": {"city": "BOISE", "state": "ID", "street": "2208 E SUMMERSWEET DR", "postcode": "83716"}}}
]}
