{"type": "FeatureCollection", "features": [
{"geometry": {"type": "Point", "coordinates": [-116.7046814768, 47.9477935875]}, "type": "Feature", "properties": {"collection_times": [{"days": "Mon-Fri", "time": "4:45pm"}, {"days": "Sat", "time": "1:30pm"}, {"days": "Sun", "time": "Closed"}], "id": "8380100003", "name": "USPS COLLECTION BOX - PO LOBBY", "address": {"city": "ATHOL", "state": "ID", "street": "5900 E HIGHWAY 54", "postcode": "83801"}}},
{"geometry": {"type": "Point", "coordinates": [-116.7046814768, 47.9477935875]}, "type": "Feature", "properties": {"collection_times": [{"days": "Mon-Fri", "time": "4:45pm"}, {"days": "Sat", "time": "1:30pm"}, {"days": "Sun", "time": "Closed"}], "id": "8380100004", "name": "USPS COLLECTION BOX - BLUE BOX", "address": {"city": "ATHOL", "state": "ID", "street": "5900 E HIGHWAY 54", "postcode": "83801"}}},
{"geometry": {"type": "Point", "coordinates": [-115.8484194168, 47.2688971512]}, "type": "Feature", "properties": {"collection_times": [{"days": "Mon-Sat", "time": "2:30pm"}, {"days": "Sun", "time": "Closed"}], "id": "8380200001", "name": "USPS COLLECTION BOX - BLUE BOX", "address": {"city": "AVERY", "state": "ID", "street": "10 DEPOT RD", "postcode": "83802"}}},
{"geometry": {"type": "Point", "coordinates": [-115.8484194168, 47.2688971512]}, "type": "Feature", "properties": {"collection_times": [{"days": "Mon-Sat", "time": "2:30pm"}, {"days": "Sun", "time": "Closed"}], "id": "8380200002", "name": "USPS COLLECTION BOX - PO LOBBY", "address": {"city": "AVERY", "state": "ID", "street": "10 DEPOT RD", "postcode": "83802"}}},
{"geometry": {"type": "Point", "coordinates": [-116.5657973624, 47.9840146081]}, "type": "Feature", "properties": {"collection_times": [{"days": "Mon-Fri", "time": "4:45pm"}, {"days": "Sat", "time": "10:00am"}, {"days": "Sun", "time": "Closed"}], "id": "8380300001", "name": "USPS COLLECTION BOX - PO LOBBY", "address": {"city": "BAYVIEW", "state": "ID", "street": "20157 E PERIMETER RD", "postcode": "83803"}}},
{"geometry": {"type": "Point", "coordinates": [-116.5657973624, 47.9840146081]}, "type": "Feature", "properties": {"collection_times": [{"days": "Mon-Fri", "time": "4:45pm"}, {"days": "Sat", "time": "10:00am"}, {"days": "Sun", "time": "Closed"}], "id": "8380300002", "name": "USPS COLLECTION BOX - BLUE BOX", "address": {"city": "BAYVIEW", "state": "ID", "street": "20157 E PERIMETER RD", "postcode": "83803"}}},
{"geometry": {"type": "Point", "coordinates": [-116.9833240595, 48.0161107011]}, "type": "Feature", "properties": {"collection_times": [{"days": "Mon-Fri", "time": "4:15pm"}, {"days": "Sat", "time": "10:15am"}, {"days": "Sun", "time": "Closed"}], "id": "8380400001", "name": "USPS COLLECTION BOX - BLUE BOX", "address": {"city": "BLANCHARD", "state": "ID", "street": "425 RAILROAD AVE", "postcode": "83804"}}},
{"geometry": {"type": "Point", "coordinates": [-116.9833240595, 48.0161107011]}, "type": "Feature", "properties": {"collection_times": [{"days": "Mon-Fri", "time": "4:30pm"}, {"days": "Sat", "time": "10:30am"}, {"days": "Sun", "time": "Closed"}], "id": "8380400002", "name": "USPS COLLECTION BOX - PO LOBBY", "address": {"city": "BLANCHARD", "state": "ID", "street": "425 RAILROAD AVE", "postcode": "83804"}}},
{"geometry": {"type": "Point", "coordinates": [-116.3131123635, 48.6962533713]}, "type": "Feature", "properties": {"collection_times": [{"days": "Mon-Fri", "time": "4:00pm"}, {"days": "Sat", "time": "3:45pm"}, {"days": "Sun", "time": "Closed"}], "id": "8380500001", "name": "USPS COLLECTION BOX - BLUE BOX", "address": {"city": "BONNERS FERRY", "state": "ID", "street": "7167 1ST ST", "postcode": "83805"}}},
{"geometry": {"type": "Point", "coordinates": [-116.2991787962, 48.7323991797]}, "type": "Feature", "properties": {"collection_times": [{"days": "Mon-Sat", "time": "11:30am"}, {"days": "Sun", "time": "Closed"}], "id": "8380500002", "name": "USPS COLLECTION BOX - BLUE BOX", "address": {"city": "BONNERS FERRY", "state": "ID", "street": "3000 HIGHWAY 1", "postcode": "83805"}}},
{"geometry": {"type": "Point", "coordinates": [-116.3161525002, 48.688654159]}, "type": "Feature", "properties": {"collection_times": [{"days": "Mon-Sat", "time": "11:00am"}, {"days": "Sun", "time": "Closed"}], "id": "8380500005", "name": "USPS COLLECTION BOX - BLUE BOX", "address": {"city": "BONNERS FERRY", "state": "ID", "street": "6723 MAIN ST", "postcode": "83805"}}},
{"geometry": {"type": "Point", "coordinates": [-116.3131123635, 48.6962533713]}, "type": "Feature", "properties": {"collection_times": [{"days": "Mon-Fri", "time": "4:00pm"}, {"days": "Sat", "time": "3:45pm"}, {"days": "Sun", "time": "Closed"}], "id": "8380500006", "name": "USPS COLLECTION BOX - PO LOBBY", "address": {"city": "BONNERS FERRY", "state": "ID", "street": "7167 1ST ST", "postcode": "83805"}}},
{"geometry": {"type": "Point", "coordinates": [-116.3161635287, 48.6893520638]}, "type": "Feature", "properties": {"collection_times": [{"days": "Mon-Sat", "time": "11:00am"}, {"days": "Sun", "time": "Closed"}], "id": "8380500009", "name": "USPS COLLECTION BOX - BLUE BOX", "address": {"city": "BONNERS FERRY", "state": "ID", "street": "6519 MAIN ST", "postcode": "83805"}}},
{"geometry": {"type": "Point", "coordinates": [-116.3966252697, 46.8602923864]}, "type": "Feature", "properties": {"collection_times": [{"days": "Mon-Fri", "time": "3:30pm"}, {"days": "Sat", "time": "10:15am"}, {"days": "Sun", "time": "Closed"}], "id": "8380600001", "name": "USPS COLLECTION BOX - BLUE BOX", "address": {"city": "BOVILL", "state": "ID", "street": "202 MAIN ST", "postcode": "83806"}}},
{"geometry": {"type": "Point", "coordinates": [-116.3966252697, 46.8602923864]}, "type": "Feature", "properties": {"collection_times": [{"days": "Mon-Fri", "time": "4:00pm"}, {"days": "Sat", "time": "10:15am"}, {"days": "Sun", "time": "Closed"}], "id": "8380600002", "name": "USPS COLLECTION BOX - PO LOBBY", "address": {"city": "BOVILL", "state": "ID", "street": "202 MAIN ST", "postcode": "83806"}}},
{"geometry": {"type": "Point", "coordinates": [-116.2145599768, 47.2542161796]}, "type": "Feature", "properties": {"collection_times": [{"days": "Mon-Fri", "time": "3:00pm"}, {"days": "Sat", "time": "12:30pm"}, {"days": "Sun", "time": "Closed"}], "id": "8380800001", "name": "USPS COLLECTION BOX - BLUE BOX", "address": {"city": "CALDER", "state": "ID", "street": "36 RAILROAD ST", "postcode": "83808"}}},
{"geometry": {"type": "Point", "coordinates": [-116.2145599768, 47.2542161796]}, "type": "Feature", "properties": {"collection_times": [{"days": "Mon-Fri", "time": "3:00pm"}, {"days": "Sat", "time": "12:30pm"}, {"days": "Sun", "time": "Closed"}], "id": "8380800002", "name": "USPS COLLECTION BOX - PO LOBBY", "address": {"city": "CALDER", "state": "ID", "street": "36 RAILROAD ST", "postcode": "83808"}}},
{"geometry": {"type": "Point", "coordinates": [-116.3302453904, 47.5488454084]}, "type": "Feature", "properties": {"collection_times": [{"days": "Mon-Fri", "time": "4:45pm"}, {"days": "Sat", "time": "2:00pm"}, {"days": "Sun", "time": "Closed"}], "id": "8381000001", "name": "USPS COLLECTION BOX - BLUE BOX", "address": {"city": "CATALDO", "state": "ID", "street": "36180 E CANYON RD", "postcode": "83810"}}},
{"geometry": {"type": "Point", "coordinates": [-116.3302453904, 47.5488454084]}, "type": "Feature", "properties": {"collection_times": [{"days": "Mon-Fri", "time": "4:45pm"}, {"days": "Sat", "time": "2:00pm"}, {"days": "Sun", "time": "Closed"}], "id": "8381000002", "name": "USPS COLLECTION BOX - PO LOBBY", "address": {"city": "CATALDO", "state": "ID", "street": "36180 E CANYON RD", "postcode": "83810"}}},
{"geometry": {"type": "Point", "coordinates": [-116.1784355269, 48.1458234496]}, "type": "Feature", "properties": {"collection_times": [{"days": "Mon-Fri", "time": "3:45pm"}, {"days": "Sat", "time": "4:00pm"}, {"days": "Sun", "time": "Closed"}], "id": "8381100001", "name": "USPS COLLECTION BOX - BLUE BOX", "address": {"city": "CLARK FORK", "state": "ID", "street": "302 MAIN ST", "postcode": "83811"}}},
{"geometry": {"type": "Point", "coordinates": [-116.1784355269, 48.1458234496]}, "type": "Feature", "properties": {"collection_times": [{"days": "Mon-Fri", "time": "3:45pm"}, {"days": "Sat", "time": "12:00pm"}, {"days": "Sun", "time": "Closed"}], "id": "8381100002", "name": "USPS COLLECTION BOX - PO LOBBY", "address": {"city": "CLARK FORK", "state": "ID", "street": "302 MAIN ST", "postcode": "83811"}}},
{"geometry": {"type": "Point", "coordinates": [-116.2526043887, 47.0114835262]}, "type": "Feature", "properties": {"collection_times": [{"days": "Mon-Fri", "time": "2:45pm"}, {"days": "Sat", "time": "2:15pm"}, {"days": "Sun", "time": "Closed"}], "id": "8381200002", "name": "USPS COLLECTION BOX - PO LOBBY", "address": {"city": "CLARKIA", "state": "ID", "street": "179 CEDAR ST", "postcode": "83812"}}},
{"geometry": {"type": "Point", "coordinates": [-116.6462370872, 48.0432590818]}, "type": "Feature", "properties": {"collection_times": [{"days": "Mon-Fri", "time": "4:30pm"}, {"days": "Sat", "time": "10:00am"}, {"days": "Sun", "time": "Closed"}], "id": "8381300001", "name": "USPS COLLECTION BOX - BLUE BOX", "address": {"city": "COCOLALLA", "state": "ID", "street": "31 COCOLALLA LOOP RD", "postcode": "83813"}}},
{"geometry": {"type": "Point", "coordinates": [-116.6462370872, 48.0432590818]}, "type": "Feature", "properties": {"collection_times": [{"days": "Mon-Fri", "time": "4:30pm"}, {"days": "Sat", "time": "10:00am"}, {"days": "Sun", "time": "Closed"}], "id": "8381300002", "name": "USPS COLLECTION BOX - PO LOBBY", "address": {"city": "COCOLALLA", "state": "ID", "street": "31 COCOLALLA LOOP RD", "postcode": "83813"}}},
{"geometry": {"type": "Point", "coordinates": [-116.8021738569, 47.6972677209]}, "type": "Feature", "properties": {"collection_times": [{"days": "Mon-Fri", "time": "4:30pm"}, {"days": "Sat", "time": "2:45pm"}, {"days": "Sun", "time": "Closed"}], "id": "8381400005", "name": "USPS COLLECTION BOX - BLUE BOX", "address": {"city": "COEUR D ALENE", "state": "ID", "street": "1201 W IRONWOOD DR", "postcode": "83814"}}},
{"geometry": {"type": "Point", "coordinates": [-116.7689103197, 47.6733890446]}, "type": "Feature", "properties": {"collection_times": [{"days": "Mon-Fri", "time": "4:30pm"}, {"days": "Sat", "time": "2:45pm"}, {"days": "Sun", "time": "Closed"}], "id": "8381400008", "name": "USPS COLLECTION BOX - BLUE BOX", "address": {"city": "COEUR D ALENE", "state": "ID", "street": "1215 E SHERMAN AVE", "postcode": "83814"}}},
{"geometry": {"type": "Point", "coordinates": [-116.7839030557, 47.6735127219]}, "type": "Feature", "properties": {"collection_times": [{"days": "Mon-Fri", "time": "4:30pm"}, {"days": "Sat-Sun", "time": "Closed"}], "id": "8381400013", "name": "USPS COLLECTION BOX - BLUE BOX", "address": {"city": "COEUR D ALENE", "state": "ID", "street": "201 E SHERMAN AVE", "postcode": "83814"}}},
{"geometry": {"type": "Point", "coordinates": [-116.7811033024, 47.6735561629]}, "type": "Feature", "properties": {"collection_times": [{"days": "Mon-Fri", "time": "4:30pm"}, {"days": "Sat-Sun", "time": "Closed"}], "id": "8381400018", "name": "USPS COLLECTION BOX - BLUE BOX", "address": {"city": "COEUR D ALENE", "state": "ID", "street": "102 N 4TH ST", "postcode": "83814"}}},
{"geometry": {"type": "Point", "coordinates": [-116.7927835286, 47.6944558274]}, "type": "Feature", "properties": {"collection_times": [{"days": "Mon-Fri", "time": "4:30pm"}, {"days": "Sat", "time": "2:45pm"}, {"days": "Sun", "time": "Closed"}], "id": "8381400022", "name": "USPS COLLECTION BOX - BLUE BOX", "address": {"city": "COEUR D ALENE", "state": "ID", "street": "700 W IRONWOOD DR", "postcode": "83814"}}},
{"geometry": {"type": "Point", "coordinates": [-116.8033924229, 47.6939601164]}, "type": "Feature", "properties": {"collection_times": [{"days": "Mon-Fri", "time": "4:30pm"}, {"days": "Sat-Sun", "time": "Closed"}], "id": "8381400038", "name": "USPS COLLECTION BOX - BLUE BOX", "address": {"city": "COEUR D ALENE", "state": "ID", "street": "1910 NORTHWEST BLVD", "postcode": "83814"}}},
{"geometry": {"type": "Point", "coordinates": [-116.7767934723, 47.6739764418]}, "type": "Feature", "properties": {"collection_times": [{"days": "Mon-Fri", "time": "5:30pm"}, {"days": "Sat", "time": "2:45pm"}, {"days": "Sun", "time": "Closed"}], "id": "8381400043", "name": "USPS COLLECTION BOX - BLUE BOX", "address": {"city": "COEUR D ALENE", "state": "ID", "street": "111 N 7TH ST", "postcode": "83814"}}},
{"geometry": {"type": "Point", "coordinates": [-116.7924700445, 47.6828876717]}, "type": "Feature", "properties": {"collection_times": [{"days": "Mon-Fri", "time": "4:30pm"}, {"days": "Sat-Sun", "time": "Closed"}], "id": "8381400048", "name": "USPS COLLECTION BOX - BLUE BOX", "address": {"city": "COEUR D ALENE", "state": "ID", "street": "610 W HUBBARD ST", "postcode": "83814"}}},
{"geometry": {"type": "Point", "coordinates": [-116.7767934723, 47.6739764418]}, "type": "Feature", "properties": {"collection_times": [{"days": "Mon-Fri", "time": "5:30pm"}, {"days": "Sat", "time": "2:45pm"}, {"days": "Sun", "time": "Closed"}], "id": "8381400056", "name": "USPS COLLECTION BOX - PO LOBBY", "address": {"city": "COEUR D ALENE", "state": "ID", "street": "111 N 7TH ST", "postcode": "83814"}}},
{"geometry": {"type": "Point", "coordinates": [-116.8019278014, 47.6957405208]}, "type": "Feature", "properties": {"collection_times": [{"days": "Mon-Fri", "time": "4:30pm"}, {"days": "Sat-Sun", "time": "Closed"}], "id": "8381400062", "name": "USPS COLLECTION BOX - BLUE BOX", "address": {"city": "COEUR D ALENE", "state": "ID", "street": "2005 IRONWOOD PKWY", "postcode": "83814"}}},
{"geometry": {"type": "Point", "coordinates": [-116.7811408465, 47.6745359814]}, "type": "Feature", "properties": {"collection_times": [{"days": "Mon-Sat", "time": "12:00pm"}, {"days": "Sun", "time": "Closed"}], "id": "8381400065", "name": "USPS COLLECTION BOX - BLUE BOX", "address": {"city": "COEUR D ALENE", "state": "ID", "street": "205 N 4TH ST", "postcode": "83814"}}},
{"geometry": {"type": "Point", "coordinates": [-116.7924132625, 47.700751535]}, "type": "Feature", "properties": {"collection_times": [{"days": "Mon-Fri", "time": "4:15pm"}, {"days": "Sat", "time": "2:45pm"}, {"days": "Sun", "time": "Closed"}], "id": "8381400069", "name": "USPS COLLECTION BOX - BLUE BOX", "address": {"city": "COEUR D ALENE", "state": "ID", "street": "501 W APPLEWAY AVE", "postcode": "83814"}}},
{"geometry": {"type": "Point", "coordinates": [-116.7868274535, 47.674768356]}, "type": "Feature", "properties": {"collection_times": [{"days": "Mon-Fri", "time": "4:15pm"}, {"days": "Sat", "time": "2:45pm"}, {"days": "Sun", "time": "Closed"}], "id": "8381400070", "name": "USPS COLLECTION BOX - BLUE BOX", "address": {"city": "COEUR D ALENE", "state": "ID", "street": "111 E BEST AVE", "postcode": "83814"}}},
{"geometry": {"type": "Point", "coordinates": [-116.7926190973, 47.6751771451]}, "type": "Feature", "properties": {"collection_times": [{"days": "Mon-Sat", "time": "12:00pm"}, {"days": "Sun", "time": "Closed"}], "id": "8381400073", "name": "USPS COLLECTION BOX - BLUE BOX", "address": {"city": "COEUR D ALENE", "state": "ID", "street": "310 MILITARY DR", "postcode": "83814"}}},
{"geometry": {"type": "Point", "coordinates": [-116.7988379701, 47.7154969764]}, "type": "Feature", "properties": {"collection_times": [{"days": "Mon-Sat", "time": "5:00pm"}, {"days": "Sun", "time": "Closed"}], "id": "8381500000", "name": "USPS COLLECTION BOX - BLUE BOX", "address": {"city": "DALTON GARDENS", "state": "ID", "street": "3845 N SCHREIBER WAY", "postcode": "83815"}}},
{"geometry": {"type": "Point", "coordinates": [-116.7651389606, 47.7227451081]}, "type": "Feature", "properties": {"collection_times": [{"days": "Mon-Fri", "time": "4:15pm"}, {"days": "Sat", "time": "2:45pm"}, {"days": "Sun", "time": "Closed"}], "id": "8381500002", "name": "USPS COLLECTION BOX - BLUE BOX", "address": {"city": "DALTON GARDENS", "state": "ID", "street": "5632 N 15TH ST", "postcode": "83815"}}},
{"geometry": {"type": "Point", "coordinates": [-116.7897669833, 47.729925669]}, "type": "Feature", "properties": {"collection_times": [{"days": "Mon-Fri", "time": "11:15am"}, {"days": "Sat-Sun", "time": "Closed"}], "id": "8381500010", "name": "USPS COLLECTION BOX - BLUE BOX", "address": {"city": "DALTON GARDENS", "state": "ID", "street": "200 W HANLEY AVE", "postcode": "83815"}}},
{"geometry": {"type": "Point", "coordinates": [-116.7897669833, 47.729925669]}, "type": "Feature", "properties": {"collection_times": [{"days": "Mon-Fri", "time": "4:15pm"}, {"days": "Sat-Sun", "time": "Closed"}], "id": "8381500011", "name": "USPS COLLECTION BOX - BLUE BOX", "address": {"city": "DALTON GARDENS", "state": "ID", "street": "200 E HANLEY AVE", "postcode": "83815"}}},
{"geometry": {"type": "Point", "coordinates": [-116.7903324377, 47.7154107625]}, "type": "Feature", "properties": {"collection_times": [{"days": "Mon-Fri", "time": "4:15pm"}, {"days": "Sat", "time": "2:45pm"}, {"days": "Sun", "time": "Closed"}], "id": "8381500012", "name": "USPS COLLECTION BOX - BLUE BOX", "address": {"city": "DALTON GARDENS", "state": "ID", "street": "305 W KATHLEEN AVE", "postcode": "83815"}}},
{"geometry": {"type": "Point", "coordinates": [-116.7876790607, 47.7072400649]}, "type": "Feature", "properties": {"collection_times": [{"days": "Mon-Fri", "time": "4:15pm"}, {"days": "Sat", "time": "2:45pm"}, {"days": "Sun", "time": "Closed"}], "id": "8381500013", "name": "USPS COLLECTION BOX - BLUE BOX", "address": {"city": "DALTON GARDENS", "state": "ID", "street": "121 W NEIDER AVE", "postcode": "83815"}}},
{"geometry": {"type": "Point", "coordinates": [-116.7946265787, 47.7154509831]}, "type": "Feature", "properties": {"collection_times": [{"days": "Mon-Fri", "time": "4:15pm"}, {"days": "Sat", "time": "2:45pm"}, {"days": "Sun", "time": "Closed"}], "id": "8381500016", "name": "USPS COLLECTION BOX - BLUE BOX", "address": {"city": "DALTON GARDENS", "state": "ID", "street": "560 W KATHLEEN AVE", "postcode": "83815"}}},
{"geometry": {"type": "Point", "coordinates": [-116.8476198309, 48.4811323968]}, "type": "Feature", "properties": {"collection_times": [{"days": "Mon-Fri", "time": "2:00pm"}, {"days": "Sat", "time": "12:00pm"}, {"days": "Sun", "time": "Closed"}], "id": "8382100002", "name": "USPS COLLECTION BOX - PO LOBBY", "address": {"city": "COOLIN", "state": "ID", "street": "367 BAY VIEW DR", "postcode": "83821"}}},
{"geometry": {"type": "Point", "coordinates": [-116.5607968227, 46.7998968215]}, "type": "Feature", "properties": {"collection_times": [{"days": "Mon-Fri", "time": "4:00pm"}, {"days": "Sat", "time": "10:30am"}, {"days": "Sun", "time": "Closed"}], "id": "8382300001", "name": "USPS COLLECTION BOX - BLUE BOX", "address": {"city": "DEARY", "state": "ID", "street": "409 MAIN ST", "postcode": "83823"}}},
{"geometry": {"type": "Point", "coordinates": [-116.5607968227, 46.7998968215]}, "type": "Feature", "properties": {"collection_times": [{"days": "Mon-Fri", "time": "4:15pm"}, {"days": "Sat", "time": "2:15pm"}, {"days": "Sun", "time": "Closed"}], "id": "8382300002", "name": "USPS COLLECTION BOX - PO LOBBY", "address": {"city": "DEARY", "state": "ID", "street": "409 MAIN ST", "postcode": "83823"}}},
{"geometry": {"type": "Point", "coordinates": [-116.907895959, 47.1125227111]}, "type": "Feature", "properties": {"collection_times": [{"days": "Mon-Fri", "time": "1:30pm"}, {"days": "Sat", "time": "11:15am"}, {"days": "Sun", "time": "Closed"}], "id": "8382400001", "name": "USPS COLLECTION BOX - PO LOBBY", "address": {"city": "DESMET", "state": "ID", "street": "111 BYRNES AVE", "postcode": "83824"}}},
{"geometry": {"type": "Point", "coordinates": [-116.606705165, 48.251510645]}, "type": "Feature", "properties": {"collection_times": [{"days": "Mon-Fri", "time": "4:00pm"}, {"days": "Sat", "time": "12:15pm"}, {"days": "Sun", "time": "Closed"}], "id": "8382500001", "name": "USPS COLLECTION BOX - BLUE BOX", "address": {"city": "DOVER", "state": "ID", "street": "304 JACKSON AVE", "postcode": "83825"}}},
{"geometry": {"type": "Point", "coordinates": [-116.601057591, 48.24422894]}, "type": "Feature", "properties": {"collection_times": [{"days": "Mon-Fri", "time": "4:00pm"}, {"days": "Sat", "time": "12:15pm"}, {"days": "Sun", "time": "Closed"}], "id": "8382500002", "name": "USPS COLLECTION BOX - PO LOBBY", "address": {"city": "DOVER", "state": "ID", "street": "304 JACKSON AVE", "postcode": "83825"}}},
{"geometry": {"type": "Point", "coordinates": [-116.185065917, 48.997008254]}, "type": "Feature", "properties": {"collection_times": [{"days": "Mon-Fri", "time": "1:00pm"}, {"days": "Sat", "time": "12:00pm"}, {"days": "Sun", "time": "Closed"}], "id": "8382600001", "name": "USPS COLLECTION BOX - BLUE BOX", "address": {"city": "EASTPORT", "state": "ID", "street": "100 E FERRY AVE", "postcode": "83826"}}},
{"geometry": {"type": "Point", "coordinates": [-116.185065917, 48.997008254]}, "type": "Feature", "properties": {"collection_times": [{"days": "Mon-Fri", "time": "1:00pm"}, {"days": "Sat", "time": "11:00am"}, {"days": "Sun", "time": "Closed"}], "id": "8382600002", "name": "USPS COLLECTION BOX - PO LOBBY", "address": {"city": "EASTPORT", "state": "ID", "street": "100 E FERRY AVE", "postcode": "83826"}}},
{"geometry": {"type": "Point", "coordinates": [-116.1817074667, 46.7819813443]}, "type": "Feature", "properties": {"collection_times": [{"days": "Mon-Fri", "time": "2:30pm"}, {"days": "Sat", "time": "2:00pm"}, {"days": "Sun", "time": "Closed"}], "id": "8382700001", "name": "USPS COLLECTION BOX - BLUE BOX", "address": {"city": "ELK RIVER", "state": "ID", "street": "202 MAIN ST", "postcode": "83827"}}},
{"geometry": {"type": "Point", "coordinates": [-116.1817074667, 46.7819813443]}, "type": "Feature", "properties": {"collection_times": [{"days": "Mon-Fri", "time": "2:30pm"}, {"days": "Sat", "time": "10:30am"}, {"days": "Sun", "time": "Closed"}], "id": "8382700002", "name": "USPS COLLECTION BOX - PO LOBBY", "address": {"city": "ELK RIVER", "state": "ID", "street": "202 MAIN ST", "postcode": "83827"}}},
{"geometry": {"type": "Point", "coordinates": [-116.3673254584, 47.0990986204]}, "type": "Feature", "properties": {"collection_times": [{"days": "Mon-Fri", "time": "3:00pm"}, {"days": "Sat", "time": "12:45pm"}, {"days": "Sun", "time": "Closed"}], "id": "8383000002", "name": "USPS COLLECTION BOX - PO LOBBY", "address": {"city": "FERNWOOD", "state": "ID", "street": "64127 HIGHWAY 3 S", "postcode": "83830"}}},
{"geometry": {"type": "Point", "coordinates": [-116.9284527515, 46.5506175823]}, "type": "Feature", "properties": {"collection_times": [{"days": "Mon-Fri", "time": "4:30pm"}, {"days": "Sat", "time": "12:00pm"}, {"days": "Sun", "time": "Closed"}], "id": "8383200002", "name": "USPS COLLECTION BOX - PO LOBBY", "address": {"city": "GENESEE", "state": "ID", "street": "110 W WALNUT ST", "postcode": "83832"}}},
{"geometry": {"type": "Point", "coordinates": [-116.9284527515, 46.5506175823]}, "type": "Feature", "properties": {"collection_times": [{"days": "Mon-Fri", "time": "4:30pm"}, {"days": "Sat", "time": "12:00pm"}, {"days": "Sun", "time": "Closed"}], "id": "8383200003", "name": "USPS COLLECTION BOX - BLUE BOX", "address": {"city": "GENESEE", "state": "ID", "street": "110 W WALNUT ST", "postcode": "83832"}}},
{"geometry": {"type": "Point", "coordinates": [-116.7860146374, 47.4539460743]}, "type": "Feature", "properties": {"collection_times": [{"days": "Mon-Fri", "time": "4:00pm"}, {"days": "Sat", "time": "11:30am"}, {"days": "Sun", "time": "Closed"}], "id": "8383300000", "name": "USPS COLLECTION BOX - BLUE BOX", "address": {"city": "HARRISON", "state": "ID", "street": "103 S COEUR DALENE AVE", "postcode": "83833"}}},
{"geometry": {"type": "Point", "coordinates": [-116.7860146374, 47.4539460743]}, "type": "Feature", "properties": {"collection_times": [{"days": "Mon-Fri", "time": "4:00pm"}, {"days": "Sat", "time": "11:30am"}, {"days": "Sun", "time": "Closed"}], "id": "8383300001", "name": "USPS COLLECTION BOX - PO LOBBY", "address": {"city": "HARRISON", "state": "ID", "street": "103 S COEUR DALENE AVE", "postcode": "83833"}}},
{"geometry": {"type": "Point", "coordinates": [-116.6080904304, 46.9704996205]}, "type": "Feature", "properties": {"collection_times": [{"days": "Mon-Fri", "time": "1:45pm"}, {"days": "Sat", "time": "11:45am"}, {"days": "Sun", "time": "Closed"}], "id": "8383400002", "name": "USPS COLLECTION BOX - PO LOBBY", "address": {"city": "HARVARD", "state": "ID", "street": "4011 HIGHWAY 6", "postcode": "83834"}}},
{"geometry": {"type": "Point", "coordinates": [-116.7884018486, 47.7517749211]}, "type": "Feature", "properties": {"collection_times": [{"days": "Mon-Fri", "time": "4:30pm"}, {"days": "Sat", "time": "3:15pm"}, {"days": "Sun", "time": "Closed"}], "id": "8383500001", "name": "USPS COLLECTION BOX - BLUE BOX", "address": {"city": "HAYDEN", "state": "ID", "street": "109 W HONEYSUCKLE AVE", "postcode": "83835"}}},
{"geometry": {"type": "Point", "coordinates": [-116.7884018486, 47.7517749211]}, "type": "Feature", "properties": {"collection_times": [{"days": "Mon-Fri", "time": "4:30pm"}, {"days": "Sat", "time": "3:15pm"}, {"days": "Sun", "time": "Closed"}], "id": "8383500002", "name": "USPS COLLECTION BOX - BLUE BOX", "address": {"city": "HAYDEN", "state": "ID", "street": "109 W HONEYSUCKLE AVE", "postcode": "83835"}}},
{"geometry": {"type": "Point", "coordinates": [-116.7884018486, 47.7517749211]}, "type": "Feature", "properties": {"collection_times": [{"days": "Mon-Fri", "time": "5:15pm"}, {"days": "Sat", "time": "3:00pm"}, {"days": "Sun", "time": "Closed"}], "id": "8383500003", "name": "USPS COLLECTION BOX - PO LOBBY", "address": {"city": "HAYDEN", "state": "ID", "street": "109 W HONEYSUCKLE AVE", "postcode": "83835"}}},
{"geometry": {"type": "Point", "coordinates": [-116.7849962655, 47.7445406849]}, "type": "Feature", "properties": {"collection_times": [{"days": "Mon-Sat", "time": "12:00pm"}, {"days": "Sun", "time": "Closed"}], "id": "8383500004", "name": "USPS COLLECTION BOX - BLUE BOX", "address": {"city": "HAYDEN", "state": "ID", "street": "197 W PRAIRIE AVE", "postcode": "83835"}}},
{"geometry": {"type": "Point", "coordinates": [-116.7884018486, 47.7517749211]}, "type": "Feature", "properties": {"collection_times": [{"days": "Mon-Fri", "time": "5:15pm"}, {"days": "Sat", "time": "3:00pm"}, {"days": "Sun", "time": "Closed"}], "id": "8383500006", "name": "USPS COLLECTION BOX - APC", "address": {"city": "HAYDEN", "state": "ID", "street": "109 W HONEYSUCKLE AVE", "postcode": "83835"}}},
{"geometry": {"type": "Point", "coordinates": [-116.2996767072, 48.2420510304]}, "type": "Feature", "properties": {"collection_times": [{"days": "Mon-Sat", "time": "4:00pm"}, {"days": "Sun", "time": "Closed"}], "id": "8383600001", "name": "USPS COLLECTION BOX - BLUE BOX", "address": {"city": "HOPE", "state": "ID", "street": "626 WELLINGTON PL", "postcode": "83836"}}},
{"geometry": {"type": "Point", "coordinates": [-116.2996767072, 48.2420510304]}, "type": "Feature", "properties": {"collection_times": [{"days": "Mon-Fri", "time": "4:00pm"}, {"days": "Sat", "time": "11:30am"}, {"days": "Sun", "time": "Closed"}], "id": "8383600002", "name": "USPS COLLECTION BOX - PO LOBBY", "address": {"city": "HOPE", "state": "ID", "street": "626 WELLINGTON PL", "postcode": "83836"}}},
{"geometry": {"type": "Point", "coordinates": [-116.1232565948, 47.540865188]}, "type": "Feature", "properties": {"collection_times": [{"days": "Mon-Sat", "time": "3:00pm"}, {"days": "Sun", "time": "Closed"}], "id": "8383700002", "name": "USPS COLLECTION BOX - BLUE BOX", "address": {"city": "KELLOGG", "state": "ID", "street": "207 W CAMERON AVE", "postcode": "83837"}}},
{"geometry": {"type": "Point", "coordinates": [-116.1212879213, 47.5346744741]}, "type": "Feature", "properties": {"collection_times": [{"days": "Mon-Fri", "time": "5:00pm"}, {"days": "Sat", "time": "4:00pm"}, {"days": "Sun", "time": "Closed"}], "id": "8383700003", "name": "USPS COLLECTION BOX - BLUE BOX", "address": {"city": "KELLOGG", "state": "ID", "street": "302 S DIVISION ST", "postcode": "83837"}}},
{"geometry": {"type": "Point", "coordinates": [-116.1228904306, 47.5375428988]}, "type": "Feature", "properties": {"collection_times": [{"days": "Mon-Sat", "time": "10:00am"}, {"days": "Sun", "time": "Closed"}], "id": "8383700004", "name": "USPS COLLECTION BOX - BLUE BOX", "address": {"city": "KELLOGG", "state": "ID", "street": "401 BUNKER AVE", "postcode": "83837"}}},
{"geometry": {"type": "Point", "coordinates": [-116.1212879213, 47.5346744741]}, "type": "Feature", "properties": {"collection_times": [{"days": "Mon-Fri", "time": "5:00pm"}, {"days": "Sat", "time": "4:00pm"}, {"days": "Sun", "time": "Closed"}], "id": "8383700009", "name": "USPS COLLECTION BOX - PO LOBBY", "address": {"city": "KELLOGG", "state": "ID", "street": "302 S DIVISION ST", "postcode": "83837"}}},
{"geometry": {"type": "Point", "coordinates": [-116.2344469043, 47.5621458134]}, "type": "Feature", "properties": {"collection_times": [{"days": "Mon-Fri", "time": "5:15pm"}, {"days": "Sat", "time": "9:45am"}, {"days": "Sun", "time": "Closed"}], "id": "8383900002", "name": "USPS COLLECTION BOX - PO LOBBY", "address": {"city": "KINGSTON", "state": "ID", "street": "43051 SILVER VALLEY RD", "postcode": "83839"}}},
{"geometry": {"type": "Point", "coordinates": [-116.2344469043, 47.5621458134]}, "type": "Feature", "properties": {"collection_times": [{"days": "Mon-Fri", "time": "5:15pm"}, {"days": "Sat", "time": "9:45am"}, {"days": "Sun", "time": "Closed"}], "id": "8383900003", "name": "USPS COLLECTION BOX - BLUE BOX", "address": {"city": "KINGSTON", "state": "ID", "street": "43051 SILVER VALLEY RD", "postcode": "83839"}}},
{"geometry": {"type": "Point", "coordinates": [-116.5518102945, 48.2741082306]}, "type": "Feature", "properties": {"collection_times": [{"days": "Mon-Fri", "time": "3:00pm"}, {"days": "Sat", "time": "4:00pm"}, {"days": "Sun", "time": "Closed"}], "id": "8384000000", "name": "USPS COLLECTION BOX - BLUE BOX", "address": {"city": "KOOTENAI", "state": "ID", "street": "109 1ST ST", "postcode": "83840"}}},
{"geometry": {"type": "Point", "coordinates": [-116.7559316357, 48.1700129959]}, "type": "Feature", "properties": {"collection_times": [{"days": "Mon-Fri", "time": "4:00pm"}, {"days": "Sat", "time": "10:00am"}, {"days": "Sun", "time": "Closed"}], "id": "8384100001", "name": "USPS COLLECTION BOX - BLUE BOX", "address": {"city": "LACLEDE", "state": "ID", "street": "163 RILEY CREEK PARK RD", "postcode": "83841"}}},
{"geometry": {"type": "Point", "coordinates": [-116.7559316357, 48.1700129959]}, "type": "Feature", "properties": {"collection_times": [{"days": "Mon-Fri", "time": "4:00pm"}, {"days": "Sat", "time": "10:00am"}, {"days": "Sun", "time": "Closed"}], "id": "8384100002", "name": "USPS COLLECTION BOX - PO LOBBY", "address": {"city": "LACLEDE", "state": "ID", "street": "163 RILEY CREEK PARK RD", "postcode": "83841"}}},
{"geometry": {"type": "Point", "coordinates": [-117.0012853481, 46.7336367987]}, "type": "Feature", "properties": {"collection_times": [{"days": "Mon-Sat", "time": "5:00pm"}, {"days": "Sun", "time": "Closed"}], "id": "8384300001", "name": "USPS COLLECTION BOX - BLUE BOX", "address": {"city": "MOSCOW", "state": "ID", "street": "104 S MAIN ST", "postcode": "83843"}}},
{"geometry": {"type": "Point", "coordinates": [-117.001280464, 46.7316081191]}, "type": "Feature", "properties": {"collection_times": [{"days": "Mon-Sat", "time": "5:00pm"}, {"days": "Sun", "time": "Closed"}], "id": "8384300003", "name": "USPS COLLECTION BOX - BLUE BOX", "address": {"city": "MOSCOW", "state": "ID", "street": "414 S MAIN ST", "postcode": "83843"}}},
{"geometry": {"type": "Point", "coordinates": [-116.9996703023, 46.7311152906]}, "type": "Feature", "properties": {"collection_times": [{"days": "Mon-Sat", "time": "5:15pm"}, {"days": "Sun", "time": "Closed"}], "id": "8384300004", "name": "USPS COLLECTION BOX - BLUE BOX", "address": {"city": "MOSCOW", "state": "ID", "street": "220 E 5TH ST", "postcode": "83843"}}},
{"geometry": {"type": "Point", "coordinates": [-117.0012680232, 46.7300008763]}, "type": "Feature", "properties": {"collection_times": [{"days": "Mon-Fri", "time": "5:00pm"}, {"days": "Sat", "time": "4:15pm"}, {"days": "Sun", "time": "Closed"}], "id": "8384300005", "name": "USPS COLLECTION BOX - BLUE BOX", "address": {"city": "MOSCOW", "state": "ID", "street": "608 S MAIN ST", "postcode": "83843"}}},
{"geometry": {"type": "Point", "coordinates": [-117.0125988956, 46.7297845439]}, "type": "Feature", "properties": {"collection_times": [{"days": "Mon-Fri", "time": "4:00pm"}, {"days": "Sat", "time": "4:15pm"}, {"days": "Sun", "time": "Closed"}], "id": "8384300006", "name": "USPS COLLECTION BOX - BLUE BOX", "address": {"city": "MOSCOW", "state": "ID", "street": "1020 W 6TH ST", "postcode": "83843"}}},
{"geometry": {"type": "Point", "coordinates": [-116.9969870941, 46.7308484783]}, "type": "Feature", "properties": {"collection_times": [{"days": "Mon-Fri", "time": "4:30pm"}, {"days": "Sat-Sun", "time": "Closed"}], "id": "8384300009", "name": "USPS COLLECTION BOX - BLUE BOX", "address": {"city": "MOSCOW", "state": "ID", "street": "522 S ADAMS ST", "postcode": "83843"}}},
{"geometry": {"type": "Point", "coordinates": [-117.0273177115, 46.7326185054]}, "type": "Feature", "properties": {"collection_times": [{"days": "Mon-Fri", "time": "4:30pm"}, {"days": "Sat", "time": "4:15pm"}, {"days": "Sun", "time": "Closed"}], "id": "8384300014", "name": "USPS COLLECTION BOX - BLUE BOX", "address": {"city": "MOSCOW", "state": "ID", "street": "1810 W PULLMAN RD", "postcode": "83843"}}},
{"geometry": {"type": "Point", "coordinates": [-117.0015365614, 46.7376022554]}, "type": "Feature", "properties": {"collection_times": [{"days": "Mon-Sat", "time": "5:00pm"}, {"days": "Sun", "time": "Closed"}], "id": "8384300016", "name": "USPS COLLECTION BOX - BLUE BOX", "address": {"city": "MOSCOW", "state": "ID", "street": "411 N MAIN ST", "postcode": "83843"}}},
{"geometry": {"type": "Point", "coordinates": [-117.0069243247, 46.7294592959]}, "type": "Feature", "properties": {"collection_times": [{"days": "Mon-Sat", "time": "4:15pm"}, {"days": "Sun", "time": "Closed"}], "id": "8384300018", "name": "USPS COLLECTION BOX - BLUE BOX", "address": {"city": "MOSCOW", "state": "ID", "street": "631 S DEAKIN ST", "postcode": "83843"}}},
{"geometry": {"type": "Point", "coordinates": [-117.0067744511, 46.7282780151]}, "type": "Feature", "properties": {"collection_times": [{"days": "Mon-Sat", "time": "5:00pm"}, {"days": "Sun", "time": "Closed"}], "id": "8384300019", "name": "USPS COLLECTION BOX - PO LOBBY", "address": {"city": "MOSCOW", "state": "ID", "street": "704 S DEAKIN ST", "postcode": "83843"}}},
{"geometry": {"type": "Point", "coordinates": [-116.9856474712, 46.7214258724]}, "type": "Feature", "properties": {"collection_times": [{"days": "Mon-Fri", "time": "4:00pm"}, {"days": "Sat", "time": "4:15pm"}, {"days": "Sun", "time": "Closed"}], "id": "8384300033", "name": "USPS COLLECTION BOX - BLUE BOX", "address": {"city": "MOSCOW", "state": "ID", "street": "1420 S BLAINE ST", "postcode": "83843"}}},
{"geometry": {"type": "Point", "coordinates": [-117.0015365614, 46.7376022554]}, "type": "Feature", "properties": {"collection_times": [{"days": "Mon-Sat", "time": "5:00pm"}, {"days": "Sun", "time": "Closed"}], "id": "8384300036", "name": "USPS COLLECTION BOX - BLUE BOX", "address": {"city": "MOSCOW", "state": "ID", "street": "411 N MAIN ST", "postcode": "83843"}}},
{"geometry": {"type": "Point", "coordinates": [-116.9996703023, 46.7311152906]}, "type": "Feature", "properties": {"collection_times": [{"days": "Mon-Sat", "time": "5:15pm"}, {"days": "Sun", "time": "Closed"}], "id": "8384300038", "name": "USPS COLLECTION BOX - PO LOBBY", "address": {"city": "MOSCOW", "state": "ID", "street": "220 E 5TH ST", "postcode": "83843"}}},
{"geometry": {"type": "Point", "coordinates": [-116.9473809953, 46.7273990425]}, "type": "Feature", "properties": {"collection_times": [{"days": "Mon-Fri", "time": "4:00pm"}, {"days": "Sat", "time": "4:15pm"}, {"days": "Sun", "time": "Closed"}], "id": "8384300039", "name": "USPS COLLECTION BOX - BLUE BOX", "address": {"city": "MOSCOW", "state": "ID", "street": "482 NORTHWOOD DR", "postcode": "83843"}}},
{"geometry": {"type": "Point", "coordinates": [-116.1666084827, 48.8519940643]}, "type": "Feature", "properties": {"collection_times": [{"days": "Mon-Sat", "time": "2:45pm"}, {"days": "Sun", "time": "Closed"}], "id": "8384500001", "name": "USPS COLLECTION BOX - BLUE BOX", "address": {"city": "MOYIE SPRINGS", "state": "ID", "street": "3197 ROOSEVELT RD", "postcode": "83845"}}},
{"geometry": {"type": "Point", "coordinates": [-116.1666084827, 48.8519940643]}, "type": "Feature", "properties": {"collection_times": [{"days": "Mon-Sat", "time": "2:45pm"}, {"days": "Sun", "time": "Closed"}], "id": "8384500003", "name": "USPS COLLECTION BOX - PO LOBBY", "address": {"city": "MOYIE SPRINGS", "state": "ID", "street": "3197 ROOSEVELT RD", "postcode": "83845"}}},
{"geometry": {"type": "Point", "coordinates": [-115.8006286221, 47.4705107162]}, "type": "Feature", "properties": {"collection_times": [{"days": "Mon-Fri", "time": "3:45pm"}, {"days": "Sat", "time": "10:30am"}, {"days": "Sun", "time": "Closed"}], "id": "8384600001", "name": "USPS COLLECTION BOX - BLUE BOX", "address": {"city": "MULLAN", "state": "ID", "street": "237 EARLE AVE", "postcode": "83846"}}},
{"geometry": {"type": "Point", "coordinates": [-115.8005764197, 47.4705267198]}, "type": "Feature", "properties": {"collection_times": [{"days": "Mon-Fri", "time": "3:45pm"}, {"days": "Sat", "time": "10:00am"}, {"days": "Sun", "time": "Closed"}], "id": "8384600002", "name": "USPS COLLECTION BOX - PO LOBBY", "address": {"city": "MULLAN", "state": "ID", "street": "237 EARLE AVE", "postcode": "83846"}}},
{"geometry": {"type": "Point", "coordinates": [-116.1819273867, 48.5973140884]}, "type": "Feature", "properties": {"collection_times": [{"days": "Mon-Fri", "time": "2:45pm"}, {"days": "Sat", "time": "11:00am"}, {"days": "Sun", "time": "Closed"}], "id": "8384700002", "name": "USPS COLLECTION BOX - PO LOBBY", "address": {"city": "NAPLES", "state": "ID", "street": "100 HIGHWAY 95", "postcode": "83847"}}},
{"geometry": {"type": "Point", "coordinates": [-116.9472280063, 48.6295919217]}, "type": "Feature", "properties": {"collection_times": [{"days": "Mon-Sat", "time": "1:30pm"}, {"days": "Sun", "time": "Closed"}], "id": "8384800002", "name": "USPS COLLECTION BOX - PO LOBBY", "address": {"city": "NORDMAN", "state": "ID", "street": "36442 HIGHWAY 57", "postcode": "83848"}}},
{"geometry": {"type": "Point", "coordinates": [-115.9983392305, 47.5055317366]}, "type": "Feature", "properties": {"collection_times": [{"days": "Mon-Fri", "time": "4:45pm"}, {"days": "Sat", "time": "11:00am"}, {"days": "Sun", "time": "Closed"}], "id": "8384900001", "name": "USPS COLLECTION BOX - BLUE BOX", "address": {"city": "OSBURN", "state": "ID", "street": "107 N 4TH ST", "postcode": "83849"}}},
{"geometry": {"type": "Point", "coordinates": [-115.9983392305, 47.5055317366]}, "type": "Feature", "properties": {"collection_times": [{"days": "Mon-Fri", "time": "4:45pm"}, {"days": "Sat", "time": "11:00am"}, {"days": "Sun", "time": "Closed"}], "id": "8384900002", "name": "USPS COLLECTION BOX - PO LOBBY", "address": {"city": "OSBURN", "state": "ID", "street": "107 N 4TH ST", "postcode": "83849"}}},
{"geometry": {"type": "Point", "coordinates": [-116.2752033435, 47.4790653533]}, "type": "Feature", "properties": {"collection_times": [{"days": "Mon-Fri", "time": "5:00pm"}, {"days": "Sat", "time": "11:00am"}, {"days": "Sun", "time": "Closed"}], "id": "8385000001", "name": "USPS COLLECTION BOX - PO LOBBY", "address": {"city": "PINEHURST", "state": "ID", "street": "9 MAIN ST", "postcode": "83850"}}},
{"geometry": {"type": "Point", "coordinates": [-116.9114763373, 47.3016334586]}, "type": "Feature", "properties": {"collection_times": [{"days": "Mon-Fri", "time": "4:30pm"}, {"days": "Sat", "time": "10:00am"}, {"days": "Sun", "time": "Closed"}], "id": "8385100001", "name": "USPS COLLECTION BOX - BLUE BOX", "address": {"city": "PLUMMER", "state": "ID", "street": "235 10TH ST", "postcode": "83851"}}},
{"geometry": {"type": "Point", "coordinates": [-116.9114763373, 47.3016334586]}, "type": "Feature", "properties": {"collection_times": [{"days": "Mon-Fri", "time": "4:30pm"}, {"days": "Sat", "time": "10:00am"}, {"days": "Sun", "time": "Closed"}], "id": "8385100002", "name": "USPS COLLECTION BOX - PO LOBBY", "address": {"city": "PLUMMER", "state": "ID", "street": "235 10TH ST", "postcode": "83851"}}},
{"geometry": {"type": "Point", "coordinates": [-116.5310060233, 48.3042620574]}, "type": "Feature", "properties": {"collection_times": [{"days": "Mon-Fri", "time": "4:30pm"}, {"days": "Sat", "time": "10:45am"}, {"days": "Sun", "time": "Closed"}], "id": "8385200001", "name": "USPS COLLECTION BOX - BLUE BOX", "address": {"city": "PONDERAY", "state": "ID", "street": "296 4TH ST", "postcode": "83852"}}},
{"geometry": {"type": "Point", "coordinates": [-116.5310060233, 48.3042620574]}, "type": "Feature", "properties": {"collection_times": [{"days": "Mon-Fri", "time": "4:30pm"}, {"days": "Sat", "time": "10:45am"}, {"days": "Sun", "time": "Closed"}], "id": "8385200002", "name": "USPS COLLECTION BOX - PO LOBBY", "address": {"city": "PONDERAY", "state": "ID", "street": "296 4TH ST", "postcode": "83852"}}},
{"geometry": {"type": "Point", "coordinates": [-116.545998285, 48.3011086955]}, "type": "Feature", "properties": {"collection_times": [{"days": "Mon-Sat", "time": "12:00pm"}, {"days": "Sun", "time": "Closed"}], "id": "8385200003", "name": "USPS COLLECTION BOX - BLUE BOX", "address": {"city": "PONDERAY", "state": "ID", "street": "212 BONNER MALL WAY", "postcode": "83852"}}},
{"geometry": {"type": "Point", "coordinates": [-116.42852961, 48.9726258438]}, "type": "Feature", "properties": {"collection_times": [{"days": "Mon-Fri", "time": "1:00pm"}, {"days": "Sat", "time": "12:00pm"}, {"days": "Sun", "time": "Closed"}], "id": "8385300001", "name": "USPS COLLECTION BOX - PO LOBBY", "address": {"city": "PORTHILL", "state": "ID", "street": "3329 PORTHILL LOOP RD", "postcode": "83853"}}},
{"geometry": {"type": "Point", "coordinates": [-116.42852961, 48.9726258438]}, "type": "Feature", "properties": {"collection_times": [{"days": "Mon-Fri", "time": "1:00pm"}, {"days": "Sat", "time": "12:00pm"}, {"days": "Sun", "time": "Closed"}], "id": "8385300002", "name": "USPS COLLECTION BOX - BLUE BOX", "address": {"city": "PORTHILL", "state": "ID", "street": "3329 PORTHILL LOOP RD", "postcode": "83853"}}},
{"geometry": {"type": "Point", "coordinates": [-117.0097216414, 47.7025863044]}, "type": "Feature", "properties": {"collection_times": [{"days": "Mon-Fri", "time": "9:30am"}, {"days": "Sat", "time": "9:00am"}, {"days": "Sun", "time": "Closed"}], "id": "8385400001", "name": "USPS COLLECTION BOX - BLUE BOX", "address": {"city": "POST FALLS", "state": "ID", "street": "315 S CLEARWATER LOOP", "postcode": "83854"}}},
{"geometry": {"type": "Point", "coordinates": [-116.9156894162, 47.709630825]}, "type": "Feature", "properties": {"collection_times": [{"days": "Mon-Fri", "time": "5:00pm"}, {"days": "Sat", "time": "2:00pm"}, {"days": "Sun", "time": "Closed"}], "id": "8385400002", "name": "USPS COLLECTION BOX - BLUE BOX", "address": {"city": "POST FALLS", "state": "ID", "street": "405 N GREENSFERRY RD", "postcode": "83854"}}},
{"geometry": {"type": "Point", "coordinates": [-116.9259622319, 47.7110527417]}, "type": "Feature", "properties": {"collection_times": [{"days": "Mon-Sat", "time": "12:00pm"}, {"days": "Sun", "time": "Closed"}], "id": "8385400009", "name": "USPS COLLECTION BOX - BLUE BOX", "address": {"city": "POST FALLS", "state": "ID", "street": "1501 E SELTICE WAY", "postcode": "83854"}}},
{"geometry": {"type": "Point", "coordinates": [-116.9156894162, 47.709630825]}, "type": "Feature", "properties": {"collection_times": [{"days": "Mon-Fri", "time": "5:00pm"}, {"days": "Sat", "time": "2:00pm"}, {"days": "Sun", "time": "Closed"}], "id": "8385400010", "name": "USPS COLLECTION BOX - PO LOBBY", "address": {"city": "POST FALLS", "state": "ID", "street": "405 N GREENSFERRY RD", "postcode": "83854"}}},
{"geometry": {"type": "Point", "coordinates": [-116.944266634, 47.715077148]}, "type": "Feature", "properties": {"collection_times": [{"days": "Mon-Sat", "time": "12:30pm"}, {"days": "Sun", "time": "Closed"}], "id": "8385400011", "name": "USPS COLLECTION BOX - BLUE BOX", "address": {"city": "POST FALLS", "state": "ID", "street": "317 E SELTICE WAY", "postcode": "83854"}}},
{"geometry": {"type": "Point", "coordinates": [-116.9363699049, 47.7145637639]}, "type": "Feature", "properties": {"collection_times": [{"days": "Mon-Sat", "time": "11:30am"}, {"days": "Sun", "time": "Closed"}], "id": "8385400013", "name": "USPS COLLECTION BOX - BLUE BOX", "address": {"city": "POST FALLS", "state": "ID", "street": "805 E POLSTON AVE", "postcode": "83854"}}},
{"geometry": {"type": "Point", "coordinates": [-116.9968238398, 47.711851239]}, "type": "Feature", "properties": {"collection_times": [{"days": "Mon-Sat", "time": "10:00am"}, {"days": "Sun", "time": "Closed"}], "id": "8385400015", "name": "USPS COLLECTION BOX - BLUE BOX", "address": {"city": "POST FALLS", "state": "ID", "street": "3636 W 5TH AVE", "postcode": "83854"}}},
{"geometry": {"type": "Point", "coordinates": [-116.9156894162, 47.709630825]}, "type": "Feature", "properties": {"collection_times": [{"days": "Mon-Fri", "time": "5:00pm"}, {"days": "Sat", "time": "2:00pm"}, {"days": "Sun", "time": "Closed"}], "id": "8385400016", "name": "USPS COLLECTION BOX - APC", "address": {"city": "POST FALLS", "state": "ID", "street": "405 N GREENSFERRY RD", "postcode": "83854"}}},
{"geometry": {"type": "Point", "coordinates": [-116.9156894162, 47.709630825]}, "type": "Feature", "properties": {"collection_times": [{"days": "Mon-Fri", "time": "5:00pm"}, {"days": "Sat", "time": "2:00pm"}, {"days": "Sun", "time": "Closed"}], "id": "8385400017", "name": "USPS COLLECTION BOX - PO LOBBY", "address": {"city": "POST FALLS", "state": "ID", "street": "405 N GREENSFERRY RD", "postcode": "83854"}}},
{"geometry": {"type": "Point", "coordinates": [-116.9004360972, 46.9204566067]}, "type": "Feature", "properties": {"collection_times": [{"days": "Mon-Fri", "time": "4:00pm"}, {"days": "Sat", "time": "11:00am"}, {"days": "Sun", "time": "Closed"}], "id": "8385500002", "name": "USPS COLLECTION BOX - PO LOBBY", "address": {"city": "POTLATCH", "state": "ID", "street": "535 PINE ST", "postcode": "83855"}}},
{"geometry": {"type": "Point", "coordinates": [-116.9211699101, 48.1806849435]}, "type": "Feature", "properties": {"collection_times": [{"days": "Mon-Sat", "time": "1:00pm"}, {"days": "Sun", "time": "Closed"}], "id": "8385600002", "name": "USPS COLLECTION BOX - BLUE BOX", "address": {"city": "PRIEST RIVER", "state": "ID", "street": "1206 HIGHWAY 2", "postcode": "83856"}}},
{"geometry": {"type": "Point", "coordinates": [-116.9175925065, 48.1806799935]}, "type": "Feature", "properties": {"collection_times": [{"days": "Mon-Sat", "time": "1:00pm"}, {"days": "Sun", "time": "Closed"}], "id": "8385600003", "name": "USPS COLLECTION BOX - BLUE BOX", "address": {"city": "PRIEST RIVER", "state": "ID", "street": "1002 HIGHWAY 2", "postcode": "83856"}}},
{"geometry": {"type": "Point", "coordinates": [-116.8953483109, 48.2361256865]}, "type": "Feature", "properties": {"collection_times": [{"days": "Mon-Fri", "time": "5:00pm"}, {"days": "Sat", "time": "11:00am"}, {"days": "Sun", "time": "Closed"}], "id": "8385600004", "name": "USPS COLLECTION BOX - PO LOBBY", "address": {"city": "PRIEST RIVER", "state": "ID", "street": "43 TREAT ST", "postcode": "83856"}}},
{"geometry": {"type": "Point", "coordinates": [-116.8953483109, 48.2361256865]}, "type": "Feature", "properties": {"collection_times": [{"days": "Mon-Fri", "time": "4:45pm"}, {"days": "Sat", "time": "11:00am"}, {"days": "Sun", "time": "Closed"}], "id": "8385600005", "name": "USPS COLLECTION BOX - BLUE BOX", "address": {"city": "PRIEST RIVER", "state": "ID", "street": "43 TREAT ST", "postcode": "83856"}}},
{"geometry": {"type": "Point", "coordinates": [-116.7642544813, 46.9218119679]}, "type": "Feature", "properties": {"collection_times": [{"days": "Mon-Fri", "time": "4:00pm"}, {"days": "Sat", "time": "12:00pm"}, {"days": "Sun", "time": "Closed"}], "id": "8385700001", "name": "USPS COLLECTION BOX - BLUE BOX", "address": {"city": "PRINCETON", "state": "ID", "street": "3469 HIGHWAY 6", "postcode": "83857"}}},
{"geometry": {"type": "Point", "coordinates": [-116.7642544813, 46.9218119679]}, "type": "Feature", "properties": {"collection_times": [{"days": "Mon-Fri", "time": "2:00pm"}, {"days": "Sat", "time": "12:00pm"}, {"days": "Sun", "time": "Closed"}], "id": "8385700002", "name": "USPS COLLECTION BOX - PO LOBBY", "address": {"city": "PRINCETON", "state": "ID", "street": "3469 HIGHWAY 6", "postcode": "83857"}}},
{"geometry": {"type": "Point", "coordinates": [-116.8881820714, 47.8173676298]}, "type": "Feature", "properties": {"collection_times": [{"days": "Mon-Fri", "time": "5:00pm"}, {"days": "Sat", "time": "9:15am"}, {"days": "Sun", "time": "Closed"}], "id": "8385800001", "name": "USPS COLLECTION BOX - BLUE BOX", "address": {"city": "RATHDRUM", "state": "ID", "street": "13867 W HIGHWAY 53", "postcode": "83858"}}},
{"geometry": {"type": "Point", "coordinates": [-116.8824399886, 47.8208313336]}, "type": "Feature", "properties": {"collection_times": [{"days": "Mon-Sat", "time": "12:00pm"}, {"days": "Sun", "time": "Closed"}], "id": "8385800003", "name": "USPS COLLECTION BOX - BLUE BOX", "address": {"city": "RATHDRUM", "state": "ID", "street": "16376 N HIGHWAY 41", "postcode": "83858"}}},
{"geometry": {"type": "Point", "coordinates": [-116.8881820714, 47.8173676298]}, "type": "Feature", "properties": {"collection_times": [{"days": "Mon-Fri", "time": "5:00pm"}, {"days": "Sat", "time": "9:15am"}, {"days": "Sun", "time": "Closed"}], "id": "8385800005", "name": "USPS COLLECTION BOX - PO LOBBY", "address": {"city": "RATHDRUM", "state": "ID", "street": "13867 W HIGHWAY 53", "postcode": "83858"}}},
{"geometry": {"type": "Point", "coordinates": [-116.8755918392, 47.8155245797]}, "type": "Feature", "properties": {"collection_times": [{"days": "Mon-Sat", "time": "12:00pm"}, {"days": "Sun", "time": "Closed"}], "id": "8385800006", "name": "USPS COLLECTION BOX - BLUE BOX", "address": {"city": "RATHDRUM", "state": "ID", "street": "15837 N WESTWOOD DR STE A", "postcode": "83858"}}},
{"geometry": {"type": "Point", "coordinates": [-116.5580506642, 48.2140175515]}, "type": "Feature", "properties": {"collection_times": [{"days": "Mon-Fri", "time": "4:30pm"}, {"days": "Sat", "time": "12:30pm"}, {"days": "Sun", "time": "Closed"}], "id": "8386000001", "name": "USPS COLLECTION BOX - BLUE BOX", "address": {"city": "SAGLE", "state": "ID", "street": "468665 HIGHWAY 95", "postcode": "83860"}}},
{"geometry": {"type": "Point", "coordinates": [-116.5580506642, 48.2140175515]}, "type": "Feature", "properties": {"collection_times": [{"days": "Mon-Fri", "time": "5:00pm"}, {"days": "Sat", "time": "12:00pm"}, {"days": "Sun", "time": "Closed"}], "id": "8386000002", "name": "USPS COLLECTION BOX - PO LOBBY", "address": {"city": "SAGLE", "state": "ID", "street": "468665 HIGHWAY 95", "postcode": "83860"}}},
{"geometry": {"type": "Point", "coordinates": [-116.5602538423, 47.3151834722]}, "type": "Feature", "properties": {"collection_times": [{"days": "Mon-Fri", "time": "2:00pm"}, {"days": "Sat", "time": "1:00pm"}, {"days": "Sun", "time": "Closed"}], "id": "8386100001", "name": "USPS COLLECTION BOX - BLUE BOX", "address": {"city": "ST MARIES", "state": "ID", "street": "109 E COLLEGE AVE", "postcode": "83861"}}},
{"geometry": {"type": "Point", "coordinates": [-116.5691364747, 47.316318034]}, "type": "Feature", "properties": {"collection_times": [{"days": "Mon-Fri", "time": "2:00pm"}, {"days": "Sat", "time": "1:00pm"}, {"days": "Sun", "time": "Closed"}], "id": "8386100010", "name": "USPS COLLECTION BOX - BLUE BOX", "address": {"city": "ST MARIES", "state": "ID", "street": "834 MAIN AVE", "postcode": "83861"}}},
{"geometry": {"type": "Point", "coordinates": [-116.5882085621, 47.299585821]}, "type": "Feature", "properties": {"collection_times": [{"days": "Mon-Fri", "time": "2:00pm"}, {"days": "Sat", "time": "1:00pm"}, {"days": "Sun", "time": "Closed"}], "id": "8386100011", "name": "USPS COLLECTION BOX - BLUE BOX", "address": {"city": "ST MARIES", "state": "ID", "street": "40 HOMER DR", "postcode": "83861"}}},
{"geometry": {"type": "Point", "coordinates": [-116.5666129278, 47.3150078241]}, "type": "Feature", "properties": {"collection_times": [{"days": "Mon-Fri", "time": "5:00pm"}, {"days": "Sat", "time": "4:00pm"}, {"days": "Sun", "time": "Closed"}], "id": "8386100012", "name": "USPS COLLECTION BOX - PO LOBBY", "address": {"city": "ST MARIES", "state": "ID", "street": "222 S 7TH ST", "postcode": "83861"}}},
{"geometry": {"type": "Point", "coordinates": [-116.5666129278, 47.3150078241]}, "type": "Feature", "properties": {"collection_times": [{"days": "Mon-Fri", "time": "5:00pm"}, {"days": "Sat", "time": "4:00pm"}, {"days": "Sun", "time": "Closed"}], "id": "8386100014", "name": "USPS COLLECTION BOX - BLUE BOX", "address": {"city": "ST MARIES", "state": "ID", "street": "222 S 7TH ST", "postcode": "83861"}}},
{"geometry": {"type": "Point", "coordinates": [-116.5478913899, 48.2710742026]}, "type": "Feature", "properties": {"collection_times": [{"days": "Mon-Sat", "time": "3:45pm"}, {"days": "Sun", "time": "Closed"}], "id": "8386400001", "name": "USPS COLLECTION BOX - BLUE BOX", "address": {"city": "SANDPOINT", "state": "ID", "street": "302 S 1ST AVE", "postcode": "83864"}}},
{"geometry": {"type": "Point", "coordinates": [-116.5479521222, 48.2747852585]}, "type": "Feature", "properties": {"collection_times": [{"days": "Mon-Sat", "time": "3:45pm"}, {"days": "Sun", "time": "Closed"}], "id": "8386400004", "name": "USPS COLLECTION BOX - BLUE BOX", "address": {"city": "SANDPOINT", "state": "ID", "street": "113 MAIN ST", "postcode": "83864"}}},
{"geometry": {"type": "Point", "coordinates": [-116.5503950768, 48.278255445]}, "type": "Feature", "properties": {"collection_times": [{"days": "Mon-Fri", "time": "4:00pm"}, {"days": "Sat", "time": "3:45pm"}, {"days": "Sun", "time": "Closed"}], "id": "8386400005", "name": "USPS COLLECTION BOX - BLUE BOX", "address": {"city": "SANDPOINT", "state": "ID", "street": "602 N THIRD AVE", "postcode": "83864"}}},
{"geometry": {"type": "Point", "coordinates": [-116.5491793482, 48.2725483147]}, "type": "Feature", "properties": {"collection_times": [{"days": "Mon-Sat", "time": "3:45pm"}, {"days": "Sun", "time": "Closed"}], "id": "8386400006", "name": "USPS COLLECTION BOX - BLUE BOX", "address": {"city": "SANDPOINT", "state": "ID", "street": "108 S SECOND AVE", "postcode": "83864"}}},
{"geometry": {"type": "Point", "coordinates": [-116.5535469367, 48.2782297645]}, "type": "Feature", "properties": {"collection_times": [{"days": "Mon-Fri", "time": "4:00pm"}, {"days": "Sat", "time": "3:45pm"}, {"days": "Sun", "time": "Closed"}], "id": "8386400007", "name": "USPS COLLECTION BOX - BLUE BOX", "address": {"city": "SANDPOINT", "state": "ID", "street": "602 N FIFTH AVE", "postcode": "83864"}}},
{"geometry": {"type": "Point", "coordinates": [-116.5479050209, 48.2760547669]}, "type": "Feature", "properties": {"collection_times": [{"days": "Mon-Fri", "time": "4:00pm"}, {"days": "Sat", "time": "3:45pm"}, {"days": "Sun", "time": "Closed"}], "id": "8386400010", "name": "USPS COLLECTION BOX - BLUE BOX", "address": {"city": "SANDPOINT", "state": "ID", "street": "111 CEDAR ST", "postcode": "83864"}}},
{"geometry": {"type": "Point", "coordinates": [-116.5519097019, 48.2740957825]}, "type": "Feature", "properties": {"collection_times": [{"days": "Mon-Fri", "time": "5:15pm"}, {"days": "Sat", "time": "4:00pm"}, {"days": "Sun", "time": "Closed"}], "id": "8386400011", "name": "USPS COLLECTION BOX - BLUE BOX", "address": {"city": "SANDPOINT", "state": "ID", "street": "204 N FOURTH AVE", "postcode": "83864"}}},
{"geometry": {"type": "Point", "coordinates": [-116.5623803277, 48.272012407]}, "type": "Feature", "properties": {"collection_times": [{"days": "Mon-Fri", "time": "3:45pm"}, {"days": "Sat-Sun", "time": "Closed"}], "id": "8386400014", "name": "USPS COLLECTION BOX - BLUE BOX", "address": {"city": "SANDPOINT", "state": "ID", "street": "1123 LAKE ST", "postcode": "83864"}}},
{"geometry": {"type": "Point", "coordinates": [-116.5519097019, 48.2740957825]}, "type": "Feature", "properties": {"collection_times": [{"days": "Mon-Fri", "time": "5:15pm"}, {"days": "Sat", "time": "4:00pm"}, {"days": "Sun", "time": "Closed"}], "id": "8386400016", "name": "USPS COLLECTION BOX - PO LOBBY", "address": {"city": "SANDPOINT", "state": "ID", "street": "204 N FOURTH AVE", "postcode": "83864"}}},
{"geometry": {"type": "Point", "coordinates": [-116.5474387784, 48.2721868155]}, "type": "Feature", "properties": {"collection_times": [{"days": "Mon-Fri", "time": "3:45pm"}, {"days": "Sat-Sun", "time": "Closed"}], "id": "8386400017", "name": "USPS COLLECTION BOX - BLUE BOX", "address": {"city": "SANDPOINT", "state": "ID", "street": "120 E LAKE ST", "postcode": "83864"}}},
{"geometry": {"type": "Point", "coordinates": [-116.4494967242, 47.1499348221]}, "type": "Feature", "properties": {"collection_times": [{"days": "Mon-Fri", "time": "3:00pm"}, {"days": "Sat", "time": "12:00pm"}, {"days": "Sun", "time": "Closed"}], "id": "8386600002", "name": "USPS COLLECTION BOX - PO LOBBY", "address": {"city": "SANTA", "state": "ID", "street": "68244 HIGHWAY 3 S", "postcode": "83866"}}},
{"geometry": {"type": "Point", "coordinates": [-116.4494967242, 47.1499348221]}, "type": "Feature", "properties": {"collection_times": [{"days": "Mon-Fri", "time": "3:00pm"}, {"days": "Sat", "time": "12:00pm"}, {"days": "Sun", "time": "Closed"}], "id": "8386600003", "name": "USPS COLLECTION BOX - BLUE BOX", "address": {"city": "SANTA", "state": "ID", "street": "68244 HIGHWAY 3 S", "postcode": "83866"}}},
{"geometry": {"type": "Point", "coordinates": [-115.954797853, 47.4927603001]}, "type": "Feature", "properties": {"collection_times": [{"days": "Mon-Fri", "time": "5:00pm"}, {"days": "Sat", "time": "10:00am"}, {"days": "Sun", "time": "Closed"}], "id": "8386700002", "name": "USPS COLLECTION BOX - PO LOBBY", "address": {"city": "SILVERTON", "state": "ID", "street": "102 W YELLOWSTONE AVE", "postcode": "83867"}}},
{"geometry": {"type": "Point", "coordinates": [-116.2363004002, 47.5381818291]}, "type": "Feature", "properties": {"collection_times": [{"days": "Mon-Fri", "time": "4:45pm"}, {"days": "Sat", "time": "9:45am"}, {"days": "Sun", "time": "Closed"}], "id": "8386800001", "name": "USPS COLLECTION BOX - BLUE BOX", "address": {"city": "SMELTERVILLE", "state": "ID", "street": "223 MAIN ST", "postcode": "83868"}}},
{"geometry": {"type": "Point", "coordinates": [-116.2363004002, 47.5381818291]}, "type": "Feature", "properties": {"collection_times": [{"days": "Mon-Fri", "time": "5:00pm"}, {"days": "Sat", "time": "10:00am"}, {"days": "Sun", "time": "Closed"}], "id": "8386800002", "name": "USPS COLLECTION BOX - PO LOBBY", "address": {"city": "SMELTERVILLE", "state": "ID", "street": "223 MAIN ST", "postcode": "83868"}}},
{"geometry": {"type": "Point", "coordinates": [-116.8682598595, 47.9651996457]}, "type": "Feature", "properties": {"collection_times": [{"days": "Mon-Fri", "time": "4:30pm"}, {"days": "Sat", "time": "12:00pm"}, {"days": "Sun", "time": "Closed"}], "id": "8386900001", "name": "USPS COLLECTION BOX - BLUE BOX", "address": {"city": "SPIRIT LAKE", "state": "ID", "street": "6087 W MAINE ST", "postcode": "83869"}}},
{"geometry": {"type": "Point", "coordinates": [-116.8682598595, 47.9651996457]}, "type": "Feature", "properties": {"collection_times": [{"days": "Mon-Fri", "time": "4:45pm"}, {"days": "Sat", "time": "12:15pm"}, {"days": "Sun", "time": "Closed"}], "id": "8386900002", "name": "USPS COLLECTION BOX - PO LOBBY", "address": {"city": "SPIRIT LAKE", "state": "ID", "street": "6087 W MAINE ST", "postcode": "83869"}}},
{"geometry": {"type": "Point", "coordinates": [-116.9216944964, 47.1596101095]}, "type": "Feature", "properties": {"collection_times": [{"days": "Mon-Fri", "time": "3:15pm"}, {"days": "Sat", "time": "11:45am"}, {"days": "Sun", "time": "Closed"}], "id": "8387000001", "name": "USPS COLLECTION BOX - BLUE BOX", "address": {"city": "TENSED", "state": "ID", "street": "208 3RD ST", "postcode": "83870"}}},
{"geometry": {"type": "Point", "coordinates": [-116.9216944964, 47.1596101095]}, "type": "Feature", "properties": {"collection_times": [{"days": "Mon-Fri", "time": "3:15pm"}, {"days": "Sat", "time": "11:45am"}, {"days": "Sun", "time": "Closed"}], "id": "8387000002", "name": "USPS COLLECTION BOX - PO LOBBY", "address": {"city": "TENSED", "state": "ID", "street": "208 3RD ST", "postcode": "83870"}}},
{"geometry": {"type": "Point", "coordinates": [-116.9233179081, 47.1608690402]}, "type": "Feature", "properties": {"collection_times": [{"days": "Mon-Fri", "time": "3:00pm"}, {"days": "Sat", "time": "11:30am"}, {"days": "Sun", "time": "Closed"}], "id": "8387000003", "name": "USPS COLLECTION BOX - BLUE BOX", "address": {"city": "TENSED", "state": "ID", "street": "382119 HIGHWAY 95", "postcode": "83870"}}},
{"geometry": {"type": "Point", "coordinates": [-116.7663753764, 46.7341348454]}, "type": "Feature", "properties": {"collection_times": [{"days": "Mon-Fri", "time": "4:30pm"}, {"days": "Sat", "time": "11:30am"}, {"days": "Sun", "time": "Closed"}], "id": "8387100002", "name": "USPS COLLECTION BOX - BLUE BOX", "address": {"city": "TROY", "state": "ID", "street": "605 S MAIN ST", "postcode": "83871"}}},
{"geometry": {"type": "Point", "coordinates": [-116.7663753764, 46.7341348454]}, "type": "Feature", "properties": {"collection_times": [{"days": "Mon-Fri", "time": "4:30pm"}, {"days": "Sat", "time": "11:30am"}, {"days": "Sun", "time": "Closed"}], "id": "8387100004", "name": "USPS COLLECTION BOX - PO LOBBY", "address": {"city": "TROY", "state": "ID", "street": "605 S MAIN ST", "postcode": "83871"}}},
{"geometry": {"type": "Point", "coordinates": [-117.0245314093, 46.8386740013]}, "type": "Feature", "properties": {"collection_times": [{"days": "Mon-Sat", "time": "1:00pm"}, {"days": "Sun", "time": "Closed"}], "id": "8387200002", "name": "USPS COLLECTION BOX - PO LOBBY", "address": {"city": "VIOLA", "state": "ID", "street": "1300 MAIN ST", "postcode": "83872"}}},
{"geometry": {"type": "Point", "coordinates": [-115.9286311632, 47.4716779933]}, "type": "Feature", "properties": {"collection_times": [{"days": "Mon-Sat", "time": "2:30pm"}, {"days": "Sun", "time": "Closed"}], "id": "8387300005", "name": "USPS COLLECTION BOX - BLUE BOX", "address": {"city": "WALLACE", "state": "ID", "street": "530 BANK ST", "postcode": "83873"}}},
{"geometry": {"type": "Point", "coordinates": [-115.9238553577, 47.4723770883]}, "type": "Feature", "properties": {"collection_times": [{"days": "Mon-Sat", "time": "2:30pm"}, {"days": "Sun", "time": "Closed"}], "id": "8387300006", "name": "USPS COLLECTION BOX - BLUE BOX", "address": {"city": "WALLACE", "state": "ID", "street": "600 CEDAR ST", "postcode": "83873"}}},
{"geometry": {"type": "Point", "coordinates": [-115.9274333005, 47.4716836916]}, "type": "Feature", "properties": {"collection_times": [{"days": "Mon-Sat", "time": "2:30pm"}, {"days": "Sun", "time": "Closed"}], "id": "8387300007", "name": "USPS COLLECTION BOX - BLUE BOX", "address": {"city": "WALLACE", "state": "ID", "street": "700 BANK ST", "postcode": "83873"}}},
{"geometry": {"type": "Point", "coordinates": [-115.9268723443, 47.4724778998]}, "type": "Feature", "properties": {"collection_times": [{"days": "Mon-Fri", "time": "5:00pm"}, {"days": "Sat", "time": "10:00am"}, {"days": "Sun", "time": "Closed"}], "id": "8387300008", "name": "USPS COLLECTION BOX - BLUE BOX", "address": {"city": "WALLACE", "state": "ID", "street": "403 CEDAR ST", "postcode": "83873"}}},
{"geometry": {"type": "Point", "coordinates": [-115.9268723443, 47.4724778998]}, "type": "Feature", "properties": {"collection_times": [{"days": "Mon-Fri", "time": "5:00pm"}, {"days": "Sat", "time": "10:00am"}, {"days": "Sun", "time": "Closed"}], "id": "8387300012", "name": "USPS COLLECTION BOX - PO LOBBY", "address": {"city": "WALLACE", "state": "ID", "street": "403 CEDAR ST", "postcode": "83873"}}},
{"geometry": {"type": "Point", "coordinates": [-115.8583080805, 47.6270386916]}, "type": "Feature", "properties": {"collection_times": [{"days": "Mon-Sat", "time": "1:45pm"}, {"days": "Sun", "time": "Closed"}], "id": "8387400000", "name": "USPS COLLECTION BOX - BLUE BOX", "address": {"city": "MURRAY", "state": "ID", "street": "6454 PRICHARD CREEK RD", "postcode": "83874"}}},
{"geometry": {"type": "Point", "coordinates": [-116.920338445, 47.4014037689]}, "type": "Feature", "properties": {"collection_times": [{"days": "Mon-Fri", "time": "4:15pm"}, {"days": "Sat", "time": "3:00pm"}, {"days": "Sun", "time": "Closed"}], "id": "8387600001", "name": "USPS COLLECTION BOX - BLUE BOX", "address": {"city": "WORLEY", "state": "ID", "street": "29801 S 3RD ST", "postcode": "83876"}}},
{"geometry": {"type": "Point", "coordinates": [-116.920338445, 47.4014037689]}, "type": "Feature", "properties": {"collection_times": [{"days": "Mon-Fri", "time": "4:15pm"}, {"days": "Sat", "time": "3:00pm"}, {"days": "Sun", "time": "Closed"}], "id": "8387600002", "name": "USPS COLLECTION BOX - PO LOBBY", "address": {"city": "WORLEY", "state": "ID", "street": "29801 S 3RD ST", "postcode": "83876"}}},
{"geometry": {"type": "Point", "coordinates": [-116.920338445, 47.4014037689]}, "type": "Feature", "properties": {"collection_times": [{"days": "Mon-Fri", "time": "4:15pm"}, {"days": "Sat", "time": "3:00pm"}, {"days": "Sun", "time": "Closed"}], "id": "8387600003", "name": "USPS COLLECTION BOX - PO LOBBY", "address": {"city": "WORLEY", "state": "ID", "street": "29801 S 3RD ST", "postcode": "83876"}}}
]}
