{"type": "FeatureCollection", "features": [
{"geometry": {"type": "Point", "coordinates": [-104.8171809742, 41.135475389]}, "type": "Feature", "properties": {"collection_times": [{"days": "Mon-Fri", "time": "4:00pm"}, {"days": "Sat-Sun", "time": "Closed"}], "id": "8200100017", "name": "USPS COLLECTION BOX - BLUE BOX", "address": {"city": "FE WARREN AFB", "state": "WY", "street": "1912 CAPITOL AVE", "postcode": "82001"}}},
{"geometry": {"type": "Point", "coordinates": [-104.8172033419, 41.1333892567]}, "type": "Feature", "properties": {"collection_times": [{"days": "Mon-Fri", "time": "4:00pm"}, {"days": "Sat", "time": "12:00pm"}, {"days": "Sun", "time": "Closed"}], "id": "8200100026", "name": "USPS COLLECTION BOX - BLUE BOX", "address": {"city": "FE WARREN AFB", "state": "WY", "street": "1722 CAREY AVE", "postcode": "82001"}}},
{"geometry": {"type": "Point", "coordinates": [-104.8159006558, 41.1401819495]}, "type": "Feature", "properties": {"collection_times": [{"days": "Mon-Fri", "time": "4:00pm"}, {"days": "Sat", "time": "12:00pm"}, {"days": "Sun", "time": "Closed"}], "id": "8200100034", "name": "USPS COLLECTION BOX - BLUE BOX", "address": {"city": "FE WARREN AFB", "state": "WY", "street": "2301 HOUSE AVE", "postcode": "82001"}}},
{"geometry": {"type": "Point", "coordinates": [-104.7665520883, 41.1388887877]}, "type": "Feature", "properties": {"collection_times": [{"days": "Mon-Fri", "time": "1:00pm"}, {"days": "Sat", "time": "12:00pm"}, {"days": "Sun", "time": "Closed"}], "id": "8200100035", "name": "USPS COLLECTION BOX - BLUE BOX", "address": {"city": "FE WARREN AFB", "state": "WY", "street": "3577 E LINCOLNWAY", "postcode": "82001"}}},
{"geometry": {"type": "Point", "coordinates": [-104.8220346405, 41.1532398689]}, "type": "Feature", "properties": {"collection_times": [{"days": "Mon-Fri", "time": "5:00pm"}, {"days": "Sat", "time": "1:00pm"}, {"days": "Sun", "time": "Closed"}], "id": "8200100037", "name": "USPS COLLECTION BOX - BLUE BOX", "address": {"city": "FE WARREN AFB", "state": "WY", "street": "124 E 8TH AVE", "postcode": "82001"}}},
{"geometry": {"type": "Point", "coordinates": [-104.797388732, 41.1425609524]}, "type": "Feature", "properties": {"collection_times": [{"days": "Mon-Fri", "time": "4:15pm"}, {"days": "Sat-Sun", "time": "Closed"}], "id": "8200100042", "name": "USPS COLLECTION BOX - BLUE BOX", "address": {"city": "FE WARREN AFB", "state": "WY", "street": "2101 ONEIL AVE", "postcode": "82001"}}},
{"geometry": {"type": "Point", "coordinates": [-104.8205209027, 41.1363254493]}, "type": "Feature", "properties": {"collection_times": [{"days": "Mon-Fri", "time": "5:30pm"}, {"days": "Sat", "time": "3:00pm"}, {"days": "Sun", "time": "Closed"}], "id": "8200100052", "name": "USPS COLLECTION BOX - BLUE BOX", "address": {"city": "FE WARREN AFB", "state": "WY", "street": "2100 PIONEER AVE", "postcode": "82001"}}},
{"geometry": {"type": "Point", "coordinates": [-104.9408681737, 41.1086205535]}, "type": "Feature", "properties": {"collection_times": [{"days": "Mon-Fri", "time": "5:00pm"}, {"days": "Sat", "time": "12:00pm"}, {"days": "Sun", "time": "Closed"}], "id": "8200100065", "name": "USPS COLLECTION BOX - BLUE BOX", "address": {"city": "FE WARREN AFB", "state": "WY", "street": "6109 RANDALL AVE", "postcode": "82001"}}},
{"geometry": {"type": "Point", "coordinates": [-104.8160236958, 41.1336953834]}, "type": "Feature", "properties": {"collection_times": [{"days": "Mon-Fri", "time": "4:00pm"}, {"days": "Sat", "time": "12:00pm"}, {"days": "Sun", "time": "Closed"}], "id": "8200100068", "name": "USPS COLLECTION BOX - BLUE BOX", "address": {"city": "FE WARREN AFB", "state": "WY", "street": "1710 CAPITOL AVE", "postcode": "82001"}}},
{"geometry": {"type": "Point", "coordinates": [-104.8015278199, 41.1129719188]}, "type": "Feature", "properties": {"collection_times": [{"days": "Mon-Fri", "time": "5:00pm"}, {"days": "Sat", "time": "12:00pm"}, {"days": "Sun", "time": "Closed"}], "id": "8200700006", "name": "USPS COLLECTION BOX - BLUE BOX", "address": {"city": "CHEYENNE", "state": "WY", "street": "514 S GREELEY HWY", "postcode": "82007"}}},
{"geometry": {"type": "Point", "coordinates": [-104.828693366, 41.1727137818]}, "type": "Feature", "properties": {"collection_times": [{"days": "Mon-Fri", "time": "2:20pm"}, {"days": "Sat", "time": "1:00pm"}, {"days": "Sun", "time": "Closed"}], "id": "8200900001", "name": "USPS COLLECTION BOX - BLUE BOX", "address": {"city": "CHEYENNE", "state": "WY", "street": "5800 YELLOWSTONE RD", "postcode": "82009"}}},
{"geometry": {"type": "Point", "coordinates": [-104.8285591329, 41.1680388179]}, "type": "Feature", "properties": {"collection_times": [{"days": "Mon-Fri", "time": "4:45pm"}, {"days": "Sat-Sun", "time": "Closed"}], "id": "8200900002", "name": "USPS COLLECTION BOX - BLUE BOX", "address": {"city": "CHEYENNE", "state": "WY", "street": "5353 YELLOWSTONE RD", "postcode": "82009"}}},
{"geometry": {"type": "Point", "coordinates": [-104.8285078794, 41.1749182624]}, "type": "Feature", "properties": {"collection_times": [{"days": "Mon-Fri", "time": "4:45pm"}, {"days": "Sat", "time": "1:00pm"}, {"days": "Sun", "time": "Closed"}], "id": "8200900003", "name": "USPS COLLECTION BOX - BLUE BOX", "address": {"city": "CHEYENNE", "state": "WY", "street": "6101 YELLOWSTONE RD", "postcode": "82009"}}},
{"geometry": {"type": "Point", "coordinates": [-104.7880584399, 41.1602347596]}, "type": "Feature", "properties": {"collection_times": [{"days": "Mon-Sat", "time": "12:45pm"}, {"days": "Sun", "time": "Closed"}], "id": "8200900011", "name": "USPS COLLECTION BOX - BLUE BOX", "address": {"city": "CHEYENNE", "state": "WY", "street": "2232 DELL RANGE BLVD", "postcode": "82009"}}},
{"geometry": {"type": "Point", "coordinates": [-104.8197445102, 41.1711728114]}, "type": "Feature", "properties": {"collection_times": [{"days": "Mon-Fri", "time": "1:50pm"}, {"days": "Sat", "time": "1:00pm"}, {"days": "Sun", "time": "Closed"}], "id": "8200900014", "name": "USPS COLLECTION BOX - BLUE BOX", "address": {"city": "CHEYENNE", "state": "WY", "street": "601 E CARLSON ST", "postcode": "82009"}}},
{"geometry": {"type": "Point", "coordinates": [-104.7722486439, 41.1455922002]}, "type": "Feature", "properties": {"collection_times": [{"days": "Mon-Fri", "time": "12:30pm"}, {"days": "Sat", "time": "12:00pm"}, {"days": "Sun", "time": "Closed"}], "id": "8200900015", "name": "USPS COLLECTION BOX - BLUE BOX", "address": {"city": "CHEYENNE", "state": "WY", "street": "3001 E PERSHING BLVD", "postcode": "82009"}}},
{"geometry": {"type": "Point", "coordinates": [-104.8092058175, 41.1649852436]}, "type": "Feature", "properties": {"collection_times": [{"days": "Mon-Fri", "time": "4:45pm"}, {"days": "Sat-Sun", "time": "Closed"}], "id": "8200900019", "name": "USPS COLLECTION BOX - BLUE BOX", "address": {"city": "CHEYENNE", "state": "WY", "street": "5050 POWDERHOUSE RD", "postcode": "82009"}}},
{"geometry": {"type": "Point", "coordinates": [-104.8033587696, 41.1891741714]}, "type": "Feature", "properties": {"collection_times": [{"days": "Mon-Fri", "time": "3:00pm"}, {"days": "Sat", "time": "12:45pm"}, {"days": "Sun", "time": "Closed"}], "id": "8200900025", "name": "USPS COLLECTION BOX - EXPRESS", "address": {"city": "CHEYENNE", "state": "WY", "street": "4800 CONVERSE AVE", "postcode": "82009"}}},
{"geometry": {"type": "Point", "coordinates": [-104.7854914495, 41.1630936126]}, "type": "Feature", "properties": {"collection_times": [{"days": "Mon-Fri", "time": "5:30pm"}, {"days": "Sat", "time": "4:00pm"}, {"days": "Sun", "time": "Closed"}], "id": "8200900026", "name": "USPS COLLECTION BOX - BLUE BOX", "address": {"city": "CHEYENNE", "state": "WY", "street": "4800 CONVERSE AVE", "postcode": "82009"}}},
{"geometry": {"type": "Point", "coordinates": [-104.7854914495, 41.1630936126]}, "type": "Feature", "properties": {"collection_times": [{"days": "Mon-Fri", "time": "5:30pm"}, {"days": "Sat", "time": "4:00pm"}, {"days": "Sun", "time": "Closed"}], "id": "8200900027", "name": "USPS COLLECTION BOX - PO LOBBY", "address": {"city": "CHEYENNE", "state": "WY", "street": "4800 CONVERSE AVE", "postcode": "82009"}}},
{"geometry": {"type": "Point", "coordinates": [-104.7854914495, 41.1630936126]}, "type": "Feature", "properties": {"collection_times": [{"days": "Mon-Fri", "time": "5:30pm"}, {"days": "Sat", "time": "4:00pm"}, {"days": "Sun", "time": "Closed"}], "id": "8200900028", "name": "USPS COLLECTION BOX - PO LOBBY", "address": {"city": "CHEYENNE", "state": "WY", "street": "4800 CONVERSE AVE", "postcode": "82009"}}},
{"geometry": {"type": "Point", "coordinates": [-104.7658857419, 41.1601592819]}, "type": "Feature", "properties": {"collection_times": [{"days": "Mon-Fri", "time": "12:40pm"}, {"days": "Sat", "time": "12:00pm"}, {"days": "Sun", "time": "Closed"}], "id": "8200900030", "name": "USPS COLLECTION BOX - BLUE BOX", "address": {"city": "CHEYENNE", "state": "WY", "street": "3610 DELL RANGE BLVD", "postcode": "82009"}}},
{"geometry": {"type": "Point", "coordinates": [-104.7854914495, 41.1630936126]}, "type": "Feature", "properties": {"collection_times": [{"days": "Mon-Fri", "time": "5:30pm"}, {"days": "Sat", "time": "4:00pm"}, {"days": "Sun", "time": "Closed"}], "id": "8200900031", "name": "USPS COLLECTION BOX - BLUE BOX", "address": {"city": "CHEYENNE", "state": "WY", "street": "4800 CONVERSE AVE", "postcode": "82009"}}},
{"geometry": {"type": "Point", "coordinates": [-104.7854914495, 41.1630936126]}, "type": "Feature", "properties": {"collection_times": [{"days": "Mon-Fri", "time": "5:30pm"}, {"days": "Sat", "time": "4:00pm"}, {"days": "Sun", "time": "Closed"}], "id": "8200900032", "name": "USPS COLLECTION BOX - APC", "address": {"city": "CHEYENNE", "state": "WY", "street": "4800 CONVERSE AVE", "postcode": "82009"}}},
{"geometry": {"type": "Point", "coordinates": [-104.1002025962, 41.4184100891]}, "type": "Feature", "properties": {"collection_times": [{"days": "Mon-Fri", "time": "11:45am"}, {"days": "Sat", "time": "10:15am"}, {"days": "Sun", "time": "Closed"}], "id": "8205000001", "name": "USPS COLLECTION BOX - PO LOBBY", "address": {"city": "ALBIN", "state": "WY", "street": "221 CHEYENNE AVE", "postcode": "82050"}}},
{"geometry": {"type": "Point", "coordinates": [-104.3591001177, 41.1927779498]}, "type": "Feature", "properties": {"collection_times": [{"days": "Mon-Fri", "time": "4:15pm"}, {"days": "Sat", "time": "9:30am"}, {"days": "Sun", "time": "Closed"}], "id": "8205300000", "name": "USPS COLLECTION BOX - BLUE BOX", "address": {"city": "BURNS", "state": "WY", "street": "102 MAIN ST", "postcode": "82053"}}},
{"geometry": {"type": "Point", "coordinates": [-104.3591001177, 41.1927779498]}, "type": "Feature", "properties": {"collection_times": [{"days": "Mon-Fri", "time": "4:15pm"}, {"days": "Sat", "time": "9:30am"}, {"days": "Sun", "time": "Closed"}], "id": "8205300001", "name": "USPS COLLECTION BOX - PO LOBBY", "address": {"city": "BURNS", "state": "WY", "street": "102 MAIN ST", "postcode": "82053"}}},
{"geometry": {"type": "Point", "coordinates": [-104.3578987713, 41.2566535648]}, "type": "Feature", "properties": {"collection_times": [{"days": "Mon-Sat", "time": "12:00pm"}, {"days": "Sun", "time": "Closed"}], "id": "8205300004", "name": "USPS COLLECTION BOX - BLUE BOX", "address": {"city": "BURNS", "state": "WY", "street": "4000 RD 211", "postcode": "82053"}}},
{"geometry": {"type": "Point", "coordinates": [-104.3652517119, 41.0439940772]}, "type": "Feature", "properties": {"collection_times": [{"days": "Mon-Fri", "time": "3:30pm"}, {"days": "Sat", "time": "9:15am"}, {"days": "Sun", "time": "Closed"}], "id": "8205400000", "name": "USPS COLLECTION BOX - BLUE BOX", "address": {"city": "CARPENTER", "state": "WY", "street": "322 1ST ST", "postcode": "82054"}}},
{"geometry": {"type": "Point", "coordinates": [-104.3652517119, 41.0439940772]}, "type": "Feature", "properties": {"collection_times": [{"days": "Mon-Fri", "time": "3:30pm"}, {"days": "Sat", "time": "9:15am"}, {"days": "Sun", "time": "Closed"}], "id": "8205400001", "name": "USPS COLLECTION BOX - PO LOBBY", "address": {"city": "CARPENTER", "state": "WY", "street": "322 1ST ST", "postcode": "82054"}}},
{"geometry": {"type": "Point", "coordinates": [-106.1422330642, 41.2975169378]}, "type": "Feature", "properties": {"collection_times": [{"days": "Mon-Sat", "time": "10:00am"}, {"days": "Sun", "time": "Closed"}], "id": "8205500000", "name": "USPS COLLECTION BOX - BLUE BOX", "address": {"city": "CENTENNIAL", "state": "WY", "street": "1 PINE ST", "postcode": "82055"}}},
{"geometry": {"type": "Point", "coordinates": [-106.1422330642, 41.2975169378]}, "type": "Feature", "properties": {"collection_times": [{"days": "Mon-Sat", "time": "10:00am"}, {"days": "Sun", "time": "Closed"}], "id": "8205500001", "name": "USPS COLLECTION BOX - PO LOBBY", "address": {"city": "CENTENNIAL", "state": "WY", "street": "1 PINE ST", "postcode": "82055"}}},
{"geometry": {"type": "Point", "coordinates": [-105.1827198817, 41.4138108574]}, "type": "Feature", "properties": {"collection_times": [{"days": "Mon-Sat", "time": "12:15pm"}, {"days": "Sun", "time": "Closed"}], "id": "8206100001", "name": "USPS COLLECTION BOX - PO LOBBY", "address": {"city": "HORSE CREEK", "state": "WY", "street": "2854 HORSE CREEK RD", "postcode": "82061"}}},
{"geometry": {"type": "Point", "coordinates": [-105.1827198817, 41.4138108574]}, "type": "Feature", "properties": {"collection_times": [{"days": "Mon-Sat", "time": "12:15pm"}, {"days": "Sun", "time": "Closed"}], "id": "8206100002", "name": "USPS COLLECTION BOX - PO LOBBY", "address": {"city": "HORSE CREEK", "state": "WY", "street": "2854 HORSE CREEK RD", "postcode": "82061"}}},
{"geometry": {"type": "Point", "coordinates": [-105.6129679894, 41.2999109815]}, "type": "Feature", "properties": {"collection_times": [{"days": "Mon-Fri", "time": "4:00pm"}, {"days": "Sat-Sun", "time": "Closed"}], "id": "8207000011", "name": "USPS COLLECTION BOX - BLUE BOX", "address": {"city": "LARAMIE", "state": "WY", "street": "1107 S 15TH ST", "postcode": "82070"}}},
{"geometry": {"type": "Point", "coordinates": [-105.5958402262, 41.3121893527]}, "type": "Feature", "properties": {"collection_times": [{"days": "Mon-Fri", "time": "4:30pm"}, {"days": "Sat", "time": "12:45pm"}, {"days": "Sun", "time": "Closed"}], "id": "8207000024", "name": "USPS COLLECTION BOX - BLUE BOX", "address": {"city": "LARAMIE", "state": "WY", "street": "115 E IVINSON ST", "postcode": "82070"}}},
{"geometry": {"type": "Point", "coordinates": [-105.5685269073, 41.3095530643]}, "type": "Feature", "properties": {"collection_times": [{"days": "Mon-Fri", "time": "5:00pm"}, {"days": "Sat-Sun", "time": "Closed"}], "id": "8207000032", "name": "USPS COLLECTION BOX - BLUE BOX", "address": {"city": "LARAMIE", "state": "WY", "street": "2020 E GRAND AVE", "postcode": "82070"}}},
{"geometry": {"type": "Point", "coordinates": [-105.567486052, 41.3085575836]}, "type": "Feature", "properties": {"collection_times": [{"days": "Mon-Fri", "time": "4:45pm"}, {"days": "Sat-Sun", "time": "Closed"}], "id": "8207000041", "name": "USPS COLLECTION BOX - BLUE BOX", "address": {"city": "LARAMIE", "state": "WY", "street": "413 S 21ST ST", "postcode": "82070"}}},
{"geometry": {"type": "Point", "coordinates": [-105.5567317941, 41.3089237538]}, "type": "Feature", "properties": {"collection_times": [{"days": "Mon-Fri", "time": "4:45pm"}, {"days": "Sat", "time": "12:45pm"}, {"days": "Sun", "time": "Closed"}], "id": "8207000044", "name": "USPS COLLECTION BOX - BLUE BOX", "address": {"city": "LARAMIE", "state": "WY", "street": "3112 E GRAND AVE", "postcode": "82070"}}},
{"geometry": {"type": "Point", "coordinates": [-105.5551935104, 41.3110031539]}, "type": "Feature", "properties": {"collection_times": [{"days": "Mon-Fri", "time": "4:45pm"}, {"days": "Sat-Sun", "time": "Closed"}], "id": "8207000045", "name": "USPS COLLECTION BOX - BLUE BOX", "address": {"city": "LARAMIE", "state": "WY", "street": "204 MCCOLLUM ST", "postcode": "82070"}}},
{"geometry": {"type": "Point", "coordinates": [-105.5883207551, 41.3097067135]}, "type": "Feature", "properties": {"collection_times": [{"days": "Mon-Fri", "time": "4:30pm"}, {"days": "Sat-Sun", "time": "Closed"}], "id": "8207000053", "name": "USPS COLLECTION BOX - BLUE BOX", "address": {"city": "LARAMIE", "state": "WY", "street": "710 E GARFIELD ST", "postcode": "82070"}}},
{"geometry": {"type": "Point", "coordinates": [-105.532687789, 41.2972613066]}, "type": "Feature", "properties": {"collection_times": [{"days": "Mon-Sat", "time": "9:15am"}, {"days": "Sun", "time": "Closed"}], "id": "8207000056", "name": "USPS COLLECTION BOX - BLUE BOX", "address": {"city": "LARAMIE", "state": "WY", "street": "4308 E GRAND AVE", "postcode": "82070"}}},
{"geometry": {"type": "Point", "coordinates": [-105.5567317941, 41.3089237538]}, "type": "Feature", "properties": {"collection_times": [{"days": "Mon-Fri", "time": "4:45pm"}, {"days": "Sat", "time": "12:45pm"}, {"days": "Sun", "time": "Closed"}], "id": "8207000057", "name": "USPS COLLECTION BOX - BLUE BOX", "address": {"city": "LARAMIE", "state": "WY", "street": "3112 E GRAND AVE", "postcode": "82070"}}},
{"geometry": {"type": "Point", "coordinates": [-105.580375088, 41.3112079124]}, "type": "Feature", "properties": {"collection_times": [{"days": "Mon-Fri", "time": "4:00pm"}, {"days": "Sat-Sun", "time": "Closed"}], "id": "8207000059", "name": "USPS COLLECTION BOX - BLUE BOX", "address": {"city": "LARAMIE", "state": "WY", "street": "1000 E UNIVERSITY AVE", "postcode": "82070"}}},
{"geometry": {"type": "Point", "coordinates": [-105.4814328267, 41.4368730397]}, "type": "Feature", "properties": {"collection_times": [{"days": "Mon-Fri", "time": "2:30pm"}, {"days": "Sat", "time": "12:45pm"}, {"days": "Sun", "time": "Closed"}], "id": "8207200003", "name": "USPS COLLECTION BOX - BLUE BOX", "address": {"city": "LARAMIE", "state": "WY", "street": "1300 E IVINSON ST", "postcode": "82072"}}},
{"geometry": {"type": "Point", "coordinates": [-105.5927565902, 41.3181504684]}, "type": "Feature", "properties": {"collection_times": [{"days": "Mon-Fri", "time": "4:00pm"}, {"days": "Sat", "time": "12:45pm"}, {"days": "Sun", "time": "Closed"}], "id": "8207200005", "name": "USPS COLLECTION BOX - BLUE BOX", "address": {"city": "LARAMIE", "state": "WY", "street": "654 N 3RD ST", "postcode": "82072"}}},
{"geometry": {"type": "Point", "coordinates": [-105.590745593, 41.313256897]}, "type": "Feature", "properties": {"collection_times": [{"days": "Mon-Fri", "time": "5:00pm"}, {"days": "Sat", "time": "12:45pm"}, {"days": "Sun", "time": "Closed"}], "id": "8207200013", "name": "USPS COLLECTION BOX - EXPRESS", "address": {"city": "LARAMIE", "state": "WY", "street": "152 N 5TH ST", "postcode": "82072"}}},
{"geometry": {"type": "Point", "coordinates": [-105.5906599979, 41.3132547983]}, "type": "Feature", "properties": {"collection_times": [{"days": "Mon-Fri", "time": "5:00pm"}, {"days": "Sat", "time": "12:45pm"}, {"days": "Sun", "time": "Closed"}], "id": "8207200014", "name": "USPS COLLECTION BOX - PO LOBBY", "address": {"city": "LARAMIE", "state": "WY", "street": "152 N 5TH ST", "postcode": "82072"}}},
{"geometry": {"type": "Point", "coordinates": [-105.5697946907, 41.3227989587]}, "type": "Feature", "properties": {"collection_times": [{"days": "Mon-Fri", "time": "4:00pm"}, {"days": "Sat", "time": "12:45pm"}, {"days": "Sun", "time": "Closed"}], "id": "8207200025", "name": "USPS COLLECTION BOX - BLUE BOX", "address": {"city": "LARAMIE", "state": "WY", "street": "1251 N 21ST ST", "postcode": "82072"}}},
{"geometry": {"type": "Point", "coordinates": [-105.5770298571, 41.3227800092]}, "type": "Feature", "properties": {"collection_times": [{"days": "Mon-Fri", "time": "4:00pm"}, {"days": "Sat-Sun", "time": "Closed"}], "id": "8207200029", "name": "USPS COLLECTION BOX - BLUE BOX", "address": {"city": "LARAMIE", "state": "WY", "street": "1267 N 15TH ST", "postcode": "82072"}}},
{"geometry": {"type": "Point", "coordinates": [-105.5906599979, 41.3132547983]}, "type": "Feature", "properties": {"collection_times": [{"days": "Mon-Fri", "time": "5:00pm"}, {"days": "Sat", "time": "12:45pm"}, {"days": "Sun", "time": "Closed"}], "id": "8207200031", "name": "USPS COLLECTION BOX - APC", "address": {"city": "LARAMIE", "state": "WY", "street": "152 N 5TH ST", "postcode": "82072"}}},
{"geometry": {"type": "Point", "coordinates": [-105.5906599979, 41.3132547983]}, "type": "Feature", "properties": {"collection_times": [{"days": "Mon-Fri", "time": "5:00pm"}, {"days": "Sat", "time": "12:45pm"}, {"days": "Sun", "time": "Closed"}], "id": "8207200032", "name": "USPS COLLECTION BOX - BLUE BOX", "address": {"city": "LARAMIE", "state": "WY", "street": "152 N 5TH ST", "postcode": "82072"}}},
{"geometry": {"type": "Point", "coordinates": [-104.0684766244, 41.1808101699]}, "type": "Feature", "properties": {"collection_times": [{"days": "Mon-Fri", "time": "4:40pm"}, {"days": "Sat", "time": "12:00pm"}, {"days": "Sun", "time": "Closed"}], "id": "8208200000", "name": "USPS COLLECTION BOX - BLUE BOX", "address": {"city": "PINE BLUFFS", "state": "WY", "street": "115 W 4TH ST", "postcode": "82082"}}},
{"geometry": {"type": "Point", "coordinates": [-104.0684766244, 41.1808101699]}, "type": "Feature", "properties": {"collection_times": [{"days": "Mon-Fri", "time": "4:45pm"}, {"days": "Sat", "time": "12:00pm"}, {"days": "Sun", "time": "Closed"}], "id": "8208200001", "name": "USPS COLLECTION BOX - PO LOBBY", "address": {"city": "PINE BLUFFS", "state": "WY", "street": "115 W 4TH ST", "postcode": "82082"}}},
{"geometry": {"type": "Point", "coordinates": [-104.1362676757, 41.2236913525]}, "type": "Feature", "properties": {"collection_times": [{"days": "Mon-Sat", "time": "11:45am"}, {"days": "Sun", "time": "Closed"}], "id": "8208200002", "name": "USPS COLLECTION BOX - BLUE BOX", "address": {"city": "PINE BLUFFS", "state": "WY", "street": "706 PARSONS ST", "postcode": "82082"}}},
{"geometry": {"type": "Point", "coordinates": [-104.0684766244, 41.1808101699]}, "type": "Feature", "properties": {"collection_times": [{"days": "Mon-Fri", "time": "4:45pm"}, {"days": "Sat", "time": "12:00pm"}, {"days": "Sun", "time": "Closed"}], "id": "8208200003", "name": "USPS COLLECTION BOX - PO LOBBY", "address": {"city": "PINE BLUFFS", "state": "WY", "street": "115 W 4TH ST", "postcode": "82082"}}},
{"geometry": {"type": "Point", "coordinates": [-105.9755633983, 41.7411992833]}, "type": "Feature", "properties": {"collection_times": [{"days": "Mon-Fri", "time": "3:15pm"}, {"days": "Sat", "time": "10:15am"}, {"days": "Sun", "time": "Closed"}], "id": "8208300001", "name": "USPS COLLECTION BOX - PO LOBBY", "address": {"city": "ROCK RIVER", "state": "WY", "street": "104 S 5TH ST", "postcode": "82083"}}},
{"geometry": {"type": "Point", "coordinates": [-105.5086918771, 41.0812563926]}, "type": "Feature", "properties": {"collection_times": [{"days": "Mon-Fri", "time": "2:15pm"}, {"days": "Sat", "time": "11:00am"}, {"days": "Sun", "time": "Closed"}], "id": "8208400000", "name": "USPS COLLECTION BOX - BLUE BOX", "address": {"city": "TIE SIDING", "state": "WY", "street": "1741 S US HIGHWAY 287", "postcode": "82084"}}},
{"geometry": {"type": "Point", "coordinates": [-105.5086918771, 41.0812563926]}, "type": "Feature", "properties": {"collection_times": [{"days": "Mon-Fri", "time": "2:15pm"}, {"days": "Sat", "time": "11:00am"}, {"days": "Sun", "time": "Closed"}], "id": "8208400001", "name": "USPS COLLECTION BOX - PO LOBBY", "address": {"city": "TIE SIDING", "state": "WY", "street": "1741 S US HIGHWAY 287", "postcode": "82084"}}}
]}
