{"type": "FeatureCollection", "features": [
{"geometry": {"type": "Point", "coordinates": [-104.952648238, 42.0562798975]}, "type": "Feature", "properties": {"collection_times": [{"days": "Mon-Fri", "time": "5:30pm"}, {"days": "Sat", "time": "2:00pm"}, {"days": "Sun", "time": "Closed"}], "id": "8220100000", "name": "USPS COLLECTION BOX - BLUE BOX", "address": {"city": "WHEATLAND", "state": "WY", "street": "852 WALNUT ST", "postcode": "82201"}}},
{"geometry": {"type": "Point", "coordinates": [-104.952648238, 42.0562798975]}, "type": "Feature", "properties": {"collection_times": [{"days": "Mon-Fri", "time": "5:30pm"}, {"days": "Sat", "time": "2:00pm"}, {"days": "Sun", "time": "Closed"}], "id": "8220100002", "name": "USPS COLLECTION BOX - PO LOBBY", "address": {"city": "WHEATLAND", "state": "WY", "street": "852 WALNUT ST", "postcode": "82201"}}},
{"geometry": {"type": "Point", "coordinates": [-104.952648238, 42.0562798975]}, "type": "Feature", "properties": {"collection_times": [{"days": "Mon-Fri", "time": "5:30pm"}, {"days": "Sat", "time": "2:00pm"}, {"days": "Sun", "time": "Closed"}], "id": "8220100003", "name": "USPS COLLECTION BOX - PO LOBBY", "address": {"city": "WHEATLAND", "state": "WY", "street": "852 WALNUT ST", "postcode": "82201"}}},
{"geometry": {"type": "Point", "coordinates": [-104.952648238, 42.0562798975]}, "type": "Feature", "properties": {"collection_times": [{"days": "Mon-Fri", "time": "5:30pm"}, {"days": "Sat", "time": "2:00pm"}, {"days": "Sun", "time": "Closed"}], "id": "8220100004", "name": "USPS COLLECTION BOX - BLUE BOX", "address": {"city": "WHEATLAND", "state": "WY", "street": "852 WALNUT ST", "postcode": "82201"}}},
{"geometry": {"type": "Point", "coordinates": [-104.8232206682, 41.7567146052]}, "type": "Feature", "properties": {"collection_times": [{"days": "Mon-Fri", "time": "3:00pm"}, {"days": "Sat", "time": "9:30am"}, {"days": "Sun", "time": "Closed"}], "id": "8221000000", "name": "USPS COLLECTION BOX - PO LOBBY", "address": {"city": "CHUGWATER", "state": "WY", "street": "237 2ND ST", "postcode": "82210"}}},
{"geometry": {"type": "Point", "coordinates": [-104.5177181861, 42.2127247362]}, "type": "Feature", "properties": {"collection_times": [{"days": "Mon-Fri", "time": "10:45am"}, {"days": "Sat", "time": "10:00am"}, {"days": "Sun", "time": "Closed"}], "id": "8221200000", "name": "USPS COLLECTION BOX - PO LOBBY", "address": {"city": "FORT LARAMIE", "state": "WY", "street": "105 E MERRIAM ST", "postcode": "82212"}}},
{"geometry": {"type": "Point", "coordinates": [-105.0262255657, 42.5029337436]}, "type": "Feature", "properties": {"collection_times": [{"days": "Mon-Fri", "time": "3:15pm"}, {"days": "Sat", "time": "10:45am"}, {"days": "Sun", "time": "Closed"}], "id": "8221300000", "name": "USPS COLLECTION BOX - BLUE BOX", "address": {"city": "GLENDO", "state": "WY", "street": "118 N YELLOWSTONE HWY", "postcode": "82213"}}},
{"geometry": {"type": "Point", "coordinates": [-105.0262255657, 42.5029337436]}, "type": "Feature", "properties": {"collection_times": [{"days": "Mon-Fri", "time": "3:15pm"}, {"days": "Sat", "time": "10:45am"}, {"days": "Sun", "time": "Closed"}], "id": "8221300001", "name": "USPS COLLECTION BOX - PO LOBBY", "address": {"city": "GLENDO", "state": "WY", "street": "118 N YELLOWSTONE HWY", "postcode": "82213"}}},
{"geometry": {"type": "Point", "coordinates": [-104.7416683532, 42.268776232]}, "type": "Feature", "properties": {"collection_times": [{"days": "Mon-Fri", "time": "3:00pm"}, {"days": "Sat", "time": "9:30am"}, {"days": "Sun", "time": "Closed"}], "id": "8221400000", "name": "USPS COLLECTION BOX - BLUE BOX", "address": {"city": "GUERNSEY", "state": "WY", "street": "101 S WYOMING", "postcode": "82214"}}},
{"geometry": {"type": "Point", "coordinates": [-104.7416683532, 42.268776232]}, "type": "Feature", "properties": {"collection_times": [{"days": "Mon-Fri", "time": "3:00pm"}, {"days": "Sat", "time": "9:30am"}, {"days": "Sun", "time": "Closed"}], "id": "8221400001", "name": "USPS COLLECTION BOX - PO LOBBY", "address": {"city": "GUERNSEY", "state": "WY", "street": "101 S WYOMING", "postcode": "82214"}}},
{"geometry": {"type": "Point", "coordinates": [-104.7221766868, 42.3285128236]}, "type": "Feature", "properties": {"collection_times": [{"days": "Mon-Fri", "time": "10:15am"}, {"days": "Sat", "time": "9:45am"}, {"days": "Sun", "time": "Closed"}], "id": "8221500000", "name": "USPS COLLECTION BOX - PO LOBBY", "address": {"city": "HARTVILLE", "state": "WY", "street": "135 MAIN ST", "postcode": "82215"}}},
{"geometry": {"type": "Point", "coordinates": [-104.2660734413, 41.7844342292]}, "type": "Feature", "properties": {"collection_times": [{"days": "Mon-Fri", "time": "11:45am"}, {"days": "Sat", "time": "10:15am"}, {"days": "Sun", "time": "Closed"}], "id": "8221700000", "name": "USPS COLLECTION BOX - PO LOBBY", "address": {"city": "HAWK SPRINGS", "state": "WY", "street": "114 RAILWAY ST", "postcode": "82217"}}},
{"geometry": {"type": "Point", "coordinates": [-104.2660734413, 41.7844342292]}, "type": "Feature", "properties": {"collection_times": [{"days": "Mon-Fri", "time": "11:45am"}, {"days": "Sat", "time": "10:15am"}, {"days": "Sun", "time": "Closed"}], "id": "8221700001", "name": "USPS COLLECTION BOX - BLUE BOX", "address": {"city": "HAWK SPRINGS", "state": "WY", "street": "114 RAILWAY ST", "postcode": "82217"}}},
{"geometry": {"type": "Point", "coordinates": [-104.1499242612, 41.9287473902]}, "type": "Feature", "properties": {"collection_times": [{"days": "Mon-Fri", "time": "12:00pm"}, {"days": "Sat", "time": "11:30am"}, {"days": "Sun", "time": "Closed"}], "id": "8221800001", "name": "USPS COLLECTION BOX - PO LOBBY", "address": {"city": "HUNTLEY", "state": "WY", "street": "245 BROADWAY", "postcode": "82218"}}},
{"geometry": {"type": "Point", "coordinates": [-104.3329270539, 42.3852328277]}, "type": "Feature", "properties": {"collection_times": [{"days": "Mon-Sat", "time": "10:30am"}, {"days": "Sun", "time": "Closed"}], "id": "8221900000", "name": "USPS COLLECTION BOX - PO LOBBY", "address": {"city": "JAY EM", "state": "WY", "street": "220 AUTUMN ST", "postcode": "82219"}}},
{"geometry": {"type": "Point", "coordinates": [-104.1635197555, 41.6387851529]}, "type": "Feature", "properties": {"collection_times": [{"days": "Mon-Fri", "time": "2:00pm"}, {"days": "Sat", "time": "10:15am"}, {"days": "Sun", "time": "Closed"}], "id": "8222100001", "name": "USPS COLLECTION BOX - PO LOBBY", "address": {"city": "LAGRANGE", "state": "WY", "street": "201 5TH AVE", "postcode": "82221"}}},
{"geometry": {"type": "Point", "coordinates": [-104.6440163467, 42.9987619947]}, "type": "Feature", "properties": {"collection_times": [{"days": "Mon-Fri", "time": "11:45am"}, {"days": "Sat", "time": "10:30am"}, {"days": "Sun", "time": "Closed"}], "id": "8222200000", "name": "USPS COLLECTION BOX - BLUE BOX", "address": {"city": "LANCE CREEK", "state": "WY", "street": "1805 HIGHWAY 270", "postcode": "82222"}}},
{"geometry": {"type": "Point", "coordinates": [-104.6440163467, 42.9987619947]}, "type": "Feature", "properties": {"collection_times": [{"days": "Mon-Fri", "time": "11:45am"}, {"days": "Sat", "time": "10:15am"}, {"days": "Sun", "time": "Closed"}], "id": "8222200001", "name": "USPS COLLECTION BOX - PO LOBBY", "address": {"city": "LANCE CREEK", "state": "WY", "street": "1805 HIGHWAY 270", "postcode": "82222"}}},
{"geometry": {"type": "Point", "coordinates": [-104.345448806, 42.1350542222]}, "type": "Feature", "properties": {"collection_times": [{"days": "Mon-Fri", "time": "4:00pm"}, {"days": "Sat", "time": "10:00am"}, {"days": "Sun", "time": "Closed"}], "id": "8222300000", "name": "USPS COLLECTION BOX - BLUE BOX", "address": {"city": "LINGLE", "state": "WY", "street": "209 MAIN ST", "postcode": "82223"}}},
{"geometry": {"type": "Point", "coordinates": [-104.345448806, 42.1350542222]}, "type": "Feature", "properties": {"collection_times": [{"days": "Mon-Fri", "time": "4:00pm"}, {"days": "Sat", "time": "10:15am"}, {"days": "Sun", "time": "Closed"}], "id": "8222300001", "name": "USPS COLLECTION BOX - PO LOBBY", "address": {"city": "LINGLE", "state": "WY", "street": "209 MAIN ST", "postcode": "82223"}}},
{"geometry": {"type": "Point", "coordinates": [-104.4523991629, 42.7625547848]}, "type": "Feature", "properties": {"collection_times": [{"days": "Mon-Fri", "time": "3:00pm"}, {"days": "Sat", "time": "10:00am"}, {"days": "Sun", "time": "Closed"}], "id": "8222500000", "name": "USPS COLLECTION BOX - PO LOBBY", "address": {"city": "LUSK", "state": "WY", "street": "116 W 3RD ST", "postcode": "82225"}}},
{"geometry": {"type": "Point", "coordinates": [-104.4523991629, 42.7625547848]}, "type": "Feature", "properties": {"collection_times": [{"days": "Mon-Fri", "time": "3:00pm"}, {"days": "Sat", "time": "10:00am"}, {"days": "Sun", "time": "Closed"}], "id": "8222500001", "name": "USPS COLLECTION BOX - BLUE BOX", "address": {"city": "LUSK", "state": "WY", "street": "116 W 3RD ST", "postcode": "82225"}}},
{"geometry": {"type": "Point", "coordinates": [-104.4523991629, 42.7625547848]}, "type": "Feature", "properties": {"collection_times": [{"days": "Mon-Fri", "time": "3:00pm"}, {"days": "Sat", "time": "10:00am"}, {"days": "Sun", "time": "Closed"}], "id": "8222500002", "name": "USPS COLLECTION BOX - PO LOBBY", "address": {"city": "LUSK", "state": "WY", "street": "116 W 3RD ST", "postcode": "82225"}}},
{"geometry": {"type": "Point", "coordinates": [-104.4523991629, 42.7625547848]}, "type": "Feature", "properties": {"collection_times": [{"days": "Mon-Fri", "time": "3:00pm"}, {"days": "Sat", "time": "10:00am"}, {"days": "Sun", "time": "Closed"}], "id": "8222500003", "name": "USPS COLLECTION BOX - PO LOBBY", "address": {"city": "LUSK", "state": "WY", "street": "116 W 3RD ST", "postcode": "82225"}}},
{"geometry": {"type": "Point", "coordinates": [-107.5516065992, 42.9996012384]}, "type": "Feature", "properties": {"collection_times": [{"days": "Mon-Fri", "time": "10:30am"}, {"days": "Sat", "time": "10:00am"}, {"days": "Sun", "time": "Closed"}], "id": "8222500004", "name": "USPS COLLECTION BOX - BLUE BOX", "address": {"city": "LUSK", "state": "WY", "street": "405 S MAIN ST", "postcode": "82225"}}},
{"geometry": {"type": "Point", "coordinates": [-104.6143204488, 42.7769879911]}, "type": "Feature", "properties": {"collection_times": [{"days": "Mon-Fri", "time": "12:00pm"}, {"days": "Sat", "time": "10:30am"}, {"days": "Sun", "time": "Closed"}], "id": "8222700000", "name": "USPS COLLECTION BOX - BLUE BOX", "address": {"city": "MANVILLE", "state": "WY", "street": "225 9TH AVE", "postcode": "82227"}}},
{"geometry": {"type": "Point", "coordinates": [-104.6143204488, 42.7769879911]}, "type": "Feature", "properties": {"collection_times": [{"days": "Mon-Fri", "time": "11:30am"}, {"days": "Sat", "time": "10:30am"}, {"days": "Sun", "time": "Closed"}], "id": "8222700001", "name": "USPS COLLECTION BOX - PO LOBBY", "address": {"city": "MANVILLE", "state": "WY", "street": "225 9TH AVE", "postcode": "82227"}}},
{"geometry": {"type": "Point", "coordinates": [-104.1843015793, 42.0654789826]}, "type": "Feature", "properties": {"collection_times": [{"days": "Mon-Fri", "time": "4:00pm"}, {"days": "Sat", "time": "12:30pm"}, {"days": "Sun", "time": "Closed"}], "id": "8224000009", "name": "USPS COLLECTION BOX - BLUE BOX", "address": {"city": "TORRINGTON", "state": "WY", "street": "2145 MAIN ST", "postcode": "82240"}}},
{"geometry": {"type": "Point", "coordinates": [-104.1843015793, 42.0654789826]}, "type": "Feature", "properties": {"collection_times": [{"days": "Mon-Fri", "time": "4:00pm"}, {"days": "Sat", "time": "12:30pm"}, {"days": "Sun", "time": "Closed"}], "id": "8224000010", "name": "USPS COLLECTION BOX - BLUE BOX", "address": {"city": "TORRINGTON", "state": "WY", "street": "2145 MAIN ST", "postcode": "82240"}}},
{"geometry": {"type": "Point", "coordinates": [-104.1843015793, 42.0654789826]}, "type": "Feature", "properties": {"collection_times": [{"days": "Mon-Fri", "time": "4:00pm"}, {"days": "Sat", "time": "12:30pm"}, {"days": "Sun", "time": "Closed"}], "id": "8224000011", "name": "USPS COLLECTION BOX - BLUE BOX", "address": {"city": "TORRINGTON", "state": "WY", "street": "2145 MAIN ST", "postcode": "82240"}}},
{"geometry": {"type": "Point", "coordinates": [-104.1843015793, 42.0654789826]}, "type": "Feature", "properties": {"collection_times": [{"days": "Mon-Fri", "time": "4:00pm"}, {"days": "Sat", "time": "12:30pm"}, {"days": "Sun", "time": "Closed"}], "id": "8224000012", "name": "USPS COLLECTION BOX - PO LOBBY", "address": {"city": "TORRINGTON", "state": "WY", "street": "2145 MAIN ST", "postcode": "82240"}}},
{"geometry": {"type": "Point", "coordinates": [-104.1843015793, 42.0654789826]}, "type": "Feature", "properties": {"collection_times": [{"days": "Mon-Fri", "time": "4:00pm"}, {"days": "Sat", "time": "12:30pm"}, {"days": "Sun", "time": "Closed"}], "id": "8224000013", "name": "USPS COLLECTION BOX - PO LOBBY", "address": {"city": "TORRINGTON", "state": "WY", "street": "2145 MAIN ST", "postcode": "82240"}}},
{"geometry": {"type": "Point", "coordinates": [-104.1843015793, 42.0654789826]}, "type": "Feature", "properties": {"collection_times": [{"days": "Mon-Fri", "time": "4:00pm"}, {"days": "Sat", "time": "12:30pm"}, {"days": "Sun", "time": "Closed"}], "id": "8224000014", "name": "USPS COLLECTION BOX - PO LOBBY", "address": {"city": "TORRINGTON", "state": "WY", "street": "2145 MAIN ST", "postcode": "82240"}}},
{"geometry": {"type": "Point", "coordinates": [-104.3620701961, 41.9740690113]}, "type": "Feature", "properties": {"collection_times": [{"days": "Mon-Sat", "time": "11:15am"}, {"days": "Sun", "time": "Closed"}], "id": "8224300000", "name": "USPS COLLECTION BOX - PO LOBBY", "address": {"city": "VETERAN", "state": "WY", "street": "' HWY 154", "postcode": "82243"}}},
{"geometry": {"type": "Point", "coordinates": [-104.3620701961, 41.9740690113]}, "type": "Feature", "properties": {"collection_times": [{"days": "Mon-Sat", "time": "11:15am"}, {"days": "Sun", "time": "Closed"}], "id": "8224300001", "name": "USPS COLLECTION BOX - PO LOBBY", "address": {"city": "VETERAN", "state": "WY", "street": "' HWY 154", "postcode": "82243"}}},
{"geometry": {"type": "Point", "coordinates": [-104.5045124183, 41.9872538963]}, "type": "Feature", "properties": {"collection_times": [{"days": "Mon-Fri", "time": "10:45am"}, {"days": "Sat", "time": "9:15am"}, {"days": "Sun", "time": "Closed"}], "id": "8224400000", "name": "USPS COLLECTION BOX - PO LOBBY", "address": {"city": "YODER", "state": "WY", "street": "PO BOX 9998", "postcode": "82244"}}}
]}
