{"type": "FeatureCollection", "features": [
{"geometry": {"type": "Point", "coordinates": [-107.2398258643, 41.786769437]}, "type": "Feature", "properties": {"collection_times": [{"days": "Mon-Fri", "time": "5:00pm"}, {"days": "Sat", "time": "1:30pm"}, {"days": "Sun", "time": "Closed"}], "id": "8230100000", "name": "USPS COLLECTION BOX - BLUE BOX", "address": {"city": "RAWLINS", "state": "WY", "street": "106 5TH ST", "postcode": "82301"}}},
{"geometry": {"type": "Point", "coordinates": [-107.2403904006, 41.7876093627]}, "type": "Feature", "properties": {"collection_times": [{"days": "Mon-Fri", "time": "3:20pm"}, {"days": "Sat", "time": "10:30am"}, {"days": "Sun", "time": "Closed"}], "id": "8230100002", "name": "USPS COLLECTION BOX - BLUE BOX", "address": {"city": "RAWLINS", "state": "WY", "street": "521 W CEDAR ST", "postcode": "82301"}}},
{"geometry": {"type": "Point", "coordinates": [-107.2370695887, 41.7893757444]}, "type": "Feature", "properties": {"collection_times": [{"days": "Mon-Fri", "time": "3:20pm"}, {"days": "Sat", "time": "10:30am"}, {"days": "Sun", "time": "Closed"}], "id": "8230100003", "name": "USPS COLLECTION BOX - BLUE BOX", "address": {"city": "RAWLINS", "state": "WY", "street": "215 W BUFFALO ST", "postcode": "82301"}}},
{"geometry": {"type": "Point", "coordinates": [-107.2398592569, 41.7897911297]}, "type": "Feature", "properties": {"collection_times": [{"days": "Mon-Fri", "time": "3:20pm"}, {"days": "Sat", "time": "10:30am"}, {"days": "Sun", "time": "Closed"}], "id": "8230100004", "name": "USPS COLLECTION BOX - BLUE BOX", "address": {"city": "RAWLINS", "state": "WY", "street": "415 W PINE ST", "postcode": "82301"}}},
{"geometry": {"type": "Point", "coordinates": [-107.2159454443, 41.7943148881]}, "type": "Feature", "properties": {"collection_times": [{"days": "Mon-Fri", "time": "3:20pm"}, {"days": "Sat", "time": "10:30am"}, {"days": "Sun", "time": "Closed"}], "id": "8230100010", "name": "USPS COLLECTION BOX - BLUE BOX", "address": {"city": "RAWLINS", "state": "WY", "street": "602 N HIGLEY BLVD", "postcode": "82301"}}},
{"geometry": {"type": "Point", "coordinates": [-107.2398258643, 41.786769437]}, "type": "Feature", "properties": {"collection_times": [{"days": "Mon-Fri", "time": "5:00pm"}, {"days": "Sat", "time": "1:30pm"}, {"days": "Sun", "time": "Closed"}], "id": "8230100023", "name": "USPS COLLECTION BOX - BLUE BOX", "address": {"city": "RAWLINS", "state": "WY", "street": "106 5TH ST", "postcode": "82301"}}},
{"geometry": {"type": "Point", "coordinates": [-107.2398258643, 41.786769437]}, "type": "Feature", "properties": {"collection_times": [{"days": "Mon-Fri", "time": "4:20pm"}, {"days": "Sat", "time": "1:30pm"}, {"days": "Sun", "time": "Closed"}], "id": "8230100024", "name": "USPS COLLECTION BOX - PO LOBBY", "address": {"city": "RAWLINS", "state": "WY", "street": "106 5TH ST", "postcode": "82301"}}},
{"geometry": {"type": "Point", "coordinates": [-107.2398258643, 41.786769437]}, "type": "Feature", "properties": {"collection_times": [{"days": "Mon-Fri", "time": "4:20pm"}, {"days": "Sat", "time": "1:30pm"}, {"days": "Sun", "time": "Closed"}], "id": "8230100025", "name": "USPS COLLECTION BOX - PO LOBBY", "address": {"city": "RAWLINS", "state": "WY", "street": "106 5TH ST", "postcode": "82301"}}},
{"geometry": {"type": "Point", "coordinates": [-107.2398258643, 41.786769437]}, "type": "Feature", "properties": {"collection_times": [{"days": "Mon-Fri", "time": "4:20pm"}, {"days": "Sat", "time": "1:30pm"}, {"days": "Sun", "time": "Closed"}], "id": "8230100027", "name": "USPS COLLECTION BOX - PO LOBBY", "address": {"city": "RAWLINS", "state": "WY", "street": "106 5TH ST", "postcode": "82301"}}},
{"geometry": {"type": "Point", "coordinates": [-107.646087308, 41.033223234]}, "type": "Feature", "properties": {"collection_times": [{"days": "Mon-Fri", "time": "1:50pm"}, {"days": "Sat", "time": "10:30am"}, {"days": "Sun", "time": "Closed"}], "id": "8232100000", "name": "USPS COLLECTION BOX - BLUE BOX", "address": {"city": "BAGGS", "state": "WY", "street": "55 S PENLAND ST", "postcode": "82321"}}},
{"geometry": {"type": "Point", "coordinates": [-107.646087308, 41.033223234]}, "type": "Feature", "properties": {"collection_times": [{"days": "Mon-Fri", "time": "1:50pm"}, {"days": "Sat", "time": "10:30am"}, {"days": "Sun", "time": "Closed"}], "id": "8232100001", "name": "USPS COLLECTION BOX - PO LOBBY", "address": {"city": "BAGGS", "state": "WY", "street": "55 S PENLAND ST", "postcode": "82321"}}},
{"geometry": {"type": "Point", "coordinates": [-107.5588191636, 42.2435765665]}, "type": "Feature", "properties": {"collection_times": [{"days": "Mon-Fri", "time": "1:20pm"}, {"days": "Sat", "time": "9:00am"}, {"days": "Sun", "time": "Closed"}], "id": "8232200001", "name": "USPS COLLECTION BOX - PO LOBBY", "address": {"city": "BAIROIL", "state": "WY", "street": "503 ANTELOPE DR", "postcode": "82322"}}},
{"geometry": {"type": "Point", "coordinates": [-107.5351946116, 41.0972755852]}, "type": "Feature", "properties": {"collection_times": [{"days": "Mon-Fri", "time": "12:30pm"}, {"days": "Sat", "time": "10:20am"}, {"days": "Sun", "time": "Closed"}], "id": "8232300000", "name": "USPS COLLECTION BOX - PO LOBBY", "address": {"city": "DIXON", "state": "WY", "street": "207 HIGHWAY 70", "postcode": "82323"}}},
{"geometry": {"type": "Point", "coordinates": [-106.4142620137, 41.6880351518]}, "type": "Feature", "properties": {"collection_times": [{"days": "Mon-Fri", "time": "3:15pm"}, {"days": "Sat", "time": "9:30am"}, {"days": "Sun", "time": "Closed"}], "id": "8232400000", "name": "USPS COLLECTION BOX - PO LOBBY", "address": {"city": "ELK MOUNTAIN", "state": "WY", "street": "211 BRIDGE ST", "postcode": "82324"}}},
{"geometry": {"type": "Point", "coordinates": [-106.7912068792, 41.2073846259]}, "type": "Feature", "properties": {"collection_times": [{"days": "Mon-Fri", "time": "1:20pm"}, {"days": "Sat", "time": "9:00am"}, {"days": "Sun", "time": "Closed"}], "id": "8232500000", "name": "USPS COLLECTION BOX - BLUE BOX", "address": {"city": "ENCAMPMENT", "state": "WY", "street": "622 MCCAFFREY AVE", "postcode": "82325"}}},
{"geometry": {"type": "Point", "coordinates": [-106.7912068792, 41.2073846259]}, "type": "Feature", "properties": {"collection_times": [{"days": "Mon-Fri", "time": "2:05pm"}, {"days": "Sat", "time": "9:00am"}, {"days": "Sun", "time": "Closed"}], "id": "8232500001", "name": "USPS COLLECTION BOX - PO LOBBY", "address": {"city": "ENCAMPMENT", "state": "WY", "street": "622 MCCAFFREY AVE", "postcode": "82325"}}},
{"geometry": {"type": "Point", "coordinates": [-106.5520929743, 41.8719481831]}, "type": "Feature", "properties": {"collection_times": [{"days": "Mon-Fri", "time": "2:20pm"}, {"days": "Sat", "time": "9:45am"}, {"days": "Sun", "time": "Closed"}], "id": "8232700000", "name": "USPS COLLECTION BOX - PO LOBBY", "address": {"city": "HANNA", "state": "WY", "street": "1001 JADE DR", "postcode": "82327"}}},
{"geometry": {"type": "Point", "coordinates": [-106.5520929743, 41.8719481831]}, "type": "Feature", "properties": {"collection_times": [{"days": "Mon-Fri", "time": "2:20pm"}, {"days": "Sat", "time": "9:45am"}, {"days": "Sun", "time": "Closed"}], "id": "8232700001", "name": "USPS COLLECTION BOX - BLUE BOX", "address": {"city": "HANNA", "state": "WY", "street": "1001 JADE DR", "postcode": "82327"}}},
{"geometry": {"type": "Point", "coordinates": [-106.1592524157, 42.0737868074]}, "type": "Feature", "properties": {"collection_times": [{"days": "Mon-Fri", "time": "2:10pm"}, {"days": "Sat", "time": "10:00am"}, {"days": "Sun", "time": "Closed"}], "id": "8232900000", "name": "USPS COLLECTION BOX - PO LOBBY", "address": {"city": "MEDICINE BOW", "state": "WY", "street": "113 CEDAR ST", "postcode": "82329"}}},
{"geometry": {"type": "Point", "coordinates": [-106.8077762468, 41.45568216]}, "type": "Feature", "properties": {"collection_times": [{"days": "Mon-Fri", "time": "2:50pm"}, {"days": "Sat", "time": "9:30am"}, {"days": "Sun", "time": "Closed"}], "id": "8233100000", "name": "USPS COLLECTION BOX - BLUE BOX", "address": {"city": "SARATOGA", "state": "WY", "street": "105 W MAIN ST", "postcode": "82331"}}},
{"geometry": {"type": "Point", "coordinates": [-106.8077762468, 41.45568216]}, "type": "Feature", "properties": {"collection_times": [{"days": "Mon-Fri", "time": "2:50pm"}, {"days": "Sat", "time": "9:30am"}, {"days": "Sun", "time": "Closed"}], "id": "8233100001", "name": "USPS COLLECTION BOX - PO LOBBY", "address": {"city": "SARATOGA", "state": "WY", "street": "105 W MAIN ST", "postcode": "82331"}}},
{"geometry": {"type": "Point", "coordinates": [-106.8077762468, 41.45568216]}, "type": "Feature", "properties": {"collection_times": [{"days": "Mon-Fri", "time": "2:50pm"}, {"days": "Sat", "time": "9:30am"}, {"days": "Sun", "time": "Closed"}], "id": "8233100002", "name": "USPS COLLECTION BOX - PO LOBBY", "address": {"city": "SARATOGA", "state": "WY", "street": "105 W MAIN ST", "postcode": "82331"}}},
{"geometry": {"type": "Point", "coordinates": [-107.348271873, 41.0836559401]}, "type": "Feature", "properties": {"collection_times": [{"days": "Mon-Fri", "time": "1:10pm"}, {"days": "Sat", "time": "10:10am"}, {"days": "Sun", "time": "Closed"}], "id": "8233200000", "name": "USPS COLLECTION BOX - PO LOBBY", "address": {"city": "SAVERY", "state": "WY", "street": "1132 STATE HIGHWAY 70", "postcode": "82332"}}},
{"geometry": {"type": "Point", "coordinates": [-107.0443304393, 41.7983122222]}, "type": "Feature", "properties": {"collection_times": [{"days": "Mon-Fri", "time": "12:45pm"}, {"days": "Sat", "time": "9:30am"}, {"days": "Sun", "time": "Closed"}], "id": "8233400000", "name": "USPS COLLECTION BOX - PO LOBBY", "address": {"city": "SINCLAIR", "state": "WY", "street": "100 N 5TH ST", "postcode": "82334"}}},
{"geometry": {"type": "Point", "coordinates": [-107.9717774164, 41.6711062249]}, "type": "Feature", "properties": {"collection_times": [{"days": "Mon-Fri", "time": "2:35pm"}, {"days": "Sat", "time": "9:30am"}, {"days": "Sun", "time": "Closed"}], "id": "8233600000", "name": "USPS COLLECTION BOX - PO LOBBY", "address": {"city": "WAMSUTTER", "state": "WY", "street": "302 BROADWAY ST", "postcode": "82336"}}}
]}
