{"type": "FeatureCollection", "features": [
{"geometry": {"type": "Point", "coordinates": [-107.9599509253, 44.0170385641]}, "type": "Feature", "properties": {"collection_times": [{"days": "Mon-Sat", "time": "5:00pm"}, {"days": "Sun", "time": "Closed"}], "id": "8240100000", "name": "USPS COLLECTION BOX - BLUE BOX", "address": {"city": "WORLAND", "state": "WY", "street": "119 N 7TH ST", "postcode": "82401"}}},
{"geometry": {"type": "Point", "coordinates": [-107.9599509253, 44.0170385641]}, "type": "Feature", "properties": {"collection_times": [{"days": "Mon-Sat", "time": "5:00pm"}, {"days": "Sun", "time": "Closed"}], "id": "8240100001", "name": "USPS COLLECTION BOX - BLUE BOX", "address": {"city": "WORLAND", "state": "WY", "street": "119 N 7TH ST", "postcode": "82401"}}},
{"geometry": {"type": "Point", "coordinates": [-107.9599509253, 44.0170385641]}, "type": "Feature", "properties": {"collection_times": [{"days": "Mon-Sat", "time": "5:00pm"}, {"days": "Sun", "time": "Closed"}], "id": "8240100002", "name": "USPS COLLECTION BOX - BLUE BOX", "address": {"city": "WORLAND", "state": "WY", "street": "119 N 7TH ST", "postcode": "82401"}}},
{"geometry": {"type": "Point", "coordinates": [-107.9537741886, 44.0110268404]}, "type": "Feature", "properties": {"collection_times": [{"days": "Mon-Sat", "time": "12:30pm"}, {"days": "Sun", "time": "Closed"}], "id": "8240100004", "name": "USPS COLLECTION BOX - BLUE BOX", "address": {"city": "WORLAND", "state": "WY", "street": "612 S 12TH ST", "postcode": "82401"}}},
{"geometry": {"type": "Point", "coordinates": [-107.9557155806, 44.017058408]}, "type": "Feature", "properties": {"collection_times": [{"days": "Mon-Sat", "time": "1:15pm"}, {"days": "Sun", "time": "Closed"}], "id": "8240100005", "name": "USPS COLLECTION BOX - BLUE BOX", "address": {"city": "WORLAND", "state": "WY", "street": "120 N 10TH ST", "postcode": "82401"}}},
{"geometry": {"type": "Point", "coordinates": [-107.9502730986, 44.0168878535]}, "type": "Feature", "properties": {"collection_times": [{"days": "Mon-Sat", "time": "1:15pm"}, {"days": "Sun", "time": "Closed"}], "id": "8240100006", "name": "USPS COLLECTION BOX - BLUE BOX", "address": {"city": "WORLAND", "state": "WY", "street": "1401 BIG HORN AVE", "postcode": "82401"}}},
{"geometry": {"type": "Point", "coordinates": [-107.9599509253, 44.0170385641]}, "type": "Feature", "properties": {"collection_times": [{"days": "Mon-Sat", "time": "5:00pm"}, {"days": "Sun", "time": "Closed"}], "id": "8240100007", "name": "USPS COLLECTION BOX - PO LOBBY", "address": {"city": "WORLAND", "state": "WY", "street": "119 N 7TH ST", "postcode": "82401"}}},
{"geometry": {"type": "Point", "coordinates": [-107.9599509253, 44.0170385641]}, "type": "Feature", "properties": {"collection_times": [{"days": "Mon-Sat", "time": "5:00pm"}, {"days": "Sun", "time": "Closed"}], "id": "8240100008", "name": "USPS COLLECTION BOX - PO LOBBY", "address": {"city": "WORLAND", "state": "WY", "street": "119 N 7TH ST", "postcode": "82401"}}},
{"geometry": {"type": "Point", "coordinates": [-107.9599509253, 44.0170385641]}, "type": "Feature", "properties": {"collection_times": [{"days": "Mon-Sat", "time": "5:00pm"}, {"days": "Sun", "time": "Closed"}], "id": "8240100009", "name": "USPS COLLECTION BOX - PO LOBBY", "address": {"city": "WORLAND", "state": "WY", "street": "119 N 7TH ST", "postcode": "82401"}}},
{"geometry": {"type": "Point", "coordinates": [-107.9599509253, 44.0170385641]}, "type": "Feature", "properties": {"collection_times": [{"days": "Mon-Sat", "time": "5:00pm"}, {"days": "Sun", "time": "Closed"}], "id": "8240100010", "name": "USPS COLLECTION BOX - PO LOBBY", "address": {"city": "WORLAND", "state": "WY", "street": "119 N 7TH ST", "postcode": "82401"}}},
{"geometry": {"type": "Point", "coordinates": [-108.0390053784, 44.3811378786]}, "type": "Feature", "properties": {"collection_times": [{"days": "Mon-Fri", "time": "3:20pm"}, {"days": "Sat", "time": "1:00pm"}, {"days": "Sun", "time": "Closed"}], "id": "8241000000", "name": "USPS COLLECTION BOX - BLUE BOX", "address": {"city": "BASIN", "state": "WY", "street": "402 W C ST", "postcode": "82410"}}},
{"geometry": {"type": "Point", "coordinates": [-108.0390053784, 44.3811378786]}, "type": "Feature", "properties": {"collection_times": [{"days": "Mon-Fri", "time": "3:20pm"}, {"days": "Sat", "time": "1:00pm"}, {"days": "Sun", "time": "Closed"}], "id": "8241000001", "name": "USPS COLLECTION BOX - PO LOBBY", "address": {"city": "BASIN", "state": "WY", "street": "402 W C ST", "postcode": "82410"}}},
{"geometry": {"type": "Point", "coordinates": [-108.4315869539, 44.4452948074]}, "type": "Feature", "properties": {"collection_times": [{"days": "Mon-Fri", "time": "2:30pm"}, {"days": "Sat", "time": "10:00am"}, {"days": "Sun", "time": "Closed"}], "id": "8241100000", "name": "USPS COLLECTION BOX - BLUE BOX", "address": {"city": "BURLINGTON", "state": "WY", "street": "211 S MAIN ST", "postcode": "82411"}}},
{"geometry": {"type": "Point", "coordinates": [-108.4315869539, 44.4452948074]}, "type": "Feature", "properties": {"collection_times": [{"days": "Mon-Fri", "time": "2:30pm"}, {"days": "Sat", "time": "10:00am"}, {"days": "Sun", "time": "Closed"}], "id": "8241100001", "name": "USPS COLLECTION BOX - PO LOBBY", "address": {"city": "BURLINGTON", "state": "WY", "street": "211 S MAIN ST", "postcode": "82411"}}},
{"geometry": {"type": "Point", "coordinates": [-108.5069987731, 44.7962325339]}, "type": "Feature", "properties": {"collection_times": [{"days": "Mon-Fri", "time": "1:30pm"}, {"days": "Sat", "time": "11:30am"}, {"days": "Sun", "time": "Closed"}], "id": "8241200000", "name": "USPS COLLECTION BOX - BLUE BOX", "address": {"city": "BYRON", "state": "WY", "street": "120 E MAIN ST", "postcode": "82412"}}},
{"geometry": {"type": "Point", "coordinates": [-108.5069987731, 44.7962325339]}, "type": "Feature", "properties": {"collection_times": [{"days": "Mon-Fri", "time": "1:30pm"}, {"days": "Sat", "time": "11:30am"}, {"days": "Sun", "time": "Closed"}], "id": "8241200001", "name": "USPS COLLECTION BOX - PO LOBBY", "address": {"city": "BYRON", "state": "WY", "street": "120 E MAIN ST", "postcode": "82412"}}},
{"geometry": {"type": "Point", "coordinates": [-108.5069987731, 44.7962325339]}, "type": "Feature", "properties": {"collection_times": [{"days": "Mon-Fri", "time": "1:30pm"}, {"days": "Sat", "time": "11:30am"}, {"days": "Sun", "time": "Closed"}], "id": "8241200002", "name": "USPS COLLECTION BOX - PO LOBBY", "address": {"city": "BYRON", "state": "WY", "street": "120 E MAIN ST", "postcode": "82412"}}},
{"geometry": {"type": "Point", "coordinates": [-109.0541500192, 44.518638374]}, "type": "Feature", "properties": {"collection_times": [{"days": "Mon-Fri", "time": "3:05pm"}, {"days": "Sat", "time": "12:30pm"}, {"days": "Sun", "time": "Closed"}], "id": "8241400001", "name": "USPS COLLECTION BOX - BLUE BOX", "address": {"city": "CODY", "state": "WY", "street": "1825 17TH ST", "postcode": "82414"}}},
{"geometry": {"type": "Point", "coordinates": [-109.0548040625, 44.5261196811]}, "type": "Feature", "properties": {"collection_times": [{"days": "Mon-Fri", "time": "3:15pm"}, {"days": "Sat", "time": "12:35pm"}, {"days": "Sun", "time": "Closed"}], "id": "8241400003", "name": "USPS COLLECTION BOX - BLUE BOX", "address": {"city": "CODY", "state": "WY", "street": "1725 SHERIDAN AVE", "postcode": "82414"}}},
{"geometry": {"type": "Point", "coordinates": [-109.0623277517, 44.5260935621]}, "type": "Feature", "properties": {"collection_times": [{"days": "Mon-Fri", "time": "3:25pm"}, {"days": "Sat", "time": "12:40pm"}, {"days": "Sun", "time": "Closed"}], "id": "8241400007", "name": "USPS COLLECTION BOX - BLUE BOX", "address": {"city": "CODY", "state": "WY", "street": "1291 SHERIDAN AVE", "postcode": "82414"}}},
{"geometry": {"type": "Point", "coordinates": [-109.0681397951, 44.5259947012]}, "type": "Feature", "properties": {"collection_times": [{"days": "Mon-Fri", "time": "3:45pm"}, {"days": "Sat", "time": "12:55pm"}, {"days": "Sun", "time": "Closed"}], "id": "8241400010", "name": "USPS COLLECTION BOX - BLUE BOX", "address": {"city": "CODY", "state": "WY", "street": "1002 SHERIDAN AVE", "postcode": "82414"}}},
{"geometry": {"type": "Point", "coordinates": [-109.0800545574, 44.5170255976]}, "type": "Feature", "properties": {"collection_times": [{"days": "Mon-Fri", "time": "3:35pm"}, {"days": "Sat", "time": "12:50pm"}, {"days": "Sun", "time": "Closed"}], "id": "8241400011", "name": "USPS COLLECTION BOX - BLUE BOX", "address": {"city": "CODY", "state": "WY", "street": "321 YELLOWSTONE AVE", "postcode": "82414"}}},
{"geometry": {"type": "Point", "coordinates": [-109.0614998014, 44.5188584442]}, "type": "Feature", "properties": {"collection_times": [{"days": "Mon-Sat", "time": "4:15pm"}, {"days": "Sun", "time": "Closed"}], "id": "8241400012", "name": "USPS COLLECTION BOX - BLUE BOX", "address": {"city": "CODY", "state": "WY", "street": "1301 STAMPEDE AVE", "postcode": "82414"}}},
{"geometry": {"type": "Point", "coordinates": [-109.0614998014, 44.5188584442]}, "type": "Feature", "properties": {"collection_times": [{"days": "Mon-Sat", "time": "4:15pm"}, {"days": "Sun", "time": "Closed"}], "id": "8241400013", "name": "USPS COLLECTION BOX - BLUE BOX", "address": {"city": "CODY", "state": "WY", "street": "1301 STAMPEDE AVE", "postcode": "82414"}}},
{"geometry": {"type": "Point", "coordinates": [-109.0614998014, 44.5188584442]}, "type": "Feature", "properties": {"collection_times": [{"days": "Mon-Sat", "time": "4:15pm"}, {"days": "Sun", "time": "Closed"}], "id": "8241400014", "name": "USPS COLLECTION BOX - PO LOBBY", "address": {"city": "CODY", "state": "WY", "street": "1301 STAMPEDE AVE", "postcode": "82414"}}},
{"geometry": {"type": "Point", "coordinates": [-109.0614998014, 44.5188584442]}, "type": "Feature", "properties": {"collection_times": [{"days": "Mon-Sat", "time": "4:15pm"}, {"days": "Sun", "time": "Closed"}], "id": "8241400015", "name": "USPS COLLECTION BOX - PO LOBBY", "address": {"city": "CODY", "state": "WY", "street": "1301 STAMPEDE AVE", "postcode": "82414"}}},
{"geometry": {"type": "Point", "coordinates": [-109.0614998014, 44.5188584442]}, "type": "Feature", "properties": {"collection_times": [{"days": "Mon-Sat", "time": "4:15pm"}, {"days": "Sun", "time": "Closed"}], "id": "8241400017", "name": "USPS COLLECTION BOX - BLUE BOX", "address": {"city": "CODY", "state": "WY", "street": "1301 STAMPEDE AVE", "postcode": "82414"}}},
{"geometry": {"type": "Point", "coordinates": [-109.0614998014, 44.5188584442]}, "type": "Feature", "properties": {"collection_times": [{"days": "Mon-Sat", "time": "4:15pm"}, {"days": "Sun", "time": "Closed"}], "id": "8241400025", "name": "USPS COLLECTION BOX - BLUE BOX", "address": {"city": "CODY", "state": "WY", "street": "1301 STAMPEDE AVE", "postcode": "82414"}}},
{"geometry": {"type": "Point", "coordinates": [-108.4692456738, 44.8834616297]}, "type": "Feature", "properties": {"collection_times": [{"days": "Mon-Fri", "time": "1:15pm"}, {"days": "Sat", "time": "12:00pm"}, {"days": "Sun", "time": "Closed"}], "id": "8242000001", "name": "USPS COLLECTION BOX - PO LOBBY", "address": {"city": "COWLEY", "state": "WY", "street": "71 E MAIN ST", "postcode": "82420"}}},
{"geometry": {"type": "Point", "coordinates": [-108.5948482339, 44.891484139]}, "type": "Feature", "properties": {"collection_times": [{"days": "Mon-Fri", "time": "1:15pm"}, {"days": "Sat", "time": "11:30am"}, {"days": "Sun", "time": "Closed"}], "id": "8242100000", "name": "USPS COLLECTION BOX - PO LOBBY", "address": {"city": "DEAVER", "state": "WY", "street": "18 CENTRAL AVE", "postcode": "82421"}}},
{"geometry": {"type": "Point", "coordinates": [-108.391301408, 44.5057430926]}, "type": "Feature", "properties": {"collection_times": [{"days": "Mon-Fri", "time": "10:15am"}, {"days": "Sat", "time": "12:00pm"}, {"days": "Sun", "time": "Closed"}], "id": "8242200001", "name": "USPS COLLECTION BOX - PO LOBBY", "address": {"city": "EMBLEM", "state": "WY", "street": "929 US HIGHWAY 20", "postcode": "82422"}}},
{"geometry": {"type": "Point", "coordinates": [-108.6214840174, 44.9691099772]}, "type": "Feature", "properties": {"collection_times": [{"days": "Mon-Fri", "time": "1:00pm"}, {"days": "Sat", "time": "12:00pm"}, {"days": "Sun", "time": "Closed"}], "id": "8242300000", "name": "USPS COLLECTION BOX - PO LOBBY", "address": {"city": "FRANNIE", "state": "WY", "street": "392 ASH ST", "postcode": "82423"}}},
{"geometry": {"type": "Point", "coordinates": [-108.0528887958, 44.4889280631]}, "type": "Feature", "properties": {"collection_times": [{"days": "Mon-Fri", "time": "3:00pm"}, {"days": "Sat", "time": "1:00pm"}, {"days": "Sun", "time": "Closed"}], "id": "8242600000", "name": "USPS COLLECTION BOX - PO LOBBY", "address": {"city": "GREYBULL", "state": "WY", "street": "401 GREYBULL AVE", "postcode": "82426"}}},
{"geometry": {"type": "Point", "coordinates": [-108.0528887958, 44.4889280631]}, "type": "Feature", "properties": {"collection_times": [{"days": "Mon-Fri", "time": "3:00pm"}, {"days": "Sat", "time": "1:00pm"}, {"days": "Sun", "time": "Closed"}], "id": "8242600001", "name": "USPS COLLECTION BOX - BLUE BOX", "address": {"city": "GREYBULL", "state": "WY", "street": "401 GREYBULL AVE", "postcode": "82426"}}},
{"geometry": {"type": "Point", "coordinates": [-108.0528887958, 44.4889280631]}, "type": "Feature", "properties": {"collection_times": [{"days": "Mon-Fri", "time": "3:00pm"}, {"days": "Sat", "time": "1:00pm"}, {"days": "Sun", "time": "Closed"}], "id": "8242600002", "name": "USPS COLLECTION BOX - BLUE BOX", "address": {"city": "GREYBULL", "state": "WY", "street": "401 GREYBULL AVE", "postcode": "82426"}}},
{"geometry": {"type": "Point", "coordinates": [-108.0528887958, 44.4889280631]}, "type": "Feature", "properties": {"collection_times": [{"days": "Mon-Fri", "time": "3:00pm"}, {"days": "Sat", "time": "1:00pm"}, {"days": "Sun", "time": "Closed"}], "id": "8242600003", "name": "USPS COLLECTION BOX - BLUE BOX", "address": {"city": "GREYBULL", "state": "WY", "street": "401 GREYBULL AVE", "postcode": "82426"}}},
{"geometry": {"type": "Point", "coordinates": [-107.6026969346, 44.2464758652]}, "type": "Feature", "properties": {"collection_times": [{"days": "Mon-Fri", "time": "1:15pm"}, {"days": "Sat", "time": "11:45am"}, {"days": "Sun", "time": "Closed"}], "id": "8242800000", "name": "USPS COLLECTION BOX - BLUE BOX", "address": {"city": "HYATTVILLE", "state": "WY", "street": "223 S MAIN ST", "postcode": "82428"}}},
{"geometry": {"type": "Point", "coordinates": [-107.6026969346, 44.2464758652]}, "type": "Feature", "properties": {"collection_times": [{"days": "Mon-Fri", "time": "1:15pm"}, {"days": "Sat", "time": "11:45am"}, {"days": "Sun", "time": "Closed"}], "id": "8242800001", "name": "USPS COLLECTION BOX - PO LOBBY", "address": {"city": "HYATTVILLE", "state": "WY", "street": "223 S MAIN ST", "postcode": "82428"}}},
{"geometry": {"type": "Point", "coordinates": [-108.3899994637, 44.8390599115]}, "type": "Feature", "properties": {"collection_times": [{"days": "Mon-Fri", "time": "2:10pm"}, {"days": "Sat", "time": "1:00pm"}, {"days": "Sun", "time": "Closed"}], "id": "8243100000", "name": "USPS COLLECTION BOX - BLUE BOX", "address": {"city": "LOVELL", "state": "WY", "street": "167 E 3RD ST", "postcode": "82431"}}},
{"geometry": {"type": "Point", "coordinates": [-108.3899994637, 44.8390599115]}, "type": "Feature", "properties": {"collection_times": [{"days": "Mon-Fri", "time": "2:10pm"}, {"days": "Sat", "time": "12:15pm"}, {"days": "Sun", "time": "Closed"}], "id": "8243100001", "name": "USPS COLLECTION BOX - PO LOBBY", "address": {"city": "LOVELL", "state": "WY", "street": "167 E 3RD ST", "postcode": "82431"}}},
{"geometry": {"type": "Point", "coordinates": [-108.3899994637, 44.8390599115]}, "type": "Feature", "properties": {"collection_times": [{"days": "Mon-Fri", "time": "2:10pm"}, {"days": "Sat", "time": "12:15pm"}, {"days": "Sun", "time": "Closed"}], "id": "8243100002", "name": "USPS COLLECTION BOX - PO LOBBY", "address": {"city": "LOVELL", "state": "WY", "street": "167 E 3RD ST", "postcode": "82431"}}},
{"geometry": {"type": "Point", "coordinates": [-107.9639084388, 44.2709416743]}, "type": "Feature", "properties": {"collection_times": [{"days": "Mon-Fri", "time": "11:45am"}, {"days": "Sat", "time": "11:30am"}, {"days": "Sun", "time": "Closed"}], "id": "8243200000", "name": "USPS COLLECTION BOX - BLUE BOX", "address": {"city": "MANDERSON", "state": "WY", "street": "193 N SHERMAN AVE", "postcode": "82432"}}},
{"geometry": {"type": "Point", "coordinates": [-107.9639084388, 44.2709416743]}, "type": "Feature", "properties": {"collection_times": [{"days": "Mon-Fri", "time": "11:45am"}, {"days": "Sat", "time": "11:30am"}, {"days": "Sun", "time": "Closed"}], "id": "8243200001", "name": "USPS COLLECTION BOX - PO LOBBY", "address": {"city": "MANDERSON", "state": "WY", "street": "193 N SHERMAN AVE", "postcode": "82432"}}},
{"geometry": {"type": "Point", "coordinates": [-108.8715716667, 44.1573803728]}, "type": "Feature", "properties": {"collection_times": [{"days": "Mon-Fri", "time": "4:00pm"}, {"days": "Sat", "time": "9:30am"}, {"days": "Sun", "time": "Closed"}], "id": "8243300000", "name": "USPS COLLECTION BOX - BLUE BOX", "address": {"city": "MEETEETSE", "state": "WY", "street": "1022 PARK AVE", "postcode": "82433"}}},
{"geometry": {"type": "Point", "coordinates": [-108.8715716667, 44.1573803728]}, "type": "Feature", "properties": {"collection_times": [{"days": "Mon-Fri", "time": "4:00pm"}, {"days": "Sat", "time": "9:30am"}, {"days": "Sun", "time": "Closed"}], "id": "8243300001", "name": "USPS COLLECTION BOX - PO LOBBY", "address": {"city": "MEETEETSE", "state": "WY", "street": "1022 PARK AVE", "postcode": "82433"}}},
{"geometry": {"type": "Point", "coordinates": [-108.8715716667, 44.1573803728]}, "type": "Feature", "properties": {"collection_times": [{"days": "Mon-Fri", "time": "4:00pm"}, {"days": "Sat", "time": "9:30am"}, {"days": "Sun", "time": "Closed"}], "id": "8243300002", "name": "USPS COLLECTION BOX - BLUE BOX", "address": {"city": "MEETEETSE", "state": "WY", "street": "1022 PARK AVE", "postcode": "82433"}}},
{"geometry": {"type": "Point", "coordinates": [-108.8715716667, 44.1573803728]}, "type": "Feature", "properties": {"collection_times": [{"days": "Mon-Fri", "time": "4:00pm"}, {"days": "Sat", "time": "9:30am"}, {"days": "Sun", "time": "Closed"}], "id": "8243300003", "name": "USPS COLLECTION BOX - PO LOBBY", "address": {"city": "MEETEETSE", "state": "WY", "street": "1022 PARK AVE", "postcode": "82433"}}},
{"geometry": {"type": "Point", "coordinates": [-108.7574919923, 44.7550977241]}, "type": "Feature", "properties": {"collection_times": [{"days": "Mon-Sat", "time": "3:30pm"}, {"days": "Sun", "time": "Closed"}], "id": "8243500000", "name": "USPS COLLECTION BOX - BLUE BOX", "address": {"city": "POWELL", "state": "WY", "street": "270 N BENT ST", "postcode": "82435"}}},
{"geometry": {"type": "Point", "coordinates": [-108.7574919923, 44.7550977241]}, "type": "Feature", "properties": {"collection_times": [{"days": "Mon-Sat", "time": "3:30pm"}, {"days": "Sun", "time": "Closed"}], "id": "8243500001", "name": "USPS COLLECTION BOX - BLUE BOX", "address": {"city": "POWELL", "state": "WY", "street": "270 N BENT ST", "postcode": "82435"}}},
{"geometry": {"type": "Point", "coordinates": [-108.7574919923, 44.7550977241]}, "type": "Feature", "properties": {"collection_times": [{"days": "Mon-Sat", "time": "3:30pm"}, {"days": "Sun", "time": "Closed"}], "id": "8243500004", "name": "USPS COLLECTION BOX - PO LOBBY", "address": {"city": "POWELL", "state": "WY", "street": "270 N BENT ST", "postcode": "82435"}}},
{"geometry": {"type": "Point", "coordinates": [-108.7574919923, 44.7550977241]}, "type": "Feature", "properties": {"collection_times": [{"days": "Mon-Sat", "time": "3:30pm"}, {"days": "Sun", "time": "Closed"}], "id": "8243500005", "name": "USPS COLLECTION BOX - PO LOBBY", "address": {"city": "POWELL", "state": "WY", "street": "270 N BENT ST", "postcode": "82435"}}},
{"geometry": {"type": "Point", "coordinates": [-108.8661405462, 44.7180666256]}, "type": "Feature", "properties": {"collection_times": [{"days": "Mon-Fri", "time": "3:45pm"}, {"days": "Sat", "time": "10:45am"}, {"days": "Sun", "time": "Closed"}], "id": "8244000000", "name": "USPS COLLECTION BOX - BLUE BOX", "address": {"city": "RALSTON", "state": "WY", "street": "680 MAIN ST", "postcode": "82440"}}},
{"geometry": {"type": "Point", "coordinates": [-108.8661405462, 44.7180666256]}, "type": "Feature", "properties": {"collection_times": [{"days": "Mon-Fri", "time": "3:45pm"}, {"days": "Sat", "time": "10:45am"}, {"days": "Sun", "time": "Closed"}], "id": "8244000001", "name": "USPS COLLECTION BOX - PO LOBBY", "address": {"city": "RALSTON", "state": "WY", "street": "680 MAIN ST", "postcode": "82440"}}},
{"geometry": {"type": "Point", "coordinates": [-107.7578742467, 44.5878815157]}, "type": "Feature", "properties": {"collection_times": [{"days": "Mon-Fri", "time": "2:20pm"}, {"days": "Sat", "time": "10:45am"}, {"days": "Sun", "time": "Closed"}], "id": "8244100000", "name": "USPS COLLECTION BOX - BLUE BOX", "address": {"city": "SHELL", "state": "WY", "street": "114 MAIN ST", "postcode": "82441"}}},
{"geometry": {"type": "Point", "coordinates": [-107.7578742467, 44.5878815157]}, "type": "Feature", "properties": {"collection_times": [{"days": "Mon-Fri", "time": "1:45pm"}, {"days": "Sat", "time": "10:45am"}, {"days": "Sun", "time": "Closed"}], "id": "8244100002", "name": "USPS COLLECTION BOX - PO LOBBY", "address": {"city": "SHELL", "state": "WY", "street": "114 MAIN ST", "postcode": "82441"}}},
{"geometry": {"type": "Point", "coordinates": [-107.7578742467, 44.5878815157]}, "type": "Feature", "properties": {"collection_times": [{"days": "Mon-Fri", "time": "1:45pm"}, {"days": "Sat", "time": "10:45am"}, {"days": "Sun", "time": "Closed"}], "id": "8244100003", "name": "USPS COLLECTION BOX - PO LOBBY", "address": {"city": "SHELL", "state": "WY", "street": "114 MAIN ST", "postcode": "82441"}}},
{"geometry": {"type": "Point", "coordinates": [-107.7797085439, 44.5385363492]}, "type": "Feature", "properties": {"collection_times": [{"days": "Mon-Fri", "time": "2:00pm"}, {"days": "Sat", "time": "12:00pm"}, {"days": "Sun", "time": "Closed"}], "id": "8244100004", "name": "USPS COLLECTION BOX - BLUE BOX", "address": {"city": "SHELL", "state": "WY", "street": "1669 US HIGHWAY 14 E", "postcode": "82441"}}},
{"geometry": {"type": "Point", "coordinates": [-107.3690863735, 43.836505045]}, "type": "Feature", "properties": {"collection_times": [{"days": "Mon-Fri", "time": "3:15pm"}, {"days": "Sat", "time": "10:15am"}, {"days": "Sun", "time": "Closed"}], "id": "8244200000", "name": "USPS COLLECTION BOX - BLUE BOX", "address": {"city": "TEN SLEEP", "state": "WY", "street": "115 PINE ST", "postcode": "82442"}}},
{"geometry": {"type": "Point", "coordinates": [-107.3690863735, 43.836505045]}, "type": "Feature", "properties": {"collection_times": [{"days": "Mon-Fri", "time": "3:15pm"}, {"days": "Sat", "time": "10:30am"}, {"days": "Sun", "time": "Closed"}], "id": "8244200001", "name": "USPS COLLECTION BOX - PO LOBBY", "address": {"city": "TEN SLEEP", "state": "WY", "street": "115 PINE ST", "postcode": "82442"}}},
{"geometry": {"type": "Point", "coordinates": [-108.2092715468, 43.647326296]}, "type": "Feature", "properties": {"collection_times": [{"days": "Mon-Fri", "time": "5:00pm"}, {"days": "Sat", "time": "3:00pm"}, {"days": "Sun", "time": "Closed"}], "id": "8244300000", "name": "USPS COLLECTION BOX - BLUE BOX", "address": {"city": "THERMOPOLIS", "state": "WY", "street": "440 ARAPAHOE ST", "postcode": "82443"}}},
{"geometry": {"type": "Point", "coordinates": [-108.2092715468, 43.647326296]}, "type": "Feature", "properties": {"collection_times": [{"days": "Mon-Fri", "time": "5:00pm"}, {"days": "Sat", "time": "3:00pm"}, {"days": "Sun", "time": "Closed"}], "id": "8244300001", "name": "USPS COLLECTION BOX - BLUE BOX", "address": {"city": "THERMOPOLIS", "state": "WY", "street": "440 ARAPAHOE ST", "postcode": "82443"}}},
{"geometry": {"type": "Point", "coordinates": [-108.2085994595, 43.6442488974]}, "type": "Feature", "properties": {"collection_times": [{"days": "Mon-Sat", "time": "12:00pm"}, {"days": "Sun", "time": "Closed"}], "id": "8244300002", "name": "USPS COLLECTION BOX - BLUE BOX", "address": {"city": "THERMOPOLIS", "state": "WY", "street": "225 S 4TH ST", "postcode": "82443"}}},
{"geometry": {"type": "Point", "coordinates": [-108.2120319274, 43.6404446788]}, "type": "Feature", "properties": {"collection_times": [{"days": "Mon-Sat", "time": "12:00pm"}, {"days": "Sun", "time": "Closed"}], "id": "8244300003", "name": "USPS COLLECTION BOX - BLUE BOX", "address": {"city": "THERMOPOLIS", "state": "WY", "street": "600 S 6TH ST", "postcode": "82443"}}},
{"geometry": {"type": "Point", "coordinates": [-108.2092715468, 43.647326296]}, "type": "Feature", "properties": {"collection_times": [{"days": "Mon-Fri", "time": "5:00pm"}, {"days": "Sat", "time": "12:00pm"}, {"days": "Sun", "time": "Closed"}], "id": "8244300005", "name": "USPS COLLECTION BOX - PO LOBBY", "address": {"city": "THERMOPOLIS", "state": "WY", "street": "440 ARAPAHOE ST", "postcode": "82443"}}},
{"geometry": {"type": "Point", "coordinates": [-108.2092715468, 43.647326296]}, "type": "Feature", "properties": {"collection_times": [{"days": "Mon-Fri", "time": "5:00pm"}, {"days": "Sat", "time": "12:00pm"}, {"days": "Sun", "time": "Closed"}], "id": "8244300006", "name": "USPS COLLECTION BOX - PO LOBBY", "address": {"city": "THERMOPOLIS", "state": "WY", "street": "440 ARAPAHOE ST", "postcode": "82443"}}},
{"geometry": {"type": "Point", "coordinates": [-109.4392852203, 44.466947137]}, "type": "Feature", "properties": {"collection_times": [{"days": "Mon-Fri", "time": "3:00pm"}, {"days": "Sat", "time": "1:45pm"}, {"days": "Sun", "time": "Closed"}], "id": "8245000000", "name": "USPS COLLECTION BOX - BLUE BOX", "address": {"city": "WAPITI", "state": "WY", "street": "1 STREAMSIDE DR", "postcode": "82450"}}},
{"geometry": {"type": "Point", "coordinates": [-109.4392852203, 44.466947137]}, "type": "Feature", "properties": {"collection_times": [{"days": "Mon-Sat", "time": "1:45pm"}, {"days": "Sun", "time": "Closed"}], "id": "8245000001", "name": "USPS COLLECTION BOX - PO LOBBY", "address": {"city": "WAPITI", "state": "WY", "street": "1 STREAMSIDE DR", "postcode": "82450"}}},
{"geometry": {"type": "Point", "coordinates": [-109.4392852203, 44.466947137]}, "type": "Feature", "properties": {"collection_times": [{"days": "Mon-Sat", "time": "1:45pm"}, {"days": "Sun", "time": "Closed"}], "id": "8245000002", "name": "USPS COLLECTION BOX - PO LOBBY", "address": {"city": "WAPITI", "state": "WY", "street": "1 STREAMSIDE DR", "postcode": "82450"}}}
]}
