{"type": "FeatureCollection", "features": [
{"geometry": {"type": "Point", "coordinates": [-108.3848320704, 43.0245786693]}, "type": "Feature", "properties": {"collection_times": [{"days": "Mon-Fri", "time": "4:10pm"}, {"days": "Sat", "time": "2:00pm"}, {"days": "Sun", "time": "Closed"}], "id": "8250100003", "name": "USPS COLLECTION BOX - BLUE BOX", "address": {"city": "RIVERTON", "state": "WY", "street": "501 E MAIN ST", "postcode": "82501"}}},
{"geometry": {"type": "Point", "coordinates": [-108.3805533492, 43.0305865016]}, "type": "Feature", "properties": {"collection_times": [{"days": "Mon-Sat", "time": "2:30pm"}, {"days": "Sun", "time": "Closed"}], "id": "8250100012", "name": "USPS COLLECTION BOX - BLUE BOX", "address": {"city": "RIVERTON", "state": "WY", "street": "709 N FEDERAL BLVD", "postcode": "82501"}}},
{"geometry": {"type": "Point", "coordinates": [-108.3805473635, 43.0415986918]}, "type": "Feature", "properties": {"collection_times": [{"days": "Mon-Sat", "time": "9:00am"}, {"days": "Sun", "time": "Closed"}], "id": "8250100017", "name": "USPS COLLECTION BOX - BLUE BOX", "address": {"city": "RIVERTON", "state": "WY", "street": "1733 N FEDERAL BLVD", "postcode": "82501"}}},
{"geometry": {"type": "Point", "coordinates": [-108.4086838496, 43.0246372293]}, "type": "Feature", "properties": {"collection_times": [{"days": "Mon-Fri", "time": "5:00pm"}, {"days": "Sat", "time": "4:00pm"}, {"days": "Sun", "time": "Closed"}], "id": "8250100019", "name": "USPS COLLECTION BOX - BLUE BOX", "address": {"city": "RIVERTON", "state": "WY", "street": "1307 W MAIN ST", "postcode": "82501"}}},
{"geometry": {"type": "Point", "coordinates": [-108.4086838496, 43.0246372293]}, "type": "Feature", "properties": {"collection_times": [{"days": "Mon-Fri", "time": "5:00pm"}, {"days": "Sat", "time": "4:00pm"}, {"days": "Sun", "time": "Closed"}], "id": "8250100020", "name": "USPS COLLECTION BOX - BLUE BOX", "address": {"city": "RIVERTON", "state": "WY", "street": "1307 W MAIN ST", "postcode": "82501"}}},
{"geometry": {"type": "Point", "coordinates": [-108.3848320704, 43.0245786693]}, "type": "Feature", "properties": {"collection_times": [{"days": "Mon-Fri", "time": "4:10pm"}, {"days": "Sat", "time": "2:00pm"}, {"days": "Sun", "time": "Closed"}], "id": "8250100021", "name": "USPS COLLECTION BOX - BLUE BOX", "address": {"city": "RIVERTON", "state": "WY", "street": "501 E MAIN ST", "postcode": "82501"}}},
{"geometry": {"type": "Point", "coordinates": [-108.3848320704, 43.0245786693]}, "type": "Feature", "properties": {"collection_times": [{"days": "Mon-Fri", "time": "4:10pm"}, {"days": "Sat", "time": "2:00pm"}, {"days": "Sun", "time": "Closed"}], "id": "8250100022", "name": "USPS COLLECTION BOX - BLUE BOX", "address": {"city": "RIVERTON", "state": "WY", "street": "501 E MAIN ST", "postcode": "82501"}}},
{"geometry": {"type": "Point", "coordinates": [-108.3848320704, 43.0245786693]}, "type": "Feature", "properties": {"collection_times": [{"days": "Mon-Fri", "time": "4:10pm"}, {"days": "Sat", "time": "2:00pm"}, {"days": "Sun", "time": "Closed"}], "id": "8250100023", "name": "USPS COLLECTION BOX - PO LOBBY", "address": {"city": "RIVERTON", "state": "WY", "street": "501 E MAIN ST", "postcode": "82501"}}},
{"geometry": {"type": "Point", "coordinates": [-108.4004367478, 43.0391428181]}, "type": "Feature", "properties": {"collection_times": [{"days": "Mon-Fri", "time": "11:00am"}, {"days": "Sat", "time": "10:30am"}, {"days": "Sun", "time": "Closed"}], "id": "8250100024", "name": "USPS COLLECTION BOX - BLUE BOX", "address": {"city": "RIVERTON", "state": "WY", "street": "401 VILLAGE DR", "postcode": "82501"}}},
{"geometry": {"type": "Point", "coordinates": [-108.3848320704, 43.0245786693]}, "type": "Feature", "properties": {"collection_times": [{"days": "Mon-Fri", "time": "4:10pm"}, {"days": "Sat", "time": "2:00pm"}, {"days": "Sun", "time": "Closed"}], "id": "8250100025", "name": "USPS COLLECTION BOX - PO LOBBY", "address": {"city": "RIVERTON", "state": "WY", "street": "501 E MAIN ST", "postcode": "82501"}}},
{"geometry": {"type": "Point", "coordinates": [-108.4086838496, 43.0246372293]}, "type": "Feature", "properties": {"collection_times": [{"days": "Mon-Fri", "time": "5:00pm"}, {"days": "Sat", "time": "4:00pm"}, {"days": "Sun", "time": "Closed"}], "id": "8250100026", "name": "USPS COLLECTION BOX - BLUE BOX", "address": {"city": "RIVERTON", "state": "WY", "street": "1307 W MAIN ST", "postcode": "82501"}}},
{"geometry": {"type": "Point", "coordinates": [-109.194057794, 43.309404974]}, "type": "Feature", "properties": {"collection_times": [{"days": "Mon-Fri", "time": "3:00pm"}, {"days": "Sat", "time": "10:15am"}, {"days": "Sun", "time": "Closed"}], "id": "8251200000", "name": "USPS COLLECTION BOX - BLUE BOX", "address": {"city": "CROWHEART", "state": "WY", "street": "8526 US HIGHWAY 26-287", "postcode": "82512"}}},
{"geometry": {"type": "Point", "coordinates": [-109.2341586386, 43.3343492447]}, "type": "Feature", "properties": {"collection_times": [{"days": "Mon-Fri", "time": "3:00pm"}, {"days": "Sat", "time": "10:00am"}, {"days": "Sun", "time": "Closed"}], "id": "8251200001", "name": "USPS COLLECTION BOX - PO LOBBY", "address": {"city": "CROWHEART", "state": "WY", "street": "8526 US HIGHWAY 26", "postcode": "82512"}}},
{"geometry": {"type": "Point", "coordinates": [-109.6403280479, 43.5355942124]}, "type": "Feature", "properties": {"collection_times": [{"days": "Mon-Fri", "time": "2:10pm"}, {"days": "Sat", "time": "12:45pm"}, {"days": "Sun", "time": "Closed"}], "id": "8251300000", "name": "USPS COLLECTION BOX - BLUE BOX", "address": {"city": "DUBOIS", "state": "WY", "street": "804 RAMSHORN ST", "postcode": "82513"}}},
{"geometry": {"type": "Point", "coordinates": [-109.6312832708, 43.5336429205]}, "type": "Feature", "properties": {"collection_times": [{"days": "Mon-Sat", "time": "10:15am"}, {"days": "Sun", "time": "Closed"}], "id": "8251300001", "name": "USPS COLLECTION BOX - BLUE BOX", "address": {"city": "DUBOIS", "state": "WY", "street": "126 E RAMSHORN", "postcode": "82513"}}},
{"geometry": {"type": "Point", "coordinates": [-109.6403280479, 43.5355942124]}, "type": "Feature", "properties": {"collection_times": [{"days": "Mon-Fri", "time": "2:10pm"}, {"days": "Sat", "time": "12:45pm"}, {"days": "Sun", "time": "Closed"}], "id": "8251300003", "name": "USPS COLLECTION BOX - PO LOBBY", "address": {"city": "DUBOIS", "state": "WY", "street": "804 RAMSHORN ST", "postcode": "82513"}}},
{"geometry": {"type": "Point", "coordinates": [-108.8851927019, 43.0030265971]}, "type": "Feature", "properties": {"collection_times": [{"days": "Mon-Fri", "time": "2:15pm"}, {"days": "Sat", "time": "11:45am"}, {"days": "Sun", "time": "Closed"}], "id": "8251400005", "name": "USPS COLLECTION BOX - PO LOBBY", "address": {"city": "FORT WASHAKIE", "state": "WY", "street": "14 N FORK RD", "postcode": "82514"}}},
{"geometry": {"type": "Point", "coordinates": [-108.5836370762, 42.9038320561]}, "type": "Feature", "properties": {"collection_times": [{"days": "Mon-Fri", "time": "3:00pm"}, {"days": "Sat", "time": "10:15am"}, {"days": "Sun", "time": "Closed"}], "id": "8251500000", "name": "USPS COLLECTION BOX - BLUE BOX", "address": {"city": "HUDSON", "state": "WY", "street": "280 S MAIN ST", "postcode": "82515"}}},
{"geometry": {"type": "Point", "coordinates": [-108.5836370762, 42.9038320561]}, "type": "Feature", "properties": {"collection_times": [{"days": "Mon-Fri", "time": "3:00pm"}, {"days": "Sat", "time": "10:15am"}, {"days": "Sun", "time": "Closed"}], "id": "8251500001", "name": "USPS COLLECTION BOX - PO LOBBY", "address": {"city": "HUDSON", "state": "WY", "street": "280 S MAIN ST", "postcode": "82515"}}},
{"geometry": {"type": "Point", "coordinates": [-108.7488558547, 43.1923628223]}, "type": "Feature", "properties": {"collection_times": [{"days": "Mon-Fri", "time": "3:45pm"}, {"days": "Sat", "time": "10:45am"}, {"days": "Sun", "time": "Closed"}], "id": "8251600000", "name": "USPS COLLECTION BOX - BLUE BOX", "address": {"city": "KINNEAR", "state": "WY", "street": "11517 US HIGHWAY 26", "postcode": "82516"}}},
{"geometry": {"type": "Point", "coordinates": [-108.7488558547, 43.1923628223]}, "type": "Feature", "properties": {"collection_times": [{"days": "Mon-Fri", "time": "3:45pm"}, {"days": "Sat", "time": "10:45am"}, {"days": "Sun", "time": "Closed"}], "id": "8251600001", "name": "USPS COLLECTION BOX - PO LOBBY", "address": {"city": "KINNEAR", "state": "WY", "street": "11517 US HIGHWAY 26", "postcode": "82516"}}},
{"geometry": {"type": "Point", "coordinates": [-108.7306468032, 42.8329658578]}, "type": "Feature", "properties": {"collection_times": [{"days": "Mon-Fri", "time": "3:45pm"}, {"days": "Sat", "time": "9:00am"}, {"days": "Sun", "time": "Closed"}], "id": "8252000000", "name": "USPS COLLECTION BOX - BLUE BOX", "address": {"city": "LANDER", "state": "WY", "street": "273 W MAIN ST", "postcode": "82520"}}},
{"geometry": {"type": "Point", "coordinates": [-108.7432251637, 42.8356215366]}, "type": "Feature", "properties": {"collection_times": [{"days": "Mon-Fri", "time": "3:45pm"}, {"days": "Sat", "time": "10:00am"}, {"days": "Sun", "time": "Closed"}], "id": "8252000001", "name": "USPS COLLECTION BOX - BLUE BOX", "address": {"city": "LANDER", "state": "WY", "street": "895 MAIN ST", "postcode": "82520"}}},
{"geometry": {"type": "Point", "coordinates": [-108.7396623903, 42.8341156731]}, "type": "Feature", "properties": {"collection_times": [{"days": "Mon-Fri", "time": "3:45pm"}, {"days": "Sat", "time": "9:30am"}, {"days": "Sun", "time": "Closed"}], "id": "8252000004", "name": "USPS COLLECTION BOX - BLUE BOX", "address": {"city": "LANDER", "state": "WY", "street": "177 N 3RD ST", "postcode": "82520"}}},
{"geometry": {"type": "Point", "coordinates": [-108.7336597261, 42.8335979573]}, "type": "Feature", "properties": {"collection_times": [{"days": "Mon-Fri", "time": "3:45pm"}, {"days": "Sat", "time": "11:00am"}, {"days": "Sun", "time": "Closed"}], "id": "8252000005", "name": "USPS COLLECTION BOX - BLUE BOX", "address": {"city": "LANDER", "state": "WY", "street": "423 MAIN ST", "postcode": "82520"}}},
{"geometry": {"type": "Point", "coordinates": [-108.7217901465, 42.8319340745]}, "type": "Feature", "properties": {"collection_times": [{"days": "Mon-Sat", "time": "3:30pm"}, {"days": "Sun", "time": "Closed"}], "id": "8252000012", "name": "USPS COLLECTION BOX - BLUE BOX", "address": {"city": "LANDER", "state": "WY", "street": "230 GRANDVIEW DR", "postcode": "82520"}}},
{"geometry": {"type": "Point", "coordinates": [-108.7217901465, 42.8319340745]}, "type": "Feature", "properties": {"collection_times": [{"days": "Mon-Sat", "time": "3:30pm"}, {"days": "Sun", "time": "Closed"}], "id": "8252000013", "name": "USPS COLLECTION BOX - BLUE BOX", "address": {"city": "LANDER", "state": "WY", "street": "230 GRANDVIEW DR", "postcode": "82520"}}},
{"geometry": {"type": "Point", "coordinates": [-108.7217901465, 42.8319340745]}, "type": "Feature", "properties": {"collection_times": [{"days": "Mon-Sat", "time": "3:30pm"}, {"days": "Sun", "time": "Closed"}], "id": "8252000017", "name": "USPS COLLECTION BOX - PO LOBBY", "address": {"city": "LANDER", "state": "WY", "street": "230 GRANDVIEW DR", "postcode": "82520"}}},
{"geometry": {"type": "Point", "coordinates": [-108.7217901465, 42.8319340745]}, "type": "Feature", "properties": {"collection_times": [{"days": "Mon-Sat", "time": "3:30pm"}, {"days": "Sun", "time": "Closed"}], "id": "8252000018", "name": "USPS COLLECTION BOX - PO LOBBY", "address": {"city": "LANDER", "state": "WY", "street": "230 GRANDVIEW DR", "postcode": "82520"}}},
{"geometry": {"type": "Point", "coordinates": [-108.7217901465, 42.8319340745]}, "type": "Feature", "properties": {"collection_times": [{"days": "Mon-Sat", "time": "3:30pm"}, {"days": "Sun", "time": "Closed"}], "id": "8252000019", "name": "USPS COLLECTION BOX - PO LOBBY", "address": {"city": "LANDER", "state": "WY", "street": "230 GRANDVIEW DR", "postcode": "82520"}}},
{"geometry": {"type": "Point", "coordinates": [-108.6906600513, 43.2447223403]}, "type": "Feature", "properties": {"collection_times": [{"days": "Mon-Fri", "time": "3:30pm"}, {"days": "Sat", "time": "10:30am"}, {"days": "Sun", "time": "Closed"}], "id": "8252300000", "name": "USPS COLLECTION BOX - BLUE BOX", "address": {"city": "PAVILLION", "state": "WY", "street": "224 N MAIN ST", "postcode": "82523"}}},
{"geometry": {"type": "Point", "coordinates": [-108.6906600513, 43.2447223403]}, "type": "Feature", "properties": {"collection_times": [{"days": "Mon-Fri", "time": "2:00pm"}, {"days": "Sat", "time": "10:30am"}, {"days": "Sun", "time": "Closed"}], "id": "8252300001", "name": "USPS COLLECTION BOX - PO LOBBY", "address": {"city": "PAVILLION", "state": "WY", "street": "224 N MAIN ST", "postcode": "82523"}}},
{"geometry": {"type": "Point", "coordinates": [-108.4147429399, 43.0013164664]}, "type": "Feature", "properties": {"collection_times": [{"days": "Mon-Fri", "time": "3:00pm"}, {"days": "Sat", "time": "9:30am"}, {"days": "Sun", "time": "Closed"}], "id": "8252400000", "name": "USPS COLLECTION BOX - PO LOBBY", "address": {"city": "ST. STEPHENS", "state": "WY", "street": "33 ST STEPHENS RD", "postcode": "82524"}}}
]}
