{"type": "FeatureCollection", "features": [
{"geometry": {"type": "Point", "coordinates": [-106.343431953, 42.9132933538]}, "type": "Feature", "properties": {"collection_times": [{"days": "Mon-Sat", "time": "9:30am"}, {"days": "Sun", "time": "Closed"}], "id": "8260100000", "name": "USPS COLLECTION BOX - BLUE BOX", "address": {"city": "CASPER", "state": "WY", "street": "1401 SUNSET BLVD", "postcode": "82601"}}},
{"geometry": {"type": "Point", "coordinates": [-106.3578737907, 42.8696898485]}, "type": "Feature", "properties": {"collection_times": [{"days": "Mon-Sat", "time": "9:00am"}, {"days": "Sun", "time": "Closed"}], "id": "8260100001", "name": "USPS COLLECTION BOX - BLUE BOX", "address": {"city": "CASPER", "state": "WY", "street": "1711 SALT CREEK HWY", "postcode": "82601"}}},
{"geometry": {"type": "Point", "coordinates": [-106.323686332, 42.8522432617]}, "type": "Feature", "properties": {"collection_times": [{"days": "Mon-Fri", "time": "6:00pm"}, {"days": "Sat", "time": "2:00pm"}, {"days": "Sun", "time": "Closed"}], "id": "8260100004", "name": "USPS COLLECTION BOX - BLUE BOX", "address": {"city": "CASPER", "state": "WY", "street": "315 N WOLCOTT ST", "postcode": "82601"}}},
{"geometry": {"type": "Point", "coordinates": [-106.323686332, 42.8522432617]}, "type": "Feature", "properties": {"collection_times": [{"days": "Mon-Fri", "time": "6:00pm"}, {"days": "Sat", "time": "2:00pm"}, {"days": "Sun", "time": "Closed"}], "id": "8260100005", "name": "USPS COLLECTION BOX - BLUE BOX", "address": {"city": "CASPER", "state": "WY", "street": "315 N WOLCOTT ST", "postcode": "82601"}}},
{"geometry": {"type": "Point", "coordinates": [-106.323686332, 42.8522432617]}, "type": "Feature", "properties": {"collection_times": [{"days": "Mon-Fri", "time": "6:00pm"}, {"days": "Sat", "time": "2:00pm"}, {"days": "Sun", "time": "Closed"}], "id": "8260100006", "name": "USPS COLLECTION BOX - BLUE BOX", "address": {"city": "CASPER", "state": "WY", "street": "315 N WOLCOTT ST", "postcode": "82601"}}},
{"geometry": {"type": "Point", "coordinates": [-106.3236935176, 42.8527794302]}, "type": "Feature", "properties": {"collection_times": [{"days": "Mon-Fri", "time": "6:00pm"}, {"days": "Sat", "time": "2:00pm"}, {"days": "Sun", "time": "Closed"}], "id": "8260100009", "name": "USPS COLLECTION BOX - BLUE BOX", "address": {"city": "CASPER", "state": "WY", "street": "315 N WOLCOTT ST", "postcode": "82601"}}},
{"geometry": {"type": "Point", "coordinates": [-106.323686332, 42.8522432617]}, "type": "Feature", "properties": {"collection_times": [{"days": "Mon-Fri", "time": "6:00pm"}, {"days": "Sat", "time": "2:00pm"}, {"days": "Sun", "time": "Closed"}], "id": "8260100010", "name": "USPS COLLECTION BOX - BLUE BOX", "address": {"city": "CASPER", "state": "WY", "street": "315 N WOLCOTT ST", "postcode": "82601"}}},
{"geometry": {"type": "Point", "coordinates": [-106.3122778359, 42.8573776496]}, "type": "Feature", "properties": {"collection_times": [{"days": "Mon-Fri", "time": "3:00pm"}, {"days": "Sat", "time": "2:00pm"}, {"days": "Sun", "time": "Closed"}], "id": "8260100012", "name": "USPS COLLECTION BOX - BLUE BOX", "address": {"city": "CASPER", "state": "WY", "street": "714 N MCKINLEY ST", "postcode": "82601"}}},
{"geometry": {"type": "Point", "coordinates": [-106.3371751896, 42.8410240359]}, "type": "Feature", "properties": {"collection_times": [{"days": "Mon-Sat", "time": "2:00pm"}, {"days": "Sun", "time": "Closed"}], "id": "8260100014", "name": "USPS COLLECTION BOX - BLUE BOX", "address": {"city": "CASPER", "state": "WY", "street": "938 S POPLAR ST", "postcode": "82601"}}},
{"geometry": {"type": "Point", "coordinates": [-106.3325900899, 42.8597876125]}, "type": "Feature", "properties": {"collection_times": [{"days": "Mon-Fri", "time": "3:00pm"}, {"days": "Sat-Sun", "time": "Closed"}], "id": "8260100019", "name": "USPS COLLECTION BOX - BLUE BOX", "address": {"city": "CASPER", "state": "WY", "street": "907 N POPLAR ST", "postcode": "82601"}}},
{"geometry": {"type": "Point", "coordinates": [-106.3332461496, 42.8584873384]}, "type": "Feature", "properties": {"collection_times": [{"days": "Mon-Fri", "time": "3:00pm"}, {"days": "Sat-Sun", "time": "Closed"}], "id": "8260100024", "name": "USPS COLLECTION BOX - BLUE BOX", "address": {"city": "CASPER", "state": "WY", "street": "800 N POPLAR ST", "postcode": "82601"}}},
{"geometry": {"type": "Point", "coordinates": [-106.3251730472, 42.8593589602]}, "type": "Feature", "properties": {"collection_times": [{"days": "Mon-Fri", "time": "3:00pm"}, {"days": "Sat", "time": "2:00pm"}, {"days": "Sun", "time": "Closed"}], "id": "8260100029", "name": "USPS COLLECTION BOX - BLUE BOX", "address": {"city": "CASPER", "state": "WY", "street": "901 N CENTER ST", "postcode": "82601"}}},
{"geometry": {"type": "Point", "coordinates": [-106.3291103942, 42.8510671399]}, "type": "Feature", "properties": {"collection_times": [{"days": "Mon-Fri", "time": "3:00pm"}, {"days": "Sat-Sun", "time": "Closed"}], "id": "8260100033", "name": "USPS COLLECTION BOX - BLUE BOX", "address": {"city": "CASPER", "state": "WY", "street": "310 W A ST", "postcode": "82601"}}},
{"geometry": {"type": "Point", "coordinates": [-106.3255330474, 42.850032142]}, "type": "Feature", "properties": {"collection_times": [{"days": "Mon-Fri", "time": "3:00pm"}, {"days": "Sat-Sun", "time": "Closed"}], "id": "8260100034", "name": "USPS COLLECTION BOX - BLUE BOX", "address": {"city": "CASPER", "state": "WY", "street": "123 W 1ST ST", "postcode": "82601"}}},
{"geometry": {"type": "Point", "coordinates": [-106.3252868656, 42.8486697681]}, "type": "Feature", "properties": {"collection_times": [{"days": "Mon-Fri", "time": "3:00pm"}, {"days": "Sat", "time": "2:00pm"}, {"days": "Sun", "time": "Closed"}], "id": "8260100035", "name": "USPS COLLECTION BOX - BLUE BOX", "address": {"city": "CASPER", "state": "WY", "street": "200 S CENTER ST", "postcode": "82601"}}},
{"geometry": {"type": "Point", "coordinates": [-106.3252782105, 42.8466146784]}, "type": "Feature", "properties": {"collection_times": [{"days": "Mon-Fri", "time": "3:00pm"}, {"days": "Sat-Sun", "time": "Closed"}], "id": "8260100037", "name": "USPS COLLECTION BOX - BLUE BOX", "address": {"city": "CASPER", "state": "WY", "street": "330 S CENTER ST", "postcode": "82601"}}},
{"geometry": {"type": "Point", "coordinates": [-106.3253600808, 42.848654711]}, "type": "Feature", "properties": {"collection_times": [{"days": "Mon-Fri", "time": "3:00pm"}, {"days": "Sat-Sun", "time": "Closed"}], "id": "8260100038", "name": "USPS COLLECTION BOX - BLUE BOX", "address": {"city": "CASPER", "state": "WY", "street": "111 W 2ND ST", "postcode": "82601"}}},
{"geometry": {"type": "Point", "coordinates": [-106.3251294701, 42.8495186218]}, "type": "Feature", "properties": {"collection_times": [{"days": "Mon-Fri", "time": "3:00pm"}, {"days": "Sat-Sun", "time": "Closed"}], "id": "8260100039", "name": "USPS COLLECTION BOX - BLUE BOX", "address": {"city": "CASPER", "state": "WY", "street": "141 S CENTER ST", "postcode": "82601"}}},
{"geometry": {"type": "Point", "coordinates": [-106.3435934245, 42.8100320795]}, "type": "Feature", "properties": {"collection_times": [{"days": "Mon-Fri", "time": "3:00pm"}, {"days": "Sat", "time": "2:00pm"}, {"days": "Sun", "time": "Closed"}], "id": "8260100048", "name": "USPS COLLECTION BOX - BLUE BOX", "address": {"city": "CASPER", "state": "WY", "street": "3960 S POPLAR ST", "postcode": "82601"}}},
{"geometry": {"type": "Point", "coordinates": [-106.3251328616, 42.8421644869]}, "type": "Feature", "properties": {"collection_times": [{"days": "Mon-Fri", "time": "3:00pm"}, {"days": "Sat-Sun", "time": "Closed"}], "id": "8260100050", "name": "USPS COLLECTION BOX - BLUE BOX", "address": {"city": "CASPER", "state": "WY", "street": "843 S CENTER ST", "postcode": "82601"}}},
{"geometry": {"type": "Point", "coordinates": [-106.3236948196, 42.8504164034]}, "type": "Feature", "properties": {"collection_times": [{"days": "Mon-Fri", "time": "3:00pm"}, {"days": "Sat-Sun", "time": "Closed"}], "id": "8260100051", "name": "USPS COLLECTION BOX - BLUE BOX", "address": {"city": "CASPER", "state": "WY", "street": "123 N WOLCOTT ST", "postcode": "82601"}}},
{"geometry": {"type": "Point", "coordinates": [-106.3238480444, 42.8499916186]}, "type": "Feature", "properties": {"collection_times": [{"days": "Mon-Fri", "time": "3:00pm"}, {"days": "Sat-Sun", "time": "Closed"}], "id": "8260100053", "name": "USPS COLLECTION BOX - BLUE BOX", "address": {"city": "CASPER", "state": "WY", "street": "104 S WOLCOTT ST", "postcode": "82601"}}},
{"geometry": {"type": "Point", "coordinates": [-106.3238587375, 42.8493350604]}, "type": "Feature", "properties": {"collection_times": [{"days": "Mon-Fri", "time": "3:00pm"}, {"days": "Sat-Sun", "time": "Closed"}], "id": "8260100056", "name": "USPS COLLECTION BOX - BLUE BOX", "address": {"city": "CASPER", "state": "WY", "street": "154 S WOLCOTT ST", "postcode": "82601"}}},
{"geometry": {"type": "Point", "coordinates": [-106.3238774675, 42.8478140058]}, "type": "Feature", "properties": {"collection_times": [{"days": "Mon-Fri", "time": "3:00pm"}, {"days": "Sat-Sun", "time": "Closed"}], "id": "8260100057", "name": "USPS COLLECTION BOX - BLUE BOX", "address": {"city": "CASPER", "state": "WY", "street": "300 S WOLCOTT ST", "postcode": "82601"}}},
{"geometry": {"type": "Point", "coordinates": [-106.320914825, 42.8501437063]}, "type": "Feature", "properties": {"collection_times": [{"days": "Mon-Fri", "time": "3:00pm"}, {"days": "Sat-Sun", "time": "Closed"}], "id": "8260100061", "name": "USPS COLLECTION BOX - BLUE BOX", "address": {"city": "CASPER", "state": "WY", "street": "400 E 1ST ST", "postcode": "82601"}}},
{"geometry": {"type": "Point", "coordinates": [-106.3138152445, 42.8483031266]}, "type": "Feature", "properties": {"collection_times": [{"days": "Mon-Fri", "time": "3:00pm"}, {"days": "Sat", "time": "2:00pm"}, {"days": "Sun", "time": "Closed"}], "id": "8260100063", "name": "USPS COLLECTION BOX - BLUE BOX", "address": {"city": "CASPER", "state": "WY", "street": "241 S JEFFERSON ST", "postcode": "82601"}}},
{"geometry": {"type": "Point", "coordinates": [-106.3013808515, 42.8387923929]}, "type": "Feature", "properties": {"collection_times": [{"days": "Mon-Fri", "time": "3:00pm"}, {"days": "Sat", "time": "2:00pm"}, {"days": "Sun", "time": "Closed"}], "id": "8260100064", "name": "USPS COLLECTION BOX - BLUE BOX", "address": {"city": "CASPER", "state": "WY", "street": "2101 E 12TH ST", "postcode": "82601"}}},
{"geometry": {"type": "Point", "coordinates": [-106.325221643, 42.8520342928]}, "type": "Feature", "properties": {"collection_times": [{"days": "Mon-Fri", "time": "6:00pm"}, {"days": "Sat", "time": "12:00pm"}, {"days": "Sun", "time": "Closed"}], "id": "8260100066", "name": "USPS COLLECTION BOX - PO LOBBY", "address": {"city": "CASPER", "state": "WY", "street": "150 E B ST", "postcode": "82601"}}},
{"geometry": {"type": "Point", "coordinates": [-106.323686332, 42.8522432617]}, "type": "Feature", "properties": {"collection_times": [{"days": "Mon-Fri", "time": "6:00pm"}, {"days": "Sat", "time": "2:00pm"}, {"days": "Sun", "time": "Closed"}], "id": "8260100067", "name": "USPS COLLECTION BOX - BLUE BOX", "address": {"city": "CASPER", "state": "WY", "street": "315 N WOLCOTT ST", "postcode": "82601"}}},
{"geometry": {"type": "Point", "coordinates": [-106.3250490254, 42.8631535804]}, "type": "Feature", "properties": {"collection_times": [{"days": "Mon-Fri", "time": "3:00pm"}, {"days": "Sat", "time": "2:00pm"}, {"days": "Sun", "time": "Closed"}], "id": "8260100068", "name": "USPS COLLECTION BOX - BLUE BOX", "address": {"city": "CASPER", "state": "WY", "street": "1250 N CENTER ST", "postcode": "82601"}}},
{"geometry": {"type": "Point", "coordinates": [-106.3223024576, 42.8497526887]}, "type": "Feature", "properties": {"collection_times": [{"days": "Mon-Fri", "time": "3:00pm"}, {"days": "Sat-Sun", "time": "Closed"}], "id": "8260100071", "name": "USPS COLLECTION BOX - BLUE BOX", "address": {"city": "CASPER", "state": "WY", "street": "123 S DURBIN ST", "postcode": "82601"}}},
{"geometry": {"type": "Point", "coordinates": [-106.325221643, 42.8520342928]}, "type": "Feature", "properties": {"collection_times": [{"days": "Mon-Fri", "time": "6:00pm"}, {"days": "Sat", "time": "12:00pm"}, {"days": "Sun", "time": "Closed"}], "id": "8260100073", "name": "USPS COLLECTION BOX - PO LOBBY", "address": {"city": "CASPER", "state": "WY", "street": "150 E B ST", "postcode": "82601"}}},
{"geometry": {"type": "Point", "coordinates": [-106.325221643, 42.8520342928]}, "type": "Feature", "properties": {"collection_times": [{"days": "Mon-Fri", "time": "6:00pm"}, {"days": "Sat", "time": "12:00pm"}, {"days": "Sun", "time": "Closed"}], "id": "8260100074", "name": "USPS COLLECTION BOX - PO LOBBY", "address": {"city": "CASPER", "state": "WY", "street": "150 E B ST", "postcode": "82601"}}},
{"geometry": {"type": "Point", "coordinates": [-106.3073888924, 42.8491719824]}, "type": "Feature", "properties": {"collection_times": [{"days": "Mon-Fri", "time": "3:00pm"}, {"days": "Sat", "time": "2:00pm"}, {"days": "Sun", "time": "Closed"}], "id": "8260100075", "name": "USPS COLLECTION BOX - BLUE BOX", "address": {"city": "CASPER", "state": "WY", "street": "167 S CONWELL ST", "postcode": "82601"}}},
{"geometry": {"type": "Point", "coordinates": [-106.3332461496, 42.8584873384]}, "type": "Feature", "properties": {"collection_times": [{"days": "Mon-Fri", "time": "3:00pm"}, {"days": "Sat-Sun", "time": "Closed"}], "id": "8260100078", "name": "USPS COLLECTION BOX - BLUE BOX", "address": {"city": "CASPER", "state": "WY", "street": "800 N POPLAR ST", "postcode": "82601"}}},
{"geometry": {"type": "Point", "coordinates": [-106.323686332, 42.8522432617]}, "type": "Feature", "properties": {"collection_times": [{"days": "Mon-Fri", "time": "6:00pm"}, {"days": "Sat", "time": "2:00pm"}, {"days": "Sun", "time": "Closed"}], "id": "8260100079", "name": "USPS COLLECTION BOX - BLUE BOX", "address": {"city": "CASPER", "state": "WY", "street": "315 N WOLCOTT ST", "postcode": "82601"}}},
{"geometry": {"type": "Point", "coordinates": [-106.3407352636, 42.8326403899]}, "type": "Feature", "properties": {"collection_times": [{"days": "Mon-Fri", "time": "3:00pm"}, {"days": "Sat", "time": "2:00pm"}, {"days": "Sun", "time": "Closed"}], "id": "8260400011", "name": "USPS COLLECTION BOX - BLUE BOX", "address": {"city": "CASPER", "state": "WY", "street": "1351 CY AVE", "postcode": "82604"}}},
{"geometry": {"type": "Point", "coordinates": [-106.3526082405, 42.8292116315]}, "type": "Feature", "properties": {"collection_times": [{"days": "Mon-Fri", "time": "3:00pm"}, {"days": "Sat", "time": "2:00pm"}, {"days": "Sun", "time": "Closed"}], "id": "8260400012", "name": "USPS COLLECTION BOX - BLUE BOX", "address": {"city": "CASPER", "state": "WY", "street": "2405 CY AVE", "postcode": "82604"}}},
{"geometry": {"type": "Point", "coordinates": [-106.3720438633, 42.8199635906]}, "type": "Feature", "properties": {"collection_times": [{"days": "Mon-Fri", "time": "3:00pm"}, {"days": "Sat", "time": "2:00pm"}, {"days": "Sun", "time": "Closed"}], "id": "8260400015", "name": "USPS COLLECTION BOX - BLUE BOX", "address": {"city": "CASPER", "state": "WY", "street": "4075 CY AVE", "postcode": "82604"}}},
{"geometry": {"type": "Point", "coordinates": [-106.3720438633, 42.8199635906]}, "type": "Feature", "properties": {"collection_times": [{"days": "Mon-Fri", "time": "3:00pm"}, {"days": "Sat", "time": "2:00pm"}, {"days": "Sun", "time": "Closed"}], "id": "8260400016", "name": "USPS COLLECTION BOX - BLUE BOX", "address": {"city": "CASPER", "state": "WY", "street": "4075 CY AVE", "postcode": "82604"}}},
{"geometry": {"type": "Point", "coordinates": [-106.2593609645, 42.8360029706]}, "type": "Feature", "properties": {"collection_times": [{"days": "Mon-Fri", "time": "3:00pm"}, {"days": "Sat", "time": "2:00pm"}, {"days": "Sun", "time": "Closed"}], "id": "8260900001", "name": "USPS COLLECTION BOX - BLUE BOX", "address": {"city": "CASPER", "state": "WY", "street": "4700 E 12TH ST", "postcode": "82609"}}},
{"geometry": {"type": "Point", "coordinates": [-106.2678113484, 42.8451603068]}, "type": "Feature", "properties": {"collection_times": [{"days": "Mon-Fri", "time": "3:00pm"}, {"days": "Sat", "time": "2:00pm"}, {"days": "Sun", "time": "Closed"}], "id": "8260900004", "name": "USPS COLLECTION BOX - BLUE BOX", "address": {"city": "CASPER", "state": "WY", "street": "601 SE WYOMING BLVD", "postcode": "82609"}}},
{"geometry": {"type": "Point", "coordinates": [-106.2750374266, 42.8489632897]}, "type": "Feature", "properties": {"collection_times": [{"days": "Mon-Fri", "time": "3:00pm"}, {"days": "Sat", "time": "2:00pm"}, {"days": "Sun", "time": "Closed"}], "id": "8260900005", "name": "USPS COLLECTION BOX - BLUE BOX", "address": {"city": "CASPER", "state": "WY", "street": "4000 E 2ND ST", "postcode": "82609"}}},
{"geometry": {"type": "Point", "coordinates": [-106.2924971679, 42.8487116998]}, "type": "Feature", "properties": {"collection_times": [{"days": "Mon-Fri", "time": "3:00pm"}, {"days": "Sat", "time": "2:00pm"}, {"days": "Sun", "time": "Closed"}], "id": "8260900008", "name": "USPS COLLECTION BOX - BLUE BOX", "address": {"city": "CASPER", "state": "WY", "street": "2635 E 2ND ST", "postcode": "82609"}}},
{"geometry": {"type": "Point", "coordinates": [-106.2924971679, 42.8487116998]}, "type": "Feature", "properties": {"collection_times": [{"days": "Mon-Fri", "time": "3:00pm"}, {"days": "Sat", "time": "2:00pm"}, {"days": "Sun", "time": "Closed"}], "id": "8260900009", "name": "USPS COLLECTION BOX - BLUE BOX", "address": {"city": "CASPER", "state": "WY", "street": "2635 E 2ND ST", "postcode": "82609"}}},
{"geometry": {"type": "Point", "coordinates": [-106.2811752658, 42.852560774]}, "type": "Feature", "properties": {"collection_times": [{"days": "Mon-Fri", "time": "6:00pm"}, {"days": "Sat", "time": "5:00pm"}, {"days": "Sun", "time": "Closed"}], "id": "8260900010", "name": "USPS COLLECTION BOX - PO LOBBY", "address": {"city": "CASPER", "state": "WY", "street": "411 N FOREST DR", "postcode": "82609"}}},
{"geometry": {"type": "Point", "coordinates": [-106.2811752658, 42.852560774]}, "type": "Feature", "properties": {"collection_times": [{"days": "Mon-Fri", "time": "6:00pm"}, {"days": "Sat", "time": "5:00pm"}, {"days": "Sun", "time": "Closed"}], "id": "8260900011", "name": "USPS COLLECTION BOX - PO LOBBY", "address": {"city": "CASPER", "state": "WY", "street": "411 N FOREST DR", "postcode": "82609"}}},
{"geometry": {"type": "Point", "coordinates": [-106.2811752658, 42.852560774]}, "type": "Feature", "properties": {"collection_times": [{"days": "Mon-Fri", "time": "6:00pm"}, {"days": "Sat", "time": "5:00pm"}, {"days": "Sun", "time": "Closed"}], "id": "8260900012", "name": "USPS COLLECTION BOX - PO LOBBY", "address": {"city": "CASPER", "state": "WY", "street": "411 N FOREST DR", "postcode": "82609"}}},
{"geometry": {"type": "Point", "coordinates": [-106.2811752658, 42.852560774]}, "type": "Feature", "properties": {"collection_times": [{"days": "Mon-Fri", "time": "6:00pm"}, {"days": "Sat", "time": "5:00pm"}, {"days": "Sun", "time": "Closed"}], "id": "8260900013", "name": "USPS COLLECTION BOX - PO LOBBY", "address": {"city": "CASPER", "state": "WY", "street": "411 N FOREST DR", "postcode": "82609"}}},
{"geometry": {"type": "Point", "coordinates": [-106.2813644452, 42.8532380386]}, "type": "Feature", "properties": {"collection_times": [{"days": "Mon-Fri", "time": "6:00pm"}, {"days": "Sat", "time": "5:00pm"}, {"days": "Sun", "time": "Closed"}], "id": "8260900014", "name": "USPS COLLECTION BOX - BLUE BOX", "address": {"city": "CASPER", "state": "WY", "street": "411 N FOREST DR", "postcode": "82609"}}},
{"geometry": {"type": "Point", "coordinates": [-106.2900459509, 42.8473832692]}, "type": "Feature", "properties": {"collection_times": [{"days": "Mon-Fri", "time": "3:00pm"}, {"days": "Sat", "time": "1:00pm"}, {"days": "Sun", "time": "Closed"}], "id": "8260900020", "name": "USPS COLLECTION BOX - BLUE BOX", "address": {"city": "CASPER", "state": "WY", "street": "300 COUNTRY CLUB RD", "postcode": "82609"}}},
{"geometry": {"type": "Point", "coordinates": [-106.2685438345, 42.8490186194]}, "type": "Feature", "properties": {"collection_times": [{"days": "Mon-Fri", "time": "3:00pm"}, {"days": "Sat", "time": "2:00pm"}, {"days": "Sun", "time": "Closed"}], "id": "8260900021", "name": "USPS COLLECTION BOX - BLUE BOX", "address": {"city": "CASPER", "state": "WY", "street": "4400 E 2ND ST", "postcode": "82609"}}},
{"geometry": {"type": "Point", "coordinates": [-106.7188087019, 42.4906096105]}, "type": "Feature", "properties": {"collection_times": [{"days": "Mon-Fri", "time": "10:25am"}, {"days": "Sat", "time": "10:15am"}, {"days": "Sun", "time": "Closed"}], "id": "8262000000", "name": "USPS COLLECTION BOX - BLUE BOX", "address": {"city": "ALCOVA", "state": "WY", "street": "22495 W US HIGHWAY 220", "postcode": "82620"}}},
{"geometry": {"type": "Point", "coordinates": [-106.7188087019, 42.4906096105]}, "type": "Feature", "properties": {"collection_times": [{"days": "Mon-Fri", "time": "10:25am"}, {"days": "Sat", "time": "10:20am"}, {"days": "Sun", "time": "Closed"}], "id": "8262000001", "name": "USPS COLLECTION BOX - PO LOBBY", "address": {"city": "ALCOVA", "state": "WY", "street": "22495 W US HIGHWAY 220", "postcode": "82620"}}},
{"geometry": {"type": "Point", "coordinates": [-105.4025394701, 42.7629165876]}, "type": "Feature", "properties": {"collection_times": [{"days": "Mon-Sat", "time": "11:00am"}, {"days": "Sun", "time": "Closed"}], "id": "8263300002", "name": "USPS COLLECTION BOX - BLUE BOX", "address": {"city": "DOUGLAS", "state": "WY", "street": "1115 W YELLOWSTONE HWY", "postcode": "82633"}}},
{"geometry": {"type": "Point", "coordinates": [-105.3559905532, 42.7409654092]}, "type": "Feature", "properties": {"collection_times": [{"days": "Mon-Sat", "time": "12:00pm"}, {"days": "Sun", "time": "Closed"}], "id": "8263300007", "name": "USPS COLLECTION BOX - BLUE BOX", "address": {"city": "DOUGLAS", "state": "WY", "street": "1900 E RICHARDS ST", "postcode": "82633"}}},
{"geometry": {"type": "Point", "coordinates": [-105.3841865115, 42.7599992861]}, "type": "Feature", "properties": {"collection_times": [{"days": "Mon-Fri", "time": "5:00pm"}, {"days": "Sat", "time": "3:00pm"}, {"days": "Sun", "time": "Closed"}], "id": "8263300008", "name": "USPS COLLECTION BOX - BLUE BOX", "address": {"city": "DOUGLAS", "state": "WY", "street": "129 N 3RD ST", "postcode": "82633"}}},
{"geometry": {"type": "Point", "coordinates": [-105.3841865115, 42.7599992861]}, "type": "Feature", "properties": {"collection_times": [{"days": "Mon-Fri", "time": "5:00pm"}, {"days": "Sat", "time": "3:00pm"}, {"days": "Sun", "time": "Closed"}], "id": "8263300009", "name": "USPS COLLECTION BOX - BLUE BOX", "address": {"city": "DOUGLAS", "state": "WY", "street": "129 N 3RD ST", "postcode": "82633"}}},
{"geometry": {"type": "Point", "coordinates": [-105.3841865115, 42.7599992861]}, "type": "Feature", "properties": {"collection_times": [{"days": "Mon-Fri", "time": "5:00pm"}, {"days": "Sat", "time": "3:00pm"}, {"days": "Sun", "time": "Closed"}], "id": "8263300010", "name": "USPS COLLECTION BOX - BLUE BOX", "address": {"city": "DOUGLAS", "state": "WY", "street": "129 N 3RD ST", "postcode": "82633"}}},
{"geometry": {"type": "Point", "coordinates": [-105.3841865115, 42.7599992861]}, "type": "Feature", "properties": {"collection_times": [{"days": "Mon-Fri", "time": "4:40pm"}, {"days": "Sat", "time": "3:00pm"}, {"days": "Sun", "time": "Closed"}], "id": "8263300011", "name": "USPS COLLECTION BOX - PO LOBBY", "address": {"city": "DOUGLAS", "state": "WY", "street": "129 N 3RD ST", "postcode": "82633"}}},
{"geometry": {"type": "Point", "coordinates": [-106.2484277023, 43.4136022099]}, "type": "Feature", "properties": {"collection_times": [{"days": "Mon-Fri", "time": "2:30pm"}, {"days": "Sat", "time": "10:00am"}, {"days": "Sun", "time": "Closed"}], "id": "8263500000", "name": "USPS COLLECTION BOX - PO LOBBY", "address": {"city": "EDGERTON", "state": "WY", "street": "307 S 2 ST", "postcode": "82635"}}},
{"geometry": {"type": "Point", "coordinates": [-106.2684971497, 42.8612916361]}, "type": "Feature", "properties": {"collection_times": [{"days": "Mon-Fri", "time": "5:00pm"}, {"days": "Sat", "time": "12:00pm"}, {"days": "Sun", "time": "Closed"}], "id": "8263600002", "name": "USPS COLLECTION BOX - BLUE BOX", "address": {"city": "EVANSVILLE", "state": "WY", "street": "236 TEXAS ST", "postcode": "82636"}}},
{"geometry": {"type": "Point", "coordinates": [-106.2684971497, 42.8612916361]}, "type": "Feature", "properties": {"collection_times": [{"days": "Mon-Fri", "time": "5:00pm"}, {"days": "Sat", "time": "12:00pm"}, {"days": "Sun", "time": "Closed"}], "id": "8263600004", "name": "USPS COLLECTION BOX - PO LOBBY", "address": {"city": "EVANSVILLE", "state": "WY", "street": "236 TEXAS ST", "postcode": "82636"}}},
{"geometry": {"type": "Point", "coordinates": [-105.8523476456, 42.8596767776]}, "type": "Feature", "properties": {"collection_times": [{"days": "Mon-Fri", "time": "5:00pm"}, {"days": "Sat", "time": "11:00am"}, {"days": "Sun", "time": "Closed"}], "id": "8263700000", "name": "USPS COLLECTION BOX - BLUE BOX", "address": {"city": "GLENROCK", "state": "WY", "street": "703 W BIRCH ST", "postcode": "82637"}}},
{"geometry": {"type": "Point", "coordinates": [-105.8523476456, 42.8596767776]}, "type": "Feature", "properties": {"collection_times": [{"days": "Mon-Fri", "time": "5:00pm"}, {"days": "Sat", "time": "11:00am"}, {"days": "Sun", "time": "Closed"}], "id": "8263700001", "name": "USPS COLLECTION BOX - PO LOBBY", "address": {"city": "GLENROCK", "state": "WY", "street": "703 W BIRCH ST", "postcode": "82637"}}},
{"geometry": {"type": "Point", "coordinates": [-105.8986250338, 42.9440488849]}, "type": "Feature", "properties": {"collection_times": [{"days": "Mon-Sat", "time": "9:45am"}, {"days": "Sun", "time": "Closed"}], "id": "8263700002", "name": "USPS COLLECTION BOX - BLUE BOX", "address": {"city": "GLENROCK", "state": "WY", "street": "55 RANCH RD", "postcode": "82637"}}},
{"geometry": {"type": "Point", "coordinates": [-105.8474121453, 42.8594484832]}, "type": "Feature", "properties": {"collection_times": [{"days": "Mon-Sat", "time": "8:30am"}, {"days": "Sun", "time": "Closed"}], "id": "8263700003", "name": "USPS COLLECTION BOX - BLUE BOX", "address": {"city": "GLENROCK", "state": "WY", "street": "130 BOXELDER TRL", "postcode": "82637"}}},
{"geometry": {"type": "Point", "coordinates": [-106.6390506248, 43.7106580655]}, "type": "Feature", "properties": {"collection_times": [{"days": "Mon-Fri", "time": "4:30pm"}, {"days": "Sat", "time": "12:00pm"}, {"days": "Sun", "time": "Closed"}], "id": "8263900000", "name": "USPS COLLECTION BOX - BLUE BOX", "address": {"city": "KAYCEE", "state": "WY", "street": "352 NOLAN AVE", "postcode": "82639"}}},
{"geometry": {"type": "Point", "coordinates": [-106.6390506248, 43.7106580655]}, "type": "Feature", "properties": {"collection_times": [{"days": "Mon-Fri", "time": "4:30pm"}, {"days": "Sat", "time": "12:00pm"}, {"days": "Sun", "time": "Closed"}], "id": "8263900001", "name": "USPS COLLECTION BOX - PO LOBBY", "address": {"city": "KAYCEE", "state": "WY", "street": "352 NOLAN AVE", "postcode": "82639"}}},
{"geometry": {"type": "Point", "coordinates": [-106.2019378299, 43.6076520277]}, "type": "Feature", "properties": {"collection_times": [{"days": "Mon-Fri", "time": "12:35pm"}, {"days": "Sat", "time": "10:35am"}, {"days": "Sun", "time": "Closed"}], "id": "8264000000", "name": "USPS COLLECTION BOX - PO LOBBY", "address": {"city": "LINCH", "state": "WY", "street": "200 JACKSON ST", "postcode": "82640"}}},
{"geometry": {"type": "Point", "coordinates": [-107.6758949514, 43.328006089]}, "type": "Feature", "properties": {"collection_times": [{"days": "Mon-Fri", "time": "3:45pm"}, {"days": "Sat", "time": "10:15am"}, {"days": "Sun", "time": "Closed"}], "id": "8264200000", "name": "USPS COLLECTION BOX - BLUE BOX", "address": {"city": "LYSITE", "state": "WY", "street": "25 FREMONT ST", "postcode": "82642"}}},
{"geometry": {"type": "Point", "coordinates": [-107.6758949514, 43.328006089]}, "type": "Feature", "properties": {"collection_times": [{"days": "Mon-Fri", "time": "3:45pm"}, {"days": "Sat", "time": "10:15am"}, {"days": "Sun", "time": "Closed"}], "id": "8264200001", "name": "USPS COLLECTION BOX - PO LOBBY", "address": {"city": "LYSITE", "state": "WY", "street": "25 FREMONT ST", "postcode": "82642"}}},
{"geometry": {"type": "Point", "coordinates": [-106.2773865418, 43.4097167931]}, "type": "Feature", "properties": {"collection_times": [{"days": "Mon-Fri", "time": "4:30pm"}, {"days": "Sat", "time": "9:45am"}, {"days": "Sun", "time": "Closed"}], "id": "8264300000", "name": "USPS COLLECTION BOX - BLUE BOX", "address": {"city": "MIDWEST", "state": "WY", "street": "132 STOCK ST", "postcode": "82643"}}},
{"geometry": {"type": "Point", "coordinates": [-106.2773865418, 43.4097167931]}, "type": "Feature", "properties": {"collection_times": [{"days": "Mon-Fri", "time": "4:30pm"}, {"days": "Sat", "time": "9:45am"}, {"days": "Sun", "time": "Closed"}], "id": "8264300001", "name": "USPS COLLECTION BOX - PO LOBBY", "address": {"city": "MIDWEST", "state": "WY", "street": "132 STOCK ST", "postcode": "82643"}}},
{"geometry": {"type": "Point", "coordinates": [-106.3755058401, 42.8446990721]}, "type": "Feature", "properties": {"collection_times": [{"days": "Mon-Fri", "time": "5:25pm"}, {"days": "Sat", "time": "2:55pm"}, {"days": "Sun", "time": "Closed"}], "id": "8264400000", "name": "USPS COLLECTION BOX - PO LOBBY", "address": {"city": "MILLS", "state": "WY", "street": "526 SW WYOMING BLVD", "postcode": "82644"}}},
{"geometry": {"type": "Point", "coordinates": [-106.3755058401, 42.8446990721]}, "type": "Feature", "properties": {"collection_times": [{"days": "Mon-Fri", "time": "5:25pm"}, {"days": "Sat", "time": "2:55pm"}, {"days": "Sun", "time": "Closed"}], "id": "8264400001", "name": "USPS COLLECTION BOX - PO LOBBY", "address": {"city": "MILLS", "state": "WY", "street": "526 SW WYOMING BLVD", "postcode": "82644"}}},
{"geometry": {"type": "Point", "coordinates": [-106.3755058401, 42.8446990721]}, "type": "Feature", "properties": {"collection_times": [{"days": "Mon-Fri", "time": "5:25pm"}, {"days": "Sat", "time": "2:55pm"}, {"days": "Sun", "time": "Closed"}], "id": "8264400002", "name": "USPS COLLECTION BOX - BLUE BOX", "address": {"city": "MILLS", "state": "WY", "street": "526 SW WYOMING BLVD", "postcode": "82644"}}},
{"geometry": {"type": "Point", "coordinates": [-106.3755058401, 42.8446990721]}, "type": "Feature", "properties": {"collection_times": [{"days": "Mon-Fri", "time": "5:25pm"}, {"days": "Sat", "time": "2:55pm"}, {"days": "Sun", "time": "Closed"}], "id": "8264400003", "name": "USPS COLLECTION BOX - PO LOBBY", "address": {"city": "MILLS", "state": "WY", "street": "526 SW WYOMING BLVD", "postcode": "82644"}}},
{"geometry": {"type": "Point", "coordinates": [-106.3755058401, 42.8446990721]}, "type": "Feature", "properties": {"collection_times": [{"days": "Mon-Fri", "time": "5:25pm"}, {"days": "Sat", "time": "2:55pm"}, {"days": "Sun", "time": "Closed"}], "id": "8264400004", "name": "USPS COLLECTION BOX - PO LOBBY", "address": {"city": "MILLS", "state": "WY", "street": "526 SW WYOMING BLVD", "postcode": "82644"}}},
{"geometry": {"type": "Point", "coordinates": [-106.3755058401, 42.8446990721]}, "type": "Feature", "properties": {"collection_times": [{"days": "Mon-Fri", "time": "5:25pm"}, {"days": "Sat", "time": "2:55pm"}, {"days": "Sun", "time": "Closed"}], "id": "8264400005", "name": "USPS COLLECTION BOX - PO LOBBY", "address": {"city": "MILLS", "state": "WY", "street": "526 SW WYOMING BLVD", "postcode": "82644"}}},
{"geometry": {"type": "Point", "coordinates": [-106.9872447182, 43.0340343036]}, "type": "Feature", "properties": {"collection_times": [{"days": "Mon-Fri", "time": "1:30pm"}, {"days": "Sat", "time": "11:00am"}, {"days": "Sun", "time": "Closed"}], "id": "8264800000", "name": "USPS COLLECTION BOX - BLUE BOX", "address": {"city": "POWDER RIVER", "state": "WY", "street": "35304 W HIGHWAY 20 26", "postcode": "82648"}}},
{"geometry": {"type": "Point", "coordinates": [-106.9872447182, 43.0340343036]}, "type": "Feature", "properties": {"collection_times": [{"days": "Mon-Fri", "time": "1:30pm"}, {"days": "Sat", "time": "11:00am"}, {"days": "Sun", "time": "Closed"}], "id": "8264800001", "name": "USPS COLLECTION BOX - PO LOBBY", "address": {"city": "POWDER RIVER", "state": "WY", "street": "35304 W HIGHWAY 20 26", "postcode": "82648"}}},
{"geometry": {"type": "Point", "coordinates": [-108.109046742, 43.2347014744]}, "type": "Feature", "properties": {"collection_times": [{"days": "Mon-Fri", "time": "3:30pm"}, {"days": "Sat", "time": "8:45am"}, {"days": "Sun", "time": "Closed"}], "id": "8264900000", "name": "USPS COLLECTION BOX - PO LOBBY", "address": {"city": "SHOSHONI", "state": "WY", "street": "112 WYOMING ST", "postcode": "82649"}}},
{"geometry": {"type": "Point", "coordinates": [-108.109046742, 43.2347014744]}, "type": "Feature", "properties": {"collection_times": [{"days": "Mon-Fri", "time": "3:30pm"}, {"days": "Sat", "time": "8:45am"}, {"days": "Sun", "time": "Closed"}], "id": "8264900001", "name": "USPS COLLECTION BOX - BLUE BOX", "address": {"city": "SHOSHONI", "state": "WY", "street": "112 WYOMING ST", "postcode": "82649"}}}
]}
