{"type": "FeatureCollection", "features": [
{"geometry": {"type": "Point", "coordinates": [-104.202243964, 43.8556244844]}, "type": "Feature", "properties": {"collection_times": [{"days": "Mon-Fri", "time": "3:40pm"}, {"days": "Sat", "time": "2:45pm"}, {"days": "Sun", "time": "Closed"}], "id": "8270100000", "name": "USPS COLLECTION BOX - BLUE BOX", "address": {"city": "NEWCASTLE", "state": "WY", "street": "24 W MAIN ST", "postcode": "82701"}}},
{"geometry": {"type": "Point", "coordinates": [-104.2105986193, 43.8524192099]}, "type": "Feature", "properties": {"collection_times": [{"days": "Mon-Sat", "time": "12:00pm"}, {"days": "Sun", "time": "Closed"}], "id": "8270100001", "name": "USPS COLLECTION BOX - BLUE BOX", "address": {"city": "NEWCASTLE", "state": "WY", "street": "709 W MAIN ST", "postcode": "82701"}}},
{"geometry": {"type": "Point", "coordinates": [-104.1959494542, 43.8489055107]}, "type": "Feature", "properties": {"collection_times": [{"days": "Mon-Sat", "time": "12:00pm"}, {"days": "Sun", "time": "Closed"}], "id": "8270100003", "name": "USPS COLLECTION BOX - BLUE BOX", "address": {"city": "NEWCASTLE", "state": "WY", "street": "727 WASHINGTON BLVD", "postcode": "82701"}}},
{"geometry": {"type": "Point", "coordinates": [-104.202243964, 43.8556244844]}, "type": "Feature", "properties": {"collection_times": [{"days": "Mon-Fri", "time": "3:40pm"}, {"days": "Sat", "time": "2:45pm"}, {"days": "Sun", "time": "Closed"}], "id": "8270100005", "name": "USPS COLLECTION BOX - PO LOBBY", "address": {"city": "NEWCASTLE", "state": "WY", "street": "24 W MAIN ST", "postcode": "82701"}}},
{"geometry": {"type": "Point", "coordinates": [-104.202243964, 43.8556244844]}, "type": "Feature", "properties": {"collection_times": [{"days": "Mon-Fri", "time": "3:40pm"}, {"days": "Sat", "time": "2:45pm"}, {"days": "Sun", "time": "Closed"}], "id": "8270100007", "name": "USPS COLLECTION BOX - BLUE BOX", "address": {"city": "NEWCASTLE", "state": "WY", "street": "24 W MAIN ST", "postcode": "82701"}}},
{"geometry": {"type": "Point", "coordinates": [-104.202243964, 43.8556244844]}, "type": "Feature", "properties": {"collection_times": [{"days": "Mon-Fri", "time": "3:40pm"}, {"days": "Sat", "time": "2:45pm"}, {"days": "Sun", "time": "Closed"}], "id": "8270100008", "name": "USPS COLLECTION BOX - PO LOBBY", "address": {"city": "NEWCASTLE", "state": "WY", "street": "24 W MAIN ST", "postcode": "82701"}}},
{"geometry": {"type": "Point", "coordinates": [-104.202243964, 43.8556244844]}, "type": "Feature", "properties": {"collection_times": [{"days": "Mon-Fri", "time": "3:40pm"}, {"days": "Sat", "time": "2:45pm"}, {"days": "Sun", "time": "Closed"}], "id": "8270100009", "name": "USPS COLLECTION BOX - PO LOBBY", "address": {"city": "NEWCASTLE", "state": "WY", "street": "24 W MAIN ST", "postcode": "82701"}}},
{"geometry": {"type": "Point", "coordinates": [-104.202243964, 43.8556244844]}, "type": "Feature", "properties": {"collection_times": [{"days": "Mon-Fri", "time": "3:40pm"}, {"days": "Sat", "time": "2:45pm"}, {"days": "Sun", "time": "Closed"}], "id": "8270100010", "name": "USPS COLLECTION BOX - PO LOBBY", "address": {"city": "NEWCASTLE", "state": "WY", "street": "24 W MAIN ST", "postcode": "82701"}}},
{"geometry": {"type": "Point", "coordinates": [-104.4382242728, 44.6942144868]}, "type": "Feature", "properties": {"collection_times": [{"days": "Mon-Fri", "time": "1:30pm"}, {"days": "Sat", "time": "1:00pm"}, {"days": "Sun", "time": "Closed"}], "id": "8271100000", "name": "USPS COLLECTION BOX - BLUE BOX", "address": {"city": "ALVA", "state": "WY", "street": "HWY 24", "postcode": "82711"}}},
{"geometry": {"type": "Point", "coordinates": [-104.4382242728, 44.6942144868]}, "type": "Feature", "properties": {"collection_times": [{"days": "Mon-Fri", "time": "1:30pm"}, {"days": "Sat", "time": "1:00pm"}, {"days": "Sun", "time": "Closed"}], "id": "8271100001", "name": "USPS COLLECTION BOX - PO LOBBY", "address": {"city": "ALVA", "state": "WY", "street": "2510 HIGHWAY 24", "postcode": "82711"}}},
{"geometry": {"type": "Point", "coordinates": [-104.1809755881, 44.533291377]}, "type": "Feature", "properties": {"collection_times": [{"days": "Mon-Sat", "time": "11:30am"}, {"days": "Sun", "time": "Closed"}], "id": "8271200000", "name": "USPS COLLECTION BOX - PO LOBBY", "address": {"city": "BEULAH", "state": "WY", "street": "5930 OLD HIGHWAY 14", "postcode": "82712"}}},
{"geometry": {"type": "Point", "coordinates": [-104.1809755881, 44.533291377]}, "type": "Feature", "properties": {"collection_times": [{"days": "Mon-Sat", "time": "11:30am"}, {"days": "Sun", "time": "Closed"}], "id": "8271200001", "name": "USPS COLLECTION BOX - BLUE BOX", "address": {"city": "BEULAH", "state": "WY", "street": "5930 OLD HIGHWAY 14", "postcode": "82712"}}},
{"geometry": {"type": "Point", "coordinates": [-104.841907656, 44.6419295984]}, "type": "Feature", "properties": {"collection_times": [{"days": "Mon-Fri", "time": "11:45am"}, {"days": "Sat", "time": "1:00pm"}, {"days": "Sun", "time": "Closed"}], "id": "8271400000", "name": "USPS COLLECTION BOX - PO LOBBY", "address": {"city": "DEVILS TOWER", "state": "WY", "street": "56 STATE HIGHWAY 110", "postcode": "82714"}}},
{"geometry": {"type": "Point", "coordinates": [-104.841907656, 44.6419295984]}, "type": "Feature", "properties": {"collection_times": [{"days": "Mon-Fri", "time": "11:45am"}, {"days": "Sat", "time": "1:00pm"}, {"days": "Sun", "time": "Closed"}], "id": "8271400001", "name": "USPS COLLECTION BOX - PO LOBBY", "address": {"city": "DEVILS TOWER", "state": "WY", "street": "56 STATE HIGHWAY 110", "postcode": "82714"}}},
{"geometry": {"type": "Point", "coordinates": [-105.4939059421, 44.2703479803]}, "type": "Feature", "properties": {"collection_times": [{"days": "Mon-Fri", "time": "4:30pm"}, {"days": "Sat", "time": "9:30am"}, {"days": "Sun", "time": "Closed"}], "id": "8271600001", "name": "USPS COLLECTION BOX - BLUE BOX", "address": {"city": "GILLETTE", "state": "WY", "street": "2610 S DOUGLAS HWY", "postcode": "82716"}}},
{"geometry": {"type": "Point", "coordinates": [-105.5025060537, 44.2915891915]}, "type": "Feature", "properties": {"collection_times": [{"days": "Mon-Fri", "time": "5:20pm"}, {"days": "Sat", "time": "5:00pm"}, {"days": "Sun", "time": "Closed"}], "id": "8271600002", "name": "USPS COLLECTION BOX - PO LOBBY", "address": {"city": "GILLETTE", "state": "WY", "street": "311 S KENDRICK AVE", "postcode": "82716"}}},
{"geometry": {"type": "Point", "coordinates": [-105.5025060537, 44.2915891915]}, "type": "Feature", "properties": {"collection_times": [{"days": "Mon-Fri", "time": "5:20pm"}, {"days": "Sat", "time": "5:00pm"}, {"days": "Sun", "time": "Closed"}], "id": "8271600004", "name": "USPS COLLECTION BOX - PO LOBBY", "address": {"city": "GILLETTE", "state": "WY", "street": "311 S KENDRICK AVE", "postcode": "82716"}}},
{"geometry": {"type": "Point", "coordinates": [-105.5025060537, 44.2915891915]}, "type": "Feature", "properties": {"collection_times": [{"days": "Mon-Fri", "time": "5:20pm"}, {"days": "Sat", "time": "5:00pm"}, {"days": "Sun", "time": "Closed"}], "id": "8271600005", "name": "USPS COLLECTION BOX - BLUE BOX", "address": {"city": "GILLETTE", "state": "WY", "street": "311 S KENDRICK AVE", "postcode": "82716"}}},
{"geometry": {"type": "Point", "coordinates": [-105.5193466576, 44.2897922769]}, "type": "Feature", "properties": {"collection_times": [{"days": "Mon-Fri", "time": "4:00pm"}, {"days": "Sat", "time": "9:30am"}, {"days": "Sun", "time": "Closed"}], "id": "8271600006", "name": "USPS COLLECTION BOX - BLUE BOX", "address": {"city": "GILLETTE", "state": "WY", "street": "501 S BURMA AVE", "postcode": "82716"}}},
{"geometry": {"type": "Point", "coordinates": [-105.4941259724, 44.2895698806]}, "type": "Feature", "properties": {"collection_times": [{"days": "Mon-Fri", "time": "4:00pm"}, {"days": "Sat", "time": "10:00am"}, {"days": "Sun", "time": "Closed"}], "id": "8271600007", "name": "USPS COLLECTION BOX - BLUE BOX", "address": {"city": "GILLETTE", "state": "WY", "street": "500 S DOUGLAS HWY", "postcode": "82716"}}},
{"geometry": {"type": "Point", "coordinates": [-105.4903724436, 44.2818084868]}, "type": "Feature", "properties": {"collection_times": [{"days": "Mon-Fri", "time": "4:20pm"}, {"days": "Sat", "time": "10:00am"}, {"days": "Sun", "time": "Closed"}], "id": "8271600008", "name": "USPS COLLECTION BOX - BLUE BOX", "address": {"city": "GILLETTE", "state": "WY", "street": "906 CAMEL DR", "postcode": "82716"}}},
{"geometry": {"type": "Point", "coordinates": [-105.494051446, 44.2931163915]}, "type": "Feature", "properties": {"collection_times": [{"days": "Mon-Fri", "time": "4:00pm"}, {"days": "Sat", "time": "11:00am"}, {"days": "Sun", "time": "Closed"}], "id": "8271600009", "name": "USPS COLLECTION BOX - BLUE BOX", "address": {"city": "GILLETTE", "state": "WY", "street": "802 E 2ND ST", "postcode": "82716"}}},
{"geometry": {"type": "Point", "coordinates": [-105.5065926826, 44.268956994]}, "type": "Feature", "properties": {"collection_times": [{"days": "Mon-Fri", "time": "4:30pm"}, {"days": "Sat", "time": "9:55am"}, {"days": "Sun", "time": "Closed"}], "id": "8271600010", "name": "USPS COLLECTION BOX - BLUE BOX", "address": {"city": "GILLETTE", "state": "WY", "street": "405 W LAKEWAY", "postcode": "82716"}}},
{"geometry": {"type": "Point", "coordinates": [-105.5045744799, 44.2689694471]}, "type": "Feature", "properties": {"collection_times": [{"days": "Mon-Fri", "time": "4:30pm"}, {"days": "Sat", "time": "10:00am"}, {"days": "Sun", "time": "Closed"}], "id": "8271600011", "name": "USPS COLLECTION BOX - BLUE BOX", "address": {"city": "GILLETTE", "state": "WY", "street": "201 W LAKEWAY", "postcode": "82716"}}},
{"geometry": {"type": "Point", "coordinates": [-105.5039610933, 44.2902406183]}, "type": "Feature", "properties": {"collection_times": [{"days": "Mon-Fri", "time": "4:00pm"}, {"days": "Sat", "time": "9:30am"}, {"days": "Sun", "time": "Closed"}], "id": "8271600012", "name": "USPS COLLECTION BOX - BLUE BOX", "address": {"city": "GILLETTE", "state": "WY", "street": "500 S GILLETTE AVE", "postcode": "82716"}}},
{"geometry": {"type": "Point", "coordinates": [-105.5304413232, 44.3100756603]}, "type": "Feature", "properties": {"collection_times": [{"days": "Mon-Fri", "time": "4:00pm"}, {"days": "Sat", "time": "12:00pm"}, {"days": "Sun", "time": "Closed"}], "id": "8271600014", "name": "USPS COLLECTION BOX - BLUE BOX", "address": {"city": "GILLETTE", "state": "WY", "street": "1501 W HWY 14", "postcode": "82716"}}},
{"geometry": {"type": "Point", "coordinates": [-105.5296698827, 44.3009296842]}, "type": "Feature", "properties": {"collection_times": [{"days": "Mon-Sat", "time": "12:30pm"}, {"days": "Sun", "time": "Closed"}], "id": "8271600015", "name": "USPS COLLECTION BOX - BLUE BOX", "address": {"city": "GILLETTE", "state": "WY", "street": "719 N HIGHWAY 14 16", "postcode": "82716"}}},
{"geometry": {"type": "Point", "coordinates": [-107.5516065992, 42.9996012384]}, "type": "Feature", "properties": {"collection_times": [{"days": "Mon-Fri", "time": "4:25pm"}, {"days": "Sat", "time": "11:00am"}, {"days": "Sun", "time": "Closed"}], "id": "8271600016", "name": "USPS COLLECTION BOX - BLUE BOX", "address": {"city": "GILLETTE", "state": "WY", "street": "2007 S DOUGLAS HWY", "postcode": "82716"}}},
{"geometry": {"type": "Point", "coordinates": [-105.4595211133, 44.227642385]}, "type": "Feature", "properties": {"collection_times": [{"days": "Mon-Sat", "time": "12:00pm"}, {"days": "Sun", "time": "Closed"}], "id": "8271600020", "name": "USPS COLLECTION BOX - BLUE BOX", "address": {"city": "GILLETTE", "state": "WY", "street": "7261 ROBIN DR", "postcode": "82716"}}},
{"geometry": {"type": "Point", "coordinates": [-105.4941259724, 44.2895698806]}, "type": "Feature", "properties": {"collection_times": [{"days": "Mon-Fri", "time": "4:00pm"}, {"days": "Sat", "time": "10:00am"}, {"days": "Sun", "time": "Closed"}], "id": "8271600022", "name": "USPS COLLECTION BOX - BLUE BOX", "address": {"city": "GILLETTE", "state": "WY", "street": "500 S DOUGLAS HWY", "postcode": "82716"}}},
{"geometry": {"type": "Point", "coordinates": [-105.5045744799, 44.2689694471]}, "type": "Feature", "properties": {"collection_times": [{"days": "Mon-Fri", "time": "4:30pm"}, {"days": "Sat", "time": "10:00am"}, {"days": "Sun", "time": "Closed"}], "id": "8271600026", "name": "USPS COLLECTION BOX - BLUE BOX", "address": {"city": "GILLETTE", "state": "WY", "street": "201 W LAKEWAY", "postcode": "82716"}}},
{"geometry": {"type": "Point", "coordinates": [-105.6527169846, 44.4744900846]}, "type": "Feature", "properties": {"collection_times": [{"days": "Mon-Fri", "time": "4:00pm"}, {"days": "Sat", "time": "9:30am"}, {"days": "Sun", "time": "Closed"}], "id": "8271600027", "name": "USPS COLLECTION BOX - BLUE BOX", "address": {"city": "GILLETTE", "state": "WY", "street": "407 MEDICAL HL", "postcode": "82716"}}},
{"geometry": {"type": "Point", "coordinates": [-105.5025060537, 44.2915891915]}, "type": "Feature", "properties": {"collection_times": [{"days": "Mon-Fri", "time": "5:20pm"}, {"days": "Sat", "time": "5:00pm"}, {"days": "Sun", "time": "Closed"}], "id": "8271600030", "name": "USPS COLLECTION BOX - BLUE BOX", "address": {"city": "GILLETTE", "state": "WY", "street": "311 S KENDRICK AVE", "postcode": "82716"}}},
{"geometry": {"type": "Point", "coordinates": [-105.5025060537, 44.2915891915]}, "type": "Feature", "properties": {"collection_times": [{"days": "Mon-Fri", "time": "5:20pm"}, {"days": "Sat", "time": "5:00pm"}, {"days": "Sun", "time": "Closed"}], "id": "8271600031", "name": "USPS COLLECTION BOX - BLUE BOX", "address": {"city": "GILLETTE", "state": "WY", "street": "311 S KENDRICK AVE", "postcode": "82716"}}},
{"geometry": {"type": "Point", "coordinates": [-105.5025060537, 44.2915891915]}, "type": "Feature", "properties": {"collection_times": [{"days": "Mon-Fri", "time": "5:20pm"}, {"days": "Sat", "time": "5:00pm"}, {"days": "Sun", "time": "Closed"}], "id": "8271600032", "name": "USPS COLLECTION BOX - BLUE BOX", "address": {"city": "GILLETTE", "state": "WY", "street": "311 S KENDRICK AVE", "postcode": "82716"}}},
{"geometry": {"type": "Point", "coordinates": [-104.7004628249, 44.8336446448]}, "type": "Feature", "properties": {"collection_times": [{"days": "Mon-Fri", "time": "3:20pm"}, {"days": "Sat", "time": "10:00am"}, {"days": "Sun", "time": "Closed"}], "id": "8272000000", "name": "USPS COLLECTION BOX - BLUE BOX", "address": {"city": "HULETT", "state": "WY", "street": "193 BIRCH ST", "postcode": "82720"}}},
{"geometry": {"type": "Point", "coordinates": [-104.7004628249, 44.8336446448]}, "type": "Feature", "properties": {"collection_times": [{"days": "Mon-Fri", "time": "3:20pm"}, {"days": "Sat", "time": "10:00am"}, {"days": "Sun", "time": "Closed"}], "id": "8272000001", "name": "USPS COLLECTION BOX - PO LOBBY", "address": {"city": "HULETT", "state": "WY", "street": "193 BIRCH ST", "postcode": "82720"}}},
{"geometry": {"type": "Point", "coordinates": [-104.7004628249, 44.8336446448]}, "type": "Feature", "properties": {"collection_times": [{"days": "Mon-Fri", "time": "3:20pm"}, {"days": "Sat", "time": "10:00am"}, {"days": "Sun", "time": "Closed"}], "id": "8272000002", "name": "USPS COLLECTION BOX - PO LOBBY", "address": {"city": "HULETT", "state": "WY", "street": "193 BIRCH ST", "postcode": "82720"}}},
{"geometry": {"type": "Point", "coordinates": [-104.9517731946, 44.2637211021]}, "type": "Feature", "properties": {"collection_times": [{"days": "Mon-Fri", "time": "4:30pm"}, {"days": "Sat", "time": "10:00am"}, {"days": "Sun", "time": "Closed"}], "id": "8272100000", "name": "USPS COLLECTION BOX - BLUE BOX", "address": {"city": "MOORCROFT", "state": "WY", "street": "120 N BIGHORN AVE", "postcode": "82721"}}},
{"geometry": {"type": "Point", "coordinates": [-104.9517731946, 44.2637211021]}, "type": "Feature", "properties": {"collection_times": [{"days": "Mon-Fri", "time": "4:30pm"}, {"days": "Sat", "time": "10:00am"}, {"days": "Sun", "time": "Closed"}], "id": "8272100001", "name": "USPS COLLECTION BOX - PO LOBBY", "address": {"city": "MOORCROFT", "state": "WY", "street": "120 N BIGHORN AVE", "postcode": "82721"}}},
{"geometry": {"type": "Point", "coordinates": [-104.4218981698, 43.9822239828]}, "type": "Feature", "properties": {"collection_times": [{"days": "Mon-Fri", "time": "11:45am"}, {"days": "Sat", "time": "9:30am"}, {"days": "Sun", "time": "Closed"}], "id": "8272300000", "name": "USPS COLLECTION BOX - PO LOBBY", "address": {"city": "OSAGE", "state": "WY", "street": "319 NEFSY AVE", "postcode": "82723"}}},
{"geometry": {"type": "Point", "coordinates": [-104.4218981698, 43.9822239828]}, "type": "Feature", "properties": {"collection_times": [{"days": "Mon-Fri", "time": "11:45am"}, {"days": "Sat", "time": "9:30am"}, {"days": "Sun", "time": "Closed"}], "id": "8272300001", "name": "USPS COLLECTION BOX - PO LOBBY", "address": {"city": "OSAGE", "state": "WY", "street": "319 NEFSY AVE", "postcode": "82723"}}},
{"geometry": {"type": "Point", "coordinates": [-105.7176983865, 44.6942151306]}, "type": "Feature", "properties": {"collection_times": [{"days": "Mon-Fri", "time": "10:30am"}, {"days": "Sat-Sun", "time": "Closed"}], "id": "8272500001", "name": "USPS COLLECTION BOX - BLUE BOX", "address": {"city": "RECLUSE", "state": "WY", "street": "485 RECLUSE RD", "postcode": "82725"}}},
{"geometry": {"type": "Point", "coordinates": [-105.7176983865, 44.6942151306]}, "type": "Feature", "properties": {"collection_times": [{"days": "Mon-Fri", "time": "10:45am"}, {"days": "Sat-Sun", "time": "Closed"}], "id": "8272500002", "name": "USPS COLLECTION BOX - PO LOBBY", "address": {"city": "RECLUSE", "state": "WY", "street": "485 RECLUSE RD", "postcode": "82725"}}},
{"geometry": {"type": "Point", "coordinates": [-105.2042232302, 44.2784355398]}, "type": "Feature", "properties": {"collection_times": [{"days": "Mon-Fri", "time": "4:45pm"}, {"days": "Sat", "time": "9:45am"}, {"days": "Sun", "time": "Closed"}], "id": "8272700000", "name": "USPS COLLECTION BOX - BLUE BOX", "address": {"city": "ROZET", "state": "WY", "street": "14076 HIGHWAY 51", "postcode": "82727"}}},
{"geometry": {"type": "Point", "coordinates": [-105.2042232302, 44.2784355398]}, "type": "Feature", "properties": {"collection_times": [{"days": "Mon-Fri", "time": "4:45pm"}, {"days": "Sat", "time": "9:45am"}, {"days": "Sun", "time": "Closed"}], "id": "8272700001", "name": "USPS COLLECTION BOX - PO LOBBY", "address": {"city": "ROZET", "state": "WY", "street": "14076 HIGHWAY 51", "postcode": "82727"}}},
{"geometry": {"type": "Point", "coordinates": [-104.3819376288, 44.4048895989]}, "type": "Feature", "properties": {"collection_times": [{"days": "Mon-Fri", "time": "3:45pm"}, {"days": "Sat", "time": "12:15pm"}, {"days": "Sun", "time": "Closed"}], "id": "8272900000", "name": "USPS COLLECTION BOX - BLUE BOX", "address": {"city": "SUNDANCE", "state": "WY", "street": "121 E MAIN ST", "postcode": "82729"}}},
{"geometry": {"type": "Point", "coordinates": [-104.3819376288, 44.4048895989]}, "type": "Feature", "properties": {"collection_times": [{"days": "Mon-Fri", "time": "3:45pm"}, {"days": "Sat", "time": "12:15pm"}, {"days": "Sun", "time": "Closed"}], "id": "8272900001", "name": "USPS COLLECTION BOX - PO LOBBY", "address": {"city": "SUNDANCE", "state": "WY", "street": "121 E MAIN ST", "postcode": "82729"}}},
{"geometry": {"type": "Point", "coordinates": [-104.3819376288, 44.4048895989]}, "type": "Feature", "properties": {"collection_times": [{"days": "Mon-Fri", "time": "3:45pm"}, {"days": "Sat", "time": "12:15pm"}, {"days": "Sun", "time": "Closed"}], "id": "8272900002", "name": "USPS COLLECTION BOX - PO LOBBY", "address": {"city": "SUNDANCE", "state": "WY", "street": "121 E MAIN ST", "postcode": "82729"}}},
{"geometry": {"type": "Point", "coordinates": [-104.6265545163, 44.0992724382]}, "type": "Feature", "properties": {"collection_times": [{"days": "Mon-Fri", "time": "4:30pm"}, {"days": "Sat", "time": "9:30am"}, {"days": "Sun", "time": "Closed"}], "id": "8273000000", "name": "USPS COLLECTION BOX - BLUE BOX", "address": {"city": "UPTON", "state": "WY", "street": "622 PINE ST", "postcode": "82730"}}},
{"geometry": {"type": "Point", "coordinates": [-104.6265545163, 44.0992724382]}, "type": "Feature", "properties": {"collection_times": [{"days": "Mon-Fri", "time": "4:30pm"}, {"days": "Sat", "time": "9:30am"}, {"days": "Sun", "time": "Closed"}], "id": "8273000001", "name": "USPS COLLECTION BOX - PO LOBBY", "address": {"city": "UPTON", "state": "WY", "street": "622 PINE ST", "postcode": "82730"}}},
{"geometry": {"type": "Point", "coordinates": [-104.6265545163, 44.0992724382]}, "type": "Feature", "properties": {"collection_times": [{"days": "Mon-Fri", "time": "4:30pm"}, {"days": "Sat", "time": "9:30am"}, {"days": "Sun", "time": "Closed"}], "id": "8273000002", "name": "USPS COLLECTION BOX - PO LOBBY", "address": {"city": "UPTON", "state": "WY", "street": "622 PINE ST", "postcode": "82730"}}}
]}
