{"type": "FeatureCollection", "features": [
{"geometry": {"type": "Point", "coordinates": [-106.9616185915, 44.7899975444]}, "type": "Feature", "properties": {"collection_times": [{"days": "Mon-Fri", "time": "5:00pm"}, {"days": "Sat", "time": "11:45am"}, {"days": "Sun", "time": "Closed"}], "id": "8280100000", "name": "USPS COLLECTION BOX - EXPRESS", "address": {"city": "SHERIDAN", "state": "WY", "street": "101 E LOUCKS ST", "postcode": "82801"}}},
{"geometry": {"type": "Point", "coordinates": [-106.9545404702, 44.7972896996]}, "type": "Feature", "properties": {"collection_times": [{"days": "Mon-Fri", "time": "5:00pm"}, {"days": "Sat", "time": "4:00pm"}, {"days": "Sun", "time": "Closed"}], "id": "8280100001", "name": "USPS COLLECTION BOX - BLUE BOX", "address": {"city": "SHERIDAN", "state": "WY", "street": "101 E LOUCKS ST", "postcode": "82801"}}},
{"geometry": {"type": "Point", "coordinates": [-106.9536598128, 44.7972469275]}, "type": "Feature", "properties": {"collection_times": [{"days": "Mon-Fri", "time": "5:00pm"}, {"days": "Sat", "time": "4:00pm"}, {"days": "Sun", "time": "Closed"}], "id": "8280100002", "name": "USPS COLLECTION BOX - BLUE BOX", "address": {"city": "SHERIDAN", "state": "WY", "street": "101 E LOUCKS ST", "postcode": "82801"}}},
{"geometry": {"type": "Point", "coordinates": [-106.9536598128, 44.7972469275]}, "type": "Feature", "properties": {"collection_times": [{"days": "Mon-Fri", "time": "5:00pm"}, {"days": "Sat", "time": "4:00pm"}, {"days": "Sun", "time": "Closed"}], "id": "8280100003", "name": "USPS COLLECTION BOX - BLUE BOX", "address": {"city": "SHERIDAN", "state": "WY", "street": "101 E LOUCKS ST", "postcode": "82801"}}},
{"geometry": {"type": "Point", "coordinates": [-106.9545404702, 44.7972896996]}, "type": "Feature", "properties": {"collection_times": [{"days": "Mon-Fri", "time": "5:00pm"}, {"days": "Sat", "time": "4:00pm"}, {"days": "Sun", "time": "Closed"}], "id": "8280100004", "name": "USPS COLLECTION BOX - BLUE BOX", "address": {"city": "SHERIDAN", "state": "WY", "street": "101 E LOUCKS ST", "postcode": "82801"}}},
{"geometry": {"type": "Point", "coordinates": [-106.9424351009, 44.7776946564]}, "type": "Feature", "properties": {"collection_times": [{"days": "Mon-Fri", "time": "4:00pm"}, {"days": "Sat", "time": "1:00pm"}, {"days": "Sun", "time": "Closed"}], "id": "8280100006", "name": "USPS COLLECTION BOX - BLUE BOX", "address": {"city": "SHERIDAN", "state": "WY", "street": "1865 COFFEEN AVE", "postcode": "82801"}}},
{"geometry": {"type": "Point", "coordinates": [-106.9559048249, 44.8047929505]}, "type": "Feature", "properties": {"collection_times": [{"days": "Mon-Fri", "time": "4:00pm"}, {"days": "Sat", "time": "1:00pm"}, {"days": "Sun", "time": "Closed"}], "id": "8280100008", "name": "USPS COLLECTION BOX - BLUE BOX", "address": {"city": "SHERIDAN", "state": "WY", "street": "700 N MAIN ST", "postcode": "82801"}}},
{"geometry": {"type": "Point", "coordinates": [-106.9559189303, 44.8002672837]}, "type": "Feature", "properties": {"collection_times": [{"days": "Mon-Fri", "time": "4:00pm"}, {"days": "Sat", "time": "1:00pm"}, {"days": "Sun", "time": "Closed"}], "id": "8280100009", "name": "USPS COLLECTION BOX - BLUE BOX", "address": {"city": "SHERIDAN", "state": "WY", "street": "264 N MAIN ST", "postcode": "82801"}}},
{"geometry": {"type": "Point", "coordinates": [-106.9424454668, 44.7806313546]}, "type": "Feature", "properties": {"collection_times": [{"days": "Mon-Fri", "time": "4:00pm"}, {"days": "Sat", "time": "1:00pm"}, {"days": "Sun", "time": "Closed"}], "id": "8280100010", "name": "USPS COLLECTION BOX - BLUE BOX", "address": {"city": "SHERIDAN", "state": "WY", "street": "1613 COFFEEN AVE", "postcode": "82801"}}},
{"geometry": {"type": "Point", "coordinates": [-106.9559696063, 44.7976927964]}, "type": "Feature", "properties": {"collection_times": [{"days": "Mon-Fri", "time": "4:00pm"}, {"days": "Sat", "time": "1:00pm"}, {"days": "Sun", "time": "Closed"}], "id": "8280100012", "name": "USPS COLLECTION BOX - BLUE BOX", "address": {"city": "SHERIDAN", "state": "WY", "street": "50 N MAIN ST", "postcode": "82801"}}},
{"geometry": {"type": "Point", "coordinates": [-106.9559758938, 44.7972673382]}, "type": "Feature", "properties": {"collection_times": [{"days": "Mon-Fri", "time": "4:00pm"}, {"days": "Sat", "time": "1:00pm"}, {"days": "Sun", "time": "Closed"}], "id": "8280100013", "name": "USPS COLLECTION BOX - BLUE BOX", "address": {"city": "SHERIDAN", "state": "WY", "street": "2 N MAIN ST", "postcode": "82801"}}},
{"geometry": {"type": "Point", "coordinates": [-106.9572016527, 44.7964031007]}, "type": "Feature", "properties": {"collection_times": [{"days": "Mon-Fri", "time": "4:00pm"}, {"days": "Sat", "time": "1:00pm"}, {"days": "Sun", "time": "Closed"}], "id": "8280100014", "name": "USPS COLLECTION BOX - BLUE BOX", "address": {"city": "SHERIDAN", "state": "WY", "street": "101 W WORKS ST", "postcode": "82801"}}},
{"geometry": {"type": "Point", "coordinates": [-106.9559652728, 44.7958737441]}, "type": "Feature", "properties": {"collection_times": [{"days": "Mon-Fri", "time": "4:00pm"}, {"days": "Sat", "time": "1:00pm"}, {"days": "Sun", "time": "Closed"}], "id": "8280100015", "name": "USPS COLLECTION BOX - BLUE BOX", "address": {"city": "SHERIDAN", "state": "WY", "street": "150 S MAIN ST", "postcode": "82801"}}},
{"geometry": {"type": "Point", "coordinates": [-106.9395407054, 44.7761549243]}, "type": "Feature", "properties": {"collection_times": [{"days": "Mon-Fri", "time": "4:00pm"}, {"days": "Sat", "time": "1:00pm"}, {"days": "Sun", "time": "Closed"}], "id": "8280100024", "name": "USPS COLLECTION BOX - BLUE BOX", "address": {"city": "SHERIDAN", "state": "WY", "street": "1949 SUGARLAND DR", "postcode": "82801"}}},
{"geometry": {"type": "Point", "coordinates": [-106.9545404702, 44.7972896996]}, "type": "Feature", "properties": {"collection_times": [{"days": "Mon-Fri", "time": "5:00pm"}, {"days": "Sat", "time": "4:00pm"}, {"days": "Sun", "time": "Closed"}], "id": "8280100025", "name": "USPS COLLECTION BOX - PO LOBBY", "address": {"city": "SHERIDAN", "state": "WY", "street": "101 E LOUCKS ST", "postcode": "82801"}}},
{"geometry": {"type": "Point", "coordinates": [-106.9545404702, 44.7972896996]}, "type": "Feature", "properties": {"collection_times": [{"days": "Mon-Fri", "time": "5:00pm"}, {"days": "Sat", "time": "4:00pm"}, {"days": "Sun", "time": "Closed"}], "id": "8280100026", "name": "USPS COLLECTION BOX - PO LOBBY", "address": {"city": "SHERIDAN", "state": "WY", "street": "101 E LOUCKS ST", "postcode": "82801"}}},
{"geometry": {"type": "Point", "coordinates": [-106.942439622, 44.7797955567]}, "type": "Feature", "properties": {"collection_times": [{"days": "Mon-Fri", "time": "4:00pm"}, {"days": "Sat", "time": "1:00pm"}, {"days": "Sun", "time": "Closed"}], "id": "8280100028", "name": "USPS COLLECTION BOX - BLUE BOX", "address": {"city": "SHERIDAN", "state": "WY", "street": "1695 COFFEEN AVE", "postcode": "82801"}}},
{"geometry": {"type": "Point", "coordinates": [-106.9545404702, 44.7972896996]}, "type": "Feature", "properties": {"collection_times": [{"days": "Mon-Fri", "time": "5:00pm"}, {"days": "Sat", "time": "4:00pm"}, {"days": "Sun", "time": "Closed"}], "id": "8280100029", "name": "USPS COLLECTION BOX - BLUE BOX", "address": {"city": "SHERIDAN", "state": "WY", "street": "101 E LOUCKS ST", "postcode": "82801"}}},
{"geometry": {"type": "Point", "coordinates": [-106.9545404702, 44.7972896996]}, "type": "Feature", "properties": {"collection_times": [{"days": "Mon-Fri", "time": "5:00pm"}, {"days": "Sat", "time": "4:00pm"}, {"days": "Sun", "time": "Closed"}], "id": "8280100030", "name": "USPS COLLECTION BOX - BLUE BOX", "address": {"city": "SHERIDAN", "state": "WY", "street": "101 E LOUCKS ST", "postcode": "82801"}}},
{"geometry": {"type": "Point", "coordinates": [-106.9750505776, 44.8074627652]}, "type": "Feature", "properties": {"collection_times": [{"days": "Mon-Sat", "time": "11:00am"}, {"days": "Sun", "time": "Closed"}], "id": "8280100032", "name": "USPS COLLECTION BOX - BLUE BOX", "address": {"city": "SHERIDAN", "state": "WY", "street": "1333 W 5TH ST", "postcode": "82801"}}},
{"geometry": {"type": "Point", "coordinates": [-106.9551405199, 44.7996177052]}, "type": "Feature", "properties": {"collection_times": [{"days": "Mon-Fri", "time": "4:00pm"}, {"days": "Sat", "time": "1:00pm"}, {"days": "Sun", "time": "Closed"}], "id": "8280100033", "name": "USPS COLLECTION BOX - BLUE BOX", "address": {"city": "SHERIDAN", "state": "WY", "street": "55 E GRINNELL PLZ", "postcode": "82801"}}},
{"geometry": {"type": "Point", "coordinates": [-106.1319234087, 44.6536188314]}, "type": "Feature", "properties": {"collection_times": [{"days": "Mon-Fri", "time": "3:00pm"}, {"days": "Sat", "time": "11:20am"}, {"days": "Sun", "time": "Closed"}], "id": "8283100001", "name": "USPS COLLECTION BOX - PO LOBBY", "address": {"city": "ARVADA", "state": "WY", "street": "25 ATOKA ST", "postcode": "82831"}}},
{"geometry": {"type": "Point", "coordinates": [-106.9916860296, 44.6806163759]}, "type": "Feature", "properties": {"collection_times": [{"days": "Mon-Fri", "time": "3:15pm"}, {"days": "Sat", "time": "10:00am"}, {"days": "Sun", "time": "Closed"}], "id": "8283300000", "name": "USPS COLLECTION BOX - PO LOBBY", "address": {"city": "BIG HORN", "state": "WY", "street": "226 JOHNSON ST", "postcode": "82833"}}},
{"geometry": {"type": "Point", "coordinates": [-106.9916860296, 44.6806163759]}, "type": "Feature", "properties": {"collection_times": [{"days": "Mon-Fri", "time": "3:15pm"}, {"days": "Sat", "time": "10:00am"}, {"days": "Sun", "time": "Closed"}], "id": "8283300001", "name": "USPS COLLECTION BOX - PO LOBBY", "address": {"city": "BIG HORN", "state": "WY", "street": "226 JOHNSON ST", "postcode": "82833"}}},
{"geometry": {"type": "Point", "coordinates": [-106.697301345, 44.3434654434]}, "type": "Feature", "properties": {"collection_times": [{"days": "Mon-Fri", "time": "4:45pm"}, {"days": "Sat", "time": "3:00pm"}, {"days": "Sun", "time": "Closed"}], "id": "8283400000", "name": "USPS COLLECTION BOX - BLUE BOX", "address": {"city": "BUFFALO", "state": "WY", "street": "193 S MAIN ST", "postcode": "82834"}}},
{"geometry": {"type": "Point", "coordinates": [-106.697301345, 44.3434654434]}, "type": "Feature", "properties": {"collection_times": [{"days": "Mon-Fri", "time": "4:30pm"}, {"days": "Sat", "time": "3:00pm"}, {"days": "Sun", "time": "Closed"}], "id": "8283400002", "name": "USPS COLLECTION BOX - PO LOBBY", "address": {"city": "BUFFALO", "state": "WY", "street": "193 S MAIN ST", "postcode": "82834"}}},
{"geometry": {"type": "Point", "coordinates": [-106.697301345, 44.3434654434]}, "type": "Feature", "properties": {"collection_times": [{"days": "Mon-Fri", "time": "4:30pm"}, {"days": "Sat", "time": "3:00pm"}, {"days": "Sun", "time": "Closed"}], "id": "8283400003", "name": "USPS COLLECTION BOX - PO LOBBY", "address": {"city": "BUFFALO", "state": "WY", "street": "193 S MAIN ST", "postcode": "82834"}}},
{"geometry": {"type": "Point", "coordinates": [-106.4422259043, 44.6906156384]}, "type": "Feature", "properties": {"collection_times": [{"days": "Mon-Fri", "time": "3:00pm"}, {"days": "Sat", "time": "10:30am"}, {"days": "Sun", "time": "Closed"}], "id": "8283500001", "name": "USPS COLLECTION BOX - PO LOBBY", "address": {"city": "CLEARMONT", "state": "WY", "street": "1210 FRONT ST", "postcode": "82835"}}},
{"geometry": {"type": "Point", "coordinates": [-107.262126775, 44.8762893064]}, "type": "Feature", "properties": {"collection_times": [{"days": "Mon-Fri", "time": "3:45pm"}, {"days": "Sat", "time": "9:30am"}, {"days": "Sun", "time": "Closed"}], "id": "8283600000", "name": "USPS COLLECTION BOX - BLUE BOX", "address": {"city": "DAYTON", "state": "WY", "street": "112 3RD ST W", "postcode": "82836"}}},
{"geometry": {"type": "Point", "coordinates": [-107.262126775, 44.8762893064]}, "type": "Feature", "properties": {"collection_times": [{"days": "Mon-Fri", "time": "3:45pm"}, {"days": "Sat", "time": "9:30am"}, {"days": "Sun", "time": "Closed"}], "id": "8283600001", "name": "USPS COLLECTION BOX - PO LOBBY", "address": {"city": "DAYTON", "state": "WY", "street": "112 3RD ST W", "postcode": "82836"}}},
{"geometry": {"type": "Point", "coordinates": [-107.262126775, 44.8762893064]}, "type": "Feature", "properties": {"collection_times": [{"days": "Mon-Fri", "time": "3:45pm"}, {"days": "Sat", "time": "9:30am"}, {"days": "Sun", "time": "Closed"}], "id": "8283600002", "name": "USPS COLLECTION BOX - BLUE BOX", "address": {"city": "DAYTON", "state": "WY", "street": "112 3RD ST W", "postcode": "82836"}}},
{"geometry": {"type": "Point", "coordinates": [-106.2684989692, 44.7179182481]}, "type": "Feature", "properties": {"collection_times": [{"days": "Mon-Sat", "time": "11:30am"}, {"days": "Sun", "time": "Closed"}], "id": "8283700000", "name": "USPS COLLECTION BOX - PO LOBBY", "address": {"city": "LEITER", "state": "WY", "street": "4679 HIGHWAY 14-16 E", "postcode": "82837"}}},
{"geometry": {"type": "Point", "coordinates": [-106.2685676146, 44.7178080427]}, "type": "Feature", "properties": {"collection_times": [{"days": "Mon-Sat", "time": "11:30am"}, {"days": "Sun", "time": "Closed"}], "id": "8283700001", "name": "USPS COLLECTION BOX - BLUE BOX", "address": {"city": "LEITER", "state": "WY", "street": "4679 HIGHWAY 14-16 E", "postcode": "82837"}}},
{"geometry": {"type": "Point", "coordinates": [-107.3756163014, 44.9619003287]}, "type": "Feature", "properties": {"collection_times": [{"days": "Mon-Sat", "time": "9:15am"}, {"days": "Sun", "time": "Closed"}], "id": "8283800000", "name": "USPS COLLECTION BOX - PO LOBBY", "address": {"city": "PARKMAN", "state": "WY", "street": "49 RAILWAY AVE", "postcode": "82838"}}},
{"geometry": {"type": "Point", "coordinates": [-107.1671137497, 44.9088531429]}, "type": "Feature", "properties": {"collection_times": [{"days": "Mon-Fri", "time": "4:00pm"}, {"days": "Sat", "time": "10:00am"}, {"days": "Sun", "time": "Closed"}], "id": "8283900000", "name": "USPS COLLECTION BOX - BLUE BOX", "address": {"city": "RANCHESTER", "state": "WY", "street": "551 US HIGHWAY 14", "postcode": "82839"}}},
{"geometry": {"type": "Point", "coordinates": [-107.1671137497, 44.9088531429]}, "type": "Feature", "properties": {"collection_times": [{"days": "Mon-Fri", "time": "4:00pm"}, {"days": "Sat", "time": "10:00am"}, {"days": "Sun", "time": "Closed"}], "id": "8283900001", "name": "USPS COLLECTION BOX - PO LOBBY", "address": {"city": "RANCHESTER", "state": "WY", "street": "551 US HIGHWAY 14", "postcode": "82839"}}},
{"geometry": {"type": "Point", "coordinates": [-106.8935040916, 44.5746932117]}, "type": "Feature", "properties": {"collection_times": [{"days": "Mon-Fri", "time": "3:00pm"}, {"days": "Sat", "time": "11:00am"}, {"days": "Sun", "time": "Closed"}], "id": "8284200000", "name": "USPS COLLECTION BOX - BLUE BOX", "address": {"city": "STORY", "state": "WY", "street": "23 N PINEY RD", "postcode": "82842"}}},
{"geometry": {"type": "Point", "coordinates": [-106.8935040916, 44.5746932117]}, "type": "Feature", "properties": {"collection_times": [{"days": "Mon-Fri", "time": "3:00pm"}, {"days": "Sat", "time": "11:00am"}, {"days": "Sun", "time": "Closed"}], "id": "8284200001", "name": "USPS COLLECTION BOX - PO LOBBY", "address": {"city": "STORY", "state": "WY", "street": "23 N PINEY RD", "postcode": "82842"}}},
{"geometry": {"type": "Point", "coordinates": [-106.8935040916, 44.5746932117]}, "type": "Feature", "properties": {"collection_times": [{"days": "Mon-Fri", "time": "3:00pm"}, {"days": "Sat", "time": "11:00am"}, {"days": "Sun", "time": "Closed"}], "id": "8284200002", "name": "USPS COLLECTION BOX - PO LOBBY", "address": {"city": "STORY", "state": "WY", "street": "23 N PINEY RD", "postcode": "82842"}}},
{"geometry": {"type": "Point", "coordinates": [-106.7732973632, 44.8132998089]}, "type": "Feature", "properties": {"collection_times": [{"days": "Mon-Fri", "time": "1:15pm"}, {"days": "Sat", "time": "10:45am"}, {"days": "Sun", "time": "Closed"}], "id": "8284500000", "name": "USPS COLLECTION BOX - BLUE BOX", "address": {"city": "WYARNO", "state": "WY", "street": "1041 STATE HIGHWAY 336", "postcode": "82845"}}}
]}
