{"type": "FeatureCollection", "features": [
{"geometry": {"type": "Point", "coordinates": [-109.2532315023, 41.5835141131]}, "type": "Feature", "properties": {"collection_times": [{"days": "Mon-Sat", "time": "4:40pm"}, {"days": "Sun", "time": "Closed"}], "id": "8290100001", "name": "USPS COLLECTION BOX - BLUE BOX", "address": {"city": "ROCK SPRINGS", "state": "WY", "street": "2829 COMMERCIAL WAY", "postcode": "82901"}}},
{"geometry": {"type": "Point", "coordinates": [-109.2532315023, 41.5835141131]}, "type": "Feature", "properties": {"collection_times": [{"days": "Mon-Sat", "time": "4:40pm"}, {"days": "Sun", "time": "Closed"}], "id": "8290100002", "name": "USPS COLLECTION BOX - BLUE BOX", "address": {"city": "ROCK SPRINGS", "state": "WY", "street": "2829 COMMERCIAL WAY", "postcode": "82901"}}},
{"geometry": {"type": "Point", "coordinates": [-109.2472257654, 41.574839947]}, "type": "Feature", "properties": {"collection_times": [{"days": "Mon-Fri", "time": "3:00pm"}, {"days": "Sat", "time": "9:30am"}, {"days": "Sun", "time": "Closed"}], "id": "8290100006", "name": "USPS COLLECTION BOX - BLUE BOX", "address": {"city": "ROCK SPRINGS", "state": "WY", "street": "1993 DEWAR DR", "postcode": "82901"}}},
{"geometry": {"type": "Point", "coordinates": [-109.2471810301, 41.5760135376]}, "type": "Feature", "properties": {"collection_times": [{"days": "Mon-Fri", "time": "3:00pm"}, {"days": "Sat", "time": "12:00pm"}, {"days": "Sun", "time": "Closed"}], "id": "8290100007", "name": "USPS COLLECTION BOX - BLUE BOX", "address": {"city": "ROCK SPRINGS", "state": "WY", "street": "79 WINSTON DR", "postcode": "82901"}}},
{"geometry": {"type": "Point", "coordinates": [-109.2309996732, 41.5852477239]}, "type": "Feature", "properties": {"collection_times": [{"days": "Mon-Fri", "time": "3:00pm"}, {"days": "Sat", "time": "12:00pm"}, {"days": "Sun", "time": "Closed"}], "id": "8290100008", "name": "USPS COLLECTION BOX - BLUE BOX", "address": {"city": "ROCK SPRINGS", "state": "WY", "street": "1204 HILLTOP DR", "postcode": "82901"}}},
{"geometry": {"type": "Point", "coordinates": [-109.2358507059, 41.5768104748]}, "type": "Feature", "properties": {"collection_times": [{"days": "Mon-Fri", "time": "3:00pm"}, {"days": "Sat", "time": "9:30am"}, {"days": "Sun", "time": "Closed"}], "id": "8290100009", "name": "USPS COLLECTION BOX - BLUE BOX", "address": {"city": "ROCK SPRINGS", "state": "WY", "street": "1323 DEWAR DR", "postcode": "82901"}}},
{"geometry": {"type": "Point", "coordinates": [-109.2299588865, 41.6094605064]}, "type": "Feature", "properties": {"collection_times": [{"days": "Mon-Fri", "time": "3:00pm"}, {"days": "Sat", "time": "9:00am"}, {"days": "Sun", "time": "Closed"}], "id": "8290100013", "name": "USPS COLLECTION BOX - BLUE BOX", "address": {"city": "ROCK SPRINGS", "state": "WY", "street": "1630 ELK ST", "postcode": "82901"}}},
{"geometry": {"type": "Point", "coordinates": [-109.2198622504, 41.5876735531]}, "type": "Feature", "properties": {"collection_times": [{"days": "Mon-Fri", "time": "3:00pm"}, {"days": "Sat", "time": "9:00am"}, {"days": "Sun", "time": "Closed"}], "id": "8290100016", "name": "USPS COLLECTION BOX - BLUE BOX", "address": {"city": "ROCK SPRINGS", "state": "WY", "street": "553 N FRONT ST", "postcode": "82901"}}},
{"geometry": {"type": "Point", "coordinates": [-109.2494900421, 41.5791707944]}, "type": "Feature", "properties": {"collection_times": [{"days": "Mon-Sat", "time": "12:00pm"}, {"days": "Sun", "time": "Closed"}], "id": "8290100020", "name": "USPS COLLECTION BOX - BLUE BOX", "address": {"city": "ROCK SPRINGS", "state": "WY", "street": "201 GATEWAY BLVD", "postcode": "82901"}}},
{"geometry": {"type": "Point", "coordinates": [-109.2423455419, 41.5974028021]}, "type": "Feature", "properties": {"collection_times": [{"days": "Mon-Sat", "time": "12:00pm"}, {"days": "Sun", "time": "Closed"}], "id": "8290100031", "name": "USPS COLLECTION BOX - BLUE BOX", "address": {"city": "ROCK SPRINGS", "state": "WY", "street": "3000 COLLEGE DR", "postcode": "82901"}}},
{"geometry": {"type": "Point", "coordinates": [-109.2602646334, 41.5812857957]}, "type": "Feature", "properties": {"collection_times": [{"days": "Mon-Fri", "time": "3:00pm"}, {"days": "Sat", "time": "8:30am"}, {"days": "Sun", "time": "Closed"}], "id": "8290100036", "name": "USPS COLLECTION BOX - BLUE BOX", "address": {"city": "ROCK SPRINGS", "state": "WY", "street": "2515 FOOTHILL BLVD", "postcode": "82901"}}},
{"geometry": {"type": "Point", "coordinates": [-109.2190619934, 41.5857188241]}, "type": "Feature", "properties": {"collection_times": [{"days": "Mon-Fri", "time": "3:00pm"}, {"days": "Sat", "time": "9:00am"}, {"days": "Sun", "time": "Closed"}], "id": "8290100037", "name": "USPS COLLECTION BOX - BLUE BOX", "address": {"city": "ROCK SPRINGS", "state": "WY", "street": "212 D ST", "postcode": "82901"}}},
{"geometry": {"type": "Point", "coordinates": [-109.2190619934, 41.5857188241]}, "type": "Feature", "properties": {"collection_times": [{"days": "Mon-Fri", "time": "3:00pm"}, {"days": "Sat", "time": "9:00am"}, {"days": "Sun", "time": "Closed"}], "id": "8290100039", "name": "USPS COLLECTION BOX - BLUE BOX", "address": {"city": "ROCK SPRINGS", "state": "WY", "street": "212 D ST", "postcode": "82901"}}},
{"geometry": {"type": "Point", "coordinates": [-109.2309455034, 41.5851840744]}, "type": "Feature", "properties": {"collection_times": [{"days": "Mon-Fri", "time": "3:00pm"}, {"days": "Sat", "time": "12:00pm"}, {"days": "Sun", "time": "Closed"}], "id": "8290100043", "name": "USPS COLLECTION BOX - BLUE BOX", "address": {"city": "ROCK SPRINGS", "state": "WY", "street": "1208 HILLTOP DR", "postcode": "82901"}}},
{"geometry": {"type": "Point", "coordinates": [-109.2042825918, 41.5976888431]}, "type": "Feature", "properties": {"collection_times": [{"days": "Mon-Sat", "time": "9:00am"}, {"days": "Sun", "time": "Closed"}], "id": "8290100044", "name": "USPS COLLECTION BOX - BLUE BOX", "address": {"city": "ROCK SPRINGS", "state": "WY", "street": "1520 9TH ST", "postcode": "82901"}}},
{"geometry": {"type": "Point", "coordinates": [-109.2569555207, 41.6481857989]}, "type": "Feature", "properties": {"collection_times": [{"days": "Mon-Sat", "time": "10:00am"}, {"days": "Sun", "time": "Closed"}], "id": "8290100045", "name": "USPS COLLECTION BOX - BLUE BOX", "address": {"city": "ROCK SPRINGS", "state": "WY", "street": "1900 YELLOWSTONE RD", "postcode": "82901"}}},
{"geometry": {"type": "Point", "coordinates": [-110.572640502, 43.2849288346]}, "type": "Feature", "properties": {"collection_times": [{"days": "Mon-Fri", "time": "12:50pm"}, {"days": "Sat", "time": "10:50am"}, {"days": "Sun", "time": "Closed"}], "id": "8292200000", "name": "USPS COLLECTION BOX - PO LOBBY", "address": {"city": "BONDURANT", "state": "WY", "street": "13884 HIGHWAY 191", "postcode": "82922"}}},
{"geometry": {"type": "Point", "coordinates": [-109.719635107, 42.7466946058]}, "type": "Feature", "properties": {"collection_times": [{"days": "Mon-Fri", "time": "2:10pm"}, {"days": "Sat", "time": "9:45am"}, {"days": "Sun", "time": "Closed"}], "id": "8292300000", "name": "USPS COLLECTION BOX - BLUE BOX", "address": {"city": "BOULDER WY", "state": "WY", "street": "7 HIGHWAY 353", "postcode": "82923"}}},
{"geometry": {"type": "Point", "coordinates": [-109.719635107, 42.7466946058]}, "type": "Feature", "properties": {"collection_times": [{"days": "Mon-Fri", "time": "2:10pm"}, {"days": "Sat", "time": "9:45am"}, {"days": "Sun", "time": "Closed"}], "id": "8292300001", "name": "USPS COLLECTION BOX - PO LOBBY", "address": {"city": "BOULDER WY", "state": "WY", "street": "7 HIGHWAY 353", "postcode": "82923"}}},
{"geometry": {"type": "Point", "coordinates": [-110.011955838, 43.202187389]}, "type": "Feature", "properties": {"collection_times": [{"days": "Mon-Fri", "time": "1:25pm"}, {"days": "Sat", "time": "10:45am"}, {"days": "Sun", "time": "Closed"}], "id": "8292500001", "name": "USPS COLLECTION BOX - BLUE BOX", "address": {"city": "CORA", "state": "WY", "street": "5 NOBLE RD", "postcode": "82925"}}},
{"geometry": {"type": "Point", "coordinates": [-109.8582990633, 41.5435988548]}, "type": "Feature", "properties": {"collection_times": [{"days": "Mon-Fri", "time": "3:10pm"}, {"days": "Sat", "time": "11:45am"}, {"days": "Sun", "time": "Closed"}], "id": "8292900000", "name": "USPS COLLECTION BOX - BLUE BOX", "address": {"city": "LITTLE AMERICA", "state": "WY", "street": "6945 STATE HIGHWAY 374", "postcode": "82929"}}},
{"geometry": {"type": "Point", "coordinates": [-109.8582990633, 41.5435988548]}, "type": "Feature", "properties": {"collection_times": [{"days": "Mon-Fri", "time": "3:00pm"}, {"days": "Sat", "time": "11:30am"}, {"days": "Sun", "time": "Closed"}], "id": "8292900001", "name": "USPS COLLECTION BOX - BLUE BOX", "address": {"city": "LITTLE AMERICA", "state": "WY", "street": "6945 STATE HIGHWAY 374", "postcode": "82929"}}},
{"geometry": {"type": "Point", "coordinates": [-109.8582990633, 41.5435988548]}, "type": "Feature", "properties": {"collection_times": [{"days": "Mon-Fri", "time": "3:10pm"}, {"days": "Sat", "time": "11:45am"}, {"days": "Sun", "time": "Closed"}], "id": "8292900002", "name": "USPS COLLECTION BOX - PO LOBBY", "address": {"city": "LITTLE AMERICA", "state": "WY", "street": "6945 STATE HIGHWAY 374", "postcode": "82929"}}},
{"geometry": {"type": "Point", "coordinates": [-110.9691692394, 41.2682402364]}, "type": "Feature", "properties": {"collection_times": [{"days": "Mon-Fri", "time": "4:45pm"}, {"days": "Sat", "time": "12:45pm"}, {"days": "Sun", "time": "Closed"}], "id": "8293000009", "name": "USPS COLLECTION BOX - EXPRESS", "address": {"city": "EVANSTON", "state": "WY", "street": "101 12TH ST", "postcode": "82930"}}},
{"geometry": {"type": "Point", "coordinates": [-110.9671412061, 41.2696450312]}, "type": "Feature", "properties": {"collection_times": [{"days": "Mon-Sat", "time": "5:00pm"}, {"days": "Sun", "time": "Closed"}], "id": "8293000010", "name": "USPS COLLECTION BOX - BLUE BOX", "address": {"city": "EVANSTON", "state": "WY", "street": "101 12TH ST", "postcode": "82930"}}},
{"geometry": {"type": "Point", "coordinates": [-110.9671412061, 41.2696450312]}, "type": "Feature", "properties": {"collection_times": [{"days": "Mon-Sat", "time": "5:00pm"}, {"days": "Sun", "time": "Closed"}], "id": "8293000011", "name": "USPS COLLECTION BOX - BLUE BOX", "address": {"city": "EVANSTON", "state": "WY", "street": "101 12TH ST", "postcode": "82930"}}},
{"geometry": {"type": "Point", "coordinates": [-110.9671412061, 41.2696450312]}, "type": "Feature", "properties": {"collection_times": [{"days": "Mon-Sat", "time": "5:00pm"}, {"days": "Sun", "time": "Closed"}], "id": "8293000012", "name": "USPS COLLECTION BOX - BLUE BOX", "address": {"city": "EVANSTON", "state": "WY", "street": "101 12TH ST", "postcode": "82930"}}},
{"geometry": {"type": "Point", "coordinates": [-111.0430331805, 41.3807789754]}, "type": "Feature", "properties": {"collection_times": [{"days": "Mon-Sat", "time": "9:30am"}, {"days": "Sun", "time": "Closed"}], "id": "8293000013", "name": "USPS COLLECTION BOX - BLUE BOX", "address": {"city": "EVANSTON", "state": "WY", "street": "21 N DEER MOUNTAIN RD", "postcode": "82930"}}},
{"geometry": {"type": "Point", "coordinates": [-110.9643611045, 41.2667167756]}, "type": "Feature", "properties": {"collection_times": [{"days": "Mon-Sat", "time": "3:10pm"}, {"days": "Sun", "time": "Closed"}], "id": "8293000015", "name": "USPS COLLECTION BOX - BLUE BOX", "address": {"city": "EVANSTON", "state": "WY", "street": "848 MAIN ST", "postcode": "82930"}}},
{"geometry": {"type": "Point", "coordinates": [-110.9691692394, 41.2682402364]}, "type": "Feature", "properties": {"collection_times": [{"days": "Mon-Sat", "time": "2:30pm"}, {"days": "Sun", "time": "Closed"}], "id": "8293000019", "name": "USPS COLLECTION BOX - BLUE BOX", "address": {"city": "EVANSTON", "state": "WY", "street": "100 N 2ND ST", "postcode": "82930"}}},
{"geometry": {"type": "Point", "coordinates": [-110.9662712088, 41.2690847647]}, "type": "Feature", "properties": {"collection_times": [{"days": "Mon-Sat", "time": "5:00pm"}, {"days": "Sun", "time": "Closed"}], "id": "8293000022", "name": "USPS COLLECTION BOX - PO LOBBY", "address": {"city": "EVANSTON", "state": "WY", "street": "100 HARRISON DR", "postcode": "82930"}}},
{"geometry": {"type": "Point", "coordinates": [-110.9662712088, 41.2690847647]}, "type": "Feature", "properties": {"collection_times": [{"days": "Mon-Sat", "time": "5:00pm"}, {"days": "Sun", "time": "Closed"}], "id": "8293000023", "name": "USPS COLLECTION BOX - PO LOBBY", "address": {"city": "EVANSTON", "state": "WY", "street": "100 HARRISON DR", "postcode": "82930"}}},
{"geometry": {"type": "Point", "coordinates": [-110.9662712088, 41.2690847647]}, "type": "Feature", "properties": {"collection_times": [{"days": "Mon-Sat", "time": "5:00pm"}, {"days": "Sun", "time": "Closed"}], "id": "8293000024", "name": "USPS COLLECTION BOX - PO LOBBY", "address": {"city": "EVANSTON", "state": "WY", "street": "100 HARRISON DR", "postcode": "82930"}}},
{"geometry": {"type": "Point", "coordinates": [-110.9662712088, 41.2690847647]}, "type": "Feature", "properties": {"collection_times": [{"days": "Mon-Sat", "time": "5:00pm"}, {"days": "Sun", "time": "Closed"}], "id": "8293000025", "name": "USPS COLLECTION BOX - PO LOBBY", "address": {"city": "EVANSTON", "state": "WY", "street": "100 HARRISON DR", "postcode": "82930"}}},
{"geometry": {"type": "Point", "coordinates": [-110.9540284283, 41.2526437153]}, "type": "Feature", "properties": {"collection_times": [{"days": "Mon-Sat", "time": "2:30pm"}, {"days": "Sun", "time": "Closed"}], "id": "8293000026", "name": "USPS COLLECTION BOX - BLUE BOX", "address": {"city": "EVANSTON", "state": "WY", "street": "350 CITY VIEW DR", "postcode": "82930"}}},
{"geometry": {"type": "Point", "coordinates": [-110.9673823632, 41.2591894059]}, "type": "Feature", "properties": {"collection_times": [{"days": "Mon-Sat", "time": "2:30pm"}, {"days": "Sun", "time": "Closed"}], "id": "8293000027", "name": "USPS COLLECTION BOX - BLUE BOX", "address": {"city": "EVANSTON", "state": "WY", "street": "70 YELLOW CREEK RD", "postcode": "82930"}}},
{"geometry": {"type": "Point", "coordinates": [-109.4492731523, 42.1092963384]}, "type": "Feature", "properties": {"collection_times": [{"days": "Mon-Fri", "time": "3:10pm"}, {"days": "Sat", "time": "10:45am"}, {"days": "Sun", "time": "Closed"}], "id": "8293200000", "name": "USPS COLLECTION BOX - BLUE BOX", "address": {"city": "FARSON", "state": "WY", "street": "4050 N US HIGHWAY 191", "postcode": "82932"}}},
{"geometry": {"type": "Point", "coordinates": [-109.4492731523, 42.1092963384]}, "type": "Feature", "properties": {"collection_times": [{"days": "Mon-Fri", "time": "3:10pm"}, {"days": "Sat", "time": "10:45am"}, {"days": "Sun", "time": "Closed"}], "id": "8293200001", "name": "USPS COLLECTION BOX - PO LOBBY", "address": {"city": "FARSON", "state": "WY", "street": "4050 N US HIGHWAY 191", "postcode": "82932"}}},
{"geometry": {"type": "Point", "coordinates": [-110.3842146906, 41.3155640649]}, "type": "Feature", "properties": {"collection_times": [{"days": "Mon-Fri", "time": "4:20pm"}, {"days": "Sat", "time": "11:45am"}, {"days": "Sun", "time": "Closed"}], "id": "8293300000", "name": "USPS COLLECTION BOX - BLUE BOX", "address": {"city": "FORT BRIDGER", "state": "WY", "street": "3730 COUNTY ROAD 219", "postcode": "82933"}}},
{"geometry": {"type": "Point", "coordinates": [-110.395504791, 41.2869930079]}, "type": "Feature", "properties": {"collection_times": [{"days": "Mon-Fri", "time": "12:30pm"}, {"days": "Sat-Sun", "time": "Closed"}], "id": "8293300001", "name": "USPS COLLECTION BOX - BLUE BOX", "address": {"city": "FORT BRIDGER", "state": "WY", "street": "1 BIGELOW RD", "postcode": "82933"}}},
{"geometry": {"type": "Point", "coordinates": [-110.3842240149, 41.3160906407]}, "type": "Feature", "properties": {"collection_times": [{"days": "Mon-Fri", "time": "3:15pm"}, {"days": "Sat", "time": "11:45am"}, {"days": "Sun", "time": "Closed"}], "id": "8293300003", "name": "USPS COLLECTION BOX - PO LOBBY", "address": {"city": "FORT BRIDGER", "state": "WY", "street": "3730 COUNTY ROAD 219", "postcode": "82933"}}},
{"geometry": {"type": "Point", "coordinates": [-110.3842157905, 41.3154203455]}, "type": "Feature", "properties": {"collection_times": [{"days": "Mon-Fri", "time": "3:15pm"}, {"days": "Sat", "time": "11:45am"}, {"days": "Sun", "time": "Closed"}], "id": "8293300004", "name": "USPS COLLECTION BOX - PO LOBBY", "address": {"city": "FORT BRIDGER", "state": "WY", "street": "3720 COUNTY ROAD 219", "postcode": "82933"}}},
{"geometry": {"type": "Point", "coordinates": [-109.968260823, 41.592797034]}, "type": "Feature", "properties": {"collection_times": [{"days": "Mon-Fri", "time": "2:55pm"}, {"days": "Sat", "time": "11:45am"}, {"days": "Sun", "time": "Closed"}], "id": "8293400000", "name": "USPS COLLECTION BOX - BLUE BOX", "address": {"city": "GRANGER", "state": "WY", "street": "102 PINE ST", "postcode": "82934"}}},
{"geometry": {"type": "Point", "coordinates": [-109.968260823, 41.592797034]}, "type": "Feature", "properties": {"collection_times": [{"days": "Mon-Fri", "time": "2:55pm"}, {"days": "Sat", "time": "11:45am"}, {"days": "Sun", "time": "Closed"}], "id": "8293400001", "name": "USPS COLLECTION BOX - PO LOBBY", "address": {"city": "GRANGER", "state": "WY", "street": "102 PINE ST", "postcode": "82934"}}},
{"geometry": {"type": "Point", "coordinates": [-109.4699047284, 41.5166610756]}, "type": "Feature", "properties": {"collection_times": [{"days": "Mon-Fri", "time": "3:50pm"}, {"days": "Sat", "time": "3:30pm"}, {"days": "Sun", "time": "Closed"}], "id": "8293500001", "name": "USPS COLLECTION BOX - PO LOBBY", "address": {"city": "GREEN RIVER", "state": "WY", "street": "350 UINTA DR", "postcode": "82935"}}},
{"geometry": {"type": "Point", "coordinates": [-109.4699047284, 41.5166610756]}, "type": "Feature", "properties": {"collection_times": [{"days": "Mon-Fri", "time": "3:50pm"}, {"days": "Sat", "time": "3:30pm"}, {"days": "Sun", "time": "Closed"}], "id": "8293500004", "name": "USPS COLLECTION BOX - PO LOBBY", "address": {"city": "GREEN RIVER", "state": "WY", "street": "350 UINTA DR", "postcode": "82935"}}},
{"geometry": {"type": "Point", "coordinates": [-109.715080903, 41.8710620979]}, "type": "Feature", "properties": {"collection_times": [{"days": "Mon-Fri", "time": "2:00pm"}, {"days": "Sat", "time": "12:30pm"}, {"days": "Sun", "time": "Closed"}], "id": "8293500005", "name": "USPS COLLECTION BOX - BLUE BOX", "address": {"city": "GREEN RIVER", "state": "WY", "street": "' PIONEER BLVD", "postcode": "82935"}}},
{"geometry": {"type": "Point", "coordinates": [-109.4699047284, 41.5166610756]}, "type": "Feature", "properties": {"collection_times": [{"days": "Mon-Fri", "time": "3:50pm"}, {"days": "Sat", "time": "3:30pm"}, {"days": "Sun", "time": "Closed"}], "id": "8293500008", "name": "USPS COLLECTION BOX - BLUE BOX", "address": {"city": "GREEN RIVER", "state": "WY", "street": "350 UINTA DR", "postcode": "82935"}}},
{"geometry": {"type": "Point", "coordinates": [-109.4540327093, 41.5032993268]}, "type": "Feature", "properties": {"collection_times": [{"days": "Mon-Fri", "time": "2:00pm"}, {"days": "Sat", "time": "12:30pm"}, {"days": "Sun", "time": "Closed"}], "id": "8293500010", "name": "USPS COLLECTION BOX - BLUE BOX", "address": {"city": "GREEN RIVER", "state": "WY", "street": "1325 BRIDGER DR", "postcode": "82935"}}},
{"geometry": {"type": "Point", "coordinates": [-109.4675787886, 41.5138807774]}, "type": "Feature", "properties": {"collection_times": [{"days": "Mon-Fri", "time": "2:45pm"}, {"days": "Sat", "time": "11:45am"}, {"days": "Sun", "time": "Closed"}], "id": "8293500011", "name": "USPS COLLECTION BOX - EXPRESS", "address": {"city": "GREEN RIVER", "state": "WY", "street": "350 UINTA DR", "postcode": "82935"}}},
{"geometry": {"type": "Point", "coordinates": [-109.4699047284, 41.5166610756]}, "type": "Feature", "properties": {"collection_times": [{"days": "Mon-Fri", "time": "3:50pm"}, {"days": "Sat", "time": "3:30pm"}, {"days": "Sun", "time": "Closed"}], "id": "8293500013", "name": "USPS COLLECTION BOX - BLUE BOX", "address": {"city": "GREEN RIVER", "state": "WY", "street": "350 UINTA DR", "postcode": "82935"}}},
{"geometry": {"type": "Point", "coordinates": [-110.307305299, 41.339597573]}, "type": "Feature", "properties": {"collection_times": [{"days": "Mon-Fri", "time": "5:00pm"}, {"days": "Sat", "time": "12:00pm"}, {"days": "Sun", "time": "Closed"}], "id": "8293700000", "name": "USPS COLLECTION BOX - BLUE BOX", "address": {"city": "LYMAN", "state": "WY", "street": "US HWY 410", "postcode": "82937"}}},
{"geometry": {"type": "Point", "coordinates": [-110.293065567, 41.3273649872]}, "type": "Feature", "properties": {"collection_times": [{"days": "Mon-Fri", "time": "5:00pm"}, {"days": "Sat", "time": "12:00pm"}, {"days": "Sun", "time": "Closed"}], "id": "8293700001", "name": "USPS COLLECTION BOX - BLUE BOX", "address": {"city": "LYMAN", "state": "WY", "street": "102 S MAIN ST", "postcode": "82937"}}},
{"geometry": {"type": "Point", "coordinates": [-110.293065567, 41.3273649872]}, "type": "Feature", "properties": {"collection_times": [{"days": "Mon-Fri", "time": "5:30pm"}, {"days": "Sat", "time": "12:00pm"}, {"days": "Sun", "time": "Closed"}], "id": "8293700002", "name": "USPS COLLECTION BOX - PO LOBBY", "address": {"city": "LYMAN", "state": "WY", "street": "102 S MAIN ST", "postcode": "82937"}}},
{"geometry": {"type": "Point", "coordinates": [-110.3374046295, 41.270246215]}, "type": "Feature", "properties": {"collection_times": [{"days": "Mon-Fri", "time": "4:30pm"}, {"days": "Sat", "time": "11:45am"}, {"days": "Sun", "time": "Closed"}], "id": "8293900000", "name": "USPS COLLECTION BOX - BLUE BOX", "address": {"city": "MOUNTAIN VIEW", "state": "WY", "street": "1700 E PARKWAY ST", "postcode": "82939"}}},
{"geometry": {"type": "Point", "coordinates": [-110.3374046295, 41.270246215]}, "type": "Feature", "properties": {"collection_times": [{"days": "Mon-Fri", "time": "4:30pm"}, {"days": "Sat", "time": "11:50am"}, {"days": "Sun", "time": "Closed"}], "id": "8293900001", "name": "USPS COLLECTION BOX - PO LOBBY", "address": {"city": "MOUNTAIN VIEW", "state": "WY", "street": "1700 E PARKWAY ST", "postcode": "82939"}}},
{"geometry": {"type": "Point", "coordinates": [-109.8558361297, 42.8662244928]}, "type": "Feature", "properties": {"collection_times": [{"days": "Mon-Fri", "time": "1:50pm"}, {"days": "Sat", "time": "11:00am"}, {"days": "Sun", "time": "Closed"}], "id": "8294100000", "name": "USPS COLLECTION BOX - BLUE BOX", "address": {"city": "PINEDALE", "state": "WY", "street": "413 PINE ST", "postcode": "82941"}}},
{"geometry": {"type": "Point", "coordinates": [-109.8558361297, 42.8662244928]}, "type": "Feature", "properties": {"collection_times": [{"days": "Mon-Fri", "time": "1:50pm"}, {"days": "Sat", "time": "11:00am"}, {"days": "Sun", "time": "Closed"}], "id": "8294100001", "name": "USPS COLLECTION BOX - PO LOBBY", "address": {"city": "PINEDALE", "state": "WY", "street": "413 PINE ST", "postcode": "82941"}}},
{"geometry": {"type": "Point", "coordinates": [-109.8746204679, 42.8665814624]}, "type": "Feature", "properties": {"collection_times": [{"days": "Mon-Sat", "time": "9:25am"}, {"days": "Sun", "time": "Closed"}], "id": "8294100002", "name": "USPS COLLECTION BOX - BLUE BOX", "address": {"city": "PINEDALE", "state": "WY", "street": "1088 PINE ST", "postcode": "82941"}}},
{"geometry": {"type": "Point", "coordinates": [-109.1951574147, 41.6698377374]}, "type": "Feature", "properties": {"collection_times": [{"days": "Mon-Fri", "time": "12:00pm"}, {"days": "Sat", "time": "11:15am"}, {"days": "Sun", "time": "Closed"}], "id": "8294300000", "name": "USPS COLLECTION BOX - BLUE BOX", "address": {"city": "RELIANCE", "state": "WY", "street": "1004 S 1ST ST", "postcode": "82943"}}},
{"geometry": {"type": "Point", "coordinates": [-110.4066252753, 41.1852946375]}, "type": "Feature", "properties": {"collection_times": [{"days": "Mon-Sat", "time": "11:00am"}, {"days": "Sun", "time": "Closed"}], "id": "8294400000", "name": "USPS COLLECTION BOX - PO LOBBY", "address": {"city": "ROBERTSON", "state": "WY", "street": "' HWY 410", "postcode": "82944"}}},
{"geometry": {"type": "Point", "coordinates": [-108.9675327139, 41.7658602577]}, "type": "Feature", "properties": {"collection_times": [{"days": "Mon-Fri", "time": "3:00pm"}, {"days": "Sat", "time": "11:45am"}, {"days": "Sun", "time": "Closed"}], "id": "8294500000", "name": "USPS COLLECTION BOX - BLUE BOX", "address": {"city": "SUPERIOR", "state": "WY", "street": "81 MAIN ST", "postcode": "82945"}}},
{"geometry": {"type": "Point", "coordinates": [-108.9646748284, 41.7642560054]}, "type": "Feature", "properties": {"collection_times": [{"days": "Mon-Fri", "time": "3:00pm"}, {"days": "Sat", "time": "11:45am"}, {"days": "Sun", "time": "Closed"}], "id": "8294500001", "name": "USPS COLLECTION BOX - PO LOBBY", "address": {"city": "SUPERIOR", "state": "WY", "street": "81 MAIN ST", "postcode": "82945"}}}
]}
