{"type": "FeatureCollection", "features": [
{"geometry": {"type": "Point", "coordinates": [-110.7859790776, 43.4703546509]}, "type": "Feature", "properties": {"collection_times": [{"days": "Mon-Fri", "time": "3:20pm"}, {"days": "Sat", "time": "2:30pm"}, {"days": "Sun", "time": "Closed"}], "id": "8300100000", "name": "USPS COLLECTION BOX - BLUE BOX", "address": {"city": "JACKSON", "state": "WY", "street": "1070 MAPLE WAY", "postcode": "83001"}}},
{"geometry": {"type": "Point", "coordinates": [-110.7859790776, 43.4703546509]}, "type": "Feature", "properties": {"collection_times": [{"days": "Mon-Fri", "time": "3:20pm"}, {"days": "Sat", "time": "2:30pm"}, {"days": "Sun", "time": "Closed"}], "id": "8300100001", "name": "USPS COLLECTION BOX - BLUE BOX", "address": {"city": "JACKSON", "state": "WY", "street": "1070 MAPLE WAY", "postcode": "83001"}}},
{"geometry": {"type": "Point", "coordinates": [-110.7859790776, 43.4703546509]}, "type": "Feature", "properties": {"collection_times": [{"days": "Mon-Fri", "time": "3:20pm"}, {"days": "Sat", "time": "2:30pm"}, {"days": "Sun", "time": "Closed"}], "id": "8300100002", "name": "USPS COLLECTION BOX - BLUE BOX", "address": {"city": "JACKSON", "state": "WY", "street": "1070 MAPLE WAY", "postcode": "83001"}}},
{"geometry": {"type": "Point", "coordinates": [-110.7859790776, 43.4703546509]}, "type": "Feature", "properties": {"collection_times": [{"days": "Mon-Fri", "time": "3:20pm"}, {"days": "Sat", "time": "2:30pm"}, {"days": "Sun", "time": "Closed"}], "id": "8300100004", "name": "USPS COLLECTION BOX - BLUE BOX", "address": {"city": "JACKSON", "state": "WY", "street": "1070 MAPLE WAY", "postcode": "83001"}}},
{"geometry": {"type": "Point", "coordinates": [-110.7654751106, 43.4785154698]}, "type": "Feature", "properties": {"collection_times": [{"days": "Mon-Fri", "time": "3:20pm"}, {"days": "Sat", "time": "2:30pm"}, {"days": "Sun", "time": "Closed"}], "id": "8300100007", "name": "USPS COLLECTION BOX - BLUE BOX", "address": {"city": "JACKSON", "state": "WY", "street": "220 W PEARL ST", "postcode": "83001"}}},
{"geometry": {"type": "Point", "coordinates": [-110.7654751106, 43.4785154698]}, "type": "Feature", "properties": {"collection_times": [{"days": "Mon-Fri", "time": "3:20pm"}, {"days": "Sat", "time": "2:30pm"}, {"days": "Sun", "time": "Closed"}], "id": "8300100008", "name": "USPS COLLECTION BOX - BLUE BOX", "address": {"city": "JACKSON", "state": "WY", "street": "220 W PEARL ST", "postcode": "83001"}}},
{"geometry": {"type": "Point", "coordinates": [-110.7654751106, 43.4785154698]}, "type": "Feature", "properties": {"collection_times": [{"days": "Mon-Fri", "time": "3:20pm"}, {"days": "Sat", "time": "2:30pm"}, {"days": "Sun", "time": "Closed"}], "id": "8300100009", "name": "USPS COLLECTION BOX - BLUE BOX", "address": {"city": "JACKSON", "state": "WY", "street": "220 W PEARL ST", "postcode": "83001"}}},
{"geometry": {"type": "Point", "coordinates": [-110.7654751106, 43.4785154698]}, "type": "Feature", "properties": {"collection_times": [{"days": "Mon-Fri", "time": "3:20pm"}, {"days": "Sat", "time": "2:30pm"}, {"days": "Sun", "time": "Closed"}], "id": "8300100010", "name": "USPS COLLECTION BOX - BLUE BOX", "address": {"city": "JACKSON", "state": "WY", "street": "220 W PEARL ST", "postcode": "83001"}}},
{"geometry": {"type": "Point", "coordinates": [-110.7881737272, 43.4723451558]}, "type": "Feature", "properties": {"collection_times": [{"days": "Mon-Fri", "time": "2:00pm"}, {"days": "Sat", "time": "12:00pm"}, {"days": "Sun", "time": "Closed"}], "id": "8300100014", "name": "USPS COLLECTION BOX - BLUE BOX", "address": {"city": "JACKSON", "state": "WY", "street": "105 BUFFALO WAY", "postcode": "83001"}}},
{"geometry": {"type": "Point", "coordinates": [-110.7934857262, 43.4592528713]}, "type": "Feature", "properties": {"collection_times": [{"days": "Mon-Fri", "time": "2:00pm"}, {"days": "Sat", "time": "12:00pm"}, {"days": "Sun", "time": "Closed"}], "id": "8300100016", "name": "USPS COLLECTION BOX - BLUE BOX", "address": {"city": "JACKSON", "state": "WY", "street": "1357 S HWY 89", "postcode": "83001"}}},
{"geometry": {"type": "Point", "coordinates": [-110.7621864846, 43.4803171163]}, "type": "Feature", "properties": {"collection_times": [{"days": "Mon-Fri", "time": "2:00pm"}, {"days": "Sat", "time": "12:00pm"}, {"days": "Sun", "time": "Closed"}], "id": "8300100017", "name": "USPS COLLECTION BOX - BLUE BOX", "address": {"city": "JACKSON", "state": "WY", "street": "15 E DELONEY AVE", "postcode": "83001"}}},
{"geometry": {"type": "Point", "coordinates": [-110.7625827759, 43.4796120727]}, "type": "Feature", "properties": {"collection_times": [{"days": "Mon-Fri", "time": "2:00pm"}, {"days": "Sat", "time": "12:00pm"}, {"days": "Sun", "time": "Closed"}], "id": "8300100018", "name": "USPS COLLECTION BOX - BLUE BOX", "address": {"city": "JACKSON", "state": "WY", "street": "10 W BROADWAY AVE", "postcode": "83001"}}},
{"geometry": {"type": "Point", "coordinates": [-110.7697291419, 43.4730437573]}, "type": "Feature", "properties": {"collection_times": [{"days": "Mon-Fri", "time": "2:15pm"}, {"days": "Sat", "time": "12:00pm"}, {"days": "Sun", "time": "Closed"}], "id": "8300100021", "name": "USPS COLLECTION BOX - BLUE BOX", "address": {"city": "JACKSON", "state": "WY", "street": "3230 MCCOLLISTER DR", "postcode": "83001"}}},
{"geometry": {"type": "Point", "coordinates": [-110.7363695882, 43.602988778]}, "type": "Feature", "properties": {"collection_times": [{"days": "Mon-Sat", "time": "12:45pm"}, {"days": "Sun", "time": "Closed"}], "id": "8300100022", "name": "USPS COLLECTION BOX - BLUE BOX", "address": {"city": "JACKSON", "state": "WY", "street": "1250 E AIRPORT RD", "postcode": "83001"}}},
{"geometry": {"type": "Point", "coordinates": [-110.7859790776, 43.4703546509]}, "type": "Feature", "properties": {"collection_times": [{"days": "Mon-Fri", "time": "3:20pm"}, {"days": "Sat", "time": "2:15pm"}, {"days": "Sun", "time": "Closed"}], "id": "8300100023", "name": "USPS COLLECTION BOX - PO LOBBY", "address": {"city": "JACKSON", "state": "WY", "street": "1070 MAPLE WAY", "postcode": "83001"}}},
{"geometry": {"type": "Point", "coordinates": [-110.7859790776, 43.4703546509]}, "type": "Feature", "properties": {"collection_times": [{"days": "Mon-Fri", "time": "3:20pm"}, {"days": "Sat", "time": "2:15pm"}, {"days": "Sun", "time": "Closed"}], "id": "8300100024", "name": "USPS COLLECTION BOX - PO LOBBY", "address": {"city": "JACKSON", "state": "WY", "street": "1070 MAPLE WAY", "postcode": "83001"}}},
{"geometry": {"type": "Point", "coordinates": [-110.7859790776, 43.4703546509]}, "type": "Feature", "properties": {"collection_times": [{"days": "Mon-Fri", "time": "3:20pm"}, {"days": "Sat", "time": "2:15pm"}, {"days": "Sun", "time": "Closed"}], "id": "8300100025", "name": "USPS COLLECTION BOX - PO LOBBY", "address": {"city": "JACKSON", "state": "WY", "street": "1070 MAPLE WAY", "postcode": "83001"}}},
{"geometry": {"type": "Point", "coordinates": [-110.7859790776, 43.4703546509]}, "type": "Feature", "properties": {"collection_times": [{"days": "Mon-Fri", "time": "3:20pm"}, {"days": "Sat", "time": "2:15pm"}, {"days": "Sun", "time": "Closed"}], "id": "8300100026", "name": "USPS COLLECTION BOX - PO LOBBY", "address": {"city": "JACKSON", "state": "WY", "street": "1070 MAPLE WAY", "postcode": "83001"}}},
{"geometry": {"type": "Point", "coordinates": [-110.7859790776, 43.4703546509]}, "type": "Feature", "properties": {"collection_times": [{"days": "Mon-Fri", "time": "3:20pm"}, {"days": "Sat", "time": "2:15pm"}, {"days": "Sun", "time": "Closed"}], "id": "8300100027", "name": "USPS COLLECTION BOX - PO LOBBY", "address": {"city": "JACKSON", "state": "WY", "street": "1070 MAPLE WAY", "postcode": "83001"}}},
{"geometry": {"type": "Point", "coordinates": [-110.7654751106, 43.4785154698]}, "type": "Feature", "properties": {"collection_times": [{"days": "Mon-Fri", "time": "3:20pm"}, {"days": "Sat", "time": "2:15pm"}, {"days": "Sun", "time": "Closed"}], "id": "8300100029", "name": "USPS COLLECTION BOX - PO LOBBY", "address": {"city": "JACKSON", "state": "WY", "street": "220 W PEARL ST", "postcode": "83001"}}},
{"geometry": {"type": "Point", "coordinates": [-110.7654751106, 43.4785154698]}, "type": "Feature", "properties": {"collection_times": [{"days": "Mon-Fri", "time": "3:20pm"}, {"days": "Sat", "time": "2:15pm"}, {"days": "Sun", "time": "Closed"}], "id": "8300100030", "name": "USPS COLLECTION BOX - PO LOBBY", "address": {"city": "JACKSON", "state": "WY", "street": "220 W PEARL ST", "postcode": "83001"}}},
{"geometry": {"type": "Point", "coordinates": [-110.7654751106, 43.4785154698]}, "type": "Feature", "properties": {"collection_times": [{"days": "Mon-Fri", "time": "3:20pm"}, {"days": "Sat", "time": "2:15pm"}, {"days": "Sun", "time": "Closed"}], "id": "8300100031", "name": "USPS COLLECTION BOX - PO LOBBY", "address": {"city": "JACKSON", "state": "WY", "street": "220 W PEARL ST", "postcode": "83001"}}},
{"geometry": {"type": "Point", "coordinates": [-110.7654751106, 43.4785154698]}, "type": "Feature", "properties": {"collection_times": [{"days": "Mon-Fri", "time": "3:20pm"}, {"days": "Sat", "time": "2:15pm"}, {"days": "Sun", "time": "Closed"}], "id": "8300100032", "name": "USPS COLLECTION BOX - PO LOBBY", "address": {"city": "JACKSON", "state": "WY", "street": "220 W PEARL ST", "postcode": "83001"}}},
{"geometry": {"type": "Point", "coordinates": [-110.7654751106, 43.4785154698]}, "type": "Feature", "properties": {"collection_times": [{"days": "Mon-Fri", "time": "3:20pm"}, {"days": "Sat", "time": "2:15pm"}, {"days": "Sun", "time": "Closed"}], "id": "8300100033", "name": "USPS COLLECTION BOX - PO LOBBY", "address": {"city": "JACKSON", "state": "WY", "street": "220 W PEARL ST", "postcode": "83001"}}},
{"geometry": {"type": "Point", "coordinates": [-110.7859790776, 43.4703546509]}, "type": "Feature", "properties": {"collection_times": [{"days": "Mon-Fri", "time": "3:20pm"}, {"days": "Sat", "time": "2:15pm"}, {"days": "Sun", "time": "Closed"}], "id": "8300100037", "name": "USPS COLLECTION BOX - PO LOBBY", "address": {"city": "JACKSON", "state": "WY", "street": "1070 MAPLE WAY", "postcode": "83001"}}},
{"geometry": {"type": "Point", "coordinates": [-110.7859790776, 43.4703546509]}, "type": "Feature", "properties": {"collection_times": [{"days": "Mon-Fri", "time": "3:20pm"}, {"days": "Sat", "time": "2:15pm"}, {"days": "Sun", "time": "Closed"}], "id": "8300100038", "name": "USPS COLLECTION BOX - PO LOBBY", "address": {"city": "JACKSON", "state": "WY", "street": "1070 MAPLE WAY", "postcode": "83001"}}},
{"geometry": {"type": "Point", "coordinates": [-110.7859790776, 43.4703546509]}, "type": "Feature", "properties": {"collection_times": [{"days": "Mon-Fri", "time": "3:20pm"}, {"days": "Sat", "time": "2:15pm"}, {"days": "Sun", "time": "Closed"}], "id": "8300100039", "name": "USPS COLLECTION BOX - PO LOBBY", "address": {"city": "JACKSON", "state": "WY", "street": "1070 MAPLE WAY", "postcode": "83001"}}},
{"geometry": {"type": "Point", "coordinates": [-110.7859790776, 43.4703546509]}, "type": "Feature", "properties": {"collection_times": [{"days": "Mon-Fri", "time": "3:20pm"}, {"days": "Sat", "time": "2:15pm"}, {"days": "Sun", "time": "Closed"}], "id": "8300100040", "name": "USPS COLLECTION BOX - PO LOBBY", "address": {"city": "JACKSON", "state": "WY", "street": "1070 MAPLE WAY", "postcode": "83001"}}},
{"geometry": {"type": "Point", "coordinates": [-110.7859790776, 43.4703546509]}, "type": "Feature", "properties": {"collection_times": [{"days": "Mon-Fri", "time": "3:20pm"}, {"days": "Sat", "time": "2:15pm"}, {"days": "Sun", "time": "Closed"}], "id": "8300100042", "name": "USPS COLLECTION BOX - PO LOBBY", "address": {"city": "JACKSON", "state": "WY", "street": "1070 MAPLE WAY", "postcode": "83001"}}},
{"geometry": {"type": "Point", "coordinates": [-110.7955965159, 43.2773318425]}, "type": "Feature", "properties": {"collection_times": [{"days": "Mon-Fri", "time": "12:30pm"}, {"days": "Sat", "time": "12:00pm"}, {"days": "Sun", "time": "Closed"}], "id": "8300100045", "name": "USPS COLLECTION BOX - BLUE BOX", "address": {"city": "JACKSON", "state": "WY", "street": "10880 S US HIGHWAY 89", "postcode": "83001"}}},
{"geometry": {"type": "Point", "coordinates": [-110.7697291419, 43.4730437573]}, "type": "Feature", "properties": {"collection_times": [{"days": "Mon-Fri", "time": "2:00pm"}, {"days": "Sat", "time": "12:00pm"}, {"days": "Sun", "time": "Closed"}], "id": "8300100046", "name": "USPS COLLECTION BOX - BLUE BOX", "address": {"city": "JACKSON", "state": "WY", "street": "532 N CACHE ST", "postcode": "83001"}}},
{"geometry": {"type": "Point", "coordinates": [-110.7877646288, 43.43714763]}, "type": "Feature", "properties": {"collection_times": [{"days": "Mon-Sat", "time": "11:30am"}, {"days": "Sun", "time": "Closed"}], "id": "8300100048", "name": "USPS COLLECTION BOX - BLUE BOX", "address": {"city": "JACKSON", "state": "WY", "street": "2951 W BIG TRAIL DR", "postcode": "83001"}}},
{"geometry": {"type": "Point", "coordinates": [-110.7934822072, 43.4588006844]}, "type": "Feature", "properties": {"collection_times": [{"days": "Mon-Fri", "time": "2:00pm"}, {"days": "Sat", "time": "12:00pm"}, {"days": "Sun", "time": "Closed"}], "id": "8300100049", "name": "USPS COLLECTION BOX - BLUE BOX", "address": {"city": "JACKSON", "state": "WY", "street": "1425 S HWY 89", "postcode": "83001"}}},
{"geometry": {"type": "Point", "coordinates": [-110.626759076, 43.625249335]}, "type": "Feature", "properties": {"collection_times": [{"days": "Mon-Fri", "time": "1:30pm"}, {"days": "Sat", "time": "12:05pm"}, {"days": "Sun", "time": "Closed"}], "id": "8301100000", "name": "USPS COLLECTION BOX - PO LOBBY", "address": {"city": "KELLY", "state": "WY", "street": "4486 LOWER GROS VENTRE RD", "postcode": "83011"}}},
{"geometry": {"type": "Point", "coordinates": [-110.626759076, 43.625249335]}, "type": "Feature", "properties": {"collection_times": [{"days": "Mon-Fri", "time": "1:30pm"}, {"days": "Sat", "time": "12:05pm"}, {"days": "Sun", "time": "Closed"}], "id": "8301100001", "name": "USPS COLLECTION BOX - BLUE BOX", "address": {"city": "KELLY", "state": "WY", "street": "4486 LOWER GROS VENTRE RD", "postcode": "83011"}}},
{"geometry": {"type": "Point", "coordinates": [-110.5891463683, 43.73982275]}, "type": "Feature", "properties": {"collection_times": [{"days": "Mon-Fri", "time": "1:00pm"}, {"days": "Sat", "time": "11:30am"}, {"days": "Sun", "time": "Closed"}], "id": "8301200000", "name": "USPS COLLECTION BOX - BLUE BOX", "address": {"city": "MOOSE", "state": "WY", "street": "3 TETON PARK RD", "postcode": "83012"}}},
{"geometry": {"type": "Point", "coordinates": [-110.8113912967, 43.902214931]}, "type": "Feature", "properties": {"collection_times": [{"days": "Mon-Fri", "time": "1:00pm"}, {"days": "Sat", "time": "11:30am"}, {"days": "Sun", "time": "Closed"}], "id": "8301200001", "name": "USPS COLLECTION BOX - PO LOBBY", "address": {"city": "MOOSE", "state": "WY", "street": "3 TETON PARK RD", "postcode": "83012"}}},
{"geometry": {"type": "Point", "coordinates": [-110.3312341601, 43.9286543193]}, "type": "Feature", "properties": {"collection_times": [{"days": "Mon-Fri", "time": "1:05pm"}, {"days": "Sat", "time": "12:45pm"}, {"days": "Sun", "time": "Closed"}], "id": "8301300007", "name": "USPS COLLECTION BOX - PO LOBBY", "address": {"city": "MORAN", "state": "WY", "street": "1 CENTRAL ST", "postcode": "83013"}}},
{"geometry": {"type": "Point", "coordinates": [-110.8738873849, 43.4981395761]}, "type": "Feature", "properties": {"collection_times": [{"days": "Mon-Fri", "time": "2:50pm"}, {"days": "Sat", "time": "12:00pm"}, {"days": "Sun", "time": "Closed"}], "id": "8301400000", "name": "USPS COLLECTION BOX - BLUE BOX", "address": {"city": "WILSON", "state": "WY", "street": "5605 W HIGHWAY 22", "postcode": "83014"}}},
{"geometry": {"type": "Point", "coordinates": [-110.842412746, 43.5315068355]}, "type": "Feature", "properties": {"collection_times": [{"days": "Mon-Sat", "time": "12:00pm"}, {"days": "Sun", "time": "Closed"}], "id": "8301400001", "name": "USPS COLLECTION BOX - BLUE BOX", "address": {"city": "WILSON", "state": "WY", "street": "4015 W LAKE CREEK DR", "postcode": "83014"}}},
{"geometry": {"type": "Point", "coordinates": [-110.8738873849, 43.4981395761]}, "type": "Feature", "properties": {"collection_times": [{"days": "Mon-Fri", "time": "2:50pm"}, {"days": "Sat", "time": "12:00pm"}, {"days": "Sun", "time": "Closed"}], "id": "8301400002", "name": "USPS COLLECTION BOX - PO LOBBY", "address": {"city": "WILSON", "state": "WY", "street": "5605 W HIGHWAY 22", "postcode": "83014"}}},
{"geometry": {"type": "Point", "coordinates": [-110.8738873849, 43.4981395761]}, "type": "Feature", "properties": {"collection_times": [{"days": "Mon-Fri", "time": "2:50pm"}, {"days": "Sat", "time": "12:00pm"}, {"days": "Sun", "time": "Closed"}], "id": "8301400003", "name": "USPS COLLECTION BOX - PO LOBBY", "address": {"city": "WILSON", "state": "WY", "street": "5605 W HIGHWAY 22", "postcode": "83014"}}},
{"geometry": {"type": "Point", "coordinates": [-110.8442863566, 43.5291504193]}, "type": "Feature", "properties": {"collection_times": [{"days": "Mon-Sat", "time": "12:15pm"}, {"days": "Sun", "time": "Closed"}], "id": "8301400004", "name": "USPS COLLECTION BOX - BLUE BOX", "address": {"city": "WILSON", "state": "WY", "street": "3450 CLUBHOUSE DR", "postcode": "83014"}}}
]}
