{"type": "FeatureCollection", "features": [
{"geometry": {"type": "Point", "coordinates": [-110.5399274293, 41.7951102876]}, "type": "Feature", "properties": {"collection_times": [{"days": "Mon-Fri", "time": "4:00pm"}, {"days": "Sat", "time": "12:00pm"}, {"days": "Sun", "time": "Closed"}], "id": "8310100001", "name": "USPS COLLECTION BOX - BLUE BOX", "address": {"city": "KEMMERER", "state": "WY", "street": "820 CEDAR AVE", "postcode": "83101"}}},
{"geometry": {"type": "Point", "coordinates": [-110.5399564921, 41.7973500179]}, "type": "Feature", "properties": {"collection_times": [{"days": "Mon-Fri", "time": "2:00pm"}, {"days": "Sat", "time": "12:00pm"}, {"days": "Sun", "time": "Closed"}], "id": "8310100002", "name": "USPS COLLECTION BOX - BLUE BOX", "address": {"city": "KEMMERER", "state": "WY", "street": "620 PINE AVE", "postcode": "83101"}}},
{"geometry": {"type": "Point", "coordinates": [-110.538541815, 41.7947083726]}, "type": "Feature", "properties": {"collection_times": [{"days": "Mon-Fri", "time": "4:00pm"}, {"days": "Sat", "time": "12:00pm"}, {"days": "Sun", "time": "Closed"}], "id": "8310100003", "name": "USPS COLLECTION BOX - PO LOBBY", "address": {"city": "KEMMERER", "state": "WY", "street": "318 SAPPHIRE ST", "postcode": "83101"}}},
{"geometry": {"type": "Point", "coordinates": [-110.9343992867, 42.7253319054]}, "type": "Feature", "properties": {"collection_times": [{"days": "Mon-Fri", "time": "3:25pm"}, {"days": "Sat", "time": "9:30am"}, {"days": "Sun", "time": "Closed"}], "id": "8311000000", "name": "USPS COLLECTION BOX - BLUE BOX", "address": {"city": "AFTON", "state": "WY", "street": "31 W 4TH AVE", "postcode": "83110"}}},
{"geometry": {"type": "Point", "coordinates": [-110.9343992867, 42.7253319054]}, "type": "Feature", "properties": {"collection_times": [{"days": "Mon-Fri", "time": "3:25pm"}, {"days": "Sat", "time": "9:30am"}, {"days": "Sun", "time": "Closed"}], "id": "8311000002", "name": "USPS COLLECTION BOX - PO LOBBY", "address": {"city": "AFTON", "state": "WY", "street": "31 W 4TH AVE", "postcode": "83110"}}},
{"geometry": {"type": "Point", "coordinates": [-111.0011513267, 42.786549492]}, "type": "Feature", "properties": {"collection_times": [{"days": "Mon-Fri", "time": "12:00pm"}, {"days": "Sat", "time": "11:45am"}, {"days": "Sun", "time": "Closed"}], "id": "8311100001", "name": "USPS COLLECTION BOX - PO LOBBY", "address": {"city": "AUBURN", "state": "WY", "street": "449 1ST WEST ST", "postcode": "83111"}}},
{"geometry": {"type": "Point", "coordinates": [-110.8755241114, 42.7939301612]}, "type": "Feature", "properties": {"collection_times": [{"days": "Mon-Fri", "time": "1:15pm"}, {"days": "Sat", "time": "12:00pm"}, {"days": "Sun", "time": "Closed"}], "id": "8311200000", "name": "USPS COLLECTION BOX - PO LOBBY", "address": {"city": "BEDFORD", "state": "WY", "street": "4436 MAIN ST", "postcode": "83112"}}},
{"geometry": {"type": "Point", "coordinates": [-110.8755241114, 42.7939301612]}, "type": "Feature", "properties": {"collection_times": [{"days": "Mon-Fri", "time": "1:15pm"}, {"days": "Sat", "time": "12:00pm"}, {"days": "Sun", "time": "Closed"}], "id": "8311200001", "name": "USPS COLLECTION BOX - BLUE BOX", "address": {"city": "BEDFORD", "state": "WY", "street": "4436 MAIN ST", "postcode": "83112"}}},
{"geometry": {"type": "Point", "coordinates": [-110.1137579067, 42.5382826995]}, "type": "Feature", "properties": {"collection_times": [{"days": "Mon-Fri", "time": "12:20pm"}, {"days": "Sat", "time": "10:30am"}, {"days": "Sun", "time": "Closed"}], "id": "8311300000", "name": "USPS COLLECTION BOX - PO LOBBY", "address": {"city": "BIG PINEY", "state": "WY", "street": "420 BUDD AVE", "postcode": "83113"}}},
{"geometry": {"type": "Point", "coordinates": [-110.1137579067, 42.5382826995]}, "type": "Feature", "properties": {"collection_times": [{"days": "Mon-Fri", "time": "12:20pm"}, {"days": "Sat", "time": "10:30am"}, {"days": "Sun", "time": "Closed"}], "id": "8311300001", "name": "USPS COLLECTION BOX - BLUE BOX", "address": {"city": "BIG PINEY", "state": "WY", "street": "420 BUDD AVE", "postcode": "83113"}}},
{"geometry": {"type": "Point", "coordinates": [-110.9578048752, 42.0852234131]}, "type": "Feature", "properties": {"collection_times": [{"days": "Mon-Fri", "time": "4:00pm"}, {"days": "Sat", "time": "11:15am"}, {"days": "Sun", "time": "Closed"}], "id": "8311400000", "name": "USPS COLLECTION BOX - PO LOBBY", "address": {"city": "COKEVILLE", "state": "WY", "street": "100 POST ST", "postcode": "83114"}}},
{"geometry": {"type": "Point", "coordinates": [-110.9484179694, 42.0855444053]}, "type": "Feature", "properties": {"collection_times": [{"days": "Mon-Fri", "time": "10:30am"}, {"days": "Sat-Sun", "time": "Closed"}], "id": "8311400001", "name": "USPS COLLECTION BOX - BLUE BOX", "address": {"city": "COKEVILLE", "state": "WY", "street": "10501 N US HIGHWAY 30", "postcode": "83114"}}},
{"geometry": {"type": "Point", "coordinates": [-110.0717831005, 42.8549107424]}, "type": "Feature", "properties": {"collection_times": [{"days": "Mon-Fri", "time": "1:00pm"}, {"days": "Sat", "time": "10:00am"}, {"days": "Sun", "time": "Closed"}], "id": "8311500001", "name": "USPS COLLECTION BOX - PO LOBBY", "address": {"city": "DANIEL", "state": "WY", "street": "12958 STATE HIGHWAY 189", "postcode": "83115"}}},
{"geometry": {"type": "Point", "coordinates": [-110.5360757079, 41.772121104]}, "type": "Feature", "properties": {"collection_times": [{"days": "Mon-Fri", "time": "4:15pm"}, {"days": "Sat", "time": "11:30am"}, {"days": "Sun", "time": "Closed"}], "id": "8311600000", "name": "USPS COLLECTION BOX - BLUE BOX", "address": {"city": "DIAMONDVILLE", "state": "WY", "street": "317 DIAMONDVILLE AVE", "postcode": "83116"}}},
{"geometry": {"type": "Point", "coordinates": [-110.5360757079, 41.772121104]}, "type": "Feature", "properties": {"collection_times": [{"days": "Mon-Fri", "time": "4:15pm"}, {"days": "Sat", "time": "11:30am"}, {"days": "Sun", "time": "Closed"}], "id": "8311600001", "name": "USPS COLLECTION BOX - PO LOBBY", "address": {"city": "DIAMONDVILLE", "state": "WY", "street": "317 DIAMONDVILLE AVE", "postcode": "83116"}}},
{"geometry": {"type": "Point", "coordinates": [-110.9267235201, 43.2004309612]}, "type": "Feature", "properties": {"collection_times": [{"days": "Mon-Fri", "time": "1:50pm"}, {"days": "Sat", "time": "11:45am"}, {"days": "Sun", "time": "Closed"}], "id": "8311800000", "name": "USPS COLLECTION BOX - BLUE BOX", "address": {"city": "ETNA", "state": "WY", "street": "107857 N US HIGHWAY 89", "postcode": "83118"}}},
{"geometry": {"type": "Point", "coordinates": [-110.9898662278, 42.6887799216]}, "type": "Feature", "properties": {"collection_times": [{"days": "Mon-Fri", "time": "12:00pm"}, {"days": "Sat", "time": "11:30am"}, {"days": "Sun", "time": "Closed"}], "id": "8311900000", "name": "USPS COLLECTION BOX - PO LOBBY", "address": {"city": "FAIRVIEW", "state": "WY", "street": "210 FAIRVIEW S", "postcode": "83119"}}},
{"geometry": {"type": "Point", "coordinates": [-110.9898662278, 42.6887799216]}, "type": "Feature", "properties": {"collection_times": [{"days": "Mon-Sat", "time": "11:30am"}, {"days": "Sun", "time": "Closed"}], "id": "8311900001", "name": "USPS COLLECTION BOX - BLUE BOX", "address": {"city": "FAIRVIEW", "state": "WY", "street": "210 FAIRVIEW S", "postcode": "83119"}}},
{"geometry": {"type": "Point", "coordinates": [-111.0274159747, 43.0168840078]}, "type": "Feature", "properties": {"collection_times": [{"days": "Mon-Fri", "time": "2:10pm"}, {"days": "Sat", "time": "11:30am"}, {"days": "Sun", "time": "Closed"}], "id": "8312000000", "name": "USPS COLLECTION BOX - BLUE BOX", "address": {"city": "FREEDOM", "state": "WY", "street": "5740 COUNTY ROAD 125", "postcode": "83120"}}},
{"geometry": {"type": "Point", "coordinates": [-111.0274159747, 43.0168840078]}, "type": "Feature", "properties": {"collection_times": [{"days": "Mon-Fri", "time": "1:00pm"}, {"days": "Sat", "time": "11:30am"}, {"days": "Sun", "time": "Closed"}], "id": "8312000001", "name": "USPS COLLECTION BOX - PO LOBBY", "address": {"city": "FREEDOM", "state": "WY", "street": "5740 COUNTY ROAD 125", "postcode": "83120"}}},
{"geometry": {"type": "Point", "coordinates": [-110.933293812, 42.7918164653]}, "type": "Feature", "properties": {"collection_times": [{"days": "Mon-Fri", "time": "2:50pm"}, {"days": "Sat", "time": "11:50am"}, {"days": "Sun", "time": "Closed"}], "id": "8312200000", "name": "USPS COLLECTION BOX - BLUE BOX", "address": {"city": "GROVER", "state": "WY", "street": "89768 US HIGHWAY 89", "postcode": "83122"}}},
{"geometry": {"type": "Point", "coordinates": [-110.933293812, 42.7918164653]}, "type": "Feature", "properties": {"collection_times": [{"days": "Mon-Fri", "time": "2:50pm"}, {"days": "Sat", "time": "11:50am"}, {"days": "Sun", "time": "Closed"}], "id": "8312200001", "name": "USPS COLLECTION BOX - PO LOBBY", "address": {"city": "GROVER", "state": "WY", "street": "89768 US HIGHWAY 89", "postcode": "83122"}}},
{"geometry": {"type": "Point", "coordinates": [-110.1942621888, 42.2634520199]}, "type": "Feature", "properties": {"collection_times": [{"days": "Mon-Fri", "time": "3:00pm"}, {"days": "Sat", "time": "11:30am"}, {"days": "Sun", "time": "Closed"}], "id": "8312300000", "name": "USPS COLLECTION BOX - BLUE BOX", "address": {"city": "LABARGE", "state": "WY", "street": "125 N MAIN ST", "postcode": "83123"}}},
{"geometry": {"type": "Point", "coordinates": [-110.1942621888, 42.2634520199]}, "type": "Feature", "properties": {"collection_times": [{"days": "Mon-Fri", "time": "3:00pm"}, {"days": "Sat", "time": "11:30am"}, {"days": "Sun", "time": "Closed"}], "id": "8312300001", "name": "USPS COLLECTION BOX - PO LOBBY", "address": {"city": "LABARGE", "state": "WY", "street": "125 N MAIN ST", "postcode": "83123"}}},
{"geometry": {"type": "Point", "coordinates": [-110.3263757212, 41.7707034955]}, "type": "Feature", "properties": {"collection_times": [{"days": "Mon-Fri", "time": "9:30am"}, {"days": "Sat", "time": "11:00am"}, {"days": "Sun", "time": "Closed"}], "id": "8312400000", "name": "USPS COLLECTION BOX - PO LOBBY", "address": {"city": "OPAL", "state": "WY", "street": "554 SOLIDAY ST", "postcode": "83124"}}},
{"geometry": {"type": "Point", "coordinates": [-110.9742629866, 42.5577388608]}, "type": "Feature", "properties": {"collection_times": [{"days": "Mon-Fri", "time": "12:30pm"}, {"days": "Sat", "time": "11:30am"}, {"days": "Sun", "time": "Closed"}], "id": "8312600000", "name": "USPS COLLECTION BOX - PO LOBBY", "address": {"city": "SMOOT", "state": "WY", "street": "77693 US HIGHWAY 89", "postcode": "83126"}}},
{"geometry": {"type": "Point", "coordinates": [-111.0068523953, 42.9281683607]}, "type": "Feature", "properties": {"collection_times": [{"days": "Mon-Fri", "time": "2:30pm"}, {"days": "Sat", "time": "11:15am"}, {"days": "Sun", "time": "Closed"}], "id": "8312700000", "name": "USPS COLLECTION BOX - PO LOBBY", "address": {"city": "THAYNE", "state": "WY", "street": "390 N MAIN ST", "postcode": "83127"}}},
{"geometry": {"type": "Point", "coordinates": [-111.0068523953, 42.9281683607]}, "type": "Feature", "properties": {"collection_times": [{"days": "Mon-Fri", "time": "2:30pm"}, {"days": "Sat", "time": "11:15am"}, {"days": "Sun", "time": "Closed"}], "id": "8312700001", "name": "USPS COLLECTION BOX - BLUE BOX", "address": {"city": "THAYNE", "state": "WY", "street": "390 N MAIN ST", "postcode": "83127"}}},
{"geometry": {"type": "Point", "coordinates": [-111.0068523953, 42.9281683607]}, "type": "Feature", "properties": {"collection_times": [{"days": "Mon-Fri", "time": "2:30pm"}, {"days": "Sat", "time": "11:15am"}, {"days": "Sun", "time": "Closed"}], "id": "8312700002", "name": "USPS COLLECTION BOX - BLUE BOX", "address": {"city": "THAYNE", "state": "WY", "street": "390 N MAIN ST", "postcode": "83127"}}},
{"geometry": {"type": "Point", "coordinates": [-110.9885210616, 43.1775808851]}, "type": "Feature", "properties": {"collection_times": [{"days": "Mon-Fri", "time": "1:30pm"}, {"days": "Sat", "time": "11:00am"}, {"days": "Sun", "time": "Closed"}], "id": "8312800000", "name": "USPS COLLECTION BOX - PO LOBBY", "address": {"city": "ALPINE", "state": "WY", "street": "102 US HIGHWAY 89", "postcode": "83128"}}},
{"geometry": {"type": "Point", "coordinates": [-110.9885210616, 43.1775808851]}, "type": "Feature", "properties": {"collection_times": [{"days": "Mon-Fri", "time": "1:30pm"}, {"days": "Sat", "time": "11:00am"}, {"days": "Sun", "time": "Closed"}], "id": "8312800001", "name": "USPS COLLECTION BOX - BLUE BOX", "address": {"city": "ALPINE", "state": "WY", "street": "102 US HIGHWAY 89", "postcode": "83128"}}}
]}
