{"type": "FeatureCollection", "features": [
{"geometry": {"type": "Point", "coordinates": [-96.6294567551, 43.0203655347]}, "type": "Feature", "properties": {"collection_times": [{"days": "Mon-Sat", "time": "3:45pm"}, {"days": "Sun", "time": "Closed"}], "id": "5700100001", "name": "USPS COLLECTION BOX - BLUE BOX", "address": {"city": "ALCESTER", "state": "SD", "street": "111 DAKOTA ST", "postcode": "57001"}}},
{"geometry": {"type": "Point", "coordinates": [-96.6294567551, 43.0203655347]}, "type": "Feature", "properties": {"collection_times": [{"days": "Mon-Fri", "time": "3:45pm"}, {"days": "Sat", "time": "10:00am"}, {"days": "Sun", "time": "Closed"}], "id": "5700100003", "name": "USPS COLLECTION BOX - PO LOBBY", "address": {"city": "ALCESTER", "state": "SD", "street": "111 DAKOTA ST", "postcode": "57001"}}},
{"geometry": {"type": "Point", "coordinates": [-96.6874292316, 44.2842868494]}, "type": "Feature", "properties": {"collection_times": [{"days": "Mon-Sat", "time": "4:00pm"}, {"days": "Sun", "time": "Closed"}], "id": "5700200001", "name": "USPS COLLECTION BOX - BLUE BOX", "address": {"city": "AURORA", "state": "SD", "street": "219 N BROADWAY ST", "postcode": "57002"}}},
{"geometry": {"type": "Point", "coordinates": [-96.6874292316, 44.2842868494]}, "type": "Feature", "properties": {"collection_times": [{"days": "Mon-Fri", "time": "12:15pm"}, {"days": "Sat", "time": "9:15am"}, {"days": "Sun", "time": "Closed"}], "id": "5700200002", "name": "USPS COLLECTION BOX - PO LOBBY", "address": {"city": "AURORA", "state": "SD", "street": "219 N BROADWAY ST", "postcode": "57002"}}},
{"geometry": {"type": "Point", "coordinates": [-96.7401326288, 43.760129498]}, "type": "Feature", "properties": {"collection_times": [{"days": "Mon-Fri", "time": "4:15pm"}, {"days": "Sat", "time": "4:30pm"}, {"days": "Sun", "time": "Closed"}], "id": "5700300001", "name": "USPS COLLECTION BOX - BLUE BOX", "address": {"city": "BALTIC", "state": "SD", "street": "132 ST OLAF AVE", "postcode": "57003"}}},
{"geometry": {"type": "Point", "coordinates": [-96.7401326288, 43.760129498]}, "type": "Feature", "properties": {"collection_times": [{"days": "Mon-Fri", "time": "3:30pm"}, {"days": "Sat", "time": "9:00am"}, {"days": "Sun", "time": "Closed"}], "id": "5700300002", "name": "USPS COLLECTION BOX - PO LOBBY", "address": {"city": "BALTIC", "state": "SD", "street": "132 ST OLAF AVE", "postcode": "57003"}}},
{"geometry": {"type": "Point", "coordinates": [-96.7738763884, 43.0805439792]}, "type": "Feature", "properties": {"collection_times": [{"days": "Mon-Fri", "time": "4:00pm"}, {"days": "Sat", "time": "9:30am"}, {"days": "Sun", "time": "Closed"}], "id": "5700400004", "name": "USPS COLLECTION BOX - PO LOBBY", "address": {"city": "BERESFORD", "state": "SD", "street": "100 S 3RD ST", "postcode": "57004"}}},
{"geometry": {"type": "Point", "coordinates": [-96.7738763884, 43.0805439792]}, "type": "Feature", "properties": {"collection_times": [{"days": "Mon-Fri", "time": "5:00pm"}, {"days": "Sat", "time": "5:45pm"}, {"days": "Sun", "time": "Closed"}], "id": "5700400005", "name": "USPS COLLECTION BOX - BLUE BOX", "address": {"city": "BERESFORD", "state": "SD", "street": "100 S 3RD ST", "postcode": "57004"}}},
{"geometry": {"type": "Point", "coordinates": [-96.5756411347, 43.5946774487]}, "type": "Feature", "properties": {"collection_times": [{"days": "Mon-Sat", "time": "5:00pm"}, {"days": "Sun", "time": "Closed"}], "id": "5700500006", "name": "USPS COLLECTION BOX - BLUE BOX", "address": {"city": "BRANDON", "state": "SD", "street": "1120 E HOLLY BLVD", "postcode": "57005"}}},
{"geometry": {"type": "Point", "coordinates": [-96.5756411347, 43.5946774487]}, "type": "Feature", "properties": {"collection_times": [{"days": "Mon-Fri", "time": "5:00pm"}, {"days": "Sat-Sun", "time": "Closed"}], "id": "5700500012", "name": "USPS COLLECTION BOX - PO LOBBY", "address": {"city": "BRANDON", "state": "SD", "street": "1120 E HOLLY BLVD", "postcode": "57005"}}},
{"geometry": {"type": "Point", "coordinates": [-96.7985993917, 44.3103584931]}, "type": "Feature", "properties": {"collection_times": [{"days": "Mon-Fri", "time": "5:30pm"}, {"days": "Sat", "time": "4:30pm"}, {"days": "Sun", "time": "Closed"}], "id": "5700600005", "name": "USPS COLLECTION BOX - PO LOBBY", "address": {"city": "BROOKINGS", "state": "SD", "street": "500 MAIN AVE", "postcode": "57006"}}},
{"geometry": {"type": "Point", "coordinates": [-96.7761455162, 44.3114261226]}, "type": "Feature", "properties": {"collection_times": [{"days": "Mon-Sat", "time": "1:30pm"}, {"days": "Sun", "time": "Closed"}], "id": "5700600014", "name": "USPS COLLECTION BOX - BLUE BOX", "address": {"city": "BROOKINGS", "state": "SD", "street": "1720 6TH ST", "postcode": "57006"}}},
{"geometry": {"type": "Point", "coordinates": [-96.7884573441, 44.3018622465]}, "type": "Feature", "properties": {"collection_times": [{"days": "Mon-Sat", "time": "3:00pm"}, {"days": "Sun", "time": "Closed"}], "id": "5700600016", "name": "USPS COLLECTION BOX - BLUE BOX", "address": {"city": "BROOKINGS", "state": "SD", "street": "300 22ND AVE", "postcode": "57006"}}},
{"geometry": {"type": "Point", "coordinates": [-96.7681154194, 44.303088715]}, "type": "Feature", "properties": {"collection_times": [{"days": "Mon-Fri", "time": "3:15pm"}, {"days": "Sat-Sun", "time": "Closed"}], "id": "5700600018", "name": "USPS COLLECTION BOX - BLUE BOX", "address": {"city": "BROOKINGS", "state": "SD", "street": "337 22ND AVE S", "postcode": "57006"}}},
{"geometry": {"type": "Point", "coordinates": [-96.768329848, 44.2980065837]}, "type": "Feature", "properties": {"collection_times": [{"days": "Mon-Sat", "time": "3:15pm"}, {"days": "Sun", "time": "Closed"}], "id": "5700600020", "name": "USPS COLLECTION BOX - BLUE BOX", "address": {"city": "BROOKINGS", "state": "SD", "street": "710 22ND AVE S", "postcode": "57006"}}},
{"geometry": {"type": "Point", "coordinates": [-96.7683573946, 44.2955731467]}, "type": "Feature", "properties": {"collection_times": [{"days": "Mon-Sat", "time": "3:15pm"}, {"days": "Sun", "time": "Closed"}], "id": "5700600022", "name": "USPS COLLECTION BOX - BLUE BOX", "address": {"city": "BROOKINGS", "state": "SD", "street": "920 22ND AVE S", "postcode": "57006"}}},
{"geometry": {"type": "Point", "coordinates": [-96.7948834601, 44.2970396353]}, "type": "Feature", "properties": {"collection_times": [{"days": "Mon-Sat", "time": "3:30pm"}, {"days": "Sun", "time": "Closed"}], "id": "5700600023", "name": "USPS COLLECTION BOX - BLUE BOX", "address": {"city": "BROOKINGS", "state": "SD", "street": "620 8TH ST S", "postcode": "57006"}}},
{"geometry": {"type": "Point", "coordinates": [-96.7951411953, 44.3081207592]}, "type": "Feature", "properties": {"collection_times": [{"days": "Mon-Fri", "time": "3:00pm"}, {"days": "Sat-Sun", "time": "Closed"}], "id": "5700600025", "name": "USPS COLLECTION BOX - BLUE BOX", "address": {"city": "BROOKINGS", "state": "SD", "street": "314 6TH AVE", "postcode": "57006"}}},
{"geometry": {"type": "Point", "coordinates": [-96.7985993917, 44.3103584931]}, "type": "Feature", "properties": {"collection_times": [{"days": "Mon-Fri", "time": "5:00pm"}, {"days": "Sat", "time": "4:30pm"}, {"days": "Sun", "time": "Closed"}], "id": "5700600028", "name": "USPS COLLECTION BOX - BLUE BOX", "address": {"city": "BROOKINGS", "state": "SD", "street": "500 MAIN AVE", "postcode": "57006"}}},
{"geometry": {"type": "Point", "coordinates": [-96.7985993917, 44.3103584931]}, "type": "Feature", "properties": {"collection_times": [{"days": "Mon-Fri", "time": "5:00pm"}, {"days": "Sat", "time": "4:30pm"}, {"days": "Sun", "time": "Closed"}], "id": "5700600032", "name": "USPS COLLECTION BOX - BLUE BOX", "address": {"city": "BROOKINGS", "state": "SD", "street": "500 MAIN AVE", "postcode": "57006"}}},
{"geometry": {"type": "Point", "coordinates": [-96.7985993917, 44.3103584931]}, "type": "Feature", "properties": {"collection_times": [{"days": "Mon-Fri", "time": "5:00pm"}, {"days": "Sat", "time": "4:30pm"}, {"days": "Sun", "time": "Closed"}], "id": "5700600033", "name": "USPS COLLECTION BOX - BLUE BOX", "address": {"city": "BROOKINGS", "state": "SD", "street": "500 MAIN AVE", "postcode": "57006"}}},
{"geometry": {"type": "Point", "coordinates": [-96.7985993917, 44.3103584931]}, "type": "Feature", "properties": {"collection_times": [{"days": "Mon-Fri", "time": "5:00pm"}, {"days": "Sat", "time": "4:30pm"}, {"days": "Sun", "time": "Closed"}], "id": "5700600034", "name": "USPS COLLECTION BOX - BLUE BOX", "address": {"city": "BROOKINGS", "state": "SD", "street": "500 MAIN AVE", "postcode": "57006"}}},
{"geometry": {"type": "Point", "coordinates": [-96.7540626795, 44.3104622717]}, "type": "Feature", "properties": {"collection_times": [{"days": "Mon-Sat", "time": "2:30pm"}, {"days": "Sun", "time": "Closed"}], "id": "5700600037", "name": "USPS COLLECTION BOX - BLUE BOX", "address": {"city": "BROOKINGS", "state": "SD", "street": "3045 LEFEVRE DR", "postcode": "57006"}}},
{"geometry": {"type": "Point", "coordinates": [-96.7669339827, 44.3114966385]}, "type": "Feature", "properties": {"collection_times": [{"days": "Mon-Sat", "time": "1:00pm"}, {"days": "Sun", "time": "Closed"}], "id": "5700600039", "name": "USPS COLLECTION BOX - BLUE BOX", "address": {"city": "BROOKINGS", "state": "SD", "street": "2233 6TH ST", "postcode": "57006"}}},
{"geometry": {"type": "Point", "coordinates": [-96.7985993917, 44.3103584931]}, "type": "Feature", "properties": {"collection_times": [{"days": "Mon-Fri", "time": "5:00pm"}, {"days": "Sat", "time": "4:30pm"}, {"days": "Sun", "time": "Closed"}], "id": "5700600041", "name": "USPS COLLECTION BOX - BLUE BOX", "address": {"city": "BROOKINGS", "state": "SD", "street": "500 MAIN AVE", "postcode": "57006"}}},
{"geometry": {"type": "Point", "coordinates": [-97.2915964431, 43.598061588]}, "type": "Feature", "properties": {"collection_times": [{"days": "Mon-Fri", "time": "4:15pm"}, {"days": "Sat", "time": "4:30pm"}, {"days": "Sun", "time": "Closed"}], "id": "5701200001", "name": "USPS COLLECTION BOX - BLUE BOX", "address": {"city": "CANISTOTA", "state": "SD", "street": "222 W MAIN ST", "postcode": "57012"}}},
{"geometry": {"type": "Point", "coordinates": [-97.2915964431, 43.598061588]}, "type": "Feature", "properties": {"collection_times": [{"days": "Mon-Fri", "time": "3:30pm"}, {"days": "Sat", "time": "10:00am"}, {"days": "Sun", "time": "Closed"}], "id": "5701200002", "name": "USPS COLLECTION BOX - PO LOBBY", "address": {"city": "CANISTOTA", "state": "SD", "street": "222 W MAIN ST", "postcode": "57012"}}},
{"geometry": {"type": "Point", "coordinates": [-96.589731828, 43.3008013529]}, "type": "Feature", "properties": {"collection_times": [{"days": "Mon-Sat", "time": "5:00pm"}, {"days": "Sun", "time": "Closed"}], "id": "5701300004", "name": "USPS COLLECTION BOX - BLUE BOX", "address": {"city": "CANTON", "state": "SD", "street": "315 E 5TH ST", "postcode": "57013"}}},
{"geometry": {"type": "Point", "coordinates": [-96.589731828, 43.3008013529]}, "type": "Feature", "properties": {"collection_times": [{"days": "Mon-Fri", "time": "4:15pm"}, {"days": "Sat", "time": "10:00am"}, {"days": "Sun", "time": "Closed"}], "id": "5701300005", "name": "USPS COLLECTION BOX - PO LOBBY", "address": {"city": "CANTON", "state": "SD", "street": "315 E 5TH ST", "postcode": "57013"}}},
{"geometry": {"type": "Point", "coordinates": [-96.589731828, 43.3008013529]}, "type": "Feature", "properties": {"collection_times": [{"days": "Mon-Fri", "time": "4:15pm"}, {"days": "Sat", "time": "10:00am"}, {"days": "Sun", "time": "Closed"}], "id": "5701300006", "name": "USPS COLLECTION BOX - PO LOBBY", "address": {"city": "CANTON", "state": "SD", "street": "315 E 5TH ST", "postcode": "57013"}}},
{"geometry": {"type": "Point", "coordinates": [-96.589731828, 43.3008013529]}, "type": "Feature", "properties": {"collection_times": [{"days": "Mon-Sat", "time": "5:00pm"}, {"days": "Sun", "time": "Closed"}], "id": "5701300007", "name": "USPS COLLECTION BOX - BLUE BOX", "address": {"city": "CANTON", "state": "SD", "street": "315 E 5TH ST", "postcode": "57013"}}},
{"geometry": {"type": "Point", "coordinates": [-96.9613386338, 43.1188109909]}, "type": "Feature", "properties": {"collection_times": [{"days": "Mon-Fri", "time": "4:00pm"}, {"days": "Sat", "time": "5:00pm"}, {"days": "Sun", "time": "Closed"}], "id": "5701400001", "name": "USPS COLLECTION BOX - BLUE BOX", "address": {"city": "CENTERVILLE", "state": "SD", "street": "533 BROADWAY ST", "postcode": "57014"}}},
{"geometry": {"type": "Point", "coordinates": [-96.9613386338, 43.1188109909]}, "type": "Feature", "properties": {"collection_times": [{"days": "Mon-Fri", "time": "3:00pm"}, {"days": "Sat-Sun", "time": "Closed"}], "id": "5701400003", "name": "USPS COLLECTION BOX - PO LOBBY", "address": {"city": "CENTERVILLE", "state": "SD", "street": "533 BROADWAY ST", "postcode": "57014"}}},
{"geometry": {"type": "Point", "coordinates": [-96.9869734684, 43.3734320129]}, "type": "Feature", "properties": {"collection_times": [{"days": "Mon-Sat", "time": "2:00pm"}, {"days": "Sun", "time": "Closed"}], "id": "5701500001", "name": "USPS COLLECTION BOX - BLUE BOX", "address": {"city": "CHANCELLOR", "state": "SD", "street": "224 MAIN ST", "postcode": "57015"}}},
{"geometry": {"type": "Point", "coordinates": [-96.9869734684, 43.3734320129]}, "type": "Feature", "properties": {"collection_times": [{"days": "Mon-Fri", "time": "11:45am"}, {"days": "Sat", "time": "1:00pm"}, {"days": "Sun", "time": "Closed"}], "id": "5701500002", "name": "USPS COLLECTION BOX - PO LOBBY", "address": {"city": "CHANCELLOR", "state": "SD", "street": "224 MAIN ST", "postcode": "57015"}}},
{"geometry": {"type": "Point", "coordinates": [-96.9275048373, 43.8948823046]}, "type": "Feature", "properties": {"collection_times": [{"days": "Mon-Fri", "time": "4:30pm"}, {"days": "Sat", "time": "5:00pm"}, {"days": "Sun", "time": "Closed"}], "id": "5701600001", "name": "USPS COLLECTION BOX - BLUE BOX", "address": {"city": "CHESTER", "state": "SD", "street": "410 4TH ST", "postcode": "57016"}}},
{"geometry": {"type": "Point", "coordinates": [-96.9275048373, 43.8948823046]}, "type": "Feature", "properties": {"collection_times": [{"days": "Mon-Fri", "time": "4:30pm"}, {"days": "Sat", "time": "2:30pm"}, {"days": "Sun", "time": "Closed"}], "id": "5701600002", "name": "USPS COLLECTION BOX - PO LOBBY", "address": {"city": "CHESTER", "state": "SD", "street": "410 4TH ST", "postcode": "57016"}}},
{"geometry": {"type": "Point", "coordinates": [-96.8140431906, 43.9832937382]}, "type": "Feature", "properties": {"collection_times": [{"days": "Mon-Sat", "time": "4:45pm"}, {"days": "Sun", "time": "Closed"}], "id": "5701700002", "name": "USPS COLLECTION BOX - BLUE BOX", "address": {"city": "COLMAN", "state": "SD", "street": "129 N MAIN ST", "postcode": "57017"}}},
{"geometry": {"type": "Point", "coordinates": [-96.8140431906, 43.9832937382]}, "type": "Feature", "properties": {"collection_times": [{"days": "Mon-Fri", "time": "2:30pm"}, {"days": "Sat", "time": "10:00am"}, {"days": "Sun", "time": "Closed"}], "id": "5701700003", "name": "USPS COLLECTION BOX - PO LOBBY", "address": {"city": "COLMAN", "state": "SD", "street": "129 N MAIN ST", "postcode": "57017"}}},
{"geometry": {"type": "Point", "coordinates": [-96.9279226326, 43.7870205212]}, "type": "Feature", "properties": {"collection_times": [{"days": "Mon-Fri", "time": "4:30pm"}, {"days": "Sat", "time": "5:00pm"}, {"days": "Sun", "time": "Closed"}], "id": "5701800001", "name": "USPS COLLECTION BOX - BLUE BOX", "address": {"city": "COLTON", "state": "SD", "street": "213 E 4TH ST", "postcode": "57018"}}},
{"geometry": {"type": "Point", "coordinates": [-96.9279226326, 43.7870205212]}, "type": "Feature", "properties": {"collection_times": [{"days": "Mon-Fri", "time": "11:00am"}, {"days": "Sat", "time": "10:00am"}, {"days": "Sun", "time": "Closed"}], "id": "5701800002", "name": "USPS COLLECTION BOX - PO LOBBY", "address": {"city": "COLTON", "state": "SD", "street": "213 E 4TH ST", "postcode": "57018"}}},
{"geometry": {"type": "Point", "coordinates": [-96.8110391291, 43.6620648069]}, "type": "Feature", "properties": {"collection_times": [{"days": "Mon-Fri", "time": "4:30pm"}, {"days": "Sat", "time": "5:45pm"}, {"days": "Sun", "time": "Closed"}], "id": "5702000001", "name": "USPS COLLECTION BOX - BLUE BOX", "address": {"city": "CROOKS", "state": "SD", "street": "112 MAIN ST", "postcode": "57020"}}},
{"geometry": {"type": "Point", "coordinates": [-96.8110391291, 43.6620648069]}, "type": "Feature", "properties": {"collection_times": [{"days": "Mon-Fri", "time": "2:00pm"}, {"days": "Sat", "time": "9:30am"}, {"days": "Sun", "time": "Closed"}], "id": "5702000002", "name": "USPS COLLECTION BOX - PO LOBBY", "address": {"city": "CROOKS", "state": "SD", "street": "112 MAIN ST", "postcode": "57020"}}},
{"geometry": {"type": "Point", "coordinates": [-96.8209596398, 43.6886666813]}, "type": "Feature", "properties": {"collection_times": [{"days": "Mon-Sat", "time": "6:00pm"}, {"days": "Sun", "time": "Closed"}], "id": "5702000005", "name": "USPS COLLECTION BOX - BLUE BOX", "address": {"city": "CROOKS", "state": "SD", "street": "25795 475TH AVE", "postcode": "57020"}}},
{"geometry": {"type": "Point", "coordinates": [-97.0033253038, 43.2575952216]}, "type": "Feature", "properties": {"collection_times": [{"days": "Mon-Fri", "time": "4:30pm"}, {"days": "Sat", "time": "5:45pm"}, {"days": "Sun", "time": "Closed"}], "id": "5702100001", "name": "USPS COLLECTION BOX - BLUE BOX", "address": {"city": "DAVIS", "state": "SD", "street": "110 E US HIGHWAY 18", "postcode": "57021"}}},
{"geometry": {"type": "Point", "coordinates": [-97.0033253038, 43.2575952216]}, "type": "Feature", "properties": {"collection_times": [{"days": "Mon-Sat", "time": "11:20am"}, {"days": "Sun", "time": "Closed"}], "id": "5702100002", "name": "USPS COLLECTION BOX - PO LOBBY", "address": {"city": "DAVIS", "state": "SD", "street": "110 E US HIGHWAY 18", "postcode": "57021"}}},
{"geometry": {"type": "Point", "coordinates": [-96.71359773, 43.823320351]}, "type": "Feature", "properties": {"collection_times": [{"days": "Mon-Fri", "time": "5:00pm"}, {"days": "Sat", "time": "5:30pm"}, {"days": "Sun", "time": "Closed"}], "id": "5702200004", "name": "USPS COLLECTION BOX - BLUE BOX", "address": {"city": "DELL RAPIDS", "state": "SD", "street": "305 E 4TH ST", "postcode": "57022"}}},
{"geometry": {"type": "Point", "coordinates": [-96.71359773, 43.823320351]}, "type": "Feature", "properties": {"collection_times": [{"days": "Mon-Fri", "time": "5:00pm"}, {"days": "Sat", "time": "5:30pm"}, {"days": "Sun", "time": "Closed"}], "id": "5702200008", "name": "USPS COLLECTION BOX - BLUE BOX", "address": {"city": "DELL RAPIDS", "state": "SD", "street": "305 E 4TH ST", "postcode": "57022"}}},
{"geometry": {"type": "Point", "coordinates": [-96.71359773, 43.823320351]}, "type": "Feature", "properties": {"collection_times": [{"days": "Mon-Fri", "time": "4:30pm"}, {"days": "Sat", "time": "11:00am"}, {"days": "Sun", "time": "Closed"}], "id": "5702200012", "name": "USPS COLLECTION BOX - PO LOBBY", "address": {"city": "DELL RAPIDS", "state": "SD", "street": "305 E 4TH ST", "postcode": "57022"}}},
{"geometry": {"type": "Point", "coordinates": [-96.6850648802, 42.6864277931]}, "type": "Feature", "properties": {"collection_times": [{"days": "Mon-Sat", "time": "4:45pm"}, {"days": "Sun", "time": "Closed"}], "id": "5702500001", "name": "USPS COLLECTION BOX - BLUE BOX", "address": {"city": "ELK POINT", "state": "SD", "street": "123 W MAIN ST", "postcode": "57025"}}},
{"geometry": {"type": "Point", "coordinates": [-96.6850648802, 42.6864277931]}, "type": "Feature", "properties": {"collection_times": [{"days": "Mon-Fri", "time": "4:45pm"}, {"days": "Sat", "time": "10:30am"}, {"days": "Sun", "time": "Closed"}], "id": "5702500003", "name": "USPS COLLECTION BOX - PO LOBBY", "address": {"city": "ELK POINT", "state": "SD", "street": "123 W MAIN ST", "postcode": "57025"}}},
{"geometry": {"type": "Point", "coordinates": [-96.4810276343, 44.2361805192]}, "type": "Feature", "properties": {"collection_times": [{"days": "Mon-Sat", "time": "4:30pm"}, {"days": "Sun", "time": "Closed"}], "id": "5702600001", "name": "USPS COLLECTION BOX - BLUE BOX", "address": {"city": "ELKTON", "state": "SD", "street": "207 ELK ST", "postcode": "57026"}}},
{"geometry": {"type": "Point", "coordinates": [-96.4810276343, 44.2361805192]}, "type": "Feature", "properties": {"collection_times": [{"days": "Mon-Fri", "time": "2:30pm"}, {"days": "Sat", "time": "10:00am"}, {"days": "Sun", "time": "Closed"}], "id": "5702600002", "name": "USPS COLLECTION BOX - PO LOBBY", "address": {"city": "ELKTON", "state": "SD", "street": "207 ELK ST", "postcode": "57026"}}},
{"geometry": {"type": "Point", "coordinates": [-96.5099989767, 43.1929603578]}, "type": "Feature", "properties": {"collection_times": [{"days": "Mon-Sat", "time": "12:45pm"}, {"days": "Sun", "time": "Closed"}], "id": "5702700000", "name": "USPS COLLECTION BOX - BLUE BOX", "address": {"city": "FAIRVIEW", "state": "SD", "street": "320 LINCOLN ST", "postcode": "57027"}}},
{"geometry": {"type": "Point", "coordinates": [-96.5099989767, 43.1929603578]}, "type": "Feature", "properties": {"collection_times": [{"days": "Mon-Sat", "time": "12:45pm"}, {"days": "Sun", "time": "Closed"}], "id": "5702700001", "name": "USPS COLLECTION BOX - PO LOBBY", "address": {"city": "FAIRVIEW", "state": "SD", "street": "320 LINCOLN ST", "postcode": "57027"}}},
{"geometry": {"type": "Point", "coordinates": [-96.6044476675, 44.0484687832]}, "type": "Feature", "properties": {"collection_times": [{"days": "Mon-Sat", "time": "11:00am"}, {"days": "Sun", "time": "Closed"}], "id": "5702800001", "name": "USPS COLLECTION BOX - BLUE BOX", "address": {"city": "FLANDREAU", "state": "SD", "street": "710 W PIPESTONE AVE", "postcode": "57028"}}},
{"geometry": {"type": "Point", "coordinates": [-96.5954688958, 44.0495246278]}, "type": "Feature", "properties": {"collection_times": [{"days": "Mon-Sat", "time": "5:00pm"}, {"days": "Sun", "time": "Closed"}], "id": "5702800003", "name": "USPS COLLECTION BOX - BLUE BOX", "address": {"city": "FLANDREAU", "state": "SD", "street": "102 W 2ND AVE", "postcode": "57028"}}},
{"geometry": {"type": "Point", "coordinates": [-96.5954688958, 44.0495246278]}, "type": "Feature", "properties": {"collection_times": [{"days": "Mon-Fri", "time": "4:30pm"}, {"days": "Sat", "time": "9:30am"}, {"days": "Sun", "time": "Closed"}], "id": "5702800009", "name": "USPS COLLECTION BOX - PO LOBBY", "address": {"city": "FLANDREAU", "state": "SD", "street": "102 W 2ND AVE", "postcode": "57028"}}},
{"geometry": {"type": "Point", "coordinates": [-96.5949323999, 44.0495270449]}, "type": "Feature", "properties": {"collection_times": [{"days": "Mon-Sat", "time": "3:00pm"}, {"days": "Sun", "time": "Closed"}], "id": "5702800010", "name": "USPS COLLECTION BOX - BLUE BOX", "address": {"city": "FLANDREAU", "state": "SD", "street": "120 E 2ND AVE", "postcode": "57028"}}},
{"geometry": {"type": "Point", "coordinates": [-96.5973535898, 44.0474424574]}, "type": "Feature", "properties": {"collection_times": [{"days": "Mon-Fri", "time": "4:15pm"}, {"days": "Sat", "time": "4:30pm"}, {"days": "Sun", "time": "Closed"}], "id": "5702800011", "name": "USPS COLLECTION BOX - BLUE BOX", "address": {"city": "FLANDREAU", "state": "SD", "street": "200 W 3RD AVE", "postcode": "57028"}}},
{"geometry": {"type": "Point", "coordinates": [-97.4358014415, 43.3513355612]}, "type": "Feature", "properties": {"collection_times": [{"days": "Mon-Fri", "time": "4:15pm"}, {"days": "Sat", "time": "4:30pm"}, {"days": "Sun", "time": "Closed"}], "id": "5702900001", "name": "USPS COLLECTION BOX - BLUE BOX", "address": {"city": "FREEMAN", "state": "SD", "street": "421 S POPLAR ST", "postcode": "57029"}}},
{"geometry": {"type": "Point", "coordinates": [-97.4358014415, 43.3513355612]}, "type": "Feature", "properties": {"collection_times": [{"days": "Mon-Fri", "time": "4:15pm"}, {"days": "Sat", "time": "11:15am"}, {"days": "Sun", "time": "Closed"}], "id": "5702900002", "name": "USPS COLLECTION BOX - PO LOBBY", "address": {"city": "FREEMAN", "state": "SD", "street": "421 S POPLAR ST", "postcode": "57029"}}},
{"geometry": {"type": "Point", "coordinates": [-96.5222996872, 43.7169636761]}, "type": "Feature", "properties": {"collection_times": [{"days": "Mon-Fri", "time": "3:45pm"}, {"days": "Sat", "time": "4:00pm"}, {"days": "Sun", "time": "Closed"}], "id": "5703000001", "name": "USPS COLLECTION BOX - BLUE BOX", "address": {"city": "GARRETSON", "state": "SD", "street": "641 N MAIN AVE", "postcode": "57030"}}},
{"geometry": {"type": "Point", "coordinates": [-96.5222996872, 43.7169636761]}, "type": "Feature", "properties": {"collection_times": [{"days": "Mon-Fri", "time": "3:45pm"}, {"days": "Sat-Sun", "time": "Closed"}], "id": "5703000002", "name": "USPS COLLECTION BOX - PO LOBBY", "address": {"city": "GARRETSON", "state": "SD", "street": "641 N MAIN AVE", "postcode": "57030"}}},
{"geometry": {"type": "Point", "coordinates": [-97.1724570265, 42.8898656954]}, "type": "Feature", "properties": {"collection_times": [{"days": "Mon-Fri", "time": "4:45pm"}, {"days": "Sat", "time": "5:00pm"}, {"days": "Sun", "time": "Closed"}], "id": "5703100001", "name": "USPS COLLECTION BOX - BLUE BOX", "address": {"city": "GAYVILLE", "state": "SD", "street": "508 WASHINGTON ST", "postcode": "57031"}}},
{"geometry": {"type": "Point", "coordinates": [-97.1724570265, 42.8898656954]}, "type": "Feature", "properties": {"collection_times": [{"days": "Mon-Fri", "time": "12:00pm"}, {"days": "Sat-Sun", "time": "Closed"}], "id": "5703100002", "name": "USPS COLLECTION BOX - PO LOBBY", "address": {"city": "GAYVILLE", "state": "SD", "street": "508 WASHINGTON ST", "postcode": "57031"}}},
{"geometry": {"type": "Point", "coordinates": [-97.1894274863, 42.8665418661]}, "type": "Feature", "properties": {"collection_times": [{"days": "Mon-Sat", "time": "9:30am"}, {"days": "Sun", "time": "Closed"}], "id": "5703100004", "name": "USPS COLLECTION BOX - BLUE BOX", "address": {"city": "GAYVILLE", "state": "SD", "street": "31095 451ST AVE", "postcode": "57031"}}},
{"geometry": {"type": "Point", "coordinates": [-96.6992831537, 43.4314742208]}, "type": "Feature", "properties": {"collection_times": [{"days": "Mon-Fri", "time": "4:30pm"}, {"days": "Sat", "time": "4:45pm"}, {"days": "Sun", "time": "Closed"}], "id": "5703200001", "name": "USPS COLLECTION BOX - BLUE BOX", "address": {"city": "HARRISBURG", "state": "SD", "street": "307 E WILLOW ST", "postcode": "57032"}}},
{"geometry": {"type": "Point", "coordinates": [-96.6992831537, 43.4314742208]}, "type": "Feature", "properties": {"collection_times": [{"days": "Mon-Fri", "time": "4:45pm"}, {"days": "Sat", "time": "9:30am"}, {"days": "Sun", "time": "Closed"}], "id": "5703200002", "name": "USPS COLLECTION BOX - PO LOBBY", "address": {"city": "HARRISBURG", "state": "SD", "street": "307 E WILLOW ST", "postcode": "57032"}}},
{"geometry": {"type": "Point", "coordinates": [-96.9594279263, 43.6281696555]}, "type": "Feature", "properties": {"collection_times": [{"days": "Mon-Sat", "time": "5:30pm"}, {"days": "Sun", "time": "Closed"}], "id": "5703300001", "name": "USPS COLLECTION BOX - BLUE BOX", "address": {"city": "HARTFORD", "state": "SD", "street": "901 N OAKS AVE", "postcode": "57033"}}},
{"geometry": {"type": "Point", "coordinates": [-96.9594279263, 43.6281696555]}, "type": "Feature", "properties": {"collection_times": [{"days": "Mon-Fri", "time": "4:30pm"}, {"days": "Sat", "time": "10:00am"}, {"days": "Sun", "time": "Closed"}], "id": "5703300002", "name": "USPS COLLECTION BOX - PO LOBBY", "address": {"city": "HARTFORD", "state": "SD", "street": "901 N OAKS AVE", "postcode": "57033"}}},
{"geometry": {"type": "Point", "coordinates": [-96.4530920115, 43.1304262849]}, "type": "Feature", "properties": {"collection_times": [{"days": "Mon-Sat", "time": "12:00pm"}, {"days": "Sun", "time": "Closed"}], "id": "5703400001", "name": "USPS COLLECTION BOX - BLUE BOX", "address": {"city": "HUDSON", "state": "SD", "street": "318 WHEELOCK ST", "postcode": "57034"}}},
{"geometry": {"type": "Point", "coordinates": [-96.4530920115, 43.1304262849]}, "type": "Feature", "properties": {"collection_times": [{"days": "Mon-Sat", "time": "12:00pm"}, {"days": "Sun", "time": "Closed"}], "id": "5703400002", "name": "USPS COLLECTION BOX - PO LOBBY", "address": {"city": "HUDSON", "state": "SD", "street": "318 WHEELOCK ST", "postcode": "57034"}}},
{"geometry": {"type": "Point", "coordinates": [-97.0824320079, 43.6454774275]}, "type": "Feature", "properties": {"collection_times": [{"days": "Mon-Fri", "time": "4:15pm"}, {"days": "Sat", "time": "5:30pm"}, {"days": "Sun", "time": "Closed"}], "id": "5703500001", "name": "USPS COLLECTION BOX - BLUE BOX", "address": {"city": "HUMBOLDT", "state": "SD", "street": "1005 W 2ND AVE", "postcode": "57035"}}},
{"geometry": {"type": "Point", "coordinates": [-97.0824320079, 43.6454774275]}, "type": "Feature", "properties": {"collection_times": [{"days": "Mon-Fri", "time": "11:30am"}, {"days": "Sat-Sun", "time": "Closed"}], "id": "5703500002", "name": "USPS COLLECTION BOX - PO LOBBY", "address": {"city": "HUMBOLDT", "state": "SD", "street": "1005 W 2ND AVE", "postcode": "57035"}}},
{"geometry": {"type": "Point", "coordinates": [-97.0895612394, 43.283037143]}, "type": "Feature", "properties": {"collection_times": [{"days": "Mon-Sat", "time": "4:00pm"}, {"days": "Sun", "time": "Closed"}], "id": "5703600001", "name": "USPS COLLECTION BOX - BLUE BOX", "address": {"city": "HURLEY", "state": "SD", "street": "608 CENTER AVE", "postcode": "57036"}}},
{"geometry": {"type": "Point", "coordinates": [-97.0896073905, 43.2829866731]}, "type": "Feature", "properties": {"collection_times": [{"days": "Mon-Fri", "time": "1:30pm"}, {"days": "Sat", "time": "1:00pm"}, {"days": "Sun", "time": "Closed"}], "id": "5703600002", "name": "USPS COLLECTION BOX - PO LOBBY", "address": {"city": "HURLEY", "state": "SD", "street": "608 CENTER AVE", "postcode": "57036"}}},
{"geometry": {"type": "Point", "coordinates": [-97.1592886933, 43.0831112615]}, "type": "Feature", "properties": {"collection_times": [{"days": "Mon-Sat", "time": "4:30pm"}, {"days": "Sun", "time": "Closed"}], "id": "5703700001", "name": "USPS COLLECTION BOX - BLUE BOX", "address": {"city": "IRENE", "state": "SD", "street": "205 W MAIN ST", "postcode": "57037"}}},
{"geometry": {"type": "Point", "coordinates": [-97.1592886933, 43.0831112615]}, "type": "Feature", "properties": {"collection_times": [{"days": "Mon-Fri", "time": "3:00pm"}, {"days": "Sat", "time": "8:45am"}, {"days": "Sun", "time": "Closed"}], "id": "5703700002", "name": "USPS COLLECTION BOX - PO LOBBY", "address": {"city": "IRENE", "state": "SD", "street": "205 W MAIN ST", "postcode": "57037"}}},
{"geometry": {"type": "Point", "coordinates": [-96.5591814624, 42.6026985498]}, "type": "Feature", "properties": {"collection_times": [{"days": "Mon-Sat", "time": "4:30pm"}, {"days": "Sun", "time": "Closed"}], "id": "5703800001", "name": "USPS COLLECTION BOX - BLUE BOX", "address": {"city": "JEFFERSON", "state": "SD", "street": "303 MAIN ST", "postcode": "57038"}}},
{"geometry": {"type": "Point", "coordinates": [-96.5591814624, 42.6026985498]}, "type": "Feature", "properties": {"collection_times": [{"days": "Mon-Fri", "time": "4:30pm"}, {"days": "Sat", "time": "1:00pm"}, {"days": "Sun", "time": "Closed"}], "id": "5703800002", "name": "USPS COLLECTION BOX - PO LOBBY", "address": {"city": "JEFFERSON", "state": "SD", "street": "303 MAIN ST", "postcode": "57038"}}},
{"geometry": {"type": "Point", "coordinates": [-96.891606942, 43.3532813863]}, "type": "Feature", "properties": {"collection_times": [{"days": "Mon-Fri", "time": "4:00pm"}, {"days": "Sat", "time": "5:30pm"}, {"days": "Sun", "time": "Closed"}], "id": "5703900002", "name": "USPS COLLECTION BOX - BLUE BOX", "address": {"city": "LENNOX", "state": "SD", "street": "200 S MAIN ST", "postcode": "57039"}}},
{"geometry": {"type": "Point", "coordinates": [-96.891606942, 43.3532813863]}, "type": "Feature", "properties": {"collection_times": [{"days": "Mon-Fri", "time": "4:00pm"}, {"days": "Sat", "time": "5:30pm"}, {"days": "Sun", "time": "Closed"}], "id": "5703900003", "name": "USPS COLLECTION BOX - BLUE BOX", "address": {"city": "LENNOX", "state": "SD", "street": "200 S MAIN ST", "postcode": "57039"}}},
{"geometry": {"type": "Point", "coordinates": [-96.891606942, 43.3532813863]}, "type": "Feature", "properties": {"collection_times": [{"days": "Mon-Fri", "time": "4:00pm"}, {"days": "Sat", "time": "10:00am"}, {"days": "Sun", "time": "Closed"}], "id": "5703900005", "name": "USPS COLLECTION BOX - PO LOBBY", "address": {"city": "LENNOX", "state": "SD", "street": "200 S MAIN ST", "postcode": "57039"}}},
{"geometry": {"type": "Point", "coordinates": [-97.5942108741, 43.0385834465]}, "type": "Feature", "properties": {"collection_times": [{"days": "Mon-Sat", "time": "4:00pm"}, {"days": "Sun", "time": "Closed"}], "id": "5704000001", "name": "USPS COLLECTION BOX - BLUE BOX", "address": {"city": "LESTERVILLE", "state": "SD", "street": "223 MAIN AVE", "postcode": "57040"}}},
{"geometry": {"type": "Point", "coordinates": [-97.5942108741, 43.0385834465]}, "type": "Feature", "properties": {"collection_times": [{"days": "Mon-Fri", "time": "12:00pm"}, {"days": "Sat-Sun", "time": "Closed"}], "id": "5704000002", "name": "USPS COLLECTION BOX - PO LOBBY", "address": {"city": "LESTERVILLE", "state": "SD", "street": "223 MAIN AVE", "postcode": "57040"}}},
{"geometry": {"type": "Point", "coordinates": [-96.8686918773, 43.7230697596]}, "type": "Feature", "properties": {"collection_times": [{"days": "Mon-Fri", "time": "4:45pm"}, {"days": "Sat", "time": "5:00pm"}, {"days": "Sun", "time": "Closed"}], "id": "5704100001", "name": "USPS COLLECTION BOX - BLUE BOX", "address": {"city": "LYONS", "state": "SD", "street": "208 3RD ST", "postcode": "57041"}}},
{"geometry": {"type": "Point", "coordinates": [-97.1135617459, 44.0050436502]}, "type": "Feature", "properties": {"collection_times": [{"days": "Mon-Sat", "time": "5:00pm"}, {"days": "Sun", "time": "Closed"}], "id": "5704200002", "name": "USPS COLLECTION BOX - BLUE BOX", "address": {"city": "MADISON", "state": "SD", "street": "119 E CENTER ST", "postcode": "57042"}}},
{"geometry": {"type": "Point", "coordinates": [-97.1135617459, 44.0050436502]}, "type": "Feature", "properties": {"collection_times": [{"days": "Mon-Sat", "time": "5:00pm"}, {"days": "Sun", "time": "Closed"}], "id": "5704200003", "name": "USPS COLLECTION BOX - BLUE BOX", "address": {"city": "MADISON", "state": "SD", "street": "119 E CENTER ST", "postcode": "57042"}}},
{"geometry": {"type": "Point", "coordinates": [-97.1135617459, 44.0050436502]}, "type": "Feature", "properties": {"collection_times": [{"days": "Mon-Sat", "time": "5:00pm"}, {"days": "Sun", "time": "Closed"}], "id": "5704200008", "name": "USPS COLLECTION BOX - PO LOBBY", "address": {"city": "MADISON", "state": "SD", "street": "119 E CENTER ST", "postcode": "57042"}}},
{"geometry": {"type": "Point", "coordinates": [-97.1098287913, 43.9975239694]}, "type": "Feature", "properties": {"collection_times": [{"days": "Mon-Sat", "time": "9:00am"}, {"days": "Sun", "time": "Closed"}], "id": "5704200009", "name": "USPS COLLECTION BOX - BLUE BOX", "address": {"city": "MADISON", "state": "SD", "street": "741 S WASHINGTON AVE", "postcode": "57042"}}},
{"geometry": {"type": "Point", "coordinates": [-97.2606422164, 43.4231538597]}, "type": "Feature", "properties": {"collection_times": [{"days": "Mon-Fri", "time": "4:15pm"}, {"days": "Sat", "time": "4:30pm"}, {"days": "Sun", "time": "Closed"}], "id": "5704300001", "name": "USPS COLLECTION BOX - BLUE BOX", "address": {"city": "MARION", "state": "SD", "street": "209 N BROADWAY AVE", "postcode": "57043"}}},
{"geometry": {"type": "Point", "coordinates": [-97.2606422164, 43.4231538597]}, "type": "Feature", "properties": {"collection_times": [{"days": "Mon-Fri", "time": "4:15pm"}, {"days": "Sat", "time": "10:30am"}, {"days": "Sun", "time": "Closed"}], "id": "5704300003", "name": "USPS COLLECTION BOX - PO LOBBY", "address": {"city": "MARION", "state": "SD", "street": "209 N BROADWAY AVE", "postcode": "57043"}}},
{"geometry": {"type": "Point", "coordinates": [-97.2606422164, 43.4231538597]}, "type": "Feature", "properties": {"collection_times": [{"days": "Mon-Fri", "time": "4:15pm"}, {"days": "Sat", "time": "4:30pm"}, {"days": "Sun", "time": "Closed"}], "id": "5704300005", "name": "USPS COLLECTION BOX - BLUE BOX", "address": {"city": "MARION", "state": "SD", "street": "209 N BROADWAY AVE", "postcode": "57043"}}},
{"geometry": {"type": "Point", "coordinates": [-97.5780441746, 43.2394099524]}, "type": "Feature", "properties": {"collection_times": [{"days": "Mon-Fri", "time": "4:15pm"}, {"days": "Sat", "time": "4:30pm"}, {"days": "Sun", "time": "Closed"}], "id": "5704500001", "name": "USPS COLLECTION BOX - BLUE BOX", "address": {"city": "MENNO", "state": "SD", "street": "227 S 5TH ST", "postcode": "57045"}}},
{"geometry": {"type": "Point", "coordinates": [-97.5780441746, 43.2394099524]}, "type": "Feature", "properties": {"collection_times": [{"days": "Mon-Fri", "time": "3:00pm"}, {"days": "Sat", "time": "10:30am"}, {"days": "Sun", "time": "Closed"}], "id": "5704500002", "name": "USPS COLLECTION BOX - PO LOBBY", "address": {"city": "MENNO", "state": "SD", "street": "227 S 5TH ST", "postcode": "57045"}}},
{"geometry": {"type": "Point", "coordinates": [-97.278849348, 42.9164482851]}, "type": "Feature", "properties": {"collection_times": [{"days": "Mon-Sat", "time": "4:30pm"}, {"days": "Sun", "time": "Closed"}], "id": "5704600001", "name": "USPS COLLECTION BOX - BLUE BOX", "address": {"city": "MISSION HILL", "state": "SD", "street": "109 WASHINGTON AVE S", "postcode": "57046"}}},
{"geometry": {"type": "Point", "coordinates": [-97.278849348, 42.9164482851]}, "type": "Feature", "properties": {"collection_times": [{"days": "Mon-Fri", "time": "4:30pm"}, {"days": "Sat-Sun", "time": "Closed"}], "id": "5704600002", "name": "USPS COLLECTION BOX - PO LOBBY", "address": {"city": "MISSION HILL", "state": "SD", "street": "109 WASHINGTON AVE S", "postcode": "57046"}}},
{"geometry": {"type": "Point", "coordinates": [-97.1837422021, 43.701015847]}, "type": "Feature", "properties": {"collection_times": [{"days": "Mon-Fri", "time": "4:15pm"}, {"days": "Sat", "time": "5:15pm"}, {"days": "Sun", "time": "Closed"}], "id": "5704800001", "name": "USPS COLLECTION BOX - BLUE BOX", "address": {"city": "MONTROSE", "state": "SD", "street": "105 W MAIN ST", "postcode": "57048"}}},
{"geometry": {"type": "Point", "coordinates": [-97.1837422021, 43.701015847]}, "type": "Feature", "properties": {"collection_times": [{"days": "Mon-Fri", "time": "11:30am"}, {"days": "Sat", "time": "9:45am"}, {"days": "Sun", "time": "Closed"}], "id": "5704800002", "name": "USPS COLLECTION BOX - PO LOBBY", "address": {"city": "MONTROSE", "state": "SD", "street": "105 W MAIN ST", "postcode": "57048"}}},
{"geometry": {"type": "Point", "coordinates": [-96.5012429378, 42.5245965314]}, "type": "Feature", "properties": {"collection_times": [{"days": "Mon-Sat", "time": "2:00pm"}, {"days": "Sun", "time": "Closed"}], "id": "5704900002", "name": "USPS COLLECTION BOX - BLUE BOX", "address": {"city": "N SIOUX CITY", "state": "SD", "street": "1313 RIVER DR", "postcode": "57049"}}},
{"geometry": {"type": "Point", "coordinates": [-96.4973856977, 42.52923626]}, "type": "Feature", "properties": {"collection_times": [{"days": "Mon-Sat", "time": "4:30pm"}, {"days": "Sun", "time": "Closed"}], "id": "5704900004", "name": "USPS COLLECTION BOX - BLUE BOX", "address": {"city": "N SIOUX CITY", "state": "SD", "street": "310 N DERBY LN", "postcode": "57049"}}},
{"geometry": {"type": "Point", "coordinates": [-96.4973856977, 42.52923626]}, "type": "Feature", "properties": {"collection_times": [{"days": "Mon-Fri", "time": "4:45pm"}, {"days": "Sat", "time": "11:00am"}, {"days": "Sun", "time": "Closed"}], "id": "5704900007", "name": "USPS COLLECTION BOX - PO LOBBY", "address": {"city": "N SIOUX CITY", "state": "SD", "street": "310 N DERBY LN", "postcode": "57049"}}},
{"geometry": {"type": "Point", "coordinates": [-96.4965221285, 42.5033964881]}, "type": "Feature", "properties": {"collection_times": [{"days": "Mon-Sat", "time": "2:00pm"}, {"days": "Sun", "time": "Closed"}], "id": "5704900010", "name": "USPS COLLECTION BOX - BLUE BOX", "address": {"city": "N SIOUX CITY", "state": "SD", "street": "200 TOWER RD", "postcode": "57049"}}},
{"geometry": {"type": "Point", "coordinates": [-97.0297155817, 44.1571506482]}, "type": "Feature", "properties": {"collection_times": [{"days": "Mon-Sat", "time": "4:15pm"}, {"days": "Sun", "time": "Closed"}], "id": "5705000001", "name": "USPS COLLECTION BOX - BLUE BOX", "address": {"city": "NUNDA", "state": "SD", "street": "504 MAIN ST", "postcode": "57050"}}},
{"geometry": {"type": "Point", "coordinates": [-97.0297155817, 44.1571506482]}, "type": "Feature", "properties": {"collection_times": [{"days": "Mon-Sat", "time": "2:15pm"}, {"days": "Sun", "time": "Closed"}], "id": "5705000002", "name": "USPS COLLECTION BOX - PO LOBBY", "address": {"city": "NUNDA", "state": "SD", "street": "504 MAIN ST", "postcode": "57050"}}},
{"geometry": {"type": "Point", "coordinates": [-97.3083358245, 44.2277338248]}, "type": "Feature", "properties": {"collection_times": [{"days": "Mon-Sat", "time": "4:00pm"}, {"days": "Sun", "time": "Closed"}], "id": "5705100001", "name": "USPS COLLECTION BOX - BLUE BOX", "address": {"city": "OLDHAM", "state": "SD", "street": "105 N LILLIE AVE", "postcode": "57051"}}},
{"geometry": {"type": "Point", "coordinates": [-97.3083358245, 44.2277338248]}, "type": "Feature", "properties": {"collection_times": [{"days": "Mon-Fri", "time": "12:00pm"}, {"days": "Sat", "time": "9:15am"}, {"days": "Sun", "time": "Closed"}], "id": "5705100002", "name": "USPS COLLECTION BOX - PO LOBBY", "address": {"city": "OLDHAM", "state": "SD", "street": "105 N LILLIE AVE", "postcode": "57051"}}},
{"geometry": {"type": "Point", "coordinates": [-97.677180109, 43.2406760893]}, "type": "Feature", "properties": {"collection_times": [{"days": "Mon-Sat", "time": "4:30pm"}, {"days": "Sun", "time": "Closed"}], "id": "5705200001", "name": "USPS COLLECTION BOX - BLUE BOX", "address": {"city": "OLIVET", "state": "SD", "street": "145 EUCLID ST", "postcode": "57052"}}},
{"geometry": {"type": "Point", "coordinates": [-97.677180109, 43.2406760893]}, "type": "Feature", "properties": {"collection_times": [{"days": "Mon-Fri", "time": "2:00pm"}, {"days": "Sat", "time": "11:00am"}, {"days": "Sun", "time": "Closed"}], "id": "5705200002", "name": "USPS COLLECTION BOX - PO LOBBY", "address": {"city": "OLIVET", "state": "SD", "street": "145 EUCLID ST", "postcode": "57052"}}},
{"geometry": {"type": "Point", "coordinates": [-97.1366799472, 43.397519345]}, "type": "Feature", "properties": {"collection_times": [{"days": "Mon-Fri", "time": "4:30pm"}, {"days": "Sat", "time": "5:00pm"}, {"days": "Sun", "time": "Closed"}], "id": "5705300001", "name": "USPS COLLECTION BOX - BLUE BOX", "address": {"city": "PARKER", "state": "SD", "street": "125 S MAIN AVE", "postcode": "57053"}}},
{"geometry": {"type": "Point", "coordinates": [-97.1366799472, 43.397519345]}, "type": "Feature", "properties": {"collection_times": [{"days": "Mon-Fri", "time": "4:30pm"}, {"days": "Sat-Sun", "time": "Closed"}], "id": "5705300002", "name": "USPS COLLECTION BOX - PO LOBBY", "address": {"city": "PARKER", "state": "SD", "street": "125 S MAIN AVE", "postcode": "57053"}}},
{"geometry": {"type": "Point", "coordinates": [-97.2190870323, 44.1194712632]}, "type": "Feature", "properties": {"collection_times": [{"days": "Mon-Sat", "time": "4:15pm"}, {"days": "Sun", "time": "Closed"}], "id": "5705400001", "name": "USPS COLLECTION BOX - BLUE BOX", "address": {"city": "RAMONA", "state": "SD", "street": "217 E MAIN ST", "postcode": "57054"}}},
{"geometry": {"type": "Point", "coordinates": [-97.2190870323, 44.1194712632]}, "type": "Feature", "properties": {"collection_times": [{"days": "Mon-Fri", "time": "11:45am"}, {"days": "Sat", "time": "9:40am"}, {"days": "Sun", "time": "Closed"}], "id": "5705400002", "name": "USPS COLLECTION BOX - PO LOBBY", "address": {"city": "RAMONA", "state": "SD", "street": "217 E MAIN ST", "postcode": "57054"}}},
{"geometry": {"type": "Point", "coordinates": [-97.3874231524, 43.7265626673]}, "type": "Feature", "properties": {"collection_times": [{"days": "Mon-Fri", "time": "4:15pm"}, {"days": "Sat", "time": "5:00pm"}, {"days": "Sun", "time": "Closed"}], "id": "5705800003", "name": "USPS COLLECTION BOX - BLUE BOX", "address": {"city": "SALEM", "state": "SD", "street": "311 N MAIN ST", "postcode": "57058"}}},
{"geometry": {"type": "Point", "coordinates": [-97.3874231524, 43.7265626673]}, "type": "Feature", "properties": {"collection_times": [{"days": "Mon-Fri", "time": "4:15pm"}, {"days": "Sat", "time": "10:00am"}, {"days": "Sun", "time": "Closed"}], "id": "5705800006", "name": "USPS COLLECTION BOX - PO LOBBY", "address": {"city": "SALEM", "state": "SD", "street": "311 N MAIN ST", "postcode": "57058"}}},
{"geometry": {"type": "Point", "coordinates": [-97.3889947729, 43.7123049674]}, "type": "Feature", "properties": {"collection_times": [{"days": "Mon-Sat", "time": "1:30pm"}, {"days": "Sun", "time": "Closed"}], "id": "5705800009", "name": "USPS COLLECTION BOX - BLUE BOX", "address": {"city": "SALEM", "state": "SD", "street": "25315 US HIGHWAY 81", "postcode": "57058"}}},
{"geometry": {"type": "Point", "coordinates": [-97.7203309733, 43.1491855493]}, "type": "Feature", "properties": {"collection_times": [{"days": "Mon-Sat", "time": "4:30pm"}, {"days": "Sun", "time": "Closed"}], "id": "5705900001", "name": "USPS COLLECTION BOX - BLUE BOX", "address": {"city": "SCOTLAND", "state": "SD", "street": "640 1ST ST", "postcode": "57059"}}},
{"geometry": {"type": "Point", "coordinates": [-97.7203309733, 43.1491855493]}, "type": "Feature", "properties": {"collection_times": [{"days": "Mon-Fri", "time": "3:30pm"}, {"days": "Sat", "time": "9:45am"}, {"days": "Sun", "time": "Closed"}], "id": "5705900003", "name": "USPS COLLECTION BOX - PO LOBBY", "address": {"city": "SCOTLAND", "state": "SD", "street": "640 1ST ST", "postcode": "57059"}}},
{"geometry": {"type": "Point", "coordinates": [-97.0424887116, 44.2444644091]}, "type": "Feature", "properties": {"collection_times": [{"days": "Mon-Sat", "time": "4:00pm"}, {"days": "Sun", "time": "Closed"}], "id": "5706100000", "name": "USPS COLLECTION BOX - BLUE BOX", "address": {"city": "SINAI", "state": "SD", "street": "301 MAIN AVE", "postcode": "57061"}}},
{"geometry": {"type": "Point", "coordinates": [-97.0424887116, 44.2444644091]}, "type": "Feature", "properties": {"collection_times": [{"days": "Mon-Fri", "time": "11:45am"}, {"days": "Sat-Sun", "time": "Closed"}], "id": "5706100001", "name": "USPS COLLECTION BOX - PO LOBBY", "address": {"city": "SINAI", "state": "SD", "street": "301 MAIN AVE", "postcode": "57061"}}},
{"geometry": {"type": "Point", "coordinates": [-97.8971165087, 42.8541623514]}, "type": "Feature", "properties": {"collection_times": [{"days": "Mon-Sat", "time": "4:00pm"}, {"days": "Sun", "time": "Closed"}], "id": "5706200001", "name": "USPS COLLECTION BOX - BLUE BOX", "address": {"city": "SPRINGFIELD", "state": "SD", "street": "811 8TH ST", "postcode": "57062"}}},
{"geometry": {"type": "Point", "coordinates": [-97.8971165087, 42.8541623514]}, "type": "Feature", "properties": {"collection_times": [{"days": "Mon-Fri", "time": "4:00pm"}, {"days": "Sat", "time": "10:15am"}, {"days": "Sun", "time": "Closed"}], "id": "5706200002", "name": "USPS COLLECTION BOX - PO LOBBY", "address": {"city": "SPRINGFIELD", "state": "SD", "street": "811 8TH ST", "postcode": "57062"}}},
{"geometry": {"type": "Point", "coordinates": [-97.6588400839, 42.9483906169]}, "type": "Feature", "properties": {"collection_times": [{"days": "Mon-Fri", "time": "4:00pm"}, {"days": "Sat", "time": "4:30pm"}, {"days": "Sun", "time": "Closed"}], "id": "5706300001", "name": "USPS COLLECTION BOX - BLUE BOX", "address": {"city": "TABOR", "state": "SD", "street": "105 S LIDICE AVE", "postcode": "57063"}}},
{"geometry": {"type": "Point", "coordinates": [-97.6588400839, 42.9483906169]}, "type": "Feature", "properties": {"collection_times": [{"days": "Mon-Fri", "time": "12:00pm"}, {"days": "Sat", "time": "10:00am"}, {"days": "Sun", "time": "Closed"}], "id": "5706300002", "name": "USPS COLLECTION BOX - PO LOBBY", "address": {"city": "TABOR", "state": "SD", "street": "105 S LIDICE AVE", "postcode": "57063"}}},
{"geometry": {"type": "Point", "coordinates": [-96.8703461268, 43.4538507007]}, "type": "Feature", "properties": {"collection_times": [{"days": "Mon-Fri", "time": "4:45pm"}, {"days": "Sat", "time": "11:30am"}, {"days": "Sun", "time": "Closed"}], "id": "5706400001", "name": "USPS COLLECTION BOX - PO LOBBY", "address": {"city": "TEA", "state": "SD", "street": "502 E FIGZEL CT STE 0", "postcode": "57064"}}},
{"geometry": {"type": "Point", "coordinates": [-96.8703461268, 43.4538507007]}, "type": "Feature", "properties": {"collection_times": [{"days": "Mon-Fri", "time": "4:45pm"}, {"days": "Sat", "time": "5:00pm"}, {"days": "Sun", "time": "Closed"}], "id": "5706400002", "name": "USPS COLLECTION BOX - BLUE BOX", "address": {"city": "TEA", "state": "SD", "street": "502 E FIGZEL CT STE 0", "postcode": "57064"}}},
{"geometry": {"type": "Point", "coordinates": [-96.8703461268, 43.4538507007]}, "type": "Feature", "properties": {"collection_times": [{"days": "Mon-Fri", "time": "4:45pm"}, {"days": "Sat", "time": "11:30am"}, {"days": "Sun", "time": "Closed"}], "id": "5706400003", "name": "USPS COLLECTION BOX - PO LOBBY", "address": {"city": "TEA", "state": "SD", "street": "502 E FIGZEL CT STE 0", "postcode": "57064"}}},
{"geometry": {"type": "Point", "coordinates": [-96.5320685816, 43.8910390361]}, "type": "Feature", "properties": {"collection_times": [{"days": "Mon-Fri", "time": "4:30pm"}, {"days": "Sat", "time": "5:00pm"}, {"days": "Sun", "time": "Closed"}], "id": "5706500000", "name": "USPS COLLECTION BOX - BLUE BOX", "address": {"city": "TRENT", "state": "SD", "street": "107 W 3RD ST", "postcode": "57065"}}},
{"geometry": {"type": "Point", "coordinates": [-96.5320685816, 43.8910390361]}, "type": "Feature", "properties": {"collection_times": [{"days": "Mon-Fri", "time": "4:45pm"}, {"days": "Sat-Sun", "time": "Closed"}], "id": "5706500001", "name": "USPS COLLECTION BOX - PO LOBBY", "address": {"city": "TRENT", "state": "SD", "street": "107 W 3RD ST", "postcode": "57065"}}},
{"geometry": {"type": "Point", "coordinates": [-97.8627092709, 42.9924901256]}, "type": "Feature", "properties": {"collection_times": [{"days": "Mon-Sat", "time": "4:15pm"}, {"days": "Sun", "time": "Closed"}], "id": "5706600001", "name": "USPS COLLECTION BOX - BLUE BOX", "address": {"city": "TYNDALL", "state": "SD", "street": "1716 MAIN ST", "postcode": "57066"}}},
{"geometry": {"type": "Point", "coordinates": [-97.8626811135, 42.9912995958]}, "type": "Feature", "properties": {"collection_times": [{"days": "Mon-Sat", "time": "1:30pm"}, {"days": "Sun", "time": "Closed"}], "id": "5706600002", "name": "USPS COLLECTION BOX - BLUE BOX", "address": {"city": "TYNDALL", "state": "SD", "street": "1600 MAIN ST", "postcode": "57066"}}},
{"geometry": {"type": "Point", "coordinates": [-97.8627092709, 42.9924901256]}, "type": "Feature", "properties": {"collection_times": [{"days": "Mon-Fri", "time": "4:15pm"}, {"days": "Sat-Sun", "time": "Closed"}], "id": "5706600003", "name": "USPS COLLECTION BOX - PO LOBBY", "address": {"city": "TYNDALL", "state": "SD", "street": "1716 MAIN ST", "postcode": "57066"}}},
{"geometry": {"type": "Point", "coordinates": [-97.4975955712, 42.9811007543]}, "type": "Feature", "properties": {"collection_times": [{"days": "Mon-Fri", "time": "4:25pm"}, {"days": "Sat", "time": "4:15pm"}, {"days": "Sun", "time": "Closed"}], "id": "5706700000", "name": "USPS COLLECTION BOX - BLUE BOX", "address": {"city": "UTICA", "state": "SD", "street": "109 2ND ST", "postcode": "57067"}}},
{"geometry": {"type": "Point", "coordinates": [-97.4862999875, 43.0247304348]}, "type": "Feature", "properties": {"collection_times": [{"days": "Mon-Sat", "time": "11:45am"}, {"days": "Sun", "time": "Closed"}], "id": "5706700001", "name": "USPS COLLECTION BOX - PO LOBBY", "address": {"city": "UTICA", "state": "SD", "street": "109 2ND ST", "postcode": "57067"}}},
{"geometry": {"type": "Point", "coordinates": [-96.4664261112, 43.5825667312]}, "type": "Feature", "properties": {"collection_times": [{"days": "Mon-Sat", "time": "4:15pm"}, {"days": "Sun", "time": "Closed"}], "id": "5706800001", "name": "USPS COLLECTION BOX - BLUE BOX", "address": {"city": "VALLEY SPRINGS", "state": "SD", "street": "409 BROADWAY AVE", "postcode": "57068"}}},
{"geometry": {"type": "Point", "coordinates": [-96.4664261112, 43.5825667312]}, "type": "Feature", "properties": {"collection_times": [{"days": "Mon-Fri", "time": "11:00am"}, {"days": "Sat", "time": "8:30am"}, {"days": "Sun", "time": "Closed"}], "id": "5706800002", "name": "USPS COLLECTION BOX - PO LOBBY", "address": {"city": "VALLEY SPRINGS", "state": "SD", "street": "409 BROADWAY AVE", "postcode": "57068"}}},
{"geometry": {"type": "Point", "coordinates": [-96.932296386, 42.7792626307]}, "type": "Feature", "properties": {"collection_times": [{"days": "Mon-Sat", "time": "5:30pm"}, {"days": "Sun", "time": "Closed"}], "id": "5706900001", "name": "USPS COLLECTION BOX - BLUE BOX", "address": {"city": "VERMILLION", "state": "SD", "street": "16 COURT ST", "postcode": "57069"}}},
{"geometry": {"type": "Point", "coordinates": [-96.9199915392, 42.7827554051]}, "type": "Feature", "properties": {"collection_times": [{"days": "Mon-Sat", "time": "2:00pm"}, {"days": "Sun", "time": "Closed"}], "id": "5706900005", "name": "USPS COLLECTION BOX - BLUE BOX", "address": {"city": "VERMILLION", "state": "SD", "street": "201 N PLUM ST", "postcode": "57069"}}},
{"geometry": {"type": "Point", "coordinates": [-96.932296386, 42.7792626307]}, "type": "Feature", "properties": {"collection_times": [{"days": "Mon-Fri", "time": "4:25pm"}, {"days": "Sat", "time": "12:00pm"}, {"days": "Sun", "time": "Closed"}], "id": "5706900012", "name": "USPS COLLECTION BOX - PO LOBBY", "address": {"city": "VERMILLION", "state": "SD", "street": "16 COURT ST", "postcode": "57069"}}},
{"geometry": {"type": "Point", "coordinates": [-96.9438463172, 42.7856605527]}, "type": "Feature", "properties": {"collection_times": [{"days": "Mon-Sat", "time": "2:00pm"}, {"days": "Sun", "time": "Closed"}], "id": "5706900015", "name": "USPS COLLECTION BOX - BLUE BOX", "address": {"city": "VERMILLION", "state": "SD", "street": "601 CARR ST", "postcode": "57069"}}},
{"geometry": {"type": "Point", "coordinates": [-96.9390851447, 42.7866630003]}, "type": "Feature", "properties": {"collection_times": [{"days": "Mon-Sat", "time": "2:00pm"}, {"days": "Sun", "time": "Closed"}], "id": "5706900016", "name": "USPS COLLECTION BOX - BLUE BOX", "address": {"city": "VERMILLION", "state": "SD", "street": "525 W CHERRY ST", "postcode": "57069"}}},
{"geometry": {"type": "Point", "coordinates": [-96.7885435554, 42.7861949674]}, "type": "Feature", "properties": {"collection_times": [{"days": "Mon-Sat", "time": "10:00am"}, {"days": "Sun", "time": "Closed"}], "id": "5706900017", "name": "USPS COLLECTION BOX - BLUE BOX", "address": {"city": "VERMILLION", "state": "SD", "street": "47085 SD HIGHWAY 50", "postcode": "57069"}}},
{"geometry": {"type": "Point", "coordinates": [-96.932296386, 42.7792626307]}, "type": "Feature", "properties": {"collection_times": [{"days": "Mon-Sat", "time": "5:30pm"}, {"days": "Sun", "time": "Closed"}], "id": "5706900032", "name": "USPS COLLECTION BOX - BLUE BOX", "address": {"city": "VERMILLION", "state": "SD", "street": "16 COURT ST", "postcode": "57069"}}},
{"geometry": {"type": "Point", "coordinates": [-97.0816530043, 43.1702507896]}, "type": "Feature", "properties": {"collection_times": [{"days": "Mon-Fri", "time": "4:00pm"}, {"days": "Sat", "time": "4:30pm"}, {"days": "Sun", "time": "Closed"}], "id": "5707000001", "name": "USPS COLLECTION BOX - BLUE BOX", "address": {"city": "VIBORG", "state": "SD", "street": "103 S MAIN ST", "postcode": "57070"}}},
{"geometry": {"type": "Point", "coordinates": [-97.0816530043, 43.1702507896]}, "type": "Feature", "properties": {"collection_times": [{"days": "Mon-Fri", "time": "3:00pm"}, {"days": "Sat", "time": "9:15am"}, {"days": "Sun", "time": "Closed"}], "id": "5707000002", "name": "USPS COLLECTION BOX - PO LOBBY", "address": {"city": "VIBORG", "state": "SD", "street": "103 S MAIN ST", "postcode": "57070"}}},
{"geometry": {"type": "Point", "coordinates": [-96.9270564894, 44.3224528]}, "type": "Feature", "properties": {"collection_times": [{"days": "Mon-Sat", "time": "4:00pm"}, {"days": "Sun", "time": "Closed"}], "id": "5707100001", "name": "USPS COLLECTION BOX - BLUE BOX", "address": {"city": "VOLGA", "state": "SD", "street": "125 W 3RD ST", "postcode": "57071"}}},
{"geometry": {"type": "Point", "coordinates": [-96.9270564894, 44.3224528]}, "type": "Feature", "properties": {"collection_times": [{"days": "Mon-Fri", "time": "4:00pm"}, {"days": "Sat", "time": "9:45am"}, {"days": "Sun", "time": "Closed"}], "id": "5707100002", "name": "USPS COLLECTION BOX - PO LOBBY", "address": {"city": "VOLGA", "state": "SD", "street": "125 W 3RD ST", "postcode": "57071"}}},
{"geometry": {"type": "Point", "coordinates": [-96.9083359048, 44.3256567289]}, "type": "Feature", "properties": {"collection_times": [{"days": "Mon-Sat", "time": "1:30pm"}, {"days": "Sun", "time": "Closed"}], "id": "5707100003", "name": "USPS COLLECTION BOX - BLUE BOX", "address": {"city": "VOLGA", "state": "SD", "street": "101 CASPIAN AVE", "postcode": "57071"}}},
{"geometry": {"type": "Point", "coordinates": [-97.1820182672, 42.958774722]}, "type": "Feature", "properties": {"collection_times": [{"days": "Mon-Sat", "time": "4:45pm"}, {"days": "Sun", "time": "Closed"}], "id": "5707200001", "name": "USPS COLLECTION BOX - BLUE BOX", "address": {"city": "VOLIN", "state": "SD", "street": "205 MAIN ST", "postcode": "57072"}}},
{"geometry": {"type": "Point", "coordinates": [-97.1820182672, 42.958774722]}, "type": "Feature", "properties": {"collection_times": [{"days": "Mon-Fri", "time": "3:20pm"}, {"days": "Sat", "time": "11:00am"}, {"days": "Sun", "time": "Closed"}], "id": "5707200002", "name": "USPS COLLECTION BOX - PO LOBBY", "address": {"city": "VOLIN", "state": "SD", "street": "205 MAIN ST", "postcode": "57072"}}},
{"geometry": {"type": "Point", "coordinates": [-97.1068518262, 43.0084526398]}, "type": "Feature", "properties": {"collection_times": [{"days": "Mon-Sat", "time": "4:30pm"}, {"days": "Sun", "time": "Closed"}], "id": "5707300001", "name": "USPS COLLECTION BOX - BLUE BOX", "address": {"city": "WAKONDA", "state": "SD", "street": "109 OHIO ST", "postcode": "57073"}}},
{"geometry": {"type": "Point", "coordinates": [-97.1068518262, 43.0084526398]}, "type": "Feature", "properties": {"collection_times": [{"days": "Mon-Fri", "time": "4:30pm"}, {"days": "Sat", "time": "10:30am"}, {"days": "Sun", "time": "Closed"}], "id": "5707300002", "name": "USPS COLLECTION BOX - PO LOBBY", "address": {"city": "WAKONDA", "state": "SD", "street": "109 OHIO ST", "postcode": "57073"}}},
{"geometry": {"type": "Point", "coordinates": [-96.963616502, 43.9981319726]}, "type": "Feature", "properties": {"collection_times": [{"days": "Mon-Fri", "time": "4:15pm"}, {"days": "Sat", "time": "4:45pm"}, {"days": "Sun", "time": "Closed"}], "id": "5707500000", "name": "USPS COLLECTION BOX - BLUE BOX", "address": {"city": "WENTWORTH", "state": "SD", "street": "107 S MAIN AVE", "postcode": "57075"}}},
{"geometry": {"type": "Point", "coordinates": [-96.963616502, 43.9981319726]}, "type": "Feature", "properties": {"collection_times": [{"days": "Mon-Fri", "time": "11:30am"}, {"days": "Sat", "time": "9:15am"}, {"days": "Sun", "time": "Closed"}], "id": "5707500001", "name": "USPS COLLECTION BOX - PO LOBBY", "address": {"city": "WENTWORTH", "state": "SD", "street": "107 S MAIN AVE", "postcode": "57075"}}},
{"geometry": {"type": "Point", "coordinates": [-97.362199724, 43.9977812913]}, "type": "Feature", "properties": {"collection_times": [{"days": "Mon-Sat", "time": "12:00pm"}, {"days": "Sun", "time": "Closed"}], "id": "5707600001", "name": "USPS COLLECTION BOX - BLUE BOX", "address": {"city": "WINFRED", "state": "SD", "street": "352 MAIN ST", "postcode": "57076"}}},
{"geometry": {"type": "Point", "coordinates": [-97.362199724, 43.9977812913]}, "type": "Feature", "properties": {"collection_times": [{"days": "Mon-Fri", "time": "12:00pm"}, {"days": "Sat", "time": "11:20am"}, {"days": "Sun", "time": "Closed"}], "id": "5707600002", "name": "USPS COLLECTION BOX - PO LOBBY", "address": {"city": "WINFRED", "state": "SD", "street": "352 MAIN ST", "postcode": "57076"}}},
{"geometry": {"type": "Point", "coordinates": [-96.7629179819, 43.3301133643]}, "type": "Feature", "properties": {"collection_times": [{"days": "Mon-Fri", "time": "4:30pm"}, {"days": "Sat", "time": "5:45pm"}, {"days": "Sun", "time": "Closed"}], "id": "5707700001", "name": "USPS COLLECTION BOX - BLUE BOX", "address": {"city": "WORTHING", "state": "SD", "street": "120 S MAIN ST", "postcode": "57077"}}},
{"geometry": {"type": "Point", "coordinates": [-96.7629179819, 43.3301133643]}, "type": "Feature", "properties": {"collection_times": [{"days": "Mon-Fri", "time": "11:30am"}, {"days": "Sat", "time": "11:15am"}, {"days": "Sun", "time": "Closed"}], "id": "5707700002", "name": "USPS COLLECTION BOX - PO LOBBY", "address": {"city": "WORTHING", "state": "SD", "street": "120 S MAIN ST", "postcode": "57077"}}},
{"geometry": {"type": "Point", "coordinates": [-97.3938608035, 42.8702596042]}, "type": "Feature", "properties": {"collection_times": [{"days": "Mon-Fri", "time": "5:15pm"}, {"days": "Sat", "time": "4:15pm"}, {"days": "Sun", "time": "Closed"}], "id": "5707800012", "name": "USPS COLLECTION BOX - BLUE BOX", "address": {"city": "YANKTON", "state": "SD", "street": "335 WALNUT ST", "postcode": "57078"}}},
{"geometry": {"type": "Point", "coordinates": [-97.3938608035, 42.8702596042]}, "type": "Feature", "properties": {"collection_times": [{"days": "Mon-Fri", "time": "5:15pm"}, {"days": "Sat", "time": "4:15pm"}, {"days": "Sun", "time": "Closed"}], "id": "5707800015", "name": "USPS COLLECTION BOX - BLUE BOX", "address": {"city": "YANKTON", "state": "SD", "street": "335 WALNUT ST", "postcode": "57078"}}},
{"geometry": {"type": "Point", "coordinates": [-97.3970038729, 42.890698125]}, "type": "Feature", "properties": {"collection_times": [{"days": "Mon-Sat", "time": "3:00pm"}, {"days": "Sun", "time": "Closed"}], "id": "5707800016", "name": "USPS COLLECTION BOX - BLUE BOX", "address": {"city": "YANKTON", "state": "SD", "street": "2100 BROADWAY AVE", "postcode": "57078"}}},
{"geometry": {"type": "Point", "coordinates": [-97.3972998744, 42.8906918022]}, "type": "Feature", "properties": {"collection_times": [{"days": "Mon-Sat", "time": "3:00pm"}, {"days": "Sun", "time": "Closed"}], "id": "5707800018", "name": "USPS COLLECTION BOX - BLUE BOX", "address": {"city": "YANKTON", "state": "SD", "street": "2101 BROADWAY AVE", "postcode": "57078"}}},
{"geometry": {"type": "Point", "coordinates": [-97.4070321385, 42.8725661783]}, "type": "Feature", "properties": {"collection_times": [{"days": "Mon-Sat", "time": "3:00pm"}, {"days": "Sun", "time": "Closed"}], "id": "5707800020", "name": "USPS COLLECTION BOX - BLUE BOX", "address": {"city": "YANKTON", "state": "SD", "street": "501 SUMMIT ST", "postcode": "57078"}}},
{"geometry": {"type": "Point", "coordinates": [-97.4515580181, 42.9118567381]}, "type": "Feature", "properties": {"collection_times": [{"days": "Mon-Fri", "time": "5:15pm"}, {"days": "Sat", "time": "4:45pm"}, {"days": "Sun", "time": "Closed"}], "id": "5707800040", "name": "USPS COLLECTION BOX - PO LOBBY", "address": {"city": "YANKTON", "state": "SD", "street": "506 W 25TH ST", "postcode": "57078"}}},
{"geometry": {"type": "Point", "coordinates": [-97.4515580181, 42.9118567381]}, "type": "Feature", "properties": {"collection_times": [{"days": "Mon-Fri", "time": "5:15pm"}, {"days": "Sat", "time": "4:45pm"}, {"days": "Sun", "time": "Closed"}], "id": "5707800041", "name": "USPS COLLECTION BOX - BLUE BOX", "address": {"city": "YANKTON", "state": "SD", "street": "506 W 25TH ST", "postcode": "57078"}}},
{"geometry": {"type": "Point", "coordinates": [-97.3977415478, 42.9070684919]}, "type": "Feature", "properties": {"collection_times": [{"days": "Mon-Sat", "time": "1:00pm"}, {"days": "Sun", "time": "Closed"}], "id": "5707800042", "name": "USPS COLLECTION BOX - BLUE BOX", "address": {"city": "YANKTON", "state": "SD", "street": "3001 BROADWAY AVE", "postcode": "57078"}}}
]}
