{"type": "FeatureCollection", "features": [
{"geometry": {"type": "Point", "coordinates": [-96.6882989158, 43.5467378963]}, "type": "Feature", "properties": {"collection_times": [{"days": "Mon-Fri", "time": "2:00pm"}, {"days": "Sat-Sun", "time": "Closed"}], "id": "5710300004", "name": "USPS COLLECTION BOX - BLUE BOX", "address": {"city": "SIOUX FALLS", "state": "SD", "street": "3001 E 10TH ST", "postcode": "57103"}}},
{"geometry": {"type": "Point", "coordinates": [-96.7182258096, 43.5620419919]}, "type": "Feature", "properties": {"collection_times": [{"days": "Mon-Fri", "time": "2:00pm"}, {"days": "Sat-Sun", "time": "Closed"}], "id": "5710300007", "name": "USPS COLLECTION BOX - BLUE BOX", "address": {"city": "SIOUX FALLS", "state": "SD", "street": "805 E RICE ST", "postcode": "57103"}}},
{"geometry": {"type": "Point", "coordinates": [-96.6798147341, 43.5461416849]}, "type": "Feature", "properties": {"collection_times": [{"days": "Mon-Sat", "time": "4:00pm"}, {"days": "Sun", "time": "Closed"}], "id": "5710300008", "name": "USPS COLLECTION BOX - BLUE BOX", "address": {"city": "SIOUX FALLS", "state": "SD", "street": "3709 E 10TH ST", "postcode": "57103"}}},
{"geometry": {"type": "Point", "coordinates": [-96.6859637548, 43.5293152766]}, "type": "Feature", "properties": {"collection_times": [{"days": "Mon-Fri", "time": "5:00pm"}, {"days": "Sat", "time": "4:30pm"}, {"days": "Sun", "time": "Closed"}], "id": "5710300015", "name": "USPS COLLECTION BOX - BLUE BOX", "address": {"city": "SIOUX FALLS", "state": "SD", "street": "3301 E 26TH ST", "postcode": "57103"}}},
{"geometry": {"type": "Point", "coordinates": [-96.6859637548, 43.5293152766]}, "type": "Feature", "properties": {"collection_times": [{"days": "Mon-Fri", "time": "5:00pm"}, {"days": "Sat", "time": "4:30pm"}, {"days": "Sun", "time": "Closed"}], "id": "5710300023", "name": "USPS COLLECTION BOX - BLUE BOX", "address": {"city": "SIOUX FALLS", "state": "SD", "street": "3301 E 26TH ST", "postcode": "57103"}}},
{"geometry": {"type": "Point", "coordinates": [-96.7097903615, 43.5466316867]}, "type": "Feature", "properties": {"collection_times": [{"days": "Mon-Fri", "time": "5:00pm"}, {"days": "Sat", "time": "5:15pm"}, {"days": "Sun", "time": "Closed"}], "id": "5710300030", "name": "USPS COLLECTION BOX - BLUE BOX", "address": {"city": "SIOUX FALLS", "state": "SD", "street": "1301 E 10TH ST", "postcode": "57103"}}},
{"geometry": {"type": "Point", "coordinates": [-96.689445203, 43.5070247808]}, "type": "Feature", "properties": {"collection_times": [{"days": "Mon-Fri", "time": "2:30pm"}, {"days": "Sat-Sun", "time": "Closed"}], "id": "5710300038", "name": "USPS COLLECTION BOX - BLUE BOX", "address": {"city": "SIOUX FALLS", "state": "SD", "street": "4101 S SOUTHEASTERN AVE", "postcode": "57103"}}},
{"geometry": {"type": "Point", "coordinates": [-96.7220369055, 43.5486235328]}, "type": "Feature", "properties": {"collection_times": [{"days": "Mon-Fri", "time": "5:30pm"}, {"days": "Sat-Sun", "time": "Closed"}], "id": "5710300043", "name": "USPS COLLECTION BOX - BLUE BOX", "address": {"city": "SIOUX FALLS", "state": "SD", "street": "401 E 8TH ST", "postcode": "57103"}}},
{"geometry": {"type": "Point", "coordinates": [-96.6887235981, 43.5467485429]}, "type": "Feature", "properties": {"collection_times": [{"days": "Mon-Fri", "time": "5:00pm"}, {"days": "Sat", "time": "4:00pm"}, {"days": "Sun", "time": "Closed"}], "id": "5710300045", "name": "USPS COLLECTION BOX - BLUE BOX", "address": {"city": "SIOUX FALLS", "state": "SD", "street": "3020 E 10TH ST", "postcode": "57103"}}},
{"geometry": {"type": "Point", "coordinates": [-96.7220369055, 43.5486235328]}, "type": "Feature", "properties": {"collection_times": [{"days": "Mon-Fri", "time": "5:30pm"}, {"days": "Sat-Sun", "time": "Closed"}], "id": "5710300046", "name": "USPS COLLECTION BOX - BLUE BOX", "address": {"city": "SIOUX FALLS", "state": "SD", "street": "401 E 8TH ST", "postcode": "57103"}}},
{"geometry": {"type": "Point", "coordinates": [-96.6726793431, 43.5293225768]}, "type": "Feature", "properties": {"collection_times": [{"days": "Mon-Fri", "time": "5:15pm"}, {"days": "Sat", "time": "4:15pm"}, {"days": "Sun", "time": "Closed"}], "id": "5710300047", "name": "USPS COLLECTION BOX - BLUE BOX", "address": {"city": "SIOUX FALLS", "state": "SD", "street": "4409 E 26TH ST STE 1", "postcode": "57103"}}},
{"geometry": {"type": "Point", "coordinates": [-96.7220369055, 43.5486235328]}, "type": "Feature", "properties": {"collection_times": [{"days": "Mon-Fri", "time": "5:30pm"}, {"days": "Sat-Sun", "time": "Closed"}], "id": "5710300048", "name": "USPS COLLECTION BOX - BLUE BOX", "address": {"city": "SIOUX FALLS", "state": "SD", "street": "401 E 8TH ST", "postcode": "57103"}}},
{"geometry": {"type": "Point", "coordinates": [-96.688688624, 43.510176947]}, "type": "Feature", "properties": {"collection_times": [{"days": "Mon-Sat", "time": "2:30pm"}, {"days": "Sun", "time": "Closed"}], "id": "5710300049", "name": "USPS COLLECTION BOX - BLUE BOX", "address": {"city": "SIOUX FALLS", "state": "SD", "street": "2800 E MARSON DR", "postcode": "57103"}}},
{"geometry": {"type": "Point", "coordinates": [-96.7405655918, 43.5366898428]}, "type": "Feature", "properties": {"collection_times": [{"days": "Mon-Fri", "time": "3:00pm"}, {"days": "Sat-Sun", "time": "Closed"}], "id": "5710400002", "name": "USPS COLLECTION BOX - BLUE BOX", "address": {"city": "SIOUX FALLS", "state": "SD", "street": "1000 W 18TH ST", "postcode": "57104"}}},
{"geometry": {"type": "Point", "coordinates": [-96.7617997052, 43.5439094414]}, "type": "Feature", "properties": {"collection_times": [{"days": "Mon-Fri", "time": "5:00pm"}, {"days": "Sat", "time": "5:15pm"}, {"days": "Sun", "time": "Closed"}], "id": "5710400004", "name": "USPS COLLECTION BOX - BLUE BOX", "address": {"city": "SIOUX FALLS", "state": "SD", "street": "2700 W 12TH ST", "postcode": "57104"}}},
{"geometry": {"type": "Point", "coordinates": [-96.7323818816, 43.5486117033]}, "type": "Feature", "properties": {"collection_times": [{"days": "Mon-Fri", "time": "5:30pm"}, {"days": "Sat-Sun", "time": "Closed"}], "id": "5710400016", "name": "USPS COLLECTION BOX - BLUE BOX", "address": {"city": "SIOUX FALLS", "state": "SD", "street": "421 W 8TH ST", "postcode": "57104"}}},
{"geometry": {"type": "Point", "coordinates": [-96.7603458486, 43.5494941906]}, "type": "Feature", "properties": {"collection_times": [{"days": "Mon-Fri", "time": "5:15pm"}, {"days": "Sat-Sun", "time": "Closed"}], "id": "5710400019", "name": "USPS COLLECTION BOX - BLUE BOX", "address": {"city": "SIOUX FALLS", "state": "SD", "street": "2520 W 8TH ST", "postcode": "57104"}}},
{"geometry": {"type": "Point", "coordinates": [-96.711354786, 43.5889470551]}, "type": "Feature", "properties": {"collection_times": [{"days": "Mon-Sat", "time": "5:30pm"}, {"days": "Sun", "time": "Closed"}], "id": "5710400029", "name": "USPS COLLECTION BOX - BLUE BOX", "address": {"city": "SIOUX FALLS", "state": "SD", "street": "3812 N CLIFF AVE", "postcode": "57104"}}},
{"geometry": {"type": "Point", "coordinates": [-96.746670843, 43.5563316935]}, "type": "Feature", "properties": {"collection_times": [{"days": "Mon-Fri", "time": "5:30pm"}, {"days": "Sat-Sun", "time": "Closed"}], "id": "5710400030", "name": "USPS COLLECTION BOX - BLUE BOX", "address": {"city": "SIOUX FALLS", "state": "SD", "street": "800 N WEST AVE", "postcode": "57104"}}},
{"geometry": {"type": "Point", "coordinates": [-96.7487868043, 43.5638983377]}, "type": "Feature", "properties": {"collection_times": [{"days": "Mon-Sat", "time": "5:30pm"}, {"days": "Sun", "time": "Closed"}], "id": "5710400033", "name": "USPS COLLECTION BOX - BLUE BOX", "address": {"city": "SIOUX FALLS", "state": "SD", "street": "1700 W RUSSELL ST", "postcode": "57104"}}},
{"geometry": {"type": "Point", "coordinates": [-96.7386444664, 43.5632969558]}, "type": "Feature", "properties": {"collection_times": [{"days": "Mon-Fri", "time": "9:30am"}, {"days": "Sat-Sun", "time": "Closed"}], "id": "5710400036", "name": "USPS COLLECTION BOX - BLUE BOX", "address": {"city": "SIOUX FALLS", "state": "SD", "street": "817 W RUSSELL ST", "postcode": "57104"}}},
{"geometry": {"type": "Point", "coordinates": [-96.7387580305, 43.5638186407]}, "type": "Feature", "properties": {"collection_times": [{"days": "Mon-Fri", "time": "5:30pm"}, {"days": "Sat-Sun", "time": "Closed"}], "id": "5710400047", "name": "USPS COLLECTION BOX - BLUE BOX", "address": {"city": "SIOUX FALLS", "state": "SD", "street": "900 W RUSSELL ST", "postcode": "57104"}}},
{"geometry": {"type": "Point", "coordinates": [-96.760365859, 43.5458946474]}, "type": "Feature", "properties": {"collection_times": [{"days": "Mon-Fri", "time": "5:00pm"}, {"days": "Sat", "time": "5:15pm"}, {"days": "Sun", "time": "Closed"}], "id": "5710400050", "name": "USPS COLLECTION BOX - BLUE BOX", "address": {"city": "SIOUX FALLS", "state": "SD", "street": "2700 W 10TH ST", "postcode": "57104"}}},
{"geometry": {"type": "Point", "coordinates": [-96.7114186237, 43.6045834249]}, "type": "Feature", "properties": {"collection_times": [{"days": "Mon-Fri", "time": "5:30pm"}, {"days": "Sat-Sun", "time": "Closed"}], "id": "5710400063", "name": "USPS COLLECTION BOX - BLUE BOX", "address": {"city": "SIOUX FALLS", "state": "SD", "street": "5303 N CLIFF AVE", "postcode": "57104"}}},
{"geometry": {"type": "Point", "coordinates": [-96.7257547488, 43.5447144346]}, "type": "Feature", "properties": {"collection_times": [{"days": "Mon-Fri", "time": "5:15pm"}, {"days": "Sat-Sun", "time": "Closed"}], "id": "5710400068", "name": "USPS COLLECTION BOX - BLUE BOX", "address": {"city": "SIOUX FALLS", "state": "SD", "street": "130 E 11TH ST", "postcode": "57104"}}},
{"geometry": {"type": "Point", "coordinates": [-96.7268231575, 43.5476558724]}, "type": "Feature", "properties": {"collection_times": [{"days": "Mon-Fri", "time": "3:00pm"}, {"days": "Sat-Sun", "time": "Closed"}], "id": "5710400074", "name": "USPS COLLECTION BOX - BLUE BOX", "address": {"city": "SIOUX FALLS", "state": "SD", "street": "101 N PHILLIPS AVE", "postcode": "57104"}}},
{"geometry": {"type": "Point", "coordinates": [-96.7237827253, 43.5443783112]}, "type": "Feature", "properties": {"collection_times": [{"days": "Mon-Fri", "time": "6:00pm"}, {"days": "Sat", "time": "5:15pm"}, {"days": "Sun", "time": "Closed"}], "id": "5710400076", "name": "USPS COLLECTION BOX - BLUE BOX", "address": {"city": "SIOUX FALLS", "state": "SD", "street": "320 S 2ND AVE", "postcode": "57104"}}},
{"geometry": {"type": "Point", "coordinates": [-96.7298314221, 43.551817522]}, "type": "Feature", "properties": {"collection_times": [{"days": "Mon-Fri", "time": "3:30pm"}, {"days": "Sat-Sun", "time": "Closed"}], "id": "5710400082", "name": "USPS COLLECTION BOX - BLUE BOX", "address": {"city": "SIOUX FALLS", "state": "SD", "street": "415 N DAKOTA AVE", "postcode": "57104"}}},
{"geometry": {"type": "Point", "coordinates": [-96.7283881895, 43.5482091605]}, "type": "Feature", "properties": {"collection_times": [{"days": "Mon-Fri", "time": "5:15pm"}, {"days": "Sat-Sun", "time": "Closed"}], "id": "5710400088", "name": "USPS COLLECTION BOX - BLUE BOX", "address": {"city": "SIOUX FALLS", "state": "SD", "street": "141 N MAIN AVE", "postcode": "57104"}}},
{"geometry": {"type": "Point", "coordinates": [-96.72835, 43.54713]}, "type": "Feature", "properties": {"collection_times": [{"days": "Mon-Fri", "time": "5:15pm"}, {"days": "Sat-Sun", "time": "Closed"}], "id": "5710400090", "name": "USPS COLLECTION BOX - BLUE BOX", "address": {"city": "SIOUX FALLS", "state": "SD", "street": "101 S MAIN AVE", "postcode": "57104"}}},
{"geometry": {"type": "Point", "coordinates": [-96.7283497598, 43.5423427393]}, "type": "Feature", "properties": {"collection_times": [{"days": "Mon-Fri", "time": "5:00pm"}, {"days": "Sat-Sun", "time": "Closed"}], "id": "5710400095", "name": "USPS COLLECTION BOX - BLUE BOX", "address": {"city": "SIOUX FALLS", "state": "SD", "street": "513 S MAIN AVE", "postcode": "57104"}}},
{"geometry": {"type": "Point", "coordinates": [-96.7268302552, 43.549050581]}, "type": "Feature", "properties": {"collection_times": [{"days": "Mon-Fri", "time": "5:15pm"}, {"days": "Sat-Sun", "time": "Closed"}], "id": "5710400100", "name": "USPS COLLECTION BOX - BLUE BOX", "address": {"city": "SIOUX FALLS", "state": "SD", "street": "200 N PHILLIPS AVE", "postcode": "57104"}}},
{"geometry": {"type": "Point", "coordinates": [-96.7253906873, 43.5434258053]}, "type": "Feature", "properties": {"collection_times": [{"days": "Mon-Fri", "time": "5:00pm"}, {"days": "Sat-Sun", "time": "Closed"}], "id": "5710400110", "name": "USPS COLLECTION BOX - BLUE BOX", "address": {"city": "SIOUX FALLS", "state": "SD", "street": "401 S 1ST AVE", "postcode": "57104"}}},
{"geometry": {"type": "Point", "coordinates": [-96.7187589262, 43.6020152028]}, "type": "Feature", "properties": {"collection_times": [{"days": "Mon-Fri", "time": "5:30pm"}, {"days": "Sat-Sun", "time": "Closed"}], "id": "5710400114", "name": "USPS COLLECTION BOX - BLUE BOX", "address": {"city": "SIOUX FALLS", "state": "SD", "street": "701 E 60TH ST N", "postcode": "57104"}}},
{"geometry": {"type": "Point", "coordinates": [-96.7245613399, 43.5972585248]}, "type": "Feature", "properties": {"collection_times": [{"days": "Mon-Sat", "time": "8:00pm"}, {"days": "Sun", "time": "Closed"}], "id": "5710400120", "name": "USPS COLLECTION BOX - BLUE BOX", "address": {"city": "SIOUX FALLS", "state": "SD", "street": "4801 N 4TH AVE", "postcode": "57104"}}},
{"geometry": {"type": "Point", "coordinates": [-96.7237827253, 43.5443783112]}, "type": "Feature", "properties": {"collection_times": [{"days": "Mon-Fri", "time": "5:30pm"}, {"days": "Sat", "time": "12:00pm"}, {"days": "Sun", "time": "Closed"}], "id": "5710400122", "name": "USPS COLLECTION BOX - PO LOBBY", "address": {"city": "SIOUX FALLS", "state": "SD", "street": "320 S 2ND AVE", "postcode": "57104"}}},
{"geometry": {"type": "Point", "coordinates": [-96.7245613399, 43.5972585248]}, "type": "Feature", "properties": {"collection_times": [{"days": "Mon-Sat", "time": "8:00pm"}, {"days": "Sun", "time": "Closed"}], "id": "5710400123", "name": "USPS COLLECTION BOX - PO LOBBY", "address": {"city": "SIOUX FALLS", "state": "SD", "street": "4801 N 4TH AVE", "postcode": "57104"}}},
{"geometry": {"type": "Point", "coordinates": [-96.711302155, 43.603540582]}, "type": "Feature", "properties": {"collection_times": [{"days": "Mon-Sat", "time": "9:45am"}, {"days": "Sun", "time": "Closed"}], "id": "5710400139", "name": "USPS COLLECTION BOX - BLUE BOX", "address": {"city": "SIOUX FALLS", "state": "SD", "street": "5108 N CLIFF AVE", "postcode": "57104"}}},
{"geometry": {"type": "Point", "coordinates": [-96.7507936024, 43.5077842262]}, "type": "Feature", "properties": {"collection_times": [{"days": "Mon-Fri", "time": "4:30pm"}, {"days": "Sat", "time": "5:00pm"}, {"days": "Sun", "time": "Closed"}], "id": "5710500006", "name": "USPS COLLECTION BOX - BLUE BOX", "address": {"city": "SIOUX FALLS", "state": "SD", "street": "3920 S WESTERN AVE", "postcode": "57105"}}},
{"geometry": {"type": "Point", "coordinates": [-96.7512619067, 43.53016819]}, "type": "Feature", "properties": {"collection_times": [{"days": "Mon-Fri", "time": "4:45pm"}, {"days": "Sat", "time": "5:15pm"}, {"days": "Sun", "time": "Closed"}], "id": "5710500009", "name": "USPS COLLECTION BOX - BLUE BOX", "address": {"city": "SIOUX FALLS", "state": "SD", "street": "1600 S WESTERN AVE", "postcode": "57105"}}},
{"geometry": {"type": "Point", "coordinates": [-96.7312793639, 43.5175897874]}, "type": "Feature", "properties": {"collection_times": [{"days": "Mon-Fri", "time": "5:30pm"}, {"days": "Sat", "time": "5:00pm"}, {"days": "Sun", "time": "Closed"}], "id": "5710500016", "name": "USPS COLLECTION BOX - BLUE BOX", "address": {"city": "SIOUX FALLS", "state": "SD", "street": "3000 S MINNESOTA AVE", "postcode": "57105"}}},
{"geometry": {"type": "Point", "coordinates": [-96.7559381435, 43.5091470092]}, "type": "Feature", "properties": {"collection_times": [{"days": "Mon-Fri", "time": "5:15pm"}, {"days": "Sat-Sun", "time": "Closed"}], "id": "5710500024", "name": "USPS COLLECTION BOX - BLUE BOX", "address": {"city": "SIOUX FALLS", "state": "SD", "street": "3816 S ELMWOOD AVE", "postcode": "57105"}}},
{"geometry": {"type": "Point", "coordinates": [-96.7339536072, 43.5185447255]}, "type": "Feature", "properties": {"collection_times": [{"days": "Mon-Fri", "time": "5:00pm"}, {"days": "Sat-Sun", "time": "Closed"}], "id": "5710500027", "name": "USPS COLLECTION BOX - BLUE BOX", "address": {"city": "SIOUX FALLS", "state": "SD", "street": "1200 S 10TH AVE", "postcode": "57105"}}},
{"geometry": {"type": "Point", "coordinates": [-96.7517670302, 43.522098044]}, "type": "Feature", "properties": {"collection_times": [{"days": "Mon-Sat", "time": "2:00pm"}, {"days": "Sun", "time": "Closed"}], "id": "5710500036", "name": "USPS COLLECTION BOX - BLUE BOX", "address": {"city": "SIOUX FALLS", "state": "SD", "street": "2121 W 33RD ST", "postcode": "57105"}}},
{"geometry": {"type": "Point", "coordinates": [-96.7182336924, 43.5148701647]}, "type": "Feature", "properties": {"collection_times": [{"days": "Mon-Fri", "time": "10:00am"}, {"days": "Sat-Sun", "time": "Closed"}], "id": "5710500038", "name": "USPS COLLECTION BOX - BLUE BOX", "address": {"city": "SIOUX FALLS", "state": "SD", "street": "705 E 41ST ST", "postcode": "57105"}}},
{"geometry": {"type": "Point", "coordinates": [-96.7325096412, 43.5148737136]}, "type": "Feature", "properties": {"collection_times": [{"days": "Mon-Fri", "time": "5:30pm"}, {"days": "Sat", "time": "4:45pm"}, {"days": "Sun", "time": "Closed"}], "id": "5710500043", "name": "USPS COLLECTION BOX - BLUE BOX", "address": {"city": "SIOUX FALLS", "state": "SD", "street": "500 W 41ST ST", "postcode": "57105"}}},
{"geometry": {"type": "Point", "coordinates": [-96.7448041337, 43.514860701]}, "type": "Feature", "properties": {"collection_times": [{"days": "Mon-Fri", "time": "4:45pm"}, {"days": "Sat-Sun", "time": "Closed"}], "id": "5710500045", "name": "USPS COLLECTION BOX - BLUE BOX", "address": {"city": "SIOUX FALLS", "state": "SD", "street": "1601 W 41ST ST", "postcode": "57105"}}},
{"geometry": {"type": "Point", "coordinates": [-96.7565840391, 43.5148405907]}, "type": "Feature", "properties": {"collection_times": [{"days": "Mon-Sat", "time": "5:00pm"}, {"days": "Sun", "time": "Closed"}], "id": "5710500049", "name": "USPS COLLECTION BOX - BLUE BOX", "address": {"city": "SIOUX FALLS", "state": "SD", "street": "2505 W 41ST ST", "postcode": "57105"}}},
{"geometry": {"type": "Point", "coordinates": [-96.7640414124, 43.5148405907]}, "type": "Feature", "properties": {"collection_times": [{"days": "Mon-Fri", "time": "10:00am"}, {"days": "Sat-Sun", "time": "Closed"}], "id": "5710500053", "name": "USPS COLLECTION BOX - BLUE BOX", "address": {"city": "SIOUX FALLS", "state": "SD", "street": "3101 W 41ST ST", "postcode": "57105"}}},
{"geometry": {"type": "Point", "coordinates": [-96.7611526266, 43.5197202965]}, "type": "Feature", "properties": {"collection_times": [{"days": "Mon-Fri", "time": "5:00pm"}, {"days": "Sat-Sun", "time": "Closed"}], "id": "5710500063", "name": "USPS COLLECTION BOX - BLUE BOX", "address": {"city": "SIOUX FALLS", "state": "SD", "street": "2801 S KIWANIS AVE", "postcode": "57105"}}},
{"geometry": {"type": "Point", "coordinates": [-96.7402189848, 43.5148630669]}, "type": "Feature", "properties": {"collection_times": [{"days": "Mon-Fri", "time": "10:00am"}, {"days": "Sat-Sun", "time": "Closed"}], "id": "5710500064", "name": "USPS COLLECTION BOX - BLUE BOX", "address": {"city": "SIOUX FALLS", "state": "SD", "street": "1200 W 41ST ST", "postcode": "57105"}}},
{"geometry": {"type": "Point", "coordinates": [-96.731246241, 43.5127100816]}, "type": "Feature", "properties": {"collection_times": [{"days": "Mon-Fri", "time": "10:00am"}, {"days": "Sat-Sun", "time": "Closed"}], "id": "5710500066", "name": "USPS COLLECTION BOX - BLUE BOX", "address": {"city": "SIOUX FALLS", "state": "SD", "street": "3500 S MINNESOTA AVE", "postcode": "57105"}}},
{"geometry": {"type": "Point", "coordinates": [-96.7425293036, 43.5340802353]}, "type": "Feature", "properties": {"collection_times": [{"days": "Mon-Fri", "time": "3:45pm"}, {"days": "Sat-Sun", "time": "Closed"}], "id": "5710500081", "name": "USPS COLLECTION BOX - BLUE BOX", "address": {"city": "SIOUX FALLS", "state": "SD", "street": "1201 S EUCLID AVE", "postcode": "57105"}}},
{"geometry": {"type": "Point", "coordinates": [-96.7149805553, 43.5337312624]}, "type": "Feature", "properties": {"collection_times": [{"days": "Mon-Fri", "time": "5:00pm"}, {"days": "Sat-Sun", "time": "Closed"}], "id": "5710500082", "name": "USPS COLLECTION BOX - BLUE BOX", "address": {"city": "SIOUX FALLS", "state": "SD", "street": "800 E 21ST ST", "postcode": "57105"}}},
{"geometry": {"type": "Point", "coordinates": [-96.7748039731, 43.5076020648]}, "type": "Feature", "properties": {"collection_times": [{"days": "Mon-Fri", "time": "5:30pm"}, {"days": "Sat-Sun", "time": "Closed"}], "id": "5710600003", "name": "USPS COLLECTION BOX - BLUE BOX", "address": {"city": "SIOUX FALLS", "state": "SD", "street": "4009 W 49TH ST", "postcode": "57106"}}},
{"geometry": {"type": "Point", "coordinates": [-96.7716738637, 43.5075878693]}, "type": "Feature", "properties": {"collection_times": [{"days": "Mon-Fri", "time": "5:15pm"}, {"days": "Sat", "time": "4:00pm"}, {"days": "Sun", "time": "Closed"}], "id": "5710600004", "name": "USPS COLLECTION BOX - BLUE BOX", "address": {"city": "SIOUX FALLS", "state": "SD", "street": "3701 W 49TH ST", "postcode": "57106"}}},
{"geometry": {"type": "Point", "coordinates": [-96.7951798442, 43.5147678861]}, "type": "Feature", "properties": {"collection_times": [{"days": "Mon-Fri", "time": "11:00am"}, {"days": "Sat-Sun", "time": "Closed"}], "id": "5710600006", "name": "USPS COLLECTION BOX - BLUE BOX", "address": {"city": "SIOUX FALLS", "state": "SD", "street": "5519 W 41ST ST", "postcode": "57106"}}},
{"geometry": {"type": "Point", "coordinates": [-96.7747164341, 43.5020504384]}, "type": "Feature", "properties": {"collection_times": [{"days": "Mon-Fri", "time": "5:30pm"}, {"days": "Sat", "time": "4:15pm"}, {"days": "Sun", "time": "Closed"}], "id": "5710600021", "name": "USPS COLLECTION BOX - BLUE BOX", "address": {"city": "SIOUX FALLS", "state": "SD", "street": "4709 S TECHNOPOLIS DR", "postcode": "57106"}}},
{"geometry": {"type": "Point", "coordinates": [-96.7933007195, 43.5148074679]}, "type": "Feature", "properties": {"collection_times": [{"days": "Mon-Fri", "time": "6:00pm"}, {"days": "Sat", "time": "4:30pm"}, {"days": "Sun", "time": "Closed"}], "id": "5710600024", "name": "USPS COLLECTION BOX - BLUE BOX", "address": {"city": "SIOUX FALLS", "state": "SD", "street": "5500 W 41ST ST", "postcode": "57106"}}},
{"geometry": {"type": "Point", "coordinates": [-96.7679227008, 43.5120405269]}, "type": "Feature", "properties": {"collection_times": [{"days": "Mon-Fri", "time": "2:00pm"}, {"days": "Sat-Sun", "time": "Closed"}], "id": "5710600034", "name": "USPS COLLECTION BOX - BLUE BOX", "address": {"city": "SIOUX FALLS", "state": "SD", "street": "3700 S WESTPORT AVE", "postcode": "57106"}}},
{"geometry": {"type": "Point", "coordinates": [-96.7710397977, 43.5081131031]}, "type": "Feature", "properties": {"collection_times": [{"days": "Mon-Fri", "time": "5:45pm"}, {"days": "Sat", "time": "4:00pm"}, {"days": "Sun", "time": "Closed"}], "id": "5710600042", "name": "USPS COLLECTION BOX - BLUE BOX", "address": {"city": "SIOUX FALLS", "state": "SD", "street": "4101 S LOUISE AVE", "postcode": "57106"}}},
{"geometry": {"type": "Point", "coordinates": [-96.7710528102, 43.5121564568]}, "type": "Feature", "properties": {"collection_times": [{"days": "Mon-Fri", "time": "4:45pm"}, {"days": "Sat", "time": "3:45pm"}, {"days": "Sun", "time": "Closed"}], "id": "5710600043", "name": "USPS COLLECTION BOX - BLUE BOX", "address": {"city": "SIOUX FALLS", "state": "SD", "street": "3600 S LOUISE AVE", "postcode": "57106"}}},
{"geometry": {"type": "Point", "coordinates": [-96.7726628174, 43.5051864626]}, "type": "Feature", "properties": {"collection_times": [{"days": "Mon-Fri", "time": "3:00pm"}, {"days": "Sat-Sun", "time": "Closed"}], "id": "5710600048", "name": "USPS COLLECTION BOX - BLUE BOX", "address": {"city": "SIOUX FALLS", "state": "SD", "street": "3901 W TECHNOLOGY CIR", "postcode": "57106"}}},
{"geometry": {"type": "Point", "coordinates": [-96.7908886661, 43.5277419412]}, "type": "Feature", "properties": {"collection_times": [{"days": "Mon-Fri", "time": "6:15pm"}, {"days": "Sat", "time": "4:30pm"}, {"days": "Sun", "time": "Closed"}], "id": "5710600050", "name": "USPS COLLECTION BOX - BLUE BOX", "address": {"city": "SIOUX FALLS", "state": "SD", "street": "1900 S MARION RD", "postcode": "57106"}}},
{"geometry": {"type": "Point", "coordinates": [-96.7734837909, 43.5242959817]}, "type": "Feature", "properties": {"collection_times": [{"days": "Mon-Fri", "time": "6:30pm"}, {"days": "Sat", "time": "4:45pm"}, {"days": "Sun", "time": "Closed"}], "id": "5710600053", "name": "USPS COLLECTION BOX - BLUE BOX", "address": {"city": "SIOUX FALLS", "state": "SD", "street": "2501 S LOUISE AVE", "postcode": "57106"}}},
{"geometry": {"type": "Point", "coordinates": [-96.7734837909, 43.5242959817]}, "type": "Feature", "properties": {"collection_times": [{"days": "Mon-Fri", "time": "5:45pm"}, {"days": "Sat", "time": "3:00pm"}, {"days": "Sun", "time": "Closed"}], "id": "5710600054", "name": "USPS COLLECTION BOX - APC", "address": {"city": "SIOUX FALLS", "state": "SD", "street": "2501 S LOUISE AVE", "postcode": "57106"}}},
{"geometry": {"type": "Point", "coordinates": [-96.7697716656, 43.5686616748]}, "type": "Feature", "properties": {"collection_times": [{"days": "Mon-Fri", "time": "5:00pm"}, {"days": "Sat-Sun", "time": "Closed"}], "id": "5710700005", "name": "USPS COLLECTION BOX - BLUE BOX", "address": {"city": "SIOUX FALLS", "state": "SD", "street": "3015 W RUSSELL ST", "postcode": "57107"}}},
{"geometry": {"type": "Point", "coordinates": [-96.7660898492, 43.5729761376]}, "type": "Feature", "properties": {"collection_times": [{"days": "Mon-Fri", "time": "5:15pm"}, {"days": "Sat-Sun", "time": "Closed"}], "id": "5710700006", "name": "USPS COLLECTION BOX - BLUE BOX", "address": {"city": "SIOUX FALLS", "state": "SD", "street": "2930 W MAPLE ST", "postcode": "57107"}}},
{"geometry": {"type": "Point", "coordinates": [-96.775688206, 43.6473399656]}, "type": "Feature", "properties": {"collection_times": [{"days": "Mon-Sat", "time": "6:00pm"}, {"days": "Sun", "time": "Closed"}], "id": "5710700007", "name": "USPS COLLECTION BOX - BLUE BOX", "address": {"city": "SIOUX FALLS", "state": "SD", "street": "25785 COTTONWOOD AVE", "postcode": "57107"}}},
{"geometry": {"type": "Point", "coordinates": [-96.7289398491, 43.5003104601]}, "type": "Feature", "properties": {"collection_times": [{"days": "Mon-Fri", "time": "4:30pm"}, {"days": "Sat", "time": "4:45pm"}, {"days": "Sun", "time": "Closed"}], "id": "5710800001", "name": "USPS COLLECTION BOX - BLUE BOX", "address": {"city": "SIOUX FALLS", "state": "SD", "street": "401 W 57TH ST", "postcode": "57108"}}},
{"geometry": {"type": "Point", "coordinates": [-96.7555206373, 43.5002582679]}, "type": "Feature", "properties": {"collection_times": [{"days": "Mon-Fri", "time": "4:30pm"}, {"days": "Sat-Sun", "time": "Closed"}], "id": "5710800003", "name": "USPS COLLECTION BOX - BLUE BOX", "address": {"city": "SIOUX FALLS", "state": "SD", "street": "1919 W 57TH ST", "postcode": "57108"}}},
{"geometry": {"type": "Point", "coordinates": [-96.708439458, 43.5004133507]}, "type": "Feature", "properties": {"collection_times": [{"days": "Mon-Sat", "time": "4:30pm"}, {"days": "Sun", "time": "Closed"}], "id": "5710800004", "name": "USPS COLLECTION BOX - BLUE BOX", "address": {"city": "SIOUX FALLS", "state": "SD", "street": "1224 E 57TH ST", "postcode": "57108"}}},
{"geometry": {"type": "Point", "coordinates": [-96.7555206373, 43.5002582679]}, "type": "Feature", "properties": {"collection_times": [{"days": "Mon-Fri", "time": "4:30pm"}, {"days": "Sat-Sun", "time": "Closed"}], "id": "5710800005", "name": "USPS COLLECTION BOX - BLUE BOX", "address": {"city": "SIOUX FALLS", "state": "SD", "street": "1919 W 57TH ST", "postcode": "57108"}}},
{"geometry": {"type": "Point", "coordinates": [-96.708387965, 43.5003030048]}, "type": "Feature", "properties": {"collection_times": [{"days": "Mon-Sat", "time": "4:30pm"}, {"days": "Sun", "time": "Closed"}], "id": "5710800006", "name": "USPS COLLECTION BOX - BLUE BOX", "address": {"city": "SIOUX FALLS", "state": "SD", "street": "1231 E 57TH ST", "postcode": "57108"}}},
{"geometry": {"type": "Point", "coordinates": [-96.6896350603, 43.4803724945]}, "type": "Feature", "properties": {"collection_times": [{"days": "Mon-Fri", "time": "4:15pm"}, {"days": "Sat", "time": "3:30pm"}, {"days": "Sun", "time": "Closed"}], "id": "5710800007", "name": "USPS COLLECTION BOX - BLUE BOX", "address": {"city": "SIOUX FALLS", "state": "SD", "street": "6109 S LOUISE AVE", "postcode": "57108"}}},
{"geometry": {"type": "Point", "coordinates": [-96.637692581, 43.5432024494]}, "type": "Feature", "properties": {"collection_times": [{"days": "Mon-Fri", "time": "3:00pm"}, {"days": "Sat", "time": "2:00pm"}, {"days": "Sun", "time": "Closed"}], "id": "5711000000", "name": "USPS COLLECTION BOX - BLUE BOX", "address": {"city": "SIOUX FALLS", "state": "SD", "street": "4501 E ARROWHEAD PKWY", "postcode": "57110"}}},
{"geometry": {"type": "Point", "coordinates": [-96.6714405676, 43.5308862461]}, "type": "Feature", "properties": {"collection_times": [{"days": "Mon-Fri", "time": "5:00pm"}, {"days": "Sat", "time": "4:15pm"}, {"days": "Sun", "time": "Closed"}], "id": "5711000001", "name": "USPS COLLECTION BOX - BLUE BOX", "address": {"city": "SIOUX FALLS", "state": "SD", "street": "1601 S SYCAMORE AVE", "postcode": "57110"}}},
{"geometry": {"type": "Point", "coordinates": [-96.6715813397, 43.5515288801]}, "type": "Feature", "properties": {"collection_times": [{"days": "Mon-Fri", "time": "3:00pm"}, {"days": "Sat-Sun", "time": "Closed"}], "id": "5711000003", "name": "USPS COLLECTION BOX - BLUE BOX", "address": {"city": "SIOUX FALLS", "state": "SD", "street": "500 N SYCAMORE AVE", "postcode": "57110"}}}
]}
