{"type": "FeatureCollection", "features": [
{"geometry": {"type": "Point", "coordinates": [-97.131932512, 44.890192049]}, "type": "Feature", "properties": {"collection_times": [{"days": "Mon-Sat", "time": "12:00pm"}, {"days": "Sun", "time": "Closed"}], "id": "5720100010", "name": "USPS COLLECTION BOX - BLUE BOX", "address": {"city": "WATERTOWN", "state": "SD", "street": "1003 9TH AVE SW", "postcode": "57201"}}},
{"geometry": {"type": "Point", "coordinates": [-97.0681034397, 44.8865823255]}, "type": "Feature", "properties": {"collection_times": [{"days": "Mon-Sat", "time": "12:30pm"}, {"days": "Sun", "time": "Closed"}], "id": "5720100015", "name": "USPS COLLECTION BOX - BLUE BOX", "address": {"city": "WATERTOWN", "state": "SD", "street": "1201 29TH ST SE", "postcode": "57201"}}},
{"geometry": {"type": "Point", "coordinates": [-97.1078740615, 44.8992034622]}, "type": "Feature", "properties": {"collection_times": [{"days": "Mon-Sat", "time": "5:30pm"}, {"days": "Sun", "time": "Closed"}], "id": "5720100018", "name": "USPS COLLECTION BOX - BLUE BOX", "address": {"city": "WATERTOWN", "state": "SD", "street": "405 E KEMP", "postcode": "57201"}}},
{"geometry": {"type": "Point", "coordinates": [-97.1078740615, 44.8992034622]}, "type": "Feature", "properties": {"collection_times": [{"days": "Mon-Sat", "time": "5:30pm"}, {"days": "Sun", "time": "Closed"}], "id": "5720100020", "name": "USPS COLLECTION BOX - BLUE BOX", "address": {"city": "WATERTOWN", "state": "SD", "street": "405 E KEMP", "postcode": "57201"}}},
{"geometry": {"type": "Point", "coordinates": [-97.0520316289, 44.889864223]}, "type": "Feature", "properties": {"collection_times": [{"days": "Mon-Sat", "time": "12:00pm"}, {"days": "Sun", "time": "Closed"}], "id": "5720100025", "name": "USPS COLLECTION BOX - BLUE BOX", "address": {"city": "WATERTOWN", "state": "SD", "street": "3800 9TH AVE SE", "postcode": "57201"}}},
{"geometry": {"type": "Point", "coordinates": [-97.1078740615, 44.8992034622]}, "type": "Feature", "properties": {"collection_times": [{"days": "Mon-Sat", "time": "6:00pm"}, {"days": "Sun", "time": "Closed"}], "id": "5720100032", "name": "USPS COLLECTION BOX - PO LOBBY", "address": {"city": "WATERTOWN", "state": "SD", "street": "405 E KEMP", "postcode": "57201"}}},
{"geometry": {"type": "Point", "coordinates": [-97.0951527189, 44.8900357647]}, "type": "Feature", "properties": {"collection_times": [{"days": "Mon-Sat", "time": "3:00pm"}, {"days": "Sun", "time": "Closed"}], "id": "5720100043", "name": "USPS COLLECTION BOX - BLUE BOX", "address": {"city": "WATERTOWN", "state": "SD", "street": "1320 9TH AVE SE", "postcode": "57201"}}},
{"geometry": {"type": "Point", "coordinates": [-97.1331164786, 44.3645623391]}, "type": "Feature", "properties": {"collection_times": [{"days": "Mon-Fri", "time": "3:30pm"}, {"days": "Sat", "time": "4:30pm"}, {"days": "Sun", "time": "Closed"}], "id": "5721200001", "name": "USPS COLLECTION BOX - BLUE BOX", "address": {"city": "ARLINGTON", "state": "SD", "street": "110 S MAIN ST", "postcode": "57212"}}},
{"geometry": {"type": "Point", "coordinates": [-97.1331164786, 44.3645623391]}, "type": "Feature", "properties": {"collection_times": [{"days": "Mon-Fri", "time": "4:00pm"}, {"days": "Sat", "time": "8:00am"}, {"days": "Sun", "time": "Closed"}], "id": "5721200003", "name": "USPS COLLECTION BOX - PO LOBBY", "address": {"city": "ARLINGTON", "state": "SD", "street": "110 S MAIN ST", "postcode": "57212"}}},
{"geometry": {"type": "Point", "coordinates": [-96.5459590984, 44.558319668]}, "type": "Feature", "properties": {"collection_times": [{"days": "Mon-Sat", "time": "2:35pm"}, {"days": "Sun", "time": "Closed"}], "id": "5721300001", "name": "USPS COLLECTION BOX - BLUE BOX", "address": {"city": "ASTORIA", "state": "SD", "street": "331 MAIN ST", "postcode": "57213"}}},
{"geometry": {"type": "Point", "coordinates": [-96.5459590984, 44.558319668]}, "type": "Feature", "properties": {"collection_times": [{"days": "Mon-Sat", "time": "12:15pm"}, {"days": "Sun", "time": "Closed"}], "id": "5721300002", "name": "USPS COLLECTION BOX - PO LOBBY", "address": {"city": "ASTORIA", "state": "SD", "street": "331 MAIN ST", "postcode": "57213"}}},
{"geometry": {"type": "Point", "coordinates": [-97.2088083741, 44.4856091481]}, "type": "Feature", "properties": {"collection_times": [{"days": "Mon-Fri", "time": "4:00pm"}, {"days": "Sat", "time": "5:00pm"}, {"days": "Sun", "time": "Closed"}], "id": "5721400000", "name": "USPS COLLECTION BOX - BLUE BOX", "address": {"city": "BADGER", "state": "SD", "street": "319 E MAIN ST", "postcode": "57214"}}},
{"geometry": {"type": "Point", "coordinates": [-97.2088083741, 44.4856091481]}, "type": "Feature", "properties": {"collection_times": [{"days": "Mon-Fri", "time": "4:00pm"}, {"days": "Sat", "time": "11:15am"}, {"days": "Sun", "time": "Closed"}], "id": "5721400001", "name": "USPS COLLECTION BOX - PO LOBBY", "address": {"city": "BADGER", "state": "SD", "street": "319 E MAIN ST", "postcode": "57214"}}},
{"geometry": {"type": "Point", "coordinates": [-96.4561241138, 45.2914867304]}, "type": "Feature", "properties": {"collection_times": [{"days": "Mon-Sat", "time": "3:45pm"}, {"days": "Sun", "time": "Closed"}], "id": "5721600001", "name": "USPS COLLECTION BOX - BLUE BOX", "address": {"city": "BIG STONE CITY", "state": "SD", "street": "553 MAIN ST", "postcode": "57216"}}},
{"geometry": {"type": "Point", "coordinates": [-96.4561241138, 45.2914867304]}, "type": "Feature", "properties": {"collection_times": [{"days": "Mon-Fri", "time": "3:15pm"}, {"days": "Sat", "time": "9:30am"}, {"days": "Sun", "time": "Closed"}], "id": "5721600002", "name": "USPS COLLECTION BOX - PO LOBBY", "address": {"city": "BIG STONE CITY", "state": "SD", "street": "553 MAIN ST", "postcode": "57216"}}},
{"geometry": {"type": "Point", "coordinates": [-97.6383675877, 45.0906088857]}, "type": "Feature", "properties": {"collection_times": [{"days": "Mon-Fri", "time": "4:10pm"}, {"days": "Sat", "time": "4:00pm"}, {"days": "Sun", "time": "Closed"}], "id": "5721700001", "name": "USPS COLLECTION BOX - BLUE BOX", "address": {"city": "BRADLEY", "state": "SD", "street": "201 MAIN ST", "postcode": "57217"}}},
{"geometry": {"type": "Point", "coordinates": [-97.6383675877, 45.0906088857]}, "type": "Feature", "properties": {"collection_times": [{"days": "Mon-Fri", "time": "11:30am"}, {"days": "Sat", "time": "8:30am"}, {"days": "Sun", "time": "Closed"}], "id": "5721700002", "name": "USPS COLLECTION BOX - PO LOBBY", "address": {"city": "BRADLEY", "state": "SD", "street": "201 MAIN ST", "postcode": "57217"}}},
{"geometry": {"type": "Point", "coordinates": [-96.6680831724, 44.6669013157]}, "type": "Feature", "properties": {"collection_times": [{"days": "Mon-Sat", "time": "3:05pm"}, {"days": "Sun", "time": "Closed"}], "id": "5721800001", "name": "USPS COLLECTION BOX - BLUE BOX", "address": {"city": "BRANDT", "state": "SD", "street": "116 MAIN ST", "postcode": "57218"}}},
{"geometry": {"type": "Point", "coordinates": [-96.6680831724, 44.6669013157]}, "type": "Feature", "properties": {"collection_times": [{"days": "Mon-Sat", "time": "2:45pm"}, {"days": "Sun", "time": "Closed"}], "id": "5721800002", "name": "USPS COLLECTION BOX - PO LOBBY", "address": {"city": "BRANDT", "state": "SD", "street": "116 MAIN ST", "postcode": "57218"}}},
{"geometry": {"type": "Point", "coordinates": [-97.7500599817, 45.3465822791]}, "type": "Feature", "properties": {"collection_times": [{"days": "Mon-Sat", "time": "3:15pm"}, {"days": "Sun", "time": "Closed"}], "id": "5721900001", "name": "USPS COLLECTION BOX - BLUE BOX", "address": {"city": "BRISTOL", "state": "SD", "street": "116 MAIN ST S", "postcode": "57219"}}},
{"geometry": {"type": "Point", "coordinates": [-97.7500599817, 45.3465822791]}, "type": "Feature", "properties": {"collection_times": [{"days": "Mon-Fri", "time": "11:45am"}, {"days": "Sat-Sun", "time": "Closed"}], "id": "5721900002", "name": "USPS COLLECTION BOX - PO LOBBY", "address": {"city": "BRISTOL", "state": "SD", "street": "116 MAIN ST S", "postcode": "57219"}}},
{"geometry": {"type": "Point", "coordinates": [-96.8905923582, 44.4381986365]}, "type": "Feature", "properties": {"collection_times": [{"days": "Mon-Fri", "time": "3:55pm"}, {"days": "Sat", "time": "4:00pm"}, {"days": "Sun", "time": "Closed"}], "id": "5722000001", "name": "USPS COLLECTION BOX - BLUE BOX", "address": {"city": "BRUCE", "state": "SD", "street": "508 JEFFERSON ST", "postcode": "57220"}}},
{"geometry": {"type": "Point", "coordinates": [-96.8905923582, 44.4381986365]}, "type": "Feature", "properties": {"collection_times": [{"days": "Mon-Fri", "time": "11:15am"}, {"days": "Sat", "time": "8:30am"}, {"days": "Sun", "time": "Closed"}], "id": "5722000002", "name": "USPS COLLECTION BOX - PO LOBBY", "address": {"city": "BRUCE", "state": "SD", "street": "508 JEFFERSON ST", "postcode": "57220"}}},
{"geometry": {"type": "Point", "coordinates": [-97.4683662585, 44.590478584]}, "type": "Feature", "properties": {"collection_times": [{"days": "Mon-Fri", "time": "4:45pm"}, {"days": "Sat", "time": "5:40pm"}, {"days": "Sun", "time": "Closed"}], "id": "5722100001", "name": "USPS COLLECTION BOX - BLUE BOX", "address": {"city": "BRYANT", "state": "SD", "street": "114 W MAIN ST", "postcode": "57221"}}},
{"geometry": {"type": "Point", "coordinates": [-97.4683662585, 44.590478584]}, "type": "Feature", "properties": {"collection_times": [{"days": "Mon-Fri", "time": "11:30am"}, {"days": "Sat", "time": "8:45am"}, {"days": "Sun", "time": "Closed"}], "id": "5722100002", "name": "USPS COLLECTION BOX - PO LOBBY", "address": {"city": "BRYANT", "state": "SD", "street": "114 W MAIN ST", "postcode": "57221"}}},
{"geometry": {"type": "Point", "coordinates": [-97.4589481779, 44.5888585498]}, "type": "Feature", "properties": {"collection_times": [{"days": "Mon-Fri", "time": "4:45pm"}, {"days": "Sat", "time": "5:40pm"}, {"days": "Sun", "time": "Closed"}], "id": "5722100003", "name": "USPS COLLECTION BOX - BLUE BOX", "address": {"city": "BRYANT", "state": "SD", "street": "114 W MAIN ST", "postcode": "57221"}}},
{"geometry": {"type": "Point", "coordinates": [-97.0318618484, 44.7226823189]}, "type": "Feature", "properties": {"collection_times": [{"days": "Mon-Fri", "time": "4:00pm"}, {"days": "Sat", "time": "5:00pm"}, {"days": "Sun", "time": "Closed"}], "id": "5722300001", "name": "USPS COLLECTION BOX - BLUE BOX", "address": {"city": "CASTLEWOOD", "state": "SD", "street": "111 E MAIN ST", "postcode": "57223"}}},
{"geometry": {"type": "Point", "coordinates": [-97.0318618484, 44.7226823189]}, "type": "Feature", "properties": {"collection_times": [{"days": "Mon-Fri", "time": "11:30am"}, {"days": "Sat", "time": "9:00am"}, {"days": "Sun", "time": "Closed"}], "id": "5722300002", "name": "USPS COLLECTION BOX - PO LOBBY", "address": {"city": "CASTLEWOOD", "state": "SD", "street": "111 E MAIN ST", "postcode": "57223"}}},
{"geometry": {"type": "Point", "coordinates": [-97.1035637242, 45.8773433695]}, "type": "Feature", "properties": {"collection_times": [{"days": "Mon-Sat", "time": "3:30pm"}, {"days": "Sun", "time": "Closed"}], "id": "5722400001", "name": "USPS COLLECTION BOX - BLUE BOX", "address": {"city": "CLAIRE CITY", "state": "SD", "street": "270 MAIN ST", "postcode": "57224"}}},
{"geometry": {"type": "Point", "coordinates": [-97.1035637242, 45.8773433695]}, "type": "Feature", "properties": {"collection_times": [{"days": "Mon-Fri", "time": "12:00pm"}, {"days": "Sat", "time": "9:30am"}, {"days": "Sun", "time": "Closed"}], "id": "5722400002", "name": "USPS COLLECTION BOX - PO LOBBY", "address": {"city": "CLAIRE CITY", "state": "SD", "street": "270 MAIN ST", "postcode": "57224"}}},
{"geometry": {"type": "Point", "coordinates": [-97.7349879285, 44.8778473563]}, "type": "Feature", "properties": {"collection_times": [{"days": "Mon-Sat", "time": "4:10pm"}, {"days": "Sun", "time": "Closed"}], "id": "5722500001", "name": "USPS COLLECTION BOX - BLUE BOX", "address": {"city": "CLARK", "state": "SD", "street": "111 N SMITH ST", "postcode": "57225"}}},
{"geometry": {"type": "Point", "coordinates": [-97.7349879285, 44.8778473563]}, "type": "Feature", "properties": {"collection_times": [{"days": "Mon-Fri", "time": "4:10pm"}, {"days": "Sat-Sun", "time": "Closed"}], "id": "5722500002", "name": "USPS COLLECTION BOX - PO LOBBY", "address": {"city": "CLARK", "state": "SD", "street": "111 N SMITH ST", "postcode": "57225"}}},
{"geometry": {"type": "Point", "coordinates": [-96.6840924879, 44.7567759164]}, "type": "Feature", "properties": {"collection_times": [{"days": "Mon-Fri", "time": "4:15pm"}, {"days": "Sat", "time": "4:00pm"}, {"days": "Sun", "time": "Closed"}], "id": "5722600001", "name": "USPS COLLECTION BOX - BLUE BOX", "address": {"city": "CLEAR LAKE", "state": "SD", "street": "405 3RD ST W", "postcode": "57226"}}},
{"geometry": {"type": "Point", "coordinates": [-96.6840924879, 44.7567759164]}, "type": "Feature", "properties": {"collection_times": [{"days": "Mon-Fri", "time": "4:15pm"}, {"days": "Sat", "time": "10:15am"}, {"days": "Sun", "time": "Closed"}], "id": "5722600004", "name": "USPS COLLECTION BOX - PO LOBBY", "address": {"city": "CLEAR LAKE", "state": "SD", "street": "405 3RD ST W", "postcode": "57226"}}},
{"geometry": {"type": "Point", "coordinates": [-96.6673884086, 45.3631016005]}, "type": "Feature", "properties": {"collection_times": [{"days": "Mon-Sat", "time": "3:30pm"}, {"days": "Sun", "time": "Closed"}], "id": "5722700001", "name": "USPS COLLECTION BOX - BLUE BOX", "address": {"city": "CORONA", "state": "SD", "street": "208 MAIN ST", "postcode": "57227"}}},
{"geometry": {"type": "Point", "coordinates": [-96.6673884086, 45.3631016005]}, "type": "Feature", "properties": {"collection_times": [{"days": "Mon-Sat", "time": "11:45am"}, {"days": "Sun", "time": "Closed"}], "id": "5722700002", "name": "USPS COLLECTION BOX - PO LOBBY", "address": {"city": "CORONA", "state": "SD", "street": "208 MAIN ST", "postcode": "57227"}}},
{"geometry": {"type": "Point", "coordinates": [-97.5489506037, 44.387043777]}, "type": "Feature", "properties": {"collection_times": [{"days": "Mon-Sat", "time": "4:30pm"}, {"days": "Sun", "time": "Closed"}], "id": "5723100001", "name": "USPS COLLECTION BOX - BLUE BOX", "address": {"city": "DESMET", "state": "SD", "street": "119 CALUMET AVE SW", "postcode": "57231"}}},
{"geometry": {"type": "Point", "coordinates": [-97.5872074672, 44.3590953467]}, "type": "Feature", "properties": {"collection_times": [{"days": "Mon-Fri", "time": "4:30pm"}, {"days": "Sat", "time": "9:30am"}, {"days": "Sun", "time": "Closed"}], "id": "5723100004", "name": "USPS COLLECTION BOX - PO LOBBY", "address": {"city": "DESMET", "state": "SD", "street": "119 CALUMET AVE SW", "postcode": "57231"}}},
{"geometry": {"type": "Point", "coordinates": [-97.344736297, 45.6073331234]}, "type": "Feature", "properties": {"collection_times": [{"days": "Mon-Fri", "time": "4:00pm"}, {"days": "Sat", "time": "4:30pm"}, {"days": "Sun", "time": "Closed"}], "id": "5723200001", "name": "USPS COLLECTION BOX - BLUE BOX", "address": {"city": "EDEN", "state": "SD", "street": "108 S 3RD ST", "postcode": "57232"}}},
{"geometry": {"type": "Point", "coordinates": [-97.344736297, 45.6073331234]}, "type": "Feature", "properties": {"collection_times": [{"days": "Mon-Fri", "time": "2:45pm"}, {"days": "Sat", "time": "2:00pm"}, {"days": "Sun", "time": "Closed"}], "id": "5723200002", "name": "USPS COLLECTION BOX - PO LOBBY", "address": {"city": "EDEN", "state": "SD", "street": "108 S 3RD ST", "postcode": "57232"}}},
{"geometry": {"type": "Point", "coordinates": [-96.9023555638, 44.5728974823]}, "type": "Feature", "properties": {"collection_times": [{"days": "Mon-Sat", "time": "3:45pm"}, {"days": "Sun", "time": "Closed"}], "id": "5723400001", "name": "USPS COLLECTION BOX - BLUE BOX", "address": {"city": "ESTELLINE", "state": "SD", "street": "108 MAIN ST N", "postcode": "57234"}}},
{"geometry": {"type": "Point", "coordinates": [-96.9023555638, 44.5728974823]}, "type": "Feature", "properties": {"collection_times": [{"days": "Mon-Fri", "time": "3:00pm"}, {"days": "Sat", "time": "9:00am"}, {"days": "Sun", "time": "Closed"}], "id": "5723400002", "name": "USPS COLLECTION BOX - PO LOBBY", "address": {"city": "ESTELLINE", "state": "SD", "street": "108 MAIN ST N", "postcode": "57234"}}},
{"geometry": {"type": "Point", "coordinates": [-97.3259258839, 45.0545438207]}, "type": "Feature", "properties": {"collection_times": [{"days": "Mon-Fri", "time": "4:15pm"}, {"days": "Sat", "time": "4:25pm"}, {"days": "Sun", "time": "Closed"}], "id": "5723500001", "name": "USPS COLLECTION BOX - BLUE BOX", "address": {"city": "FLORENCE", "state": "SD", "street": "235 MAIN AVE", "postcode": "57235"}}},
{"geometry": {"type": "Point", "coordinates": [-97.3259258839, 45.0545438207]}, "type": "Feature", "properties": {"collection_times": [{"days": "Mon-Fri", "time": "11:30am"}, {"days": "Sat", "time": "8:45am"}, {"days": "Sun", "time": "Closed"}], "id": "5723500002", "name": "USPS COLLECTION BOX - PO LOBBY", "address": {"city": "FLORENCE", "state": "SD", "street": "235 MAIN AVE", "postcode": "57235"}}},
{"geometry": {"type": "Point", "coordinates": [-97.5553435217, 44.9348016961]}, "type": "Feature", "properties": {"collection_times": [{"days": "Mon-Sat", "time": "12:30pm"}, {"days": "Sun", "time": "Closed"}], "id": "5723600001", "name": "USPS COLLECTION BOX - BLUE BOX", "address": {"city": "GARDEN CITY", "state": "SD", "street": "127 MAIN ST W", "postcode": "57236"}}},
{"geometry": {"type": "Point", "coordinates": [-97.5553435217, 44.9348016961]}, "type": "Feature", "properties": {"collection_times": [{"days": "Mon-Fri", "time": "12:30pm"}, {"days": "Sat-Sun", "time": "Closed"}], "id": "5723600002", "name": "USPS COLLECTION BOX - PO LOBBY", "address": {"city": "GARDEN CITY", "state": "SD", "street": "127 MAIN ST W", "postcode": "57236"}}},
{"geometry": {"type": "Point", "coordinates": [-96.456612586, 44.7935749349]}, "type": "Feature", "properties": {"collection_times": [{"days": "Mon-Sat", "time": "4:15pm"}, {"days": "Sun", "time": "Closed"}], "id": "5723700001", "name": "USPS COLLECTION BOX - BLUE BOX", "address": {"city": "GARY", "state": "SD", "street": "1109 COTEAU ST", "postcode": "57237"}}},
{"geometry": {"type": "Point", "coordinates": [-96.456612586, 44.7935749349]}, "type": "Feature", "properties": {"collection_times": [{"days": "Mon-Fri", "time": "11:30am"}, {"days": "Sat", "time": "8:30am"}, {"days": "Sun", "time": "Closed"}], "id": "5723700002", "name": "USPS COLLECTION BOX - PO LOBBY", "address": {"city": "GARY", "state": "SD", "street": "1109 COTEAU ST", "postcode": "57237"}}},
{"geometry": {"type": "Point", "coordinates": [-96.8404158697, 44.887002226]}, "type": "Feature", "properties": {"collection_times": [{"days": "Mon-Fri", "time": "4:15pm"}, {"days": "Sat", "time": "4:00pm"}, {"days": "Sun", "time": "Closed"}], "id": "5723800000", "name": "USPS COLLECTION BOX - BLUE BOX", "address": {"city": "GOODWIN", "state": "SD", "street": "130 W CHICAGO AVE", "postcode": "57238"}}},
{"geometry": {"type": "Point", "coordinates": [-96.8404158697, 44.887002226]}, "type": "Feature", "properties": {"collection_times": [{"days": "Mon-Fri", "time": "2:55pm"}, {"days": "Sat", "time": "1:50pm"}, {"days": "Sun", "time": "Closed"}], "id": "5723800001", "name": "USPS COLLECTION BOX - PO LOBBY", "address": {"city": "GOODWIN", "state": "SD", "street": "130 W CHICAGO AVE", "postcode": "57238"}}},
{"geometry": {"type": "Point", "coordinates": [-97.3809563846, 45.4670244092]}, "type": "Feature", "properties": {"collection_times": [{"days": "Mon-Sat", "time": "5:10pm"}, {"days": "Sun", "time": "Closed"}], "id": "5723900001", "name": "USPS COLLECTION BOX - BLUE BOX", "address": {"city": "GRENVILLE", "state": "SD", "street": "915 KOSCIUSKO AVE", "postcode": "57239"}}},
{"geometry": {"type": "Point", "coordinates": [-97.3809563846, 45.4670244092]}, "type": "Feature", "properties": {"collection_times": [{"days": "Mon-Fri", "time": "12:00pm"}, {"days": "Sat", "time": "11:15am"}, {"days": "Sun", "time": "Closed"}], "id": "5723900002", "name": "USPS COLLECTION BOX - PO LOBBY", "address": {"city": "GRENVILLE", "state": "SD", "street": "915 KOSCIUSKO AVE", "postcode": "57239"}}},
{"geometry": {"type": "Point", "coordinates": [-97.2389844269, 44.6736202081]}, "type": "Feature", "properties": {"collection_times": [{"days": "Mon-Sat", "time": "4:15pm"}, {"days": "Sun", "time": "Closed"}], "id": "5724100001", "name": "USPS COLLECTION BOX - BLUE BOX", "address": {"city": "HAYTI", "state": "SD", "street": "207 MAIN AVE", "postcode": "57241"}}},
{"geometry": {"type": "Point", "coordinates": [-97.2389844269, 44.6736202081]}, "type": "Feature", "properties": {"collection_times": [{"days": "Mon-Fri", "time": "11:15am"}, {"days": "Sat", "time": "8:45am"}, {"days": "Sun", "time": "Closed"}], "id": "5724100002", "name": "USPS COLLECTION BOX - PO LOBBY", "address": {"city": "HAYTI", "state": "SD", "street": "207 MAIN AVE", "postcode": "57241"}}},
{"geometry": {"type": "Point", "coordinates": [-97.3372274482, 44.7727753733]}, "type": "Feature", "properties": {"collection_times": [{"days": "Mon-Fri", "time": "4:00pm"}, {"days": "Sat", "time": "5:30pm"}, {"days": "Sun", "time": "Closed"}], "id": "5724200001", "name": "USPS COLLECTION BOX - BLUE BOX", "address": {"city": "HAZEL", "state": "SD", "street": "17 W WILLIAMS ST", "postcode": "57242"}}},
{"geometry": {"type": "Point", "coordinates": [-97.3372274482, 44.7727753733]}, "type": "Feature", "properties": {"collection_times": [{"days": "Mon-Fri", "time": "11:00am"}, {"days": "Sat", "time": "8:45am"}, {"days": "Sun", "time": "Closed"}], "id": "5724200002", "name": "USPS COLLECTION BOX - PO LOBBY", "address": {"city": "HAZEL", "state": "SD", "street": "17 W WILLIAMS ST", "postcode": "57242"}}},
{"geometry": {"type": "Point", "coordinates": [-97.4683361279, 44.8792269192]}, "type": "Feature", "properties": {"collection_times": [{"days": "Mon-Fri", "time": "4:00pm"}, {"days": "Sat", "time": "6:00pm"}, {"days": "Sun", "time": "Closed"}], "id": "5724300001", "name": "USPS COLLECTION BOX - BLUE BOX", "address": {"city": "HENRY", "state": "SD", "street": "112 MAIN ST", "postcode": "57243"}}},
{"geometry": {"type": "Point", "coordinates": [-97.4683361279, 44.8792269192]}, "type": "Feature", "properties": {"collection_times": [{"days": "Mon-Fri", "time": "11:30am"}, {"days": "Sat-Sun", "time": "Closed"}], "id": "5724300002", "name": "USPS COLLECTION BOX - PO LOBBY", "address": {"city": "HENRY", "state": "SD", "street": "112 MAIN ST", "postcode": "57243"}}},
{"geometry": {"type": "Point", "coordinates": [-96.9193671203, 44.8909633225]}, "type": "Feature", "properties": {"collection_times": [{"days": "Mon-Sat", "time": "3:30pm"}, {"days": "Sun", "time": "Closed"}], "id": "5724500001", "name": "USPS COLLECTION BOX - BLUE BOX", "address": {"city": "KRANZBURG", "state": "SD", "street": "102 DAKOTA AVE N", "postcode": "57245"}}},
{"geometry": {"type": "Point", "coordinates": [-96.9193671203, 44.8909633225]}, "type": "Feature", "properties": {"collection_times": [{"days": "Mon-Fri", "time": "12:15pm"}, {"days": "Sat", "time": "11:30am"}, {"days": "Sun", "time": "Closed"}], "id": "5724500002", "name": "USPS COLLECTION BOX - PO LOBBY", "address": {"city": "KRANZBURG", "state": "SD", "street": "102 DAKOTA AVE N", "postcode": "57245"}}},
{"geometry": {"type": "Point", "coordinates": [-97.3885419405, 45.7039010391]}, "type": "Feature", "properties": {"collection_times": [{"days": "Mon-Sat", "time": "4:30pm"}, {"days": "Sun", "time": "Closed"}], "id": "5724700001", "name": "USPS COLLECTION BOX - BLUE BOX", "address": {"city": "LAKE CITY", "state": "SD", "street": "303 S BROADWAY ST", "postcode": "57247"}}},
{"geometry": {"type": "Point", "coordinates": [-97.3885419405, 45.7039010391]}, "type": "Feature", "properties": {"collection_times": [{"days": "Mon-Fri", "time": "2:45pm"}, {"days": "Sat", "time": "2:15pm"}, {"days": "Sun", "time": "Closed"}], "id": "5724700002", "name": "USPS COLLECTION BOX - PO LOBBY", "address": {"city": "LAKE CITY", "state": "SD", "street": "303 S BROADWAY ST", "postcode": "57247"}}},
{"geometry": {"type": "Point", "coordinates": [-97.210670279, 44.5806189709]}, "type": "Feature", "properties": {"collection_times": [{"days": "Mon-Fri", "time": "4:00pm"}, {"days": "Sat", "time": "4:45pm"}, {"days": "Sun", "time": "Closed"}], "id": "5724800001", "name": "USPS COLLECTION BOX - BLUE BOX", "address": {"city": "LAKE NORDEN", "state": "SD", "street": "500 MAIN AVE", "postcode": "57248"}}},
{"geometry": {"type": "Point", "coordinates": [-97.210670279, 44.5806189709]}, "type": "Feature", "properties": {"collection_times": [{"days": "Mon-Fri", "time": "2:00pm"}, {"days": "Sat", "time": "9:15am"}, {"days": "Sun", "time": "Closed"}], "id": "5724800002", "name": "USPS COLLECTION BOX - PO LOBBY", "address": {"city": "LAKE NORDEN", "state": "SD", "street": "500 MAIN AVE", "postcode": "57248"}}},
{"geometry": {"type": "Point", "coordinates": [-97.3772188104, 44.3625664452]}, "type": "Feature", "properties": {"collection_times": [{"days": "Mon-Sat", "time": "4:00pm"}, {"days": "Sun", "time": "Closed"}], "id": "5724900001", "name": "USPS COLLECTION BOX - BLUE BOX", "address": {"city": "LAKE PRESTON", "state": "SD", "street": "220 MAIN AVE N", "postcode": "57249"}}},
{"geometry": {"type": "Point", "coordinates": [-97.3772188104, 44.3625664452]}, "type": "Feature", "properties": {"collection_times": [{"days": "Mon-Fri", "time": "2:25pm"}, {"days": "Sat", "time": "9:00am"}, {"days": "Sun", "time": "Closed"}], "id": "5724900002", "name": "USPS COLLECTION BOX - PO LOBBY", "address": {"city": "LAKE PRESTON", "state": "SD", "street": "220 MAIN AVE N", "postcode": "57249"}}},
{"geometry": {"type": "Point", "coordinates": [-96.9115393375, 45.2612445586]}, "type": "Feature", "properties": {"collection_times": [{"days": "Mon-Sat", "time": "3:30pm"}, {"days": "Sun", "time": "Closed"}], "id": "5725100001", "name": "USPS COLLECTION BOX - BLUE BOX", "address": {"city": "MARVIN", "state": "SD", "street": "101 E DIVISION ST", "postcode": "57251"}}},
{"geometry": {"type": "Point", "coordinates": [-96.9386077427, 45.2812004485]}, "type": "Feature", "properties": {"collection_times": [{"days": "Mon-Fri", "time": "1:00pm"}, {"days": "Sat", "time": "10:00am"}, {"days": "Sun", "time": "Closed"}], "id": "5725100002", "name": "USPS COLLECTION BOX - PO LOBBY", "address": {"city": "MARVIN", "state": "SD", "street": "101 E DIVISION ST", "postcode": "57251"}}},
{"geometry": {"type": "Point", "coordinates": [-96.6387319909, 45.2189062087]}, "type": "Feature", "properties": {"collection_times": [{"days": "Mon-Sat", "time": "12:15pm"}, {"days": "Sun", "time": "Closed"}], "id": "5725200001", "name": "USPS COLLECTION BOX - BLUE BOX", "address": {"city": "MILBANK", "state": "SD", "street": "103 W 4TH AVE", "postcode": "57252"}}},
{"geometry": {"type": "Point", "coordinates": [-96.6364755833, 45.2215200505]}, "type": "Feature", "properties": {"collection_times": [{"days": "Mon-Sat", "time": "3:15pm"}, {"days": "Sun", "time": "Closed"}], "id": "5725200002", "name": "USPS COLLECTION BOX - BLUE BOX", "address": {"city": "MILBANK", "state": "SD", "street": "221 E RAILWAY AVE", "postcode": "57252"}}},
{"geometry": {"type": "Point", "coordinates": [-96.6151164931, 45.2252531309]}, "type": "Feature", "properties": {"collection_times": [{"days": "Mon-Sat", "time": "2:30pm"}, {"days": "Sun", "time": "Closed"}], "id": "5725200003", "name": "USPS COLLECTION BOX - BLUE BOX", "address": {"city": "MILBANK", "state": "SD", "street": "1400 MORNINGSIDE DR", "postcode": "57252"}}},
{"geometry": {"type": "Point", "coordinates": [-96.6369335404, 45.2200414848]}, "type": "Feature", "properties": {"collection_times": [{"days": "Mon-Sat", "time": "4:15pm"}, {"days": "Sun", "time": "Closed"}], "id": "5725200004", "name": "USPS COLLECTION BOX - BLUE BOX", "address": {"city": "MILBANK", "state": "SD", "street": "222 E 3RD AVE", "postcode": "57252"}}},
{"geometry": {"type": "Point", "coordinates": [-96.6278876659, 45.2173592503]}, "type": "Feature", "properties": {"collection_times": [{"days": "Mon-Sat", "time": "1:30pm"}, {"days": "Sun", "time": "Closed"}], "id": "5725200008", "name": "USPS COLLECTION BOX - BLUE BOX", "address": {"city": "MILBANK", "state": "SD", "street": "1001 E 4TH AVE", "postcode": "57252"}}},
{"geometry": {"type": "Point", "coordinates": [-96.6369335404, 45.2200414848]}, "type": "Feature", "properties": {"collection_times": [{"days": "Mon-Fri", "time": "4:15pm"}, {"days": "Sat", "time": "12:00pm"}, {"days": "Sun", "time": "Closed"}], "id": "5725200010", "name": "USPS COLLECTION BOX - PO LOBBY", "address": {"city": "MILBANK", "state": "SD", "street": "222 E 3RD AVE", "postcode": "57252"}}},
{"geometry": {"type": "Point", "coordinates": [-96.6105129637, 45.2015043548]}, "type": "Feature", "properties": {"collection_times": [{"days": "Mon-Sat", "time": "12:30pm"}, {"days": "Sun", "time": "Closed"}], "id": "5725200013", "name": "USPS COLLECTION BOX - BLUE BOX", "address": {"city": "MILBANK", "state": "SD", "street": "109 S MAIN ST", "postcode": "57252"}}},
{"geometry": {"type": "Point", "coordinates": [-96.9189808556, 45.8567701752]}, "type": "Feature", "properties": {"collection_times": [{"days": "Mon-Sat", "time": "3:10pm"}, {"days": "Sun", "time": "Closed"}], "id": "5725500001", "name": "USPS COLLECTION BOX - BLUE BOX", "address": {"city": "NEW EFFINGTON", "state": "SD", "street": "211 MAIN ST", "postcode": "57255"}}},
{"geometry": {"type": "Point", "coordinates": [-96.9189808556, 45.8567701752]}, "type": "Feature", "properties": {"collection_times": [{"days": "Mon-Fri", "time": "12:00pm"}, {"days": "Sat", "time": "10:00am"}, {"days": "Sun", "time": "Closed"}], "id": "5725500002", "name": "USPS COLLECTION BOX - PO LOBBY", "address": {"city": "NEW EFFINGTON", "state": "SD", "street": "211 MAIN ST", "postcode": "57255"}}},
{"geometry": {"type": "Point", "coordinates": [-96.9893638665, 45.5147007821]}, "type": "Feature", "properties": {"collection_times": [{"days": "Mon-Sat", "time": "4:15pm"}, {"days": "Sun", "time": "Closed"}], "id": "5725700001", "name": "USPS COLLECTION BOX - BLUE BOX", "address": {"city": "PEEVER", "state": "SD", "street": "310 MAIN ST", "postcode": "57257"}}},
{"geometry": {"type": "Point", "coordinates": [-96.9893638665, 45.5147007821]}, "type": "Feature", "properties": {"collection_times": [{"days": "Mon-Fri", "time": "2:50pm"}, {"days": "Sat-Sun", "time": "Closed"}], "id": "5725700002", "name": "USPS COLLECTION BOX - PO LOBBY", "address": {"city": "PEEVER", "state": "SD", "street": "310 MAIN ST", "postcode": "57257"}}},
{"geometry": {"type": "Point", "coordinates": [-97.9164729731, 44.8991542002]}, "type": "Feature", "properties": {"collection_times": [{"days": "Mon-Fri", "time": "3:45pm"}, {"days": "Sat", "time": "6:40pm"}, {"days": "Sun", "time": "Closed"}], "id": "5725800001", "name": "USPS COLLECTION BOX - BLUE BOX", "address": {"city": "RAYMOND", "state": "SD", "street": "211 FLOWER ST", "postcode": "57258"}}},
{"geometry": {"type": "Point", "coordinates": [-97.9164729731, 44.8991542002]}, "type": "Feature", "properties": {"collection_times": [{"days": "Mon-Fri", "time": "9:50am"}, {"days": "Sat", "time": "9:05am"}, {"days": "Sun", "time": "Closed"}], "id": "5725800002", "name": "USPS COLLECTION BOX - PO LOBBY", "address": {"city": "RAYMOND", "state": "SD", "street": "211 FLOWER ST", "postcode": "57258"}}},
{"geometry": {"type": "Point", "coordinates": [-96.5713404487, 45.0157870289]}, "type": "Feature", "properties": {"collection_times": [{"days": "Mon-Fri", "time": "4:00pm"}, {"days": "Sat", "time": "4:45pm"}, {"days": "Sun", "time": "Closed"}], "id": "5725900001", "name": "USPS COLLECTION BOX - BLUE BOX", "address": {"city": "REVILLO", "state": "SD", "street": "317 N 2ND AVE", "postcode": "57259"}}},
{"geometry": {"type": "Point", "coordinates": [-96.5713404487, 45.0157870289]}, "type": "Feature", "properties": {"collection_times": [{"days": "Mon-Fri", "time": "11:30am"}, {"days": "Sat", "time": "8:50am"}, {"days": "Sun", "time": "Closed"}], "id": "5725900002", "name": "USPS COLLECTION BOX - PO LOBBY", "address": {"city": "REVILLO", "state": "SD", "street": "317 N 2ND AVE", "postcode": "57259"}}},
{"geometry": {"type": "Point", "coordinates": [-96.7326651291, 45.8665573393]}, "type": "Feature", "properties": {"collection_times": [{"days": "Mon-Sat", "time": "2:55pm"}, {"days": "Sun", "time": "Closed"}], "id": "5726000001", "name": "USPS COLLECTION BOX - BLUE BOX", "address": {"city": "ROSHOLT", "state": "SD", "street": "12 W MAIN ST", "postcode": "57260"}}},
{"geometry": {"type": "Point", "coordinates": [-96.7326651291, 45.8665573393]}, "type": "Feature", "properties": {"collection_times": [{"days": "Mon-Fri", "time": "2:55pm"}, {"days": "Sat", "time": "10:15am"}, {"days": "Sun", "time": "Closed"}], "id": "5726000002", "name": "USPS COLLECTION BOX - PO LOBBY", "address": {"city": "ROSHOLT", "state": "SD", "street": "12 W MAIN ST", "postcode": "57260"}}},
{"geometry": {"type": "Point", "coordinates": [-97.5098281923, 45.5213488701]}, "type": "Feature", "properties": {"collection_times": [{"days": "Mon-Fri", "time": "4:15pm"}, {"days": "Sat", "time": "4:30pm"}, {"days": "Sun", "time": "Closed"}], "id": "5726100001", "name": "USPS COLLECTION BOX - BLUE BOX", "address": {"city": "ROSLYN", "state": "SD", "street": "509 N MAIN ST", "postcode": "57261"}}},
{"geometry": {"type": "Point", "coordinates": [-97.5098281923, 45.5213488701]}, "type": "Feature", "properties": {"collection_times": [{"days": "Mon-Fri", "time": "1:30pm"}, {"days": "Sat", "time": "9:00am"}, {"days": "Sun", "time": "Closed"}], "id": "5726100002", "name": "USPS COLLECTION BOX - PO LOBBY", "address": {"city": "ROSLYN", "state": "SD", "street": "509 N MAIN ST", "postcode": "57261"}}},
{"geometry": {"type": "Point", "coordinates": [-97.0507488365, 45.6637304208]}, "type": "Feature", "properties": {"collection_times": [{"days": "Mon-Sat", "time": "12:00pm"}, {"days": "Sun", "time": "Closed"}], "id": "5726200002", "name": "USPS COLLECTION BOX - BLUE BOX", "address": {"city": "SISSETON", "state": "SD", "street": "5 E MAPLE ST", "postcode": "57262"}}},
{"geometry": {"type": "Point", "coordinates": [-97.0481397094, 45.6646853235]}, "type": "Feature", "properties": {"collection_times": [{"days": "Mon-Sat", "time": "3:45pm"}, {"days": "Sun", "time": "Closed"}], "id": "5726200004", "name": "USPS COLLECTION BOX - BLUE BOX", "address": {"city": "SISSETON", "state": "SD", "street": "205 E OAK ST STE 103", "postcode": "57262"}}},
{"geometry": {"type": "Point", "coordinates": [-97.06733, 45.56183]}, "type": "Feature", "properties": {"collection_times": [{"days": "Mon-Sat", "time": "10:00am"}, {"days": "Sun", "time": "Closed"}], "id": "5726200006", "name": "USPS COLLECTION BOX - BLUE BOX", "address": {"city": "SISSETON", "state": "SD", "street": "12554 BIA HIGHWAY 711", "postcode": "57262"}}},
{"geometry": {"type": "Point", "coordinates": [-97.0481397094, 45.6646853235]}, "type": "Feature", "properties": {"collection_times": [{"days": "Mon-Fri", "time": "3:45pm"}, {"days": "Sat", "time": "11:00am"}, {"days": "Sun", "time": "Closed"}], "id": "5726200007", "name": "USPS COLLECTION BOX - PO LOBBY", "address": {"city": "SISSETON", "state": "SD", "street": "205 E OAK ST STE 103", "postcode": "57262"}}},
{"geometry": {"type": "Point", "coordinates": [-97.0521834608, 45.6601786872]}, "type": "Feature", "properties": {"collection_times": [{"days": "Mon-Sat", "time": "12:00pm"}, {"days": "Sun", "time": "Closed"}], "id": "5726200009", "name": "USPS COLLECTION BOX - BLUE BOX", "address": {"city": "SISSETON", "state": "SD", "street": "112 W HICKORY ST", "postcode": "57262"}}},
{"geometry": {"type": "Point", "coordinates": [-96.9808121615, 45.7042818095]}, "type": "Feature", "properties": {"collection_times": [{"days": "Mon-Sat", "time": "12:15pm"}, {"days": "Sun", "time": "Closed"}], "id": "5726200010", "name": "USPS COLLECTION BOX - BLUE BOX", "address": {"city": "SISSETON", "state": "SD", "street": "1712 SD HIGHWAY 10", "postcode": "57262"}}},
{"geometry": {"type": "Point", "coordinates": [-96.9286153338, 45.1058451482]}, "type": "Feature", "properties": {"collection_times": [{"days": "Mon-Fri", "time": "4:15pm"}, {"days": "Sat", "time": "5:00pm"}, {"days": "Sun", "time": "Closed"}], "id": "5726300001", "name": "USPS COLLECTION BOX - BLUE BOX", "address": {"city": "SOUTH SHORE", "state": "SD", "street": "105 N MAIN ST", "postcode": "57263"}}},
{"geometry": {"type": "Point", "coordinates": [-96.9286153338, 45.1058451482]}, "type": "Feature", "properties": {"collection_times": [{"days": "Mon-Fri", "time": "11:30am"}, {"days": "Sat", "time": "9:15am"}, {"days": "Sun", "time": "Closed"}], "id": "5726300002", "name": "USPS COLLECTION BOX - PO LOBBY", "address": {"city": "SOUTH SHORE", "state": "SD", "street": "105 N MAIN ST", "postcode": "57263"}}},
{"geometry": {"type": "Point", "coordinates": [-96.928612573, 45.1054852123]}, "type": "Feature", "properties": {"collection_times": [{"days": "Mon-Sat", "time": "12:40pm"}, {"days": "Sun", "time": "Closed"}], "id": "5726300003", "name": "USPS COLLECTION BOX - BLUE BOX", "address": {"city": "SOUTH SHORE", "state": "SD", "street": "123 S MAIN ST", "postcode": "57263"}}},
{"geometry": {"type": "Point", "coordinates": [-96.928612573, 45.1054852123]}, "type": "Feature", "properties": {"collection_times": [{"days": "Mon-Sat", "time": "12:40pm"}, {"days": "Sun", "time": "Closed"}], "id": "5726300004", "name": "USPS COLLECTION BOX - PO LOBBY", "address": {"city": "SOUTH SHORE", "state": "SD", "street": "123 S MAIN ST", "postcode": "57263"}}},
{"geometry": {"type": "Point", "coordinates": [-96.8018672083, 45.1003790335]}, "type": "Feature", "properties": {"collection_times": [{"days": "Mon-Sat", "time": "4:30pm"}, {"days": "Sun", "time": "Closed"}], "id": "5726400001", "name": "USPS COLLECTION BOX - BLUE BOX", "address": {"city": "STOCKHOLM", "state": "SD", "street": "204 N MAIN ST", "postcode": "57264"}}},
{"geometry": {"type": "Point", "coordinates": [-96.8018672083, 45.1003790335]}, "type": "Feature", "properties": {"collection_times": [{"days": "Mon-Sat", "time": "11:00am"}, {"days": "Sun", "time": "Closed"}], "id": "5726400003", "name": "USPS COLLECTION BOX - PO LOBBY", "address": {"city": "STOCKHOLM", "state": "SD", "street": "204 N MAIN ST", "postcode": "57264"}}},
{"geometry": {"type": "Point", "coordinates": [-97.0363547052, 45.3050592578]}, "type": "Feature", "properties": {"collection_times": [{"days": "Mon-Fri", "time": "4:15pm"}, {"days": "Sat", "time": "5:00pm"}, {"days": "Sun", "time": "Closed"}], "id": "5726600001", "name": "USPS COLLECTION BOX - BLUE BOX", "address": {"city": "SUMMIT", "state": "SD", "street": "301 MAPLE ST", "postcode": "57266"}}},
{"geometry": {"type": "Point", "coordinates": [-97.0363547052, 45.3050592578]}, "type": "Feature", "properties": {"collection_times": [{"days": "Mon-Fri", "time": "11:45am"}, {"days": "Sat", "time": "8:30am"}, {"days": "Sun", "time": "Closed"}], "id": "5726600002", "name": "USPS COLLECTION BOX - PO LOBBY", "address": {"city": "SUMMIT", "state": "SD", "street": "301 MAPLE ST", "postcode": "57266"}}},
{"geometry": {"type": "Point", "coordinates": [-96.6418696412, 44.5727831343]}, "type": "Feature", "properties": {"collection_times": [{"days": "Mon-Sat", "time": "3:25pm"}, {"days": "Sun", "time": "Closed"}], "id": "5726800001", "name": "USPS COLLECTION BOX - BLUE BOX", "address": {"city": "TORONTO", "state": "SD", "street": "540 MAIN AVE", "postcode": "57268"}}},
{"geometry": {"type": "Point", "coordinates": [-96.6418696412, 44.5727831343]}, "type": "Feature", "properties": {"collection_times": [{"days": "Mon-Fri", "time": "12:00pm"}, {"days": "Sat", "time": "9:30am"}, {"days": "Sun", "time": "Closed"}], "id": "5726800002", "name": "USPS COLLECTION BOX - PO LOBBY", "address": {"city": "TORONTO", "state": "SD", "street": "540 MAIN AVE", "postcode": "57268"}}},
{"geometry": {"type": "Point", "coordinates": [-96.7811520764, 45.2069004661]}, "type": "Feature", "properties": {"collection_times": [{"days": "Mon-Sat", "time": "1:45pm"}, {"days": "Sun", "time": "Closed"}], "id": "5726900001", "name": "USPS COLLECTION BOX - BLUE BOX", "address": {"city": "TWIN BROOKS", "state": "SD", "street": "101 MAIN ST", "postcode": "57269"}}},
{"geometry": {"type": "Point", "coordinates": [-96.7811520764, 45.2069004661]}, "type": "Feature", "properties": {"collection_times": [{"days": "Mon-Sat", "time": "12:15pm"}, {"days": "Sun", "time": "Closed"}], "id": "5726900002", "name": "USPS COLLECTION BOX - PO LOBBY", "address": {"city": "TWIN BROOKS", "state": "SD", "street": "101 MAIN ST", "postcode": "57269"}}},
{"geometry": {"type": "Point", "coordinates": [-97.2880484679, 45.8621944193]}, "type": "Feature", "properties": {"collection_times": [{"days": "Mon-Sat", "time": "3:50pm"}, {"days": "Sun", "time": "Closed"}], "id": "5727000001", "name": "USPS COLLECTION BOX - BLUE BOX", "address": {"city": "VEBLEN", "state": "SD", "street": "206 S MAIN ST", "postcode": "57270"}}},
{"geometry": {"type": "Point", "coordinates": [-97.2880484679, 45.8621944193]}, "type": "Feature", "properties": {"collection_times": [{"days": "Mon-Fri", "time": "12:00pm"}, {"days": "Sat", "time": "9:45am"}, {"days": "Sun", "time": "Closed"}], "id": "5727000002", "name": "USPS COLLECTION BOX - PO LOBBY", "address": {"city": "VEBLEN", "state": "SD", "street": "206 S MAIN ST", "postcode": "57270"}}},
{"geometry": {"type": "Point", "coordinates": [-97.4795117135, 45.0858796554]}, "type": "Feature", "properties": {"collection_times": [{"days": "Mon-Sat", "time": "2:25pm"}, {"days": "Sun", "time": "Closed"}], "id": "5727200001", "name": "USPS COLLECTION BOX - BLUE BOX", "address": {"city": "WALLACE", "state": "SD", "street": "602 MAIN ST", "postcode": "57272"}}},
{"geometry": {"type": "Point", "coordinates": [-97.4795117135, 45.0858796554]}, "type": "Feature", "properties": {"collection_times": [{"days": "Mon-Fri", "time": "2:25pm"}, {"days": "Sat-Sun", "time": "Closed"}], "id": "5727200002", "name": "USPS COLLECTION BOX - PO LOBBY", "address": {"city": "WALLACE", "state": "SD", "street": "602 MAIN ST", "postcode": "57272"}}},
{"geometry": {"type": "Point", "coordinates": [-97.3048284524, 45.3298055828]}, "type": "Feature", "properties": {"collection_times": [{"days": "Mon-Fri", "time": "4:45pm"}, {"days": "Sat", "time": "5:15pm"}, {"days": "Sun", "time": "Closed"}], "id": "5727300001", "name": "USPS COLLECTION BOX - BLUE BOX", "address": {"city": "WAUBAY", "state": "SD", "street": "105 N MAIN ST", "postcode": "57273"}}},
{"geometry": {"type": "Point", "coordinates": [-97.3048284524, 45.3298055828]}, "type": "Feature", "properties": {"collection_times": [{"days": "Mon-Fri", "time": "2:00pm"}, {"days": "Sat", "time": "10:00am"}, {"days": "Sun", "time": "Closed"}], "id": "5727300002", "name": "USPS COLLECTION BOX - PO LOBBY", "address": {"city": "WAUBAY", "state": "SD", "street": "105 N MAIN ST", "postcode": "57273"}}},
{"geometry": {"type": "Point", "coordinates": [-97.29475911, 45.3416959277]}, "type": "Feature", "properties": {"collection_times": [{"days": "Mon-Sat", "time": "1:00pm"}, {"days": "Sun", "time": "Closed"}], "id": "5727300003", "name": "USPS COLLECTION BOX - BLUE BOX", "address": {"city": "WAUBAY", "state": "SD", "street": "114 N MAIN ST", "postcode": "57273"}}},
{"geometry": {"type": "Point", "coordinates": [-97.5201993076, 45.3323571754]}, "type": "Feature", "properties": {"collection_times": [{"days": "Mon-Fri", "time": "5:00pm"}, {"days": "Sat", "time": "4:30pm"}, {"days": "Sun", "time": "Closed"}], "id": "5727400001", "name": "USPS COLLECTION BOX - BLUE BOX", "address": {"city": "WEBSTER", "state": "SD", "street": "715 MAIN ST", "postcode": "57274"}}},
{"geometry": {"type": "Point", "coordinates": [-97.5201993076, 45.3323571754]}, "type": "Feature", "properties": {"collection_times": [{"days": "Mon-Fri", "time": "4:30pm"}, {"days": "Sat", "time": "10:00am"}, {"days": "Sun", "time": "Closed"}], "id": "5727400004", "name": "USPS COLLECTION BOX - PO LOBBY", "address": {"city": "WEBSTER", "state": "SD", "street": "715 MAIN ST", "postcode": "57274"}}},
{"geometry": {"type": "Point", "coordinates": [-97.5198942582, 45.3397585549]}, "type": "Feature", "properties": {"collection_times": [{"days": "Mon-Sat", "time": "3:00pm"}, {"days": "Sun", "time": "Closed"}], "id": "5727400005", "name": "USPS COLLECTION BOX - BLUE BOX", "address": {"city": "WEBSTER", "state": "SD", "street": "1300 MAIN ST", "postcode": "57274"}}},
{"geometry": {"type": "Point", "coordinates": [-97.5200359108, 45.3303801299]}, "type": "Feature", "properties": {"collection_times": [{"days": "Mon-Sat", "time": "3:00pm"}, {"days": "Sun", "time": "Closed"}], "id": "5727400006", "name": "USPS COLLECTION BOX - BLUE BOX", "address": {"city": "WEBSTER", "state": "SD", "street": "516 MAIN ST", "postcode": "57274"}}},
{"geometry": {"type": "Point", "coordinates": [-96.6499862635, 44.4346935444]}, "type": "Feature", "properties": {"collection_times": [{"days": "Mon-Sat", "time": "3:30pm"}, {"days": "Sun", "time": "Closed"}], "id": "5727600001", "name": "USPS COLLECTION BOX - BLUE BOX", "address": {"city": "WHITE", "state": "SD", "street": "311 W MAIN ST", "postcode": "57276"}}},
{"geometry": {"type": "Point", "coordinates": [-97.6371863371, 44.6263350498]}, "type": "Feature", "properties": {"collection_times": [{"days": "Mon-Fri", "time": "4:15pm"}, {"days": "Sat", "time": "6:15pm"}, {"days": "Sun", "time": "Closed"}], "id": "5727800001", "name": "USPS COLLECTION BOX - BLUE BOX", "address": {"city": "WILLOW LAKE", "state": "SD", "street": "214 GARFIELD ST", "postcode": "57278"}}},
{"geometry": {"type": "Point", "coordinates": [-97.6371863371, 44.6263350498]}, "type": "Feature", "properties": {"collection_times": [{"days": "Mon-Fri", "time": "11:30am"}, {"days": "Sat", "time": "9:30am"}, {"days": "Sun", "time": "Closed"}], "id": "5727800002", "name": "USPS COLLECTION BOX - PO LOBBY", "address": {"city": "WILLOW LAKE", "state": "SD", "street": "214 GARFIELD AVE", "postcode": "57278"}}},
{"geometry": {"type": "Point", "coordinates": [-96.8576168475, 45.4097908079]}, "type": "Feature", "properties": {"collection_times": [{"days": "Mon-Fri", "time": "3:45pm"}, {"days": "Sat", "time": "4:00pm"}, {"days": "Sun", "time": "Closed"}], "id": "5727900001", "name": "USPS COLLECTION BOX - BLUE BOX", "address": {"city": "WILMOT", "state": "SD", "street": "713 MAIN ST", "postcode": "57279"}}},
{"geometry": {"type": "Point", "coordinates": [-96.8576168475, 45.4097908079]}, "type": "Feature", "properties": {"collection_times": [{"days": "Mon-Fri", "time": "2:30pm"}, {"days": "Sat", "time": "9:15am"}, {"days": "Sun", "time": "Closed"}], "id": "5727900002", "name": "USPS COLLECTION BOX - PO LOBBY", "address": {"city": "WILMOT", "state": "SD", "street": "713 MAIN ST", "postcode": "57279"}}}
]}
