{"type": "FeatureCollection", "features": [
{"geometry": {"type": "Point", "coordinates": [-98.0268988618, 43.702123265]}, "type": "Feature", "properties": {"collection_times": [{"days": "Mon-Sat", "time": "12:00pm"}, {"days": "Sun", "time": "Closed"}], "id": "5730100003", "name": "USPS COLLECTION BOX - BLUE BOX", "address": {"city": "MITCHELL", "state": "SD", "street": "201 W HAVENS AVE", "postcode": "57301"}}},
{"geometry": {"type": "Point", "coordinates": [-98.0326483371, 43.6988351719]}, "type": "Feature", "properties": {"collection_times": [{"days": "Mon-Sat", "time": "11:00am"}, {"days": "Sun", "time": "Closed"}], "id": "5730100004", "name": "USPS COLLECTION BOX - BLUE BOX", "address": {"city": "MITCHELL", "state": "SD", "street": "1200 W UNIVERSITY AVE", "postcode": "57301"}}},
{"geometry": {"type": "Point", "coordinates": [-98.0282264535, 43.7125013554]}, "type": "Feature", "properties": {"collection_times": [{"days": "Mon-Sat", "time": "2:00pm"}, {"days": "Sun", "time": "Closed"}], "id": "5730100006", "name": "USPS COLLECTION BOX - BLUE BOX", "address": {"city": "MITCHELL", "state": "SD", "street": "1305 W HAVENS AVE", "postcode": "57301"}}},
{"geometry": {"type": "Point", "coordinates": [-98.0239834251, 43.7105894382]}, "type": "Feature", "properties": {"collection_times": [{"days": "Mon-Sat", "time": "3:00pm"}, {"days": "Sun", "time": "Closed"}], "id": "5730100008", "name": "USPS COLLECTION BOX - BLUE BOX", "address": {"city": "MITCHELL", "state": "SD", "street": "210 N LAWLER ST", "postcode": "57301"}}},
{"geometry": {"type": "Point", "coordinates": [-98.0255603945, 43.7145028012]}, "type": "Feature", "properties": {"collection_times": [{"days": "Mon-Sat", "time": "3:00pm"}, {"days": "Sun", "time": "Closed"}], "id": "5730100013", "name": "USPS COLLECTION BOX - BLUE BOX", "address": {"city": "MITCHELL", "state": "SD", "street": "601 N MAIN ST", "postcode": "57301"}}},
{"geometry": {"type": "Point", "coordinates": [-98.0255247644, 43.7197605807]}, "type": "Feature", "properties": {"collection_times": [{"days": "Mon-Sat", "time": "3:00pm"}, {"days": "Sun", "time": "Closed"}], "id": "5730100014", "name": "USPS COLLECTION BOX - BLUE BOX", "address": {"city": "MITCHELL", "state": "SD", "street": "1100 N MAIN ST", "postcode": "57301"}}},
{"geometry": {"type": "Point", "coordinates": [-98.0255801483, 43.7266583394]}, "type": "Feature", "properties": {"collection_times": [{"days": "Mon-Sat", "time": "3:00pm"}, {"days": "Sun", "time": "Closed"}], "id": "5730100017", "name": "USPS COLLECTION BOX - BLUE BOX", "address": {"city": "MITCHELL", "state": "SD", "street": "1800 N MAIN ST", "postcode": "57301"}}},
{"geometry": {"type": "Point", "coordinates": [-98.0174596851, 43.6973788864]}, "type": "Feature", "properties": {"collection_times": [{"days": "Mon-Sat", "time": "11:00am"}, {"days": "Sun", "time": "Closed"}], "id": "5730100021", "name": "USPS COLLECTION BOX - BLUE BOX", "address": {"city": "MITCHELL", "state": "SD", "street": "1821 S BURR ST", "postcode": "57301"}}},
{"geometry": {"type": "Point", "coordinates": [-98.0269374007, 43.7135237864]}, "type": "Feature", "properties": {"collection_times": [{"days": "Mon-Sat", "time": "5:45pm"}, {"days": "Sun", "time": "Closed"}], "id": "5730100023", "name": "USPS COLLECTION BOX - BLUE BOX", "address": {"city": "MITCHELL", "state": "SD", "street": "200 W 5TH AVE", "postcode": "57301"}}},
{"geometry": {"type": "Point", "coordinates": [-98.0269374007, 43.7135237864]}, "type": "Feature", "properties": {"collection_times": [{"days": "Mon-Sat", "time": "5:45pm"}, {"days": "Sun", "time": "Closed"}], "id": "5730100024", "name": "USPS COLLECTION BOX - BLUE BOX", "address": {"city": "MITCHELL", "state": "SD", "street": "200 W 5TH AVE", "postcode": "57301"}}},
{"geometry": {"type": "Point", "coordinates": [-98.0269374007, 43.7135237864]}, "type": "Feature", "properties": {"collection_times": [{"days": "Mon-Sat", "time": "5:45pm"}, {"days": "Sun", "time": "Closed"}], "id": "5730100028", "name": "USPS COLLECTION BOX - PO LOBBY", "address": {"city": "MITCHELL", "state": "SD", "street": "200 W 5TH AVE", "postcode": "57301"}}},
{"geometry": {"type": "Point", "coordinates": [-98.0101550854, 43.6875596033]}, "type": "Feature", "properties": {"collection_times": [{"days": "Mon-Sat", "time": "2:00pm"}, {"days": "Sun", "time": "Closed"}], "id": "5730100030", "name": "USPS COLLECTION BOX - BLUE BOX", "address": {"city": "MITCHELL", "state": "SD", "street": "1005 E SPRUCE ST", "postcode": "57301"}}},
{"geometry": {"type": "Point", "coordinates": [-97.782842226, 43.6544815156]}, "type": "Feature", "properties": {"collection_times": [{"days": "Mon-Fri", "time": "4:15pm"}, {"days": "Sat", "time": "4:45pm"}, {"days": "Sun", "time": "Closed"}], "id": "5731100001", "name": "USPS COLLECTION BOX - BLUE BOX", "address": {"city": "ALEXANDRIA", "state": "SD", "street": "501 MAIN ST", "postcode": "57311"}}},
{"geometry": {"type": "Point", "coordinates": [-97.782842226, 43.6544815156]}, "type": "Feature", "properties": {"collection_times": [{"days": "Mon-Fri", "time": "3:00pm"}, {"days": "Sat", "time": "9:30am"}, {"days": "Sun", "time": "Closed"}], "id": "5731100002", "name": "USPS COLLECTION BOX - PO LOBBY", "address": {"city": "ALEXANDRIA", "state": "SD", "street": "501 MAIN ST", "postcode": "57311"}}},
{"geometry": {"type": "Point", "coordinates": [-98.3719642908, 44.1813943945]}, "type": "Feature", "properties": {"collection_times": [{"days": "Mon-Fri", "time": "4:00pm"}, {"days": "Sat", "time": "6:30pm"}, {"days": "Sun", "time": "Closed"}], "id": "5731200001", "name": "USPS COLLECTION BOX - BLUE BOX", "address": {"city": "ALPENA", "state": "SD", "street": "818 MAIN ST", "postcode": "57312"}}},
{"geometry": {"type": "Point", "coordinates": [-98.3719642908, 44.1813943945]}, "type": "Feature", "properties": {"collection_times": [{"days": "Mon-Fri", "time": "12:00pm"}, {"days": "Sat", "time": "9:15am"}, {"days": "Sun", "time": "Closed"}], "id": "5731200002", "name": "USPS COLLECTION BOX - PO LOBBY", "address": {"city": "ALPENA", "state": "SD", "street": "818 MAIN ST", "postcode": "57312"}}},
{"geometry": {"type": "Point", "coordinates": [-98.3464501822, 43.3190397019]}, "type": "Feature", "properties": {"collection_times": [{"days": "Mon-Fri", "time": "4:15pm"}, {"days": "Sat", "time": "9:30am"}, {"days": "Sun", "time": "Closed"}], "id": "5731300002", "name": "USPS COLLECTION BOX - PO LOBBY", "address": {"city": "ARMOUR", "state": "SD", "street": "814 MAIN AVE", "postcode": "57313"}}},
{"geometry": {"type": "Point", "coordinates": [-98.3464501822, 43.3190397019]}, "type": "Feature", "properties": {"collection_times": [{"days": "Mon-Sat", "time": "4:15pm"}, {"days": "Sun", "time": "Closed"}], "id": "5731300004", "name": "USPS COLLECTION BOX - BLUE BOX", "address": {"city": "ARMOUR", "state": "SD", "street": "814 MAIN AVE", "postcode": "57313"}}},
{"geometry": {"type": "Point", "coordinates": [-97.9213862336, 44.0084475561]}, "type": "Feature", "properties": {"collection_times": [{"days": "Mon-Sat", "time": "4:00pm"}, {"days": "Sun", "time": "Closed"}], "id": "5731400001", "name": "USPS COLLECTION BOX - BLUE BOX", "address": {"city": "ARTESIAN", "state": "SD", "street": "225 N MAIN ST", "postcode": "57314"}}},
{"geometry": {"type": "Point", "coordinates": [-98.06018475, 43.0041039495]}, "type": "Feature", "properties": {"collection_times": [{"days": "Mon-Sat", "time": "3:15pm"}, {"days": "Sun", "time": "Closed"}], "id": "5731500001", "name": "USPS COLLECTION BOX - BLUE BOX", "address": {"city": "AVON", "state": "SD", "street": "129 MAIN ST N", "postcode": "57315"}}},
{"geometry": {"type": "Point", "coordinates": [-98.06018475, 43.0041039495]}, "type": "Feature", "properties": {"collection_times": [{"days": "Mon-Fri", "time": "3:15pm"}, {"days": "Sat", "time": "9:30am"}, {"days": "Sun", "time": "Closed"}], "id": "5731500002", "name": "USPS COLLECTION BOX - PO LOBBY", "address": {"city": "AVON", "state": "SD", "street": "129 MAIN ST N", "postcode": "57315"}}},
{"geometry": {"type": "Point", "coordinates": [-99.0411848592, 43.0403155942]}, "type": "Feature", "properties": {"collection_times": [{"days": "Mon-Sat", "time": "3:00pm"}, {"days": "Sun", "time": "Closed"}], "id": "5731700000", "name": "USPS COLLECTION BOX - BLUE BOX", "address": {"city": "BONESTEEL", "state": "SD", "street": "405 MELLETTE ST", "postcode": "57317"}}},
{"geometry": {"type": "Point", "coordinates": [-99.0411848592, 43.0403155942]}, "type": "Feature", "properties": {"collection_times": [{"days": "Mon-Fri", "time": "12:30pm"}, {"days": "Sat", "time": "10:30am"}, {"days": "Sun", "time": "Closed"}], "id": "5731700001", "name": "USPS COLLECTION BOX - PO LOBBY", "address": {"city": "BONESTEEL", "state": "SD", "street": "405 MELLETTE ST", "postcode": "57317"}}},
{"geometry": {"type": "Point", "coordinates": [-97.5023156881, 43.5500963716]}, "type": "Feature", "properties": {"collection_times": [{"days": "Mon-Fri", "time": "4:00pm"}, {"days": "Sat", "time": "4:30pm"}, {"days": "Sun", "time": "Closed"}], "id": "5731900001", "name": "USPS COLLECTION BOX - BLUE BOX", "address": {"city": "BRIDGEWATER", "state": "SD", "street": "235 N MAIN AVE", "postcode": "57319"}}},
{"geometry": {"type": "Point", "coordinates": [-97.5023156881, 43.5500963716]}, "type": "Feature", "properties": {"collection_times": [{"days": "Mon-Fri", "time": "11:30am"}, {"days": "Sat", "time": "9:00am"}, {"days": "Sun", "time": "Closed"}], "id": "5731900002", "name": "USPS COLLECTION BOX - PO LOBBY", "address": {"city": "BRIDGEWATER", "state": "SD", "street": "235 N MAIN AVE", "postcode": "57319"}}},
{"geometry": {"type": "Point", "coordinates": [-97.5015009286, 43.8811621206]}, "type": "Feature", "properties": {"collection_times": [{"days": "Mon-Fri", "time": "4:00pm"}, {"days": "Sat", "time": "3:30pm"}, {"days": "Sun", "time": "Closed"}], "id": "5732100001", "name": "USPS COLLECTION BOX - BLUE BOX", "address": {"city": "CANOVA", "state": "SD", "street": "120 MAIN ST W", "postcode": "57321"}}},
{"geometry": {"type": "Point", "coordinates": [-97.5015009286, 43.8811621206]}, "type": "Feature", "properties": {"collection_times": [{"days": "Mon-Sat", "time": "11:45am"}, {"days": "Sun", "time": "Closed"}], "id": "5732100002", "name": "USPS COLLECTION BOX - PO LOBBY", "address": {"city": "CANOVA", "state": "SD", "street": "120 MAIN ST W", "postcode": "57321"}}},
{"geometry": {"type": "Point", "coordinates": [-97.9247660952, 44.6314939324]}, "type": "Feature", "properties": {"collection_times": [{"days": "Mon-Sat", "time": "6:45pm"}, {"days": "Sun", "time": "Closed"}], "id": "5732200001", "name": "USPS COLLECTION BOX - BLUE BOX", "address": {"city": "CARPENTER", "state": "SD", "street": "531 415TH AVE", "postcode": "57322"}}},
{"geometry": {"type": "Point", "coordinates": [-97.9247660952, 44.6314939324]}, "type": "Feature", "properties": {"collection_times": [{"days": "Mon-Fri", "time": "2:15pm"}, {"days": "Sat", "time": "11:15am"}, {"days": "Sun", "time": "Closed"}], "id": "5732200002", "name": "USPS COLLECTION BOX - PO LOBBY", "address": {"city": "CARPENTER", "state": "SD", "street": "531 415TH AVE", "postcode": "57322"}}},
{"geometry": {"type": "Point", "coordinates": [-97.716202001, 44.1711845181]}, "type": "Feature", "properties": {"collection_times": [{"days": "Mon-Fri", "time": "4:25pm"}, {"days": "Sat", "time": "4:30pm"}, {"days": "Sun", "time": "Closed"}], "id": "5732300001", "name": "USPS COLLECTION BOX - BLUE BOX", "address": {"city": "CARTHAGE", "state": "SD", "street": "121 MAIN ST E", "postcode": "57323"}}},
{"geometry": {"type": "Point", "coordinates": [-97.716202001, 44.1711845181]}, "type": "Feature", "properties": {"collection_times": [{"days": "Mon-Fri", "time": "2:00pm"}, {"days": "Sat", "time": "11:00am"}, {"days": "Sun", "time": "Closed"}], "id": "5732300002", "name": "USPS COLLECTION BOX - PO LOBBY", "address": {"city": "CARTHAGE", "state": "SD", "street": "121 MAIN ST E", "postcode": "57323"}}},
{"geometry": {"type": "Point", "coordinates": [-98.0374552478, 44.3699730401]}, "type": "Feature", "properties": {"collection_times": [{"days": "Mon-Fri", "time": "4:15pm"}, {"days": "Sat", "time": "6:00pm"}, {"days": "Sun", "time": "Closed"}], "id": "5732400001", "name": "USPS COLLECTION BOX - BLUE BOX", "address": {"city": "CAVOUR", "state": "SD", "street": "391 SOLFERINO ST", "postcode": "57324"}}},
{"geometry": {"type": "Point", "coordinates": [-98.0374552478, 44.3699730401]}, "type": "Feature", "properties": {"collection_times": [{"days": "Mon-Fri", "time": "12:00pm"}, {"days": "Sat", "time": "9:15am"}, {"days": "Sun", "time": "Closed"}], "id": "5732400002", "name": "USPS COLLECTION BOX - PO LOBBY", "address": {"city": "CAVOUR", "state": "SD", "street": "391 SOLFERINO ST", "postcode": "57324"}}},
{"geometry": {"type": "Point", "coordinates": [-99.3300293412, 43.8111569802]}, "type": "Feature", "properties": {"collection_times": [{"days": "Mon-Fri", "time": "3:45pm"}, {"days": "Sat-Sun", "time": "Closed"}], "id": "5732500003", "name": "USPS COLLECTION BOX - BLUE BOX", "address": {"city": "CHAMBERLAIN", "state": "SD", "street": "120 N MAIN ST", "postcode": "57325"}}},
{"geometry": {"type": "Point", "coordinates": [-99.3327692517, 43.8094622649]}, "type": "Feature", "properties": {"collection_times": [{"days": "Mon-Sat", "time": "11:30am"}, {"days": "Sun", "time": "Closed"}], "id": "5732500004", "name": "USPS COLLECTION BOX - BLUE BOX", "address": {"city": "CHAMBERLAIN", "state": "SD", "street": "300 S COURTLAND ST", "postcode": "57325"}}},
{"geometry": {"type": "Point", "coordinates": [-99.3290258422, 43.8106143604]}, "type": "Feature", "properties": {"collection_times": [{"days": "Mon-Sat", "time": "4:30pm"}, {"days": "Sun", "time": "Closed"}], "id": "5732500006", "name": "USPS COLLECTION BOX - BLUE BOX", "address": {"city": "CHAMBERLAIN", "state": "SD", "street": "108 N SANBORN ST", "postcode": "57325"}}},
{"geometry": {"type": "Point", "coordinates": [-99.3290258422, 43.8106143604]}, "type": "Feature", "properties": {"collection_times": [{"days": "Mon-Fri", "time": "4:30pm"}, {"days": "Sat", "time": "12:00pm"}, {"days": "Sun", "time": "Closed"}], "id": "5732500007", "name": "USPS COLLECTION BOX - PO LOBBY", "address": {"city": "CHAMBERLAIN", "state": "SD", "street": "108 N SANBORN ST", "postcode": "57325"}}},
{"geometry": {"type": "Point", "coordinates": [-98.4077851018, 43.4236792361]}, "type": "Feature", "properties": {"collection_times": [{"days": "Mon-Fri", "time": "4:00pm"}, {"days": "Sat", "time": "5:00pm"}, {"days": "Sun", "time": "Closed"}], "id": "5732800001", "name": "USPS COLLECTION BOX - BLUE BOX", "address": {"city": "CORSICA", "state": "SD", "street": "225 E MAIN ST", "postcode": "57328"}}},
{"geometry": {"type": "Point", "coordinates": [-98.4077851018, 43.4236792361]}, "type": "Feature", "properties": {"collection_times": [{"days": "Mon-Fri", "time": "4:00pm"}, {"days": "Sat", "time": "10:00am"}, {"days": "Sun", "time": "Closed"}], "id": "5732800002", "name": "USPS COLLECTION BOX - PO LOBBY", "address": {"city": "CORSICA", "state": "SD", "street": "225 E MAIN ST", "postcode": "57328"}}},
{"geometry": {"type": "Point", "coordinates": [-98.1625952758, 43.2675273082]}, "type": "Feature", "properties": {"collection_times": [{"days": "Mon-Fri", "time": "4:15pm"}, {"days": "Sat", "time": "4:30pm"}, {"days": "Sun", "time": "Closed"}], "id": "5733000001", "name": "USPS COLLECTION BOX - BLUE BOX", "address": {"city": "DELMONT", "state": "SD", "street": "109 W MAIN ST", "postcode": "57330"}}},
{"geometry": {"type": "Point", "coordinates": [-98.1625952758, 43.2675273082]}, "type": "Feature", "properties": {"collection_times": [{"days": "Mon-Fri", "time": "11:30am"}, {"days": "Sat", "time": "9:15am"}, {"days": "Sun", "time": "Closed"}], "id": "5733000002", "name": "USPS COLLECTION BOX - PO LOBBY", "address": {"city": "DELMONT", "state": "SD", "street": "109 W MAIN ST", "postcode": "57330"}}},
{"geometry": {"type": "Point", "coordinates": [-97.9856769711, 43.4742361888]}, "type": "Feature", "properties": {"collection_times": [{"days": "Mon-Sat", "time": "5:15pm"}, {"days": "Sun", "time": "Closed"}], "id": "5733100001", "name": "USPS COLLECTION BOX - BLUE BOX", "address": {"city": "DIMOCK", "state": "SD", "street": "501 S MAIN ST", "postcode": "57331"}}},
{"geometry": {"type": "Point", "coordinates": [-97.9856769711, 43.4742361888]}, "type": "Feature", "properties": {"collection_times": [{"days": "Mon-Fri", "time": "3:00pm"}, {"days": "Sat", "time": "11:00am"}, {"days": "Sun", "time": "Closed"}], "id": "5733100002", "name": "USPS COLLECTION BOX - PO LOBBY", "address": {"city": "DIMOCK", "state": "SD", "street": "501 S MAIN ST", "postcode": "57331"}}},
{"geometry": {"type": "Point", "coordinates": [-97.6224329946, 43.6024536783]}, "type": "Feature", "properties": {"collection_times": [{"days": "Mon-Fri", "time": "4:15pm"}, {"days": "Sat", "time": "4:45pm"}, {"days": "Sun", "time": "Closed"}], "id": "5733200001", "name": "USPS COLLECTION BOX - BLUE BOX", "address": {"city": "EMERY", "state": "SD", "street": "124 N 3RD ST", "postcode": "57332"}}},
{"geometry": {"type": "Point", "coordinates": [-97.6224329946, 43.6024536783]}, "type": "Feature", "properties": {"collection_times": [{"days": "Mon-Fri", "time": "12:00pm"}, {"days": "Sat", "time": "9:15am"}, {"days": "Sun", "time": "Closed"}], "id": "5733200002", "name": "USPS COLLECTION BOX - PO LOBBY", "address": {"city": "EMERY", "state": "SD", "street": "124 N 3RD ST", "postcode": "57332"}}},
{"geometry": {"type": "Point", "coordinates": [-97.9866061244, 43.5475186293]}, "type": "Feature", "properties": {"collection_times": [{"days": "Mon-Sat", "time": "4:15pm"}, {"days": "Sun", "time": "Closed"}], "id": "5733400001", "name": "USPS COLLECTION BOX - BLUE BOX", "address": {"city": "ETHAN", "state": "SD", "street": "102 W MAIN ST", "postcode": "57334"}}},
{"geometry": {"type": "Point", "coordinates": [-97.9866061244, 43.5475186293]}, "type": "Feature", "properties": {"collection_times": [{"days": "Mon-Fri", "time": "12:00pm"}, {"days": "Sat", "time": "9:15am"}, {"days": "Sun", "time": "Closed"}], "id": "5733400002", "name": "USPS COLLECTION BOX - PO LOBBY", "address": {"city": "ETHAN", "state": "SD", "street": "102 W MAIN ST", "postcode": "57334"}}},
{"geometry": {"type": "Point", "coordinates": [-98.7641360441, 43.0591694113]}, "type": "Feature", "properties": {"collection_times": [{"days": "Mon-Sat", "time": "3:20pm"}, {"days": "Sun", "time": "Closed"}], "id": "5733500001", "name": "USPS COLLECTION BOX - BLUE BOX", "address": {"city": "FAIRFAX", "state": "SD", "street": "412 MAIN ST", "postcode": "57335"}}},
{"geometry": {"type": "Point", "coordinates": [-98.7641360441, 43.0591694113]}, "type": "Feature", "properties": {"collection_times": [{"days": "Mon-Fri", "time": "2:30pm"}, {"days": "Sat", "time": "10:15am"}, {"days": "Sun", "time": "Closed"}], "id": "5733500002", "name": "USPS COLLECTION BOX - PO LOBBY", "address": {"city": "FAIRFAX", "state": "SD", "street": "412 MAIN ST", "postcode": "57335"}}},
{"geometry": {"type": "Point", "coordinates": [-97.7909, 43.996273]}, "type": "Feature", "properties": {"collection_times": [{"days": "Mon-Sat", "time": "5:00pm"}, {"days": "Sun", "time": "Closed"}], "id": "5733700001", "name": "USPS COLLECTION BOX - BLUE BOX", "address": {"city": "FEDORA", "state": "SD", "street": "23310 421ST AVE", "postcode": "57337"}}},
{"geometry": {"type": "Point", "coordinates": [-99.43785, 44.068752]}, "type": "Feature", "properties": {"collection_times": [{"days": "Mon-Fri", "time": "4:00pm"}, {"days": "Sat", "time": "11:30am"}, {"days": "Sun", "time": "Closed"}], "id": "5733900001", "name": "USPS COLLECTION BOX - BLUE BOX", "address": {"city": "FT THOMPSON", "state": "SD", "street": "119 SD HIGHWAY 249", "postcode": "57339"}}},
{"geometry": {"type": "Point", "coordinates": [-99.3274829847, 44.0658282707]}, "type": "Feature", "properties": {"collection_times": [{"days": "Mon-Fri", "time": "3:30pm"}, {"days": "Sat", "time": "12:00pm"}, {"days": "Sun", "time": "Closed"}], "id": "5733900002", "name": "USPS COLLECTION BOX - PO LOBBY", "address": {"city": "FT THOMPSON", "state": "SD", "street": "119 SD HIGHWAY 249", "postcode": "57339"}}},
{"geometry": {"type": "Point", "coordinates": [-97.8231938188, 43.7247703105]}, "type": "Feature", "properties": {"collection_times": [{"days": "Mon-Fri", "time": "4:15pm"}, {"days": "Sat", "time": "5:00pm"}, {"days": "Sun", "time": "Closed"}], "id": "5734000001", "name": "USPS COLLECTION BOX - BLUE BOX", "address": {"city": "FULTON", "state": "SD", "street": "217 N MAIN AVE", "postcode": "57340"}}},
{"geometry": {"type": "Point", "coordinates": [-97.8231938188, 43.7247703105]}, "type": "Feature", "properties": {"collection_times": [{"days": "Mon-Fri", "time": "12:00pm"}, {"days": "Sat", "time": "11:00am"}, {"days": "Sun", "time": "Closed"}], "id": "5734000002", "name": "USPS COLLECTION BOX - PO LOBBY", "address": {"city": "FULTON", "state": "SD", "street": "217 N MAIN AVE", "postcode": "57340"}}},
{"geometry": {"type": "Point", "coordinates": [-99.0168269209, 44.0656393063]}, "type": "Feature", "properties": {"collection_times": [{"days": "Mon-Sat", "time": "5:30pm"}, {"days": "Sun", "time": "Closed"}], "id": "5734100001", "name": "USPS COLLECTION BOX - BLUE BOX", "address": {"city": "GANN VALLEY", "state": "SD", "street": "229 MAIN ST", "postcode": "57341"}}},
{"geometry": {"type": "Point", "coordinates": [-99.0168269209, 44.0656393063]}, "type": "Feature", "properties": {"collection_times": [{"days": "Mon-Fri", "time": "2:00pm"}, {"days": "Sat", "time": "12:00pm"}, {"days": "Sun", "time": "Closed"}], "id": "5734100002", "name": "USPS COLLECTION BOX - PO LOBBY", "address": {"city": "GANN VALLEY", "state": "SD", "street": "229 MAIN ST", "postcode": "57341"}}},
{"geometry": {"type": "Point", "coordinates": [-98.6955020858, 43.2533317085]}, "type": "Feature", "properties": {"collection_times": [{"days": "Mon-Fri", "time": "3:30pm"}, {"days": "Sat", "time": "4:15pm"}, {"days": "Sun", "time": "Closed"}], "id": "5734200001", "name": "USPS COLLECTION BOX - BLUE BOX", "address": {"city": "GEDDES", "state": "SD", "street": "312 MAIN AVE", "postcode": "57342"}}},
{"geometry": {"type": "Point", "coordinates": [-98.6955020858, 43.2533317085]}, "type": "Feature", "properties": {"collection_times": [{"days": "Mon-Fri", "time": "11:30am"}, {"days": "Sat", "time": "9:30am"}, {"days": "Sun", "time": "Closed"}], "id": "5734200002", "name": "USPS COLLECTION BOX - PO LOBBY", "address": {"city": "GEDDES", "state": "SD", "street": "312 MAIN AVE", "postcode": "57342"}}},
{"geometry": {"type": "Point", "coordinates": [-99.4402413116, 44.5201992776]}, "type": "Feature", "properties": {"collection_times": [{"days": "Mon-Sat", "time": "4:00pm"}, {"days": "Sun", "time": "Closed"}], "id": "5734500001", "name": "USPS COLLECTION BOX - BLUE BOX", "address": {"city": "HIGHMORE", "state": "SD", "street": "111 COMMERCIAL AVE SE", "postcode": "57345"}}},
{"geometry": {"type": "Point", "coordinates": [-99.4402413116, 44.5201992776]}, "type": "Feature", "properties": {"collection_times": [{"days": "Mon-Fri", "time": "4:00pm"}, {"days": "Sat", "time": "10:30am"}, {"days": "Sun", "time": "Closed"}], "id": "5734500003", "name": "USPS COLLECTION BOX - PO LOBBY", "address": {"city": "HIGHMORE", "state": "SD", "street": "111 COMMERCIAL AVE SE", "postcode": "57345"}}},
{"geometry": {"type": "Point", "coordinates": [-98.4065228509, 44.6304155254]}, "type": "Feature", "properties": {"collection_times": [{"days": "Mon-Fri", "time": "3:45pm"}, {"days": "Sat", "time": "5:45pm"}, {"days": "Sun", "time": "Closed"}], "id": "5734800001", "name": "USPS COLLECTION BOX - BLUE BOX", "address": {"city": "HITCHCOCK", "state": "SD", "street": "386 CLARKE ST", "postcode": "57348"}}},
{"geometry": {"type": "Point", "coordinates": [-98.4065228509, 44.6304155254]}, "type": "Feature", "properties": {"collection_times": [{"days": "Mon-Fri", "time": "11:30am"}, {"days": "Sat", "time": "8:45am"}, {"days": "Sun", "time": "Closed"}], "id": "5734800002", "name": "USPS COLLECTION BOX - PO LOBBY", "address": {"city": "HITCHCOCK", "state": "SD", "street": "386 CLARKE ST", "postcode": "57348"}}},
{"geometry": {"type": "Point", "coordinates": [-97.5267551598, 44.0111635596]}, "type": "Feature", "properties": {"collection_times": [{"days": "Mon-Sat", "time": "4:45pm"}, {"days": "Sun", "time": "Closed"}], "id": "5734900001", "name": "USPS COLLECTION BOX - BLUE BOX", "address": {"city": "HOWARD", "state": "SD", "street": "100 N MAIN ST", "postcode": "57349"}}},
{"geometry": {"type": "Point", "coordinates": [-97.5267551598, 44.0111635596]}, "type": "Feature", "properties": {"collection_times": [{"days": "Mon-Fri", "time": "4:45pm"}, {"days": "Sat", "time": "9:30am"}, {"days": "Sun", "time": "Closed"}], "id": "5734900002", "name": "USPS COLLECTION BOX - PO LOBBY", "address": {"city": "HOWARD", "state": "SD", "street": "100 N MAIN ST", "postcode": "57349"}}},
{"geometry": {"type": "Point", "coordinates": [-98.2215817428, 44.3632046796]}, "type": "Feature", "properties": {"collection_times": [{"days": "Mon-Fri", "time": "3:00pm"}, {"days": "Sat-Sun", "time": "Closed"}], "id": "5735000006", "name": "USPS COLLECTION BOX - BLUE BOX", "address": {"city": "HURON", "state": "SD", "street": "450 3RD ST SW", "postcode": "57350"}}},
{"geometry": {"type": "Point", "coordinates": [-98.2140659293, 44.3434889528]}, "type": "Feature", "properties": {"collection_times": [{"days": "Mon-Fri", "time": "3:00pm"}, {"days": "Sat", "time": "2:00pm"}, {"days": "Sun", "time": "Closed"}], "id": "5735000010", "name": "USPS COLLECTION BOX - BLUE BOX", "address": {"city": "HURON", "state": "SD", "street": "1950 DAKOTA AVE S", "postcode": "57350"}}},
{"geometry": {"type": "Point", "coordinates": [-98.2140236849, 44.3619035883]}, "type": "Feature", "properties": {"collection_times": [{"days": "Mon-Fri", "time": "5:15pm"}, {"days": "Sat", "time": "5:30pm"}, {"days": "Sun", "time": "Closed"}], "id": "5735000015", "name": "USPS COLLECTION BOX - BLUE BOX", "address": {"city": "HURON", "state": "SD", "street": "410 DAKOTA AVE S", "postcode": "57350"}}},
{"geometry": {"type": "Point", "coordinates": [-98.2140236849, 44.3619035883]}, "type": "Feature", "properties": {"collection_times": [{"days": "Mon-Fri", "time": "5:15pm"}, {"days": "Sat", "time": "5:30pm"}, {"days": "Sun", "time": "Closed"}], "id": "5735000021", "name": "USPS COLLECTION BOX - BLUE BOX", "address": {"city": "HURON", "state": "SD", "street": "410 DAKOTA AVE S", "postcode": "57350"}}},
{"geometry": {"type": "Point", "coordinates": [-98.2140236849, 44.3619035883]}, "type": "Feature", "properties": {"collection_times": [{"days": "Mon-Fri", "time": "5:15pm"}, {"days": "Sat", "time": "3:00pm"}, {"days": "Sun", "time": "Closed"}], "id": "5735000022", "name": "USPS COLLECTION BOX - PO LOBBY", "address": {"city": "HURON", "state": "SD", "street": "410 DAKOTA AVE S", "postcode": "57350"}}},
{"geometry": {"type": "Point", "coordinates": [-98.2157980789, 44.3637788076]}, "type": "Feature", "properties": {"collection_times": [{"days": "Mon-Fri", "time": "3:00pm"}, {"days": "Sat-Sun", "time": "Closed"}], "id": "5735000024", "name": "USPS COLLECTION BOX - BLUE BOX", "address": {"city": "HURON", "state": "SD", "street": "256 WISCONSIN AVE SW", "postcode": "57350"}}},
{"geometry": {"type": "Point", "coordinates": [-98.2139535348, 44.3409651084]}, "type": "Feature", "properties": {"collection_times": [{"days": "Mon-Sat", "time": "12:00pm"}, {"days": "Sun", "time": "Closed"}], "id": "5735000025", "name": "USPS COLLECTION BOX - BLUE BOX", "address": {"city": "HURON", "state": "SD", "street": "2150 DAKOTA AVE S", "postcode": "57350"}}},
{"geometry": {"type": "Point", "coordinates": [-98.2140558716, 44.367129754]}, "type": "Feature", "properties": {"collection_times": [{"days": "Mon-Fri", "time": "11:00am"}, {"days": "Sat", "time": "10:30am"}, {"days": "Sun", "time": "Closed"}], "id": "5735000026", "name": "USPS COLLECTION BOX - BLUE BOX", "address": {"city": "HURON", "state": "SD", "street": "102 DAKOTA AVE N", "postcode": "57350"}}},
{"geometry": {"type": "Point", "coordinates": [-98.2151485901, 44.3588730636]}, "type": "Feature", "properties": {"collection_times": [{"days": "Mon-Fri", "time": "3:00pm"}, {"days": "Sat-Sun", "time": "Closed"}], "id": "5735000028", "name": "USPS COLLECTION BOX - BLUE BOX", "address": {"city": "HURON", "state": "SD", "street": "200 4TH ST SW", "postcode": "57350"}}},
{"geometry": {"type": "Point", "coordinates": [-97.8492365648, 44.3670559617]}, "type": "Feature", "properties": {"collection_times": [{"days": "Mon-Fri", "time": "4:15pm"}, {"days": "Sat", "time": "5:45pm"}, {"days": "Sun", "time": "Closed"}], "id": "5735300001", "name": "USPS COLLECTION BOX - BLUE BOX", "address": {"city": "IROQUOIS", "state": "SD", "street": "199 S OTTOWA ST", "postcode": "57353"}}},
{"geometry": {"type": "Point", "coordinates": [-97.8492365648, 44.3670559617]}, "type": "Feature", "properties": {"collection_times": [{"days": "Mon-Fri", "time": "11:30am"}, {"days": "Sat", "time": "8:45am"}, {"days": "Sun", "time": "Closed"}], "id": "5735300002", "name": "USPS COLLECTION BOX - PO LOBBY", "address": {"city": "IROQUOIS", "state": "SD", "street": "199 S OTTOWA ST", "postcode": "57353"}}},
{"geometry": {"type": "Point", "coordinates": [-97.8384583382, 43.1871728105]}, "type": "Feature", "properties": {"collection_times": [{"days": "Mon-Sat", "time": "3:50pm"}, {"days": "Sun", "time": "Closed"}], "id": "5735400001", "name": "USPS COLLECTION BOX - BLUE BOX", "address": {"city": "KAYLOR", "state": "SD", "street": "105 MAIN ST", "postcode": "57354"}}},
{"geometry": {"type": "Point", "coordinates": [-97.8384583382, 43.1871728105]}, "type": "Feature", "properties": {"collection_times": [{"days": "Mon-Fri", "time": "2:30pm"}, {"days": "Sat", "time": "11:30am"}, {"days": "Sun", "time": "Closed"}], "id": "5735400002", "name": "USPS COLLECTION BOX - PO LOBBY", "address": {"city": "KAYLOR", "state": "SD", "street": "105 MAIN ST", "postcode": "57354"}}},
{"geometry": {"type": "Point", "coordinates": [-98.9580323983, 43.7463661963]}, "type": "Feature", "properties": {"collection_times": [{"days": "Mon-Sat", "time": "3:10pm"}, {"days": "Sun", "time": "Closed"}], "id": "5735500001", "name": "USPS COLLECTION BOX - BLUE BOX", "address": {"city": "KIMBALL", "state": "SD", "street": "212 S MAIN ST", "postcode": "57355"}}},
{"geometry": {"type": "Point", "coordinates": [-98.9580323983, 43.7463661963]}, "type": "Feature", "properties": {"collection_times": [{"days": "Mon-Fri", "time": "3:00pm"}, {"days": "Sat", "time": "9:45am"}, {"days": "Sun", "time": "Closed"}], "id": "5735500002", "name": "USPS COLLECTION BOX - PO LOBBY", "address": {"city": "KIMBALL", "state": "SD", "street": "212 S MAIN ST", "postcode": "57355"}}},
{"geometry": {"type": "Point", "coordinates": [-98.4989773843, 43.1527038818]}, "type": "Feature", "properties": {"collection_times": [{"days": "Mon-Sat", "time": "3:45pm"}, {"days": "Sun", "time": "Closed"}], "id": "5735600001", "name": "USPS COLLECTION BOX - BLUE BOX", "address": {"city": "LAKE ANDES", "state": "SD", "street": "499 MAIN ST", "postcode": "57356"}}},
{"geometry": {"type": "Point", "coordinates": [-98.4989773843, 43.1527038818]}, "type": "Feature", "properties": {"collection_times": [{"days": "Mon-Fri", "time": "3:45pm"}, {"days": "Sat", "time": "10:00am"}, {"days": "Sun", "time": "Closed"}], "id": "5735600002", "name": "USPS COLLECTION BOX - PO LOBBY", "address": {"city": "LAKE ANDES", "state": "SD", "street": "499 MAIN ST", "postcode": "57356"}}},
{"geometry": {"type": "Point", "coordinates": [-98.1387162474, 43.8982205532]}, "type": "Feature", "properties": {"collection_times": [{"days": "Mon-Sat", "time": "4:00pm"}, {"days": "Sun", "time": "Closed"}], "id": "5735900001", "name": "USPS COLLECTION BOX - BLUE BOX", "address": {"city": "LETCHER", "state": "SD", "street": "119 E MAIN ST", "postcode": "57359"}}},
{"geometry": {"type": "Point", "coordinates": [-98.1387162474, 43.8982205532]}, "type": "Feature", "properties": {"collection_times": [{"days": "Mon-Fri", "time": "12:00pm"}, {"days": "Sat", "time": "9:30am"}, {"days": "Sun", "time": "Closed"}], "id": "5735900002", "name": "USPS COLLECTION BOX - PO LOBBY", "address": {"city": "LETCHER", "state": "SD", "street": "119 E MAIN ST", "postcode": "57359"}}},
{"geometry": {"type": "Point", "coordinates": [-98.988598362, 44.5185148885]}, "type": "Feature", "properties": {"collection_times": [{"days": "Mon-Fri", "time": "4:15pm"}, {"days": "Sat", "time": "4:30pm"}, {"days": "Sun", "time": "Closed"}], "id": "5736200002", "name": "USPS COLLECTION BOX - BLUE BOX", "address": {"city": "MILLER", "state": "SD", "street": "320 N BROADWAY AVE", "postcode": "57362"}}},
{"geometry": {"type": "Point", "coordinates": [-98.988598362, 44.5185148885]}, "type": "Feature", "properties": {"collection_times": [{"days": "Mon-Fri", "time": "4:00pm"}, {"days": "Sat", "time": "10:00am"}, {"days": "Sun", "time": "Closed"}], "id": "5736200006", "name": "USPS COLLECTION BOX - PO LOBBY", "address": {"city": "MILLER", "state": "SD", "street": "320 N BROADWAY AVE", "postcode": "57362"}}},
{"geometry": {"type": "Point", "coordinates": [-98.2606764869, 43.7095075269]}, "type": "Feature", "properties": {"collection_times": [{"days": "Mon-Fri", "time": "4:15pm"}, {"days": "Sat", "time": "6:00pm"}, {"days": "Sun", "time": "Closed"}], "id": "5736300001", "name": "USPS COLLECTION BOX - BLUE BOX", "address": {"city": "MOUNT VERNON", "state": "SD", "street": "115 S MAIN ST", "postcode": "57363"}}},
{"geometry": {"type": "Point", "coordinates": [-98.2606764869, 43.7095075269]}, "type": "Feature", "properties": {"collection_times": [{"days": "Mon-Fri", "time": "11:00am"}, {"days": "Sat", "time": "9:00am"}, {"days": "Sun", "time": "Closed"}], "id": "5736300003", "name": "USPS COLLECTION BOX - PO LOBBY", "address": {"city": "MOUNT VERNON", "state": "SD", "street": "115 S MAIN ST", "postcode": "57363"}}},
{"geometry": {"type": "Point", "coordinates": [-98.6086150652, 43.4266743133]}, "type": "Feature", "properties": {"collection_times": [{"days": "Mon-Fri", "time": "1:45pm"}, {"days": "Sat", "time": "10:45am"}, {"days": "Sun", "time": "Closed"}], "id": "5736400001", "name": "USPS COLLECTION BOX - BLUE BOX", "address": {"city": "NEW HOLLAND", "state": "SD", "street": "208 E MAIN ST", "postcode": "57364"}}},
{"geometry": {"type": "Point", "coordinates": [-98.6086150652, 43.4266743133]}, "type": "Feature", "properties": {"collection_times": [{"days": "Mon-Fri", "time": "11:30am"}, {"days": "Sat", "time": "11:00am"}, {"days": "Sun", "time": "Closed"}], "id": "5736400002", "name": "USPS COLLECTION BOX - PO LOBBY", "address": {"city": "NEW HOLLAND", "state": "SD", "street": "208 E MAIN ST", "postcode": "57364"}}},
{"geometry": {"type": "Point", "coordinates": [-99.395523369, 43.7979453027]}, "type": "Feature", "properties": {"collection_times": [{"days": "Mon-Sat", "time": "4:00pm"}, {"days": "Sun", "time": "Closed"}], "id": "5736500001", "name": "USPS COLLECTION BOX - BLUE BOX", "address": {"city": "OACOMA", "state": "SD", "street": "101 W 2ND ST", "postcode": "57365"}}},
{"geometry": {"type": "Point", "coordinates": [-99.395523369, 43.7979453027]}, "type": "Feature", "properties": {"collection_times": [{"days": "Mon-Fri", "time": "1:30pm"}, {"days": "Sat-Sun", "time": "Closed"}], "id": "5736500002", "name": "USPS COLLECTION BOX - PO LOBBY", "address": {"city": "OACOMA", "state": "SD", "street": "101 W 2ND ST", "postcode": "57365"}}},
{"geometry": {"type": "Point", "coordinates": [-99.380869008, 43.802779721]}, "type": "Feature", "properties": {"collection_times": [{"days": "Mon-Sat", "time": "1:30pm"}, {"days": "Sun", "time": "Closed"}], "id": "5736500004", "name": "USPS COLLECTION BOX - BLUE BOX", "address": {"city": "OACOMA", "state": "SD", "street": "1000 E SD HIGHWAY 16", "postcode": "57365"}}},
{"geometry": {"type": "Point", "coordinates": [-97.9859706631, 43.3948766797]}, "type": "Feature", "properties": {"collection_times": [{"days": "Mon-Sat", "time": "4:30pm"}, {"days": "Sun", "time": "Closed"}], "id": "5736600001", "name": "USPS COLLECTION BOX - BLUE BOX", "address": {"city": "PARKSTON", "state": "SD", "street": "111 N 1ST ST", "postcode": "57366"}}},
{"geometry": {"type": "Point", "coordinates": [-97.9859706631, 43.3948766797]}, "type": "Feature", "properties": {"collection_times": [{"days": "Mon-Fri", "time": "4:30pm"}, {"days": "Sat", "time": "10:00am"}, {"days": "Sun", "time": "Closed"}], "id": "5736600003", "name": "USPS COLLECTION BOX - PO LOBBY", "address": {"city": "PARKSTON", "state": "SD", "street": "111 N 1ST ST", "postcode": "57366"}}},
{"geometry": {"type": "Point", "coordinates": [-98.5322532744, 43.0697722244]}, "type": "Feature", "properties": {"collection_times": [{"days": "Mon-Sat", "time": "4:00pm"}, {"days": "Sun", "time": "Closed"}], "id": "5736700001", "name": "USPS COLLECTION BOX - BLUE BOX", "address": {"city": "PICKSTOWN", "state": "SD", "street": "106 LEWIS AVE", "postcode": "57367"}}},
{"geometry": {"type": "Point", "coordinates": [-98.5322532744, 43.0697722244]}, "type": "Feature", "properties": {"collection_times": [{"days": "Mon-Fri", "time": "12:00pm"}, {"days": "Sat", "time": "10:00am"}, {"days": "Sun", "time": "Closed"}], "id": "5736700002", "name": "USPS COLLECTION BOX - PO LOBBY", "address": {"city": "PICKSTOWN", "state": "SD", "street": "106 LEWIS AVE", "postcode": "57367"}}},
{"geometry": {"type": "Point", "coordinates": [-98.4850787087, 43.7154141431]}, "type": "Feature", "properties": {"collection_times": [{"days": "Mon-Fri", "time": "4:15pm"}, {"days": "Sat", "time": "6:00pm"}, {"days": "Sun", "time": "Closed"}], "id": "5736800002", "name": "USPS COLLECTION BOX - BLUE BOX", "address": {"city": "PLANKINTON", "state": "SD", "street": "208 N MAIN ST", "postcode": "57368"}}},
{"geometry": {"type": "Point", "coordinates": [-98.4850787087, 43.7154141431]}, "type": "Feature", "properties": {"collection_times": [{"days": "Mon-Fri", "time": "4:00pm"}, {"days": "Sat", "time": "9:15am"}, {"days": "Sun", "time": "Closed"}], "id": "5736800003", "name": "USPS COLLECTION BOX - PO LOBBY", "address": {"city": "PLANKINTON", "state": "SD", "street": "208 N MAIN ST", "postcode": "57368"}}},
{"geometry": {"type": "Point", "coordinates": [-98.8444808078, 43.3861330995]}, "type": "Feature", "properties": {"collection_times": [{"days": "Mon-Sat", "time": "4:30pm"}, {"days": "Sun", "time": "Closed"}], "id": "5736900002", "name": "USPS COLLECTION BOX - BLUE BOX", "address": {"city": "PLATTE", "state": "SD", "street": "20 E 5TH ST", "postcode": "57369"}}},
{"geometry": {"type": "Point", "coordinates": [-98.8444808078, 43.3861330995]}, "type": "Feature", "properties": {"collection_times": [{"days": "Mon-Sat", "time": "4:30pm"}, {"days": "Sun", "time": "Closed"}], "id": "5736900003", "name": "USPS COLLECTION BOX - BLUE BOX", "address": {"city": "PLATTE", "state": "SD", "street": "20 E 5TH ST", "postcode": "57369"}}},
{"geometry": {"type": "Point", "coordinates": [-98.8444808078, 43.3861330995]}, "type": "Feature", "properties": {"collection_times": [{"days": "Mon-Fri", "time": "4:45pm"}, {"days": "Sat", "time": "11:00am"}, {"days": "Sun", "time": "Closed"}], "id": "5736900004", "name": "USPS COLLECTION BOX - PO LOBBY", "address": {"city": "PLATTE", "state": "SD", "street": "20 E 5TH ST", "postcode": "57369"}}},
{"geometry": {"type": "Point", "coordinates": [-99.1808624092, 43.7813572678]}, "type": "Feature", "properties": {"collection_times": [{"days": "Mon-Sat", "time": "3:35pm"}, {"days": "Sun", "time": "Closed"}], "id": "5737000000", "name": "USPS COLLECTION BOX - BLUE BOX", "address": {"city": "PUKWANA", "state": "SD", "street": "206 MAIN ST", "postcode": "57370"}}},
{"geometry": {"type": "Point", "coordinates": [-99.1808624092, 43.7813572678]}, "type": "Feature", "properties": {"collection_times": [{"days": "Mon-Fri", "time": "11:30am"}, {"days": "Sat", "time": "9:15am"}, {"days": "Sun", "time": "Closed"}], "id": "5737000001", "name": "USPS COLLECTION BOX - PO LOBBY", "address": {"city": "PUKWANA", "state": "SD", "street": "206 MAIN ST", "postcode": "57370"}}},
{"geometry": {"type": "Point", "coordinates": [-99.2003471927, 44.5155021825]}, "type": "Feature", "properties": {"collection_times": [{"days": "Mon-Sat", "time": "4:15pm"}, {"days": "Sun", "time": "Closed"}], "id": "5737100001", "name": "USPS COLLECTION BOX - BLUE BOX", "address": {"city": "REE HEIGHTS", "state": "SD", "street": "108 DAKOTA AVE S", "postcode": "57371"}}},
{"geometry": {"type": "Point", "coordinates": [-99.2003471927, 44.5155021825]}, "type": "Feature", "properties": {"collection_times": [{"days": "Mon-Sat", "time": "11:15am"}, {"days": "Sun", "time": "Closed"}], "id": "5737100002", "name": "USPS COLLECTION BOX - PO LOBBY", "address": {"city": "REE HEIGHTS", "state": "SD", "street": "108 DAKOTA AVE S", "postcode": "57371"}}},
{"geometry": {"type": "Point", "coordinates": [-98.938094678, 44.5165202]}, "type": "Feature", "properties": {"collection_times": [{"days": "Mon-Fri", "time": "5:00pm"}, {"days": "Sat", "time": "4:45pm"}, {"days": "Sun", "time": "Closed"}], "id": "5737300001", "name": "USPS COLLECTION BOX - BLUE BOX", "address": {"city": "ST LAWRENCE", "state": "SD", "street": "201 N COMMERCIAL AVE", "postcode": "57373"}}},
{"geometry": {"type": "Point", "coordinates": [-98.938094678, 44.5165202]}, "type": "Feature", "properties": {"collection_times": [{"days": "Mon-Fri", "time": "5:00pm"}, {"days": "Sat", "time": "9:50am"}, {"days": "Sun", "time": "Closed"}], "id": "5737300002", "name": "USPS COLLECTION BOX - PO LOBBY", "address": {"city": "ST LAWRENCE", "state": "SD", "street": "201 N COMMERCIAL AVE", "postcode": "57373"}}},
{"geometry": {"type": "Point", "coordinates": [-97.5939740663, 43.7264470808]}, "type": "Feature", "properties": {"collection_times": [{"days": "Mon-Sat", "time": "4:15pm"}, {"days": "Sun", "time": "Closed"}], "id": "5737400000", "name": "USPS COLLECTION BOX - BLUE BOX", "address": {"city": "SPENCER", "state": "SD", "street": "306 MAIN ST", "postcode": "57374"}}},
{"geometry": {"type": "Point", "coordinates": [-97.5939740663, 43.7264470808]}, "type": "Feature", "properties": {"collection_times": [{"days": "Mon-Fri", "time": "12:00pm"}, {"days": "Sat", "time": "11:15am"}, {"days": "Sun", "time": "Closed"}], "id": "5737400001", "name": "USPS COLLECTION BOX - PO LOBBY", "address": {"city": "SPENCER", "state": "SD", "street": "306 MAIN ST", "postcode": "57374"}}},
{"geometry": {"type": "Point", "coordinates": [-97.5914795356, 43.7298118574]}, "type": "Feature", "properties": {"collection_times": [{"days": "Mon-Sat", "time": "12:00pm"}, {"days": "Sun", "time": "Closed"}], "id": "5737400002", "name": "USPS COLLECTION BOX - BLUE BOX", "address": {"city": "SPENCER", "state": "SD", "street": "25678 431ST AVE", "postcode": "57374"}}},
{"geometry": {"type": "Point", "coordinates": [-98.4371403598, 43.5890474761]}, "type": "Feature", "properties": {"collection_times": [{"days": "Mon-Fri", "time": "4:30pm"}, {"days": "Sat", "time": "5:30pm"}, {"days": "Sun", "time": "Closed"}], "id": "5737500001", "name": "USPS COLLECTION BOX - BLUE BOX", "address": {"city": "STICKNEY", "state": "SD", "street": "309 MAIN ST", "postcode": "57375"}}},
{"geometry": {"type": "Point", "coordinates": [-98.4371403598, 43.5890474761]}, "type": "Feature", "properties": {"collection_times": [{"days": "Mon-Fri", "time": "3:30pm"}, {"days": "Sat", "time": "9:30am"}, {"days": "Sun", "time": "Closed"}], "id": "5737500002", "name": "USPS COLLECTION BOX - PO LOBBY", "address": {"city": "STICKNEY", "state": "SD", "street": "309 MAIN ST", "postcode": "57375"}}},
{"geometry": {"type": "Point", "coordinates": [-97.9655784513, 43.2235852726]}, "type": "Feature", "properties": {"collection_times": [{"days": "Mon-Sat", "time": "4:00pm"}, {"days": "Sun", "time": "Closed"}], "id": "5737600001", "name": "USPS COLLECTION BOX - BLUE BOX", "address": {"city": "TRIPP", "state": "SD", "street": "303 S MAIN ST", "postcode": "57376"}}},
{"geometry": {"type": "Point", "coordinates": [-97.9655784513, 43.2235852726]}, "type": "Feature", "properties": {"collection_times": [{"days": "Mon-Fri", "time": "3:00pm"}, {"days": "Sat", "time": "10:00am"}, {"days": "Sun", "time": "Closed"}], "id": "5737600002", "name": "USPS COLLECTION BOX - PO LOBBY", "address": {"city": "TRIPP", "state": "SD", "street": "303 S MAIN ST", "postcode": "57376"}}},
{"geometry": {"type": "Point", "coordinates": [-98.2932403426, 43.0798401914]}, "type": "Feature", "properties": {"collection_times": [{"days": "Mon-Sat", "time": "4:15pm"}, {"days": "Sun", "time": "Closed"}], "id": "5738000004", "name": "USPS COLLECTION BOX - BLUE BOX", "address": {"city": "WAGNER", "state": "SD", "street": "109 2ND ST SE", "postcode": "57380"}}},
{"geometry": {"type": "Point", "coordinates": [-98.2932403426, 43.0798401914]}, "type": "Feature", "properties": {"collection_times": [{"days": "Mon-Fri", "time": "4:15pm"}, {"days": "Sat", "time": "10:30am"}, {"days": "Sun", "time": "Closed"}], "id": "5738000005", "name": "USPS COLLECTION BOX - PO LOBBY", "address": {"city": "WAGNER", "state": "SD", "street": "109 2ND ST SE", "postcode": "57380"}}},
{"geometry": {"type": "Point", "coordinates": [-98.3006686564, 43.0816570288]}, "type": "Feature", "properties": {"collection_times": [{"days": "Mon-Sat", "time": "9:00am"}, {"days": "Sun", "time": "Closed"}], "id": "5738000008", "name": "USPS COLLECTION BOX - BLUE BOX", "address": {"city": "WAGNER", "state": "SD", "street": "401 W SD HIGHWAY 46", "postcode": "57380"}}},
{"geometry": {"type": "Point", "coordinates": [-98.6974294614, 44.4536551685]}, "type": "Feature", "properties": {"collection_times": [{"days": "Mon-Fri", "time": "3:45pm"}, {"days": "Sat", "time": "5:00pm"}, {"days": "Sun", "time": "Closed"}], "id": "5738100001", "name": "USPS COLLECTION BOX - BLUE BOX", "address": {"city": "WESSINGTON", "state": "SD", "street": "170 WESSINGTON ST S", "postcode": "57381"}}},
{"geometry": {"type": "Point", "coordinates": [-98.6974294614, 44.4536551685]}, "type": "Feature", "properties": {"collection_times": [{"days": "Mon-Fri", "time": "11:15am"}, {"days": "Sat", "time": "9:00am"}, {"days": "Sun", "time": "Closed"}], "id": "5738100002", "name": "USPS COLLECTION BOX - PO LOBBY", "address": {"city": "WESSINGTON", "state": "SD", "street": "170 WESSINGTON ST S", "postcode": "57381"}}},
{"geometry": {"type": "Point", "coordinates": [-98.5695074613, 44.0796531114]}, "type": "Feature", "properties": {"collection_times": [{"days": "Mon-Fri", "time": "4:45pm"}, {"days": "Sat", "time": "6:15pm"}, {"days": "Sun", "time": "Closed"}], "id": "5738200001", "name": "USPS COLLECTION BOX - BLUE BOX", "address": {"city": "WESSINGTN SPG", "state": "SD", "street": "124 WALLACE AVE S", "postcode": "57382"}}},
{"geometry": {"type": "Point", "coordinates": [-98.5695074613, 44.0796531114]}, "type": "Feature", "properties": {"collection_times": [{"days": "Mon-Fri", "time": "4:45pm"}, {"days": "Sat", "time": "10:15am"}, {"days": "Sun", "time": "Closed"}], "id": "5738200002", "name": "USPS COLLECTION BOX - PO LOBBY", "address": {"city": "WESSINGTN SPG", "state": "SD", "street": "124 WALLACE AVE S", "postcode": "57382"}}},
{"geometry": {"type": "Point", "coordinates": [-98.7139119145, 43.7275128227]}, "type": "Feature", "properties": {"collection_times": [{"days": "Mon-Fri", "time": "4:15pm"}, {"days": "Sat", "time": "5:00pm"}, {"days": "Sun", "time": "Closed"}], "id": "5738300001", "name": "USPS COLLECTION BOX - BLUE BOX", "address": {"city": "WHITE LAKE", "state": "SD", "street": "109 S MAIN ST", "postcode": "57383"}}},
{"geometry": {"type": "Point", "coordinates": [-98.7140319162, 43.7276042781]}, "type": "Feature", "properties": {"collection_times": [{"days": "Mon-Fri", "time": "3:30pm"}, {"days": "Sat", "time": "9:30am"}, {"days": "Sun", "time": "Closed"}], "id": "5738300002", "name": "USPS COLLECTION BOX - PO LOBBY", "address": {"city": "WHITE LAKE", "state": "SD", "street": "109 S MAIN ST", "postcode": "57383"}}},
{"geometry": {"type": "Point", "coordinates": [-98.4750543615, 44.410547208]}, "type": "Feature", "properties": {"collection_times": [{"days": "Mon-Fri", "time": "4:15pm"}, {"days": "Sat", "time": "5:00pm"}, {"days": "Sun", "time": "Closed"}], "id": "5738400001", "name": "USPS COLLECTION BOX - BLUE BOX", "address": {"city": "WOLSEY", "state": "SD", "street": "125 COMMERCIAL AVE SW", "postcode": "57384"}}},
{"geometry": {"type": "Point", "coordinates": [-98.4750543615, 44.410547208]}, "type": "Feature", "properties": {"collection_times": [{"days": "Mon-Fri", "time": "11:30am"}, {"days": "Sat-Sun", "time": "Closed"}], "id": "5738400002", "name": "USPS COLLECTION BOX - PO LOBBY", "address": {"city": "WOLSEY", "state": "SD", "street": "125 COMMERCIAL AVE SW", "postcode": "57384"}}},
{"geometry": {"type": "Point", "coordinates": [-98.2756451539, 44.0528890709]}, "type": "Feature", "properties": {"collection_times": [{"days": "Mon-Fri", "time": "4:15pm"}, {"days": "Sat", "time": "6:00pm"}, {"days": "Sun", "time": "Closed"}], "id": "5738500001", "name": "USPS COLLECTION BOX - BLUE BOX", "address": {"city": "WOONSOCKET", "state": "SD", "street": "202 S DUMONT AVE", "postcode": "57385"}}},
{"geometry": {"type": "Point", "coordinates": [-98.2756451539, 44.0528890709]}, "type": "Feature", "properties": {"collection_times": [{"days": "Mon-Fri", "time": "3:45pm"}, {"days": "Sat", "time": "9:45am"}, {"days": "Sun", "time": "Closed"}], "id": "5738500002", "name": "USPS COLLECTION BOX - PO LOBBY", "address": {"city": "WOONSOCKET", "state": "SD", "street": "202 S DUMONT AVE", "postcode": "57385"}}},
{"geometry": {"type": "Point", "coordinates": [-98.2637710823, 44.0524331096]}, "type": "Feature", "properties": {"collection_times": [{"days": "Mon-Sat", "time": "11:30am"}, {"days": "Sun", "time": "Closed"}], "id": "5738500004", "name": "USPS COLLECTION BOX - BLUE BOX", "address": {"city": "WOONSOCKET", "state": "SD", "street": "219 OAK AVE", "postcode": "57385"}}},
{"geometry": {"type": "Point", "coordinates": [-98.2188726084, 44.3851881592]}, "type": "Feature", "properties": {"collection_times": [{"days": "Mon-Sat", "time": "8:00pm"}, {"days": "Sun", "time": "Closed"}], "id": "5739900002", "name": "USPS COLLECTION BOX - BLUE BOX", "address": {"city": "HURON", "state": "SD", "street": "355 15TH ST NW", "postcode": "57399"}}}
]}
