{"type": "FeatureCollection", "features": [
{"geometry": {"type": "Point", "coordinates": [-98.4777614718, 45.4778484326]}, "type": "Feature", "properties": {"collection_times": [{"days": "Mon-Sat", "time": "1:00pm"}, {"days": "Sun", "time": "Closed"}], "id": "5740100015", "name": "USPS COLLECTION BOX - BLUE BOX", "address": {"city": "ABERDEEN", "state": "SD", "street": "703 12TH AVE NE", "postcode": "57401"}}},
{"geometry": {"type": "Point", "coordinates": [-98.482097038, 45.4660890902]}, "type": "Feature", "properties": {"collection_times": [{"days": "Mon-Sat", "time": "5:00pm"}, {"days": "Sun", "time": "Closed"}], "id": "5740100030", "name": "USPS COLLECTION BOX - BLUE BOX", "address": {"city": "ABERDEEN", "state": "SD", "street": "115 4TH AVE SE", "postcode": "57401"}}},
{"geometry": {"type": "Point", "coordinates": [-98.4863397114, 45.461176916]}, "type": "Feature", "properties": {"collection_times": [{"days": "Mon-Sat", "time": "5:00pm"}, {"days": "Sun", "time": "Closed"}], "id": "5740100033", "name": "USPS COLLECTION BOX - BLUE BOX", "address": {"city": "ABERDEEN", "state": "SD", "street": "115 4TH AVE SE", "postcode": "57401"}}},
{"geometry": {"type": "Point", "coordinates": [-98.4879339697, 45.4810735376]}, "type": "Feature", "properties": {"collection_times": [{"days": "Mon-Fri", "time": "11:45am"}, {"days": "Sat-Sun", "time": "Closed"}], "id": "5740100036", "name": "USPS COLLECTION BOX - BLUE BOX", "address": {"city": "ABERDEEN", "state": "SD", "street": "1500 N MAIN ST", "postcode": "57401"}}},
{"geometry": {"type": "Point", "coordinates": [-98.4938280859, 45.4738288995]}, "type": "Feature", "properties": {"collection_times": [{"days": "Mon-Sat", "time": "1:00pm"}, {"days": "Sun", "time": "Closed"}], "id": "5740100038", "name": "USPS COLLECTION BOX - BLUE BOX", "address": {"city": "ABERDEEN", "state": "SD", "street": "405 8TH AVE NW", "postcode": "57401"}}},
{"geometry": {"type": "Point", "coordinates": [-98.4790684142, 45.4590401472]}, "type": "Feature", "properties": {"collection_times": [{"days": "Mon-Fri", "time": "4:30pm"}, {"days": "Sat", "time": "5:00pm"}, {"days": "Sun", "time": "Closed"}], "id": "5740100041", "name": "USPS COLLECTION BOX - BLUE BOX", "address": {"city": "ABERDEEN", "state": "SD", "street": "615 6TH AVE SE", "postcode": "57401"}}},
{"geometry": {"type": "Point", "coordinates": [-98.4586083061, 45.4592318956]}, "type": "Feature", "properties": {"collection_times": [{"days": "Mon-Sat", "time": "5:00pm"}, {"days": "Sun", "time": "Closed"}], "id": "5740100047", "name": "USPS COLLECTION BOX - BLUE BOX", "address": {"city": "ABERDEEN", "state": "SD", "street": "2105 6TH AVE SE", "postcode": "57401"}}},
{"geometry": {"type": "Point", "coordinates": [-98.4614889919, 45.4592777168]}, "type": "Feature", "properties": {"collection_times": [{"days": "Mon-Sat", "time": "5:00pm"}, {"days": "Sun", "time": "Closed"}], "id": "5740100048", "name": "USPS COLLECTION BOX - BLUE BOX", "address": {"city": "ABERDEEN", "state": "SD", "street": "1815 6TH AVE SE", "postcode": "57401"}}},
{"geometry": {"type": "Point", "coordinates": [-98.4953250625, 45.4524038476]}, "type": "Feature", "properties": {"collection_times": [{"days": "Mon-Sat", "time": "6:00pm"}, {"days": "Sun", "time": "Closed"}], "id": "5740100049", "name": "USPS COLLECTION BOX - PO LOBBY", "address": {"city": "ABERDEEN", "state": "SD", "street": "1202 S 5TH ST", "postcode": "57401"}}},
{"geometry": {"type": "Point", "coordinates": [-98.4864223396, 45.4641881106]}, "type": "Feature", "properties": {"collection_times": [{"days": "Mon-Fri", "time": "5:00pm"}, {"days": "Sat-Sun", "time": "Closed"}], "id": "5740100053", "name": "USPS COLLECTION BOX - BLUE BOX", "address": {"city": "ABERDEEN", "state": "SD", "street": "111 1ST AVE SE", "postcode": "57401"}}},
{"geometry": {"type": "Point", "coordinates": [-98.4863397114, 45.461176916]}, "type": "Feature", "properties": {"collection_times": [{"days": "Mon-Sat", "time": "5:00pm"}, {"days": "Sun", "time": "Closed"}], "id": "5740100054", "name": "USPS COLLECTION BOX - BLUE BOX", "address": {"city": "ABERDEEN", "state": "SD", "street": "115 4TH AVE SE", "postcode": "57401"}}},
{"geometry": {"type": "Point", "coordinates": [-98.4953250625, 45.4524038476]}, "type": "Feature", "properties": {"collection_times": [{"days": "Mon-Sat", "time": "6:00pm"}, {"days": "Sun", "time": "Closed"}], "id": "5740100058", "name": "USPS COLLECTION BOX - BLUE BOX", "address": {"city": "ABERDEEN", "state": "SD", "street": "1202 S 5TH ST", "postcode": "57401"}}},
{"geometry": {"type": "Point", "coordinates": [-98.4953250625, 45.4524038476]}, "type": "Feature", "properties": {"collection_times": [{"days": "Mon-Sat", "time": "6:00pm"}, {"days": "Sun", "time": "Closed"}], "id": "5740100059", "name": "USPS COLLECTION BOX - BLUE BOX", "address": {"city": "ABERDEEN", "state": "SD", "street": "1202 S 5TH ST", "postcode": "57401"}}},
{"geometry": {"type": "Point", "coordinates": [-98.4953250625, 45.4524038476]}, "type": "Feature", "properties": {"collection_times": [{"days": "Mon-Sat", "time": "6:00pm"}, {"days": "Sun", "time": "Closed"}], "id": "5740100060", "name": "USPS COLLECTION BOX - BLUE BOX", "address": {"city": "ABERDEEN", "state": "SD", "street": "1202 S 5TH ST", "postcode": "57401"}}},
{"geometry": {"type": "Point", "coordinates": [-98.4953250625, 45.4524038476]}, "type": "Feature", "properties": {"collection_times": [{"days": "Mon-Sat", "time": "6:00pm"}, {"days": "Sun", "time": "Closed"}], "id": "5740100061", "name": "USPS COLLECTION BOX - BLUE BOX", "address": {"city": "ABERDEEN", "state": "SD", "street": "1202 S 5TH ST", "postcode": "57401"}}},
{"geometry": {"type": "Point", "coordinates": [-98.4953250625, 45.4524038476]}, "type": "Feature", "properties": {"collection_times": [{"days": "Mon-Sat", "time": "6:00pm"}, {"days": "Sun", "time": "Closed"}], "id": "5740100077", "name": "USPS COLLECTION BOX - BLUE BOX", "address": {"city": "ABERDEEN", "state": "SD", "street": "1202 S 5TH ST", "postcode": "57401"}}},
{"geometry": {"type": "Point", "coordinates": [-97.9263303795, 45.3897725768]}, "type": "Feature", "properties": {"collection_times": [{"days": "Mon-Sat", "time": "2:50pm"}, {"days": "Sun", "time": "Closed"}], "id": "5742200001", "name": "USPS COLLECTION BOX - BLUE BOX", "address": {"city": "ANDOVER", "state": "SD", "street": "202 S MAIN ST", "postcode": "57422"}}},
{"geometry": {"type": "Point", "coordinates": [-97.9263303795, 45.3897725768]}, "type": "Feature", "properties": {"collection_times": [{"days": "Mon-Fri", "time": "2:50pm"}, {"days": "Sat-Sun", "time": "Closed"}], "id": "5742200002", "name": "USPS COLLECTION BOX - PO LOBBY", "address": {"city": "ANDOVER", "state": "SD", "street": "202 S MAIN ST", "postcode": "57422"}}},
{"geometry": {"type": "Point", "coordinates": [-98.5096833939, 45.0224953887]}, "type": "Feature", "properties": {"collection_times": [{"days": "Mon-Fri", "time": "3:30pm"}, {"days": "Sat", "time": "4:45pm"}, {"days": "Sun", "time": "Closed"}], "id": "5742400001", "name": "USPS COLLECTION BOX - BLUE BOX", "address": {"city": "ASHTON", "state": "SD", "street": "101 E MAIN ST", "postcode": "57424"}}},
{"geometry": {"type": "Point", "coordinates": [-98.5096833939, 45.0224953887]}, "type": "Feature", "properties": {"collection_times": [{"days": "Mon-Sat", "time": "10:45am"}, {"days": "Sun", "time": "Closed"}], "id": "5742400002", "name": "USPS COLLECTION BOX - PO LOBBY", "address": {"city": "ASHTON", "state": "SD", "street": "101 E MAIN ST", "postcode": "57424"}}},
{"geometry": {"type": "Point", "coordinates": [-98.5896185441, 45.7278669815]}, "type": "Feature", "properties": {"collection_times": [{"days": "Mon-Sat", "time": "10:15am"}, {"days": "Sun", "time": "Closed"}], "id": "5742600001", "name": "USPS COLLECTION BOX - PO LOBBY", "address": {"city": "BARNARD", "state": "SD", "street": "210 MAIN ST", "postcode": "57426"}}},
{"geometry": {"type": "Point", "coordinates": [-98.5896185441, 45.7278669815]}, "type": "Feature", "properties": {"collection_times": [{"days": "Mon-Sat", "time": "3:10pm"}, {"days": "Sun", "time": "Closed"}], "id": "5742600002", "name": "USPS COLLECTION BOX - BLUE BOX", "address": {"city": "BARNARD", "state": "SD", "street": "210 MAIN ST", "postcode": "57426"}}},
{"geometry": {"type": "Point", "coordinates": [-98.3231678277, 45.4673629065]}, "type": "Feature", "properties": {"collection_times": [{"days": "Mon-Fri", "time": "4:45pm"}, {"days": "Sat", "time": "3:30pm"}, {"days": "Sun", "time": "Closed"}], "id": "5742700001", "name": "USPS COLLECTION BOX - BLUE BOX", "address": {"city": "BATH", "state": "SD", "street": "303 S MAIN ST", "postcode": "57427"}}},
{"geometry": {"type": "Point", "coordinates": [-98.3231678277, 45.4673629065]}, "type": "Feature", "properties": {"collection_times": [{"days": "Mon-Fri", "time": "1:45pm"}, {"days": "Sat", "time": "11:45am"}, {"days": "Sun", "time": "Closed"}], "id": "5742700002", "name": "USPS COLLECTION BOX - PO LOBBY", "address": {"city": "BATH", "state": "SD", "street": "303 S MAIN ST", "postcode": "57427"}}},
{"geometry": {"type": "Point", "coordinates": [-99.6524499628, 45.453079593]}, "type": "Feature", "properties": {"collection_times": [{"days": "Mon-Sat", "time": "4:25pm"}, {"days": "Sun", "time": "Closed"}], "id": "5742800001", "name": "USPS COLLECTION BOX - BLUE BOX", "address": {"city": "BOWDLE", "state": "SD", "street": "2086 MAIN ST", "postcode": "57428"}}},
{"geometry": {"type": "Point", "coordinates": [-99.6524499628, 45.453079593]}, "type": "Feature", "properties": {"collection_times": [{"days": "Mon-Fri", "time": "4:25pm"}, {"days": "Sat", "time": "9:30am"}, {"days": "Sun", "time": "Closed"}], "id": "5742800002", "name": "USPS COLLECTION BOX - PO LOBBY", "address": {"city": "BOWDLE", "state": "SD", "street": "2086 MAIN ST", "postcode": "57428"}}},
{"geometry": {"type": "Point", "coordinates": [-98.3198576889, 45.1587151927]}, "type": "Feature", "properties": {"collection_times": [{"days": "Mon-Sat", "time": "4:30pm"}, {"days": "Sun", "time": "Closed"}], "id": "5742900000", "name": "USPS COLLECTION BOX - BLUE BOX", "address": {"city": "BRENTFORD", "state": "SD", "street": "101 W 4TH ST", "postcode": "57429"}}},
{"geometry": {"type": "Point", "coordinates": [-98.3198576889, 45.1587151927]}, "type": "Feature", "properties": {"collection_times": [{"days": "Mon-Fri", "time": "3:20pm"}, {"days": "Sat", "time": "12:00pm"}, {"days": "Sun", "time": "Closed"}], "id": "5742900001", "name": "USPS COLLECTION BOX - PO LOBBY", "address": {"city": "BRENTFORD", "state": "SD", "street": "101 W 4TH ST", "postcode": "57429"}}},
{"geometry": {"type": "Point", "coordinates": [-97.7503730956, 45.7933209804]}, "type": "Feature", "properties": {"collection_times": [{"days": "Mon-Sat", "time": "4:00pm"}, {"days": "Sun", "time": "Closed"}], "id": "5743000001", "name": "USPS COLLECTION BOX - BLUE BOX", "address": {"city": "BRITTON", "state": "SD", "street": "605 MAIN AVE", "postcode": "57430"}}},
{"geometry": {"type": "Point", "coordinates": [-97.7503730956, 45.7933209804]}, "type": "Feature", "properties": {"collection_times": [{"days": "Mon-Fri", "time": "4:00pm"}, {"days": "Sat", "time": "9:50am"}, {"days": "Sun", "time": "Closed"}], "id": "5743000002", "name": "USPS COLLECTION BOX - PO LOBBY", "address": {"city": "BRITTON", "state": "SD", "street": "605 MAIN AVE", "postcode": "57430"}}},
{"geometry": {"type": "Point", "coordinates": [-98.3111631897, 45.6108987691]}, "type": "Feature", "properties": {"collection_times": [{"days": "Mon-Sat", "time": "4:00pm"}, {"days": "Sun", "time": "Closed"}], "id": "5743300001", "name": "USPS COLLECTION BOX - BLUE BOX", "address": {"city": "COLUMBIA", "state": "SD", "street": "5 N BROADWAY ST", "postcode": "57433"}}},
{"geometry": {"type": "Point", "coordinates": [-98.3111631897, 45.6108987691]}, "type": "Feature", "properties": {"collection_times": [{"days": "Mon-Fri", "time": "12:00pm"}, {"days": "Sat", "time": "9:15am"}, {"days": "Sun", "time": "Closed"}], "id": "5743300002", "name": "USPS COLLECTION BOX - PO LOBBY", "address": {"city": "COLUMBIA", "state": "SD", "street": "5 N BROADWAY ST", "postcode": "57433"}}},
{"geometry": {"type": "Point", "coordinates": [-98.3124484944, 45.6124277878]}, "type": "Feature", "properties": {"collection_times": [{"days": "Mon-Sat", "time": "4:00pm"}, {"days": "Sun", "time": "Closed"}], "id": "5743300003", "name": "USPS COLLECTION BOX - BLUE BOX", "address": {"city": "COLUMBIA", "state": "SD", "street": "212 MAIN ST", "postcode": "57433"}}},
{"geometry": {"type": "Point", "coordinates": [-98.0933296939, 45.1573291156]}, "type": "Feature", "properties": {"collection_times": [{"days": "Mon-Sat", "time": "4:15pm"}, {"days": "Sun", "time": "Closed"}], "id": "5743400001", "name": "USPS COLLECTION BOX - BLUE BOX", "address": {"city": "CONDE", "state": "SD", "street": "180 BROADWAY ST NE", "postcode": "57434"}}},
{"geometry": {"type": "Point", "coordinates": [-98.0933296939, 45.1573291156]}, "type": "Feature", "properties": {"collection_times": [{"days": "Mon-Fri", "time": "12:00pm"}, {"days": "Sat", "time": "9:45am"}, {"days": "Sun", "time": "Closed"}], "id": "5743400002", "name": "USPS COLLECTION BOX - PO LOBBY", "address": {"city": "CONDE", "state": "SD", "street": "180 BROADWAY ST NE", "postcode": "57434"}}},
{"geometry": {"type": "Point", "coordinates": [-98.9482842338, 45.1680503525]}, "type": "Feature", "properties": {"collection_times": [{"days": "Mon-Sat", "time": "4:30pm"}, {"days": "Sun", "time": "Closed"}], "id": "5743500001", "name": "USPS COLLECTION BOX - BLUE BOX", "address": {"city": "CRESBARD", "state": "SD", "street": "206 MAIN ST", "postcode": "57435"}}},
{"geometry": {"type": "Point", "coordinates": [-98.9482842338, 45.1680503525]}, "type": "Feature", "properties": {"collection_times": [{"days": "Mon-Fri", "time": "12:00pm"}, {"days": "Sat", "time": "9:15am"}, {"days": "Sun", "time": "Closed"}], "id": "5743500002", "name": "USPS COLLECTION BOX - PO LOBBY", "address": {"city": "CRESBARD", "state": "SD", "street": "206 MAIN ST", "postcode": "57435"}}},
{"geometry": {"type": "Point", "coordinates": [-98.0872371237, 44.8391544491]}, "type": "Feature", "properties": {"collection_times": [{"days": "Mon-Sat", "time": "3:30pm"}, {"days": "Sun", "time": "Closed"}], "id": "5743600001", "name": "USPS COLLECTION BOX - BLUE BOX", "address": {"city": "DOLAND", "state": "SD", "street": "226 HUMPHREY DR N", "postcode": "57436"}}},
{"geometry": {"type": "Point", "coordinates": [-99.6198994519, 45.7695395197]}, "type": "Feature", "properties": {"collection_times": [{"days": "Mon-Sat", "time": "3:45pm"}, {"days": "Sun", "time": "Closed"}], "id": "5743700001", "name": "USPS COLLECTION BOX - BLUE BOX", "address": {"city": "EUREKA", "state": "SD", "street": "709 G AVE", "postcode": "57437"}}},
{"geometry": {"type": "Point", "coordinates": [-99.6198994519, 45.7695395197]}, "type": "Feature", "properties": {"collection_times": [{"days": "Mon-Fri", "time": "3:45pm"}, {"days": "Sat", "time": "9:45am"}, {"days": "Sun", "time": "Closed"}], "id": "5743700002", "name": "USPS COLLECTION BOX - PO LOBBY", "address": {"city": "EUREKA", "state": "SD", "street": "709 G AVE", "postcode": "57437"}}},
{"geometry": {"type": "Point", "coordinates": [-99.1240680506, 45.0377498865]}, "type": "Feature", "properties": {"collection_times": [{"days": "Mon-Sat", "time": "4:00pm"}, {"days": "Sun", "time": "Closed"}], "id": "5743800001", "name": "USPS COLLECTION BOX - BLUE BOX", "address": {"city": "FAULKTON", "state": "SD", "street": "115 8TH AVE S", "postcode": "57438"}}},
{"geometry": {"type": "Point", "coordinates": [-99.1240680506, 45.0377498865]}, "type": "Feature", "properties": {"collection_times": [{"days": "Mon-Fri", "time": "4:00pm"}, {"days": "Sat", "time": "10:00am"}, {"days": "Sun", "time": "Closed"}], "id": "5743800002", "name": "USPS COLLECTION BOX - PO LOBBY", "address": {"city": "FAULKTON", "state": "SD", "street": "115 8TH AVE S", "postcode": "57438"}}},
{"geometry": {"type": "Point", "coordinates": [-98.3054818572, 44.8755207104]}, "type": "Feature", "properties": {"collection_times": [{"days": "Mon-Sat", "time": "3:15pm"}, {"days": "Sun", "time": "Closed"}], "id": "5744000001", "name": "USPS COLLECTION BOX - BLUE BOX", "address": {"city": "FRANKFORT", "state": "SD", "street": "611 JEFFERSON AVE", "postcode": "57440"}}},
{"geometry": {"type": "Point", "coordinates": [-98.3054818572, 44.8755207104]}, "type": "Feature", "properties": {"collection_times": [{"days": "Mon-Fri", "time": "3:00pm"}, {"days": "Sat", "time": "10:30am"}, {"days": "Sun", "time": "Closed"}], "id": "5744000002", "name": "USPS COLLECTION BOX - PO LOBBY", "address": {"city": "FRANKFORT", "state": "SD", "street": "611 JEFFERSON AVE", "postcode": "57440"}}},
{"geometry": {"type": "Point", "coordinates": [-98.5063618241, 45.8322644542]}, "type": "Feature", "properties": {"collection_times": [{"days": "Mon-Sat", "time": "3:30pm"}, {"days": "Sun", "time": "Closed"}], "id": "5744100001", "name": "USPS COLLECTION BOX - BLUE BOX", "address": {"city": "FREDERICK", "state": "SD", "street": "413 MAIN ST", "postcode": "57441"}}},
{"geometry": {"type": "Point", "coordinates": [-98.5063618241, 45.8322644542]}, "type": "Feature", "properties": {"collection_times": [{"days": "Mon-Fri", "time": "11:30am"}, {"days": "Sat", "time": "9:30am"}, {"days": "Sun", "time": "Closed"}], "id": "5744100002", "name": "USPS COLLECTION BOX - PO LOBBY", "address": {"city": "FREDERICK", "state": "SD", "street": "413 MAIN ST", "postcode": "57441"}}},
{"geometry": {"type": "Point", "coordinates": [-99.9555911827, 45.0115413801]}, "type": "Feature", "properties": {"collection_times": [{"days": "Mon-Fri", "time": "3:15pm"}, {"days": "Sat", "time": "9:30am"}, {"days": "Sun", "time": "Closed"}], "id": "5744200004", "name": "USPS COLLECTION BOX - PO LOBBY", "address": {"city": "GETTYSBURG", "state": "SD", "street": "110 N EXENE ST", "postcode": "57442"}}},
{"geometry": {"type": "Point", "coordinates": [-99.9557624805, 45.0124756266]}, "type": "Feature", "properties": {"collection_times": [{"days": "Mon-Sat", "time": "3:15pm"}, {"days": "Sun", "time": "Closed"}], "id": "5744200005", "name": "USPS COLLECTION BOX - BLUE BOX", "address": {"city": "GETTYSBURG", "state": "SD", "street": "102 W BLAINE AVE", "postcode": "57442"}}},
{"geometry": {"type": "Point", "coordinates": [-98.0985690012, 45.4473395687]}, "type": "Feature", "properties": {"collection_times": [{"days": "Mon-Fri", "time": "4:00pm"}, {"days": "Sat", "time": "5:00pm"}, {"days": "Sun", "time": "Closed"}], "id": "5744500001", "name": "USPS COLLECTION BOX - BLUE BOX", "address": {"city": "GROTON", "state": "SD", "street": "201 N MAIN ST", "postcode": "57445"}}},
{"geometry": {"type": "Point", "coordinates": [-98.0985690012, 45.4473395687]}, "type": "Feature", "properties": {"collection_times": [{"days": "Mon-Fri", "time": "4:00pm"}, {"days": "Sat", "time": "5:00pm"}, {"days": "Sun", "time": "Closed"}], "id": "5744500002", "name": "USPS COLLECTION BOX - BLUE BOX", "address": {"city": "GROTON", "state": "SD", "street": "201 N MAIN ST", "postcode": "57445"}}},
{"geometry": {"type": "Point", "coordinates": [-98.1291929052, 45.4573493743]}, "type": "Feature", "properties": {"collection_times": [{"days": "Mon-Sat", "time": "12:30pm"}, {"days": "Sun", "time": "Closed"}], "id": "5744500003", "name": "USPS COLLECTION BOX - BLUE BOX", "address": {"city": "GROTON", "state": "SD", "street": "109 CENTER ST", "postcode": "57445"}}},
{"geometry": {"type": "Point", "coordinates": [-98.0985690012, 45.4473395687]}, "type": "Feature", "properties": {"collection_times": [{"days": "Mon-Fri", "time": "4:00pm"}, {"days": "Sat", "time": "9:45am"}, {"days": "Sun", "time": "Closed"}], "id": "5744500004", "name": "USPS COLLECTION BOX - PO LOBBY", "address": {"city": "GROTON", "state": "SD", "street": "201 N MAIN ST", "postcode": "57445"}}},
{"geometry": {"type": "Point", "coordinates": [-98.1602190305, 45.8716388685]}, "type": "Feature", "properties": {"collection_times": [{"days": "Mon-Sat", "time": "4:00pm"}, {"days": "Sun", "time": "Closed"}], "id": "5744600001", "name": "USPS COLLECTION BOX - BLUE BOX", "address": {"city": "HECLA", "state": "SD", "street": "226 MAIN ST", "postcode": "57446"}}},
{"geometry": {"type": "Point", "coordinates": [-98.1539394503, 45.8825264731]}, "type": "Feature", "properties": {"collection_times": [{"days": "Mon-Fri", "time": "11:30am"}, {"days": "Sat", "time": "9:15am"}, {"days": "Sun", "time": "Closed"}], "id": "5744600002", "name": "USPS COLLECTION BOX - PO LOBBY", "address": {"city": "HECLA", "state": "SD", "street": "226 MAIN ST", "postcode": "57446"}}},
{"geometry": {"type": "Point", "coordinates": [-99.4746210876, 45.578720579]}, "type": "Feature", "properties": {"collection_times": [{"days": "Mon-Sat", "time": "3:15pm"}, {"days": "Sun", "time": "Closed"}], "id": "5744800001", "name": "USPS COLLECTION BOX - BLUE BOX", "address": {"city": "HOSMER", "state": "SD", "street": "102 E MAIN", "postcode": "57448"}}},
{"geometry": {"type": "Point", "coordinates": [-99.4746210876, 45.578720579]}, "type": "Feature", "properties": {"collection_times": [{"days": "Mon-Fri", "time": "11:30am"}, {"days": "Sat", "time": "9:20am"}, {"days": "Sun", "time": "Closed"}], "id": "5744800002", "name": "USPS COLLECTION BOX - PO LOBBY", "address": {"city": "HOSMER", "state": "SD", "street": "102 E MAIN", "postcode": "57448"}}},
{"geometry": {"type": "Point", "coordinates": [-99.7772060837, 45.2426701535]}, "type": "Feature", "properties": {"collection_times": [{"days": "Mon-Sat", "time": "3:45pm"}, {"days": "Sun", "time": "Closed"}], "id": "5745000001", "name": "USPS COLLECTION BOX - BLUE BOX", "address": {"city": "HOVEN", "state": "SD", "street": "262 MAIN ST", "postcode": "57450"}}},
{"geometry": {"type": "Point", "coordinates": [-99.7772060837, 45.2426701535]}, "type": "Feature", "properties": {"collection_times": [{"days": "Mon-Fri", "time": "3:00pm"}, {"days": "Sat", "time": "10:00am"}, {"days": "Sun", "time": "Closed"}], "id": "5745000002", "name": "USPS COLLECTION BOX - PO LOBBY", "address": {"city": "HOVEN", "state": "SD", "street": "262 MAIN ST", "postcode": "57450"}}},
{"geometry": {"type": "Point", "coordinates": [-99.0283437491, 45.4443730683]}, "type": "Feature", "properties": {"collection_times": [{"days": "Mon-Fri", "time": "4:00pm"}, {"days": "Sat", "time": "4:45pm"}, {"days": "Sun", "time": "Closed"}], "id": "5745100001", "name": "USPS COLLECTION BOX - BLUE BOX", "address": {"city": "IPSWICH", "state": "SD", "street": "336 1ST AVE", "postcode": "57451"}}},
{"geometry": {"type": "Point", "coordinates": [-98.9215769643, 45.444616073]}, "type": "Feature", "properties": {"collection_times": [{"days": "Mon-Fri", "time": "4:00pm"}, {"days": "Sat", "time": "7:00am"}, {"days": "Sun", "time": "Closed"}], "id": "5745100002", "name": "USPS COLLECTION BOX - PO LOBBY", "address": {"city": "IPSWICH", "state": "SD", "street": "336 1ST AVE", "postcode": "57451"}}},
{"geometry": {"type": "Point", "coordinates": [-99.8868370446, 45.5041341939]}, "type": "Feature", "properties": {"collection_times": [{"days": "Mon-Sat", "time": "3:05pm"}, {"days": "Sun", "time": "Closed"}], "id": "5745200001", "name": "USPS COLLECTION BOX - BLUE BOX", "address": {"city": "JAVA", "state": "SD", "street": "4125 N MAIN ST", "postcode": "57452"}}},
{"geometry": {"type": "Point", "coordinates": [-99.8868370446, 45.5041341939]}, "type": "Feature", "properties": {"collection_times": [{"days": "Mon-Fri", "time": "11:30am"}, {"days": "Sat", "time": "9:15am"}, {"days": "Sun", "time": "Closed"}], "id": "5745200002", "name": "USPS COLLECTION BOX - PO LOBBY", "address": {"city": "JAVA", "state": "SD", "street": "4125 N MAIN ST", "postcode": "57452"}}},
{"geometry": {"type": "Point", "coordinates": [-97.8319086349, 45.6025509408]}, "type": "Feature", "properties": {"collection_times": [{"days": "Mon-Sat", "time": "3:30pm"}, {"days": "Sun", "time": "Closed"}], "id": "5745400001", "name": "USPS COLLECTION BOX - BLUE BOX", "address": {"city": "LANGFORD", "state": "SD", "street": "309 MAIN ST", "postcode": "57454"}}},
{"geometry": {"type": "Point", "coordinates": [-97.8319086349, 45.6025509408]}, "type": "Feature", "properties": {"collection_times": [{"days": "Mon-Fri", "time": "3:30pm"}, {"days": "Sat", "time": "9:45am"}, {"days": "Sun", "time": "Closed"}], "id": "5745400002", "name": "USPS COLLECTION BOX - PO LOBBY", "address": {"city": "LANGFORD", "state": "SD", "street": "309 MAIN ST", "postcode": "57454"}}},
{"geometry": {"type": "Point", "coordinates": [-97.7934267012, 45.6090788762]}, "type": "Feature", "properties": {"collection_times": [{"days": "Mon-Sat", "time": "3:30pm"}, {"days": "Sun", "time": "Closed"}], "id": "5745400003", "name": "USPS COLLECTION BOX - BLUE BOX", "address": {"city": "LANGFORD", "state": "SD", "street": "309 MAIN ST", "postcode": "57454"}}},
{"geometry": {"type": "Point", "coordinates": [-97.7934267012, 45.6090788762]}, "type": "Feature", "properties": {"collection_times": [{"days": "Mon-Sat", "time": "3:30pm"}, {"days": "Sun", "time": "Closed"}], "id": "5745400004", "name": "USPS COLLECTION BOX - BLUE BOX", "address": {"city": "LANGFORD", "state": "SD", "street": "309 MAIN ST", "postcode": "57454"}}},
{"geometry": {"type": "Point", "coordinates": [-98.9833120233, 45.7227861135]}, "type": "Feature", "properties": {"collection_times": [{"days": "Mon-Sat", "time": "4:30pm"}, {"days": "Sun", "time": "Closed"}], "id": "5745600001", "name": "USPS COLLECTION BOX - BLUE BOX", "address": {"city": "LEOLA", "state": "SD", "street": "5 S SHERMAN ST", "postcode": "57456"}}},
{"geometry": {"type": "Point", "coordinates": [-98.9833120233, 45.7227861135]}, "type": "Feature", "properties": {"collection_times": [{"days": "Mon-Fri", "time": "2:30pm"}, {"days": "Sat", "time": "10:15am"}, {"days": "Sun", "time": "Closed"}], "id": "5745600002", "name": "USPS COLLECTION BOX - PO LOBBY", "address": {"city": "LEOLA", "state": "SD", "street": "5 S SHERMAN ST", "postcode": "57456"}}},
{"geometry": {"type": "Point", "coordinates": [-98.4936744915, 45.3255717618]}, "type": "Feature", "properties": {"collection_times": [{"days": "Mon-Fri", "time": "1:30pm"}, {"days": "Sat", "time": "5:20pm"}, {"days": "Sun", "time": "Closed"}], "id": "5746000001", "name": "USPS COLLECTION BOX - BLUE BOX", "address": {"city": "MANSFIELD", "state": "SD", "street": "205 E MAIN ST", "postcode": "57460"}}},
{"geometry": {"type": "Point", "coordinates": [-98.4936744915, 45.3255717618]}, "type": "Feature", "properties": {"collection_times": [{"days": "Mon-Fri", "time": "1:15pm"}, {"days": "Sat", "time": "12:00pm"}, {"days": "Sun", "time": "Closed"}], "id": "5746000002", "name": "USPS COLLECTION BOX - PO LOBBY", "address": {"city": "MANSFIELD", "state": "SD", "street": "205 E MAIN ST", "postcode": "57460"}}},
{"geometry": {"type": "Point", "coordinates": [-98.4952043913, 45.154369257]}, "type": "Feature", "properties": {"collection_times": [{"days": "Mon-Fri", "time": "4:15pm"}, {"days": "Sat", "time": "5:05pm"}, {"days": "Sun", "time": "Closed"}], "id": "5746100001", "name": "USPS COLLECTION BOX - BLUE BOX", "address": {"city": "MELLETTE", "state": "SD", "street": "5 E MAIN ST", "postcode": "57461"}}},
{"geometry": {"type": "Point", "coordinates": [-98.58258239, 45.1543395225]}, "type": "Feature", "properties": {"collection_times": [{"days": "Mon-Fri", "time": "5:00pm"}, {"days": "Sat", "time": "4:45pm"}, {"days": "Sun", "time": "Closed"}], "id": "5746500001", "name": "USPS COLLECTION BOX - BLUE BOX", "address": {"city": "NORTHVILLE", "state": "SD", "street": "306 W ELM ST", "postcode": "57465"}}},
{"geometry": {"type": "Point", "coordinates": [-98.58258239, 45.1543395225]}, "type": "Feature", "properties": {"collection_times": [{"days": "Mon-Fri", "time": "4:00pm"}, {"days": "Sat", "time": "11:45am"}, {"days": "Sun", "time": "Closed"}], "id": "5746500002", "name": "USPS COLLECTION BOX - PO LOBBY", "address": {"city": "NORTHVILLE", "state": "SD", "street": "306 W ELM ST", "postcode": "57465"}}},
{"geometry": {"type": "Point", "coordinates": [-99.4607199408, 45.2070596241]}, "type": "Feature", "properties": {"collection_times": [{"days": "Mon-Sat", "time": "3:00pm"}, {"days": "Sun", "time": "Closed"}], "id": "5746600001", "name": "USPS COLLECTION BOX - BLUE BOX", "address": {"city": "ONAKA", "state": "SD", "street": "123 MAIN ST", "postcode": "57466"}}},
{"geometry": {"type": "Point", "coordinates": [-99.4607199408, 45.2070596241]}, "type": "Feature", "properties": {"collection_times": [{"days": "Mon-Fri", "time": "3:00pm"}, {"days": "Sat", "time": "9:50am"}, {"days": "Sun", "time": "Closed"}], "id": "5746600002", "name": "USPS COLLECTION BOX - PO LOBBY", "address": {"city": "ONAKA", "state": "SD", "street": "123 MAIN ST", "postcode": "57466"}}},
{"geometry": {"type": "Point", "coordinates": [-99.0883244541, 44.8971533492]}, "type": "Feature", "properties": {"collection_times": [{"days": "Mon-Sat", "time": "2:50pm"}, {"days": "Sun", "time": "Closed"}], "id": "5746700001", "name": "USPS COLLECTION BOX - BLUE BOX", "address": {"city": "ORIENT", "state": "SD", "street": "101 WINTER ST", "postcode": "57467"}}},
{"geometry": {"type": "Point", "coordinates": [-99.0883244541, 44.8971533492]}, "type": "Feature", "properties": {"collection_times": [{"days": "Mon-Fri", "time": "12:00pm"}, {"days": "Sat", "time": "9:45am"}, {"days": "Sun", "time": "Closed"}], "id": "5746700002", "name": "USPS COLLECTION BOX - PO LOBBY", "address": {"city": "ORIENT", "state": "SD", "street": "101 WINTER ST", "postcode": "57467"}}},
{"geometry": {"type": "Point", "coordinates": [-97.795541436, 45.5008040839]}, "type": "Feature", "properties": {"collection_times": [{"days": "Mon-Sat", "time": "3:15pm"}, {"days": "Sun", "time": "Closed"}], "id": "5746800001", "name": "USPS COLLECTION BOX - BLUE BOX", "address": {"city": "PIERPONT", "state": "SD", "street": "121 W MAIN ST", "postcode": "57468"}}},
{"geometry": {"type": "Point", "coordinates": [-97.795541436, 45.5008040839]}, "type": "Feature", "properties": {"collection_times": [{"days": "Mon-Fri", "time": "12:00pm"}, {"days": "Sat", "time": "10:15am"}, {"days": "Sun", "time": "Closed"}], "id": "5746800002", "name": "USPS COLLECTION BOX - PO LOBBY", "address": {"city": "PIERPONT", "state": "SD", "street": "121 W MAIN ST", "postcode": "57468"}}},
{"geometry": {"type": "Point", "coordinates": [-98.5171807887, 44.8769021519]}, "type": "Feature", "properties": {"collection_times": [{"days": "Mon-Sat", "time": "4:15pm"}, {"days": "Sun", "time": "Closed"}], "id": "5746900001", "name": "USPS COLLECTION BOX - BLUE BOX", "address": {"city": "REDFIELD", "state": "SD", "street": "24 E 6TH AVE", "postcode": "57469"}}},
{"geometry": {"type": "Point", "coordinates": [-98.5171807887, 44.8769021519]}, "type": "Feature", "properties": {"collection_times": [{"days": "Mon-Sat", "time": "4:15pm"}, {"days": "Sun", "time": "Closed"}], "id": "5746900002", "name": "USPS COLLECTION BOX - BLUE BOX", "address": {"city": "REDFIELD", "state": "SD", "street": "24 E 6TH AVE", "postcode": "57469"}}},
{"geometry": {"type": "Point", "coordinates": [-98.5181043549, 44.8769007262]}, "type": "Feature", "properties": {"collection_times": [{"days": "Mon-Fri", "time": "4:15pm"}, {"days": "Sat", "time": "10:30am"}, {"days": "Sun", "time": "Closed"}], "id": "5746900003", "name": "USPS COLLECTION BOX - PO LOBBY", "address": {"city": "REDFIELD", "state": "SD", "street": "24 E 6TH AVE", "postcode": "57469"}}},
{"geometry": {"type": "Point", "coordinates": [-98.5149635769, 44.8756464905]}, "type": "Feature", "properties": {"collection_times": [{"days": "Mon-Fri", "time": "2:30pm"}, {"days": "Sat-Sun", "time": "Closed"}], "id": "5746900004", "name": "USPS COLLECTION BOX - BLUE BOX", "address": {"city": "REDFIELD", "state": "SD", "street": "210 E 7TH AVE", "postcode": "57469"}}},
{"geometry": {"type": "Point", "coordinates": [-98.843513882, 44.8747380097]}, "type": "Feature", "properties": {"collection_times": [{"days": "Mon-Sat", "time": "3:15pm"}, {"days": "Sun", "time": "Closed"}], "id": "5747000001", "name": "USPS COLLECTION BOX - BLUE BOX", "address": {"city": "ROCKHAM", "state": "SD", "street": "109 S BROADWAY AVE", "postcode": "57470"}}},
{"geometry": {"type": "Point", "coordinates": [-98.843513882, 44.8747380097]}, "type": "Feature", "properties": {"collection_times": [{"days": "Mon-Fri", "time": "1:50pm"}, {"days": "Sat", "time": "11:30am"}, {"days": "Sun", "time": "Closed"}], "id": "5747000002", "name": "USPS COLLECTION BOX - PO LOBBY", "address": {"city": "ROCKHAM", "state": "SD", "street": "109 S BROADWAY AVE", "postcode": "57470"}}},
{"geometry": {"type": "Point", "coordinates": [-99.3066869545, 45.4022371237]}, "type": "Feature", "properties": {"collection_times": [{"days": "Mon-Sat", "time": "4:15pm"}, {"days": "Sun", "time": "Closed"}], "id": "5747100001", "name": "USPS COLLECTION BOX - BLUE BOX", "address": {"city": "ROSCOE", "state": "SD", "street": "206 N MAIN ST", "postcode": "57471"}}},
{"geometry": {"type": "Point", "coordinates": [-99.3066869545, 45.4022371237]}, "type": "Feature", "properties": {"collection_times": [{"days": "Mon-Fri", "time": "3:30pm"}, {"days": "Sat", "time": "9:50am"}, {"days": "Sun", "time": "Closed"}], "id": "5747100002", "name": "USPS COLLECTION BOX - PO LOBBY", "address": {"city": "ROSCOE", "state": "SD", "street": "206 N MAIN ST", "postcode": "57471"}}},
{"geometry": {"type": "Point", "coordinates": [-100.0322697414, 45.5058189642]}, "type": "Feature", "properties": {"collection_times": [{"days": "Mon-Sat", "time": "3:20pm"}, {"days": "Sun", "time": "Closed"}], "id": "5747200001", "name": "USPS COLLECTION BOX - BLUE BOX", "address": {"city": "SELBY", "state": "SD", "street": "3408 MAIN ST", "postcode": "57472"}}},
{"geometry": {"type": "Point", "coordinates": [-100.0322697414, 45.5058189642]}, "type": "Feature", "properties": {"collection_times": [{"days": "Mon-Fri", "time": "3:20pm"}, {"days": "Sat", "time": "10:00am"}, {"days": "Sun", "time": "Closed"}], "id": "5747200002", "name": "USPS COLLECTION BOX - PO LOBBY", "address": {"city": "SELBY", "state": "SD", "street": "3408 MAIN ST", "postcode": "57472"}}},
{"geometry": {"type": "Point", "coordinates": [-100.103909316, 45.4149687782]}, "type": "Feature", "properties": {"collection_times": [{"days": "Mon-Sat", "time": "10:30am"}, {"days": "Sun", "time": "Closed"}], "id": "5747200003", "name": "USPS COLLECTION BOX - BLUE BOX", "address": {"city": "SELBY", "state": "SD", "street": "103 SWAN CREEK RD", "postcode": "57472"}}},
{"geometry": {"type": "Point", "coordinates": [-99.5118132167, 45.0615879705]}, "type": "Feature", "properties": {"collection_times": [{"days": "Mon-Sat", "time": "3:30pm"}, {"days": "Sun", "time": "Closed"}], "id": "5747300001", "name": "USPS COLLECTION BOX - BLUE BOX", "address": {"city": "SENECA", "state": "SD", "street": "200 PINE ST", "postcode": "57473"}}},
{"geometry": {"type": "Point", "coordinates": [-99.5118132167, 45.0615879705]}, "type": "Feature", "properties": {"collection_times": [{"days": "Mon-Fri", "time": "11:50am"}, {"days": "Sat", "time": "11:35am"}, {"days": "Sun", "time": "Closed"}], "id": "5747300002", "name": "USPS COLLECTION BOX - PO LOBBY", "address": {"city": "SENECA", "state": "SD", "street": "200 PINE ST", "postcode": "57473"}}},
{"geometry": {"type": "Point", "coordinates": [-99.6267756099, 45.1292446498]}, "type": "Feature", "properties": {"collection_times": [{"days": "Mon-Sat", "time": "2:50pm"}, {"days": "Sun", "time": "Closed"}], "id": "5747500001", "name": "USPS COLLECTION BOX - BLUE BOX", "address": {"city": "TOLSTOY", "state": "SD", "street": "102 5TH AVE NW RM 1", "postcode": "57475"}}},
{"geometry": {"type": "Point", "coordinates": [-99.6267756099, 45.1292446498]}, "type": "Feature", "properties": {"collection_times": [{"days": "Mon-Fri", "time": "12:00pm"}, {"days": "Sat", "time": "9:45am"}, {"days": "Sun", "time": "Closed"}], "id": "5747500002", "name": "USPS COLLECTION BOX - PO LOBBY", "address": {"city": "TOLSTOY", "state": "SD", "street": "102 5TH AVE NW RM 1", "postcode": "57475"}}},
{"geometry": {"type": "Point", "coordinates": [-98.5070289547, 44.7382636146]}, "type": "Feature", "properties": {"collection_times": [{"days": "Mon-Sat", "time": "4:00pm"}, {"days": "Sun", "time": "Closed"}], "id": "5747600001", "name": "USPS COLLECTION BOX - BLUE BOX", "address": {"city": "TULARE", "state": "SD", "street": "205 MAIN ST", "postcode": "57476"}}},
{"geometry": {"type": "Point", "coordinates": [-98.5070289547, 44.7382636146]}, "type": "Feature", "properties": {"collection_times": [{"days": "Mon-Fri", "time": "1:00pm"}, {"days": "Sat", "time": "9:30am"}, {"days": "Sun", "time": "Closed"}], "id": "5747600002", "name": "USPS COLLECTION BOX - PO LOBBY", "address": {"city": "TULARE", "state": "SD", "street": "205 MAIN ST", "postcode": "57476"}}},
{"geometry": {"type": "Point", "coordinates": [-98.0976178225, 45.0494328705]}, "type": "Feature", "properties": {"collection_times": [{"days": "Mon-Fri", "time": "3:45pm"}, {"days": "Sat", "time": "4:00pm"}, {"days": "Sun", "time": "Closed"}], "id": "5747700001", "name": "USPS COLLECTION BOX - BLUE BOX", "address": {"city": "TURTON", "state": "SD", "street": "108 E CENTER ST", "postcode": "57477"}}},
{"geometry": {"type": "Point", "coordinates": [-98.0976178225, 45.0494328705]}, "type": "Feature", "properties": {"collection_times": [{"days": "Mon-Fri", "time": "12:45pm"}, {"days": "Sat", "time": "12:00pm"}, {"days": "Sun", "time": "Closed"}], "id": "5747700002", "name": "USPS COLLECTION BOX - PO LOBBY", "address": {"city": "TURTON", "state": "SD", "street": "108 E CENTER ST", "postcode": "57477"}}},
{"geometry": {"type": "Point", "coordinates": [-98.4961772936, 45.3255863758]}, "type": "Feature", "properties": {"collection_times": [{"days": "Mon-Sat", "time": "5:00pm"}, {"days": "Sun", "time": "Closed"}], "id": "5747900001", "name": "USPS COLLECTION BOX - BLUE BOX", "address": {"city": "WARNER", "state": "SD", "street": "22 W MAIN ST", "postcode": "57479"}}},
{"geometry": {"type": "Point", "coordinates": [-98.4961772936, 45.3255863758]}, "type": "Feature", "properties": {"collection_times": [{"days": "Mon-Fri", "time": "2:30pm"}, {"days": "Sat-Sun", "time": "Closed"}], "id": "5747900002", "name": "USPS COLLECTION BOX - PO LOBBY", "address": {"city": "WARNER", "state": "SD", "street": "22 W MAIN ST", "postcode": "57479"}}},
{"geometry": {"type": "Point", "coordinates": [-98.4962869661, 45.648440399]}, "type": "Feature", "properties": {"collection_times": [{"days": "Mon-Sat", "time": "2:55pm"}, {"days": "Sun", "time": "Closed"}], "id": "5748100001", "name": "USPS COLLECTION BOX - BLUE BOX", "address": {"city": "WESTPORT", "state": "SD", "street": "14 MAIN ST W", "postcode": "57481"}}},
{"geometry": {"type": "Point", "coordinates": [-98.4962869661, 45.648440399]}, "type": "Feature", "properties": {"collection_times": [{"days": "Mon-Sat", "time": "10:25am"}, {"days": "Sun", "time": "Closed"}], "id": "5748100002", "name": "USPS COLLECTION BOX - PO LOBBY", "address": {"city": "WESTPORT", "state": "SD", "street": "14 MAIN ST W", "postcode": "57481"}}}
]}
