{"type": "FeatureCollection", "features": [
{"geometry": {"type": "Point", "coordinates": [-100.3180147665, 44.3775711825]}, "type": "Feature", "properties": {"collection_times": [{"days": "Mon-Fri", "time": "11:30am"}, {"days": "Sat", "time": "11:00am"}, {"days": "Sun", "time": "Closed"}], "id": "5750100002", "name": "USPS COLLECTION BOX - BLUE BOX", "address": {"city": "PIERRE", "state": "SD", "street": "1615 N HARRISON AVE", "postcode": "57501"}}},
{"geometry": {"type": "Point", "coordinates": [-100.3527526803, 44.3658630907]}, "type": "Feature", "properties": {"collection_times": [{"days": "Mon-Fri", "time": "2:30pm"}, {"days": "Sat-Sun", "time": "Closed"}], "id": "5750100011", "name": "USPS COLLECTION BOX - BLUE BOX", "address": {"city": "PIERRE", "state": "SD", "street": "319 COTEAU ST", "postcode": "57501"}}},
{"geometry": {"type": "Point", "coordinates": [-100.3552685382, 44.3653619484]}, "type": "Feature", "properties": {"collection_times": [{"days": "Mon-Fri", "time": "2:30pm"}, {"days": "Sat", "time": "1:00pm"}, {"days": "Sun", "time": "Closed"}], "id": "5750100015", "name": "USPS COLLECTION BOX - BLUE BOX", "address": {"city": "PIERRE", "state": "SD", "street": "420 S PIERRE ST", "postcode": "57501"}}},
{"geometry": {"type": "Point", "coordinates": [-100.3440541715, 44.3605770473]}, "type": "Feature", "properties": {"collection_times": [{"days": "Mon-Fri", "time": "2:00pm"}, {"days": "Sat-Sun", "time": "Closed"}], "id": "5750100016", "name": "USPS COLLECTION BOX - BLUE BOX", "address": {"city": "PIERRE", "state": "SD", "street": "801 E DAKOTA AVE", "postcode": "57501"}}},
{"geometry": {"type": "Point", "coordinates": [-100.3429199765, 44.3640347616]}, "type": "Feature", "properties": {"collection_times": [{"days": "Mon-Fri", "time": "2:30pm"}, {"days": "Sat-Sun", "time": "Closed"}], "id": "5750100017", "name": "USPS COLLECTION BOX - BLUE BOX", "address": {"city": "PIERRE", "state": "SD", "street": "711 E WELLS AVE", "postcode": "57501"}}},
{"geometry": {"type": "Point", "coordinates": [-100.350255246, 44.3684279953]}, "type": "Feature", "properties": {"collection_times": [{"days": "Mon-Fri", "time": "2:30pm"}, {"days": "Sat-Sun", "time": "Closed"}], "id": "5750100018", "name": "USPS COLLECTION BOX - BLUE BOX", "address": {"city": "PIERRE", "state": "SD", "street": "222 E CAPITOL AVE", "postcode": "57501"}}},
{"geometry": {"type": "Point", "coordinates": [-100.3515439384, 44.3689302018]}, "type": "Feature", "properties": {"collection_times": [{"days": "Mon-Fri", "time": "2:30pm"}, {"days": "Sat", "time": "1:00pm"}, {"days": "Sun", "time": "Closed"}], "id": "5750100020", "name": "USPS COLLECTION BOX - BLUE BOX", "address": {"city": "PIERRE", "state": "SD", "street": "101 S PIERRE ST", "postcode": "57501"}}},
{"geometry": {"type": "Point", "coordinates": [-100.3527673619, 44.3678450274]}, "type": "Feature", "properties": {"collection_times": [{"days": "Mon-Fri", "time": "6:00pm"}, {"days": "Sat", "time": "4:00pm"}, {"days": "Sun", "time": "Closed"}], "id": "5750100022", "name": "USPS COLLECTION BOX - BLUE BOX", "address": {"city": "PIERRE", "state": "SD", "street": "225 S PIERRE ST", "postcode": "57501"}}},
{"geometry": {"type": "Point", "coordinates": [-100.3308794982, 44.3806502312]}, "type": "Feature", "properties": {"collection_times": [{"days": "Mon-Fri", "time": "6:00pm"}, {"days": "Sat", "time": "4:00pm"}, {"days": "Sun", "time": "Closed"}], "id": "5750100025", "name": "USPS COLLECTION BOX - PO LOBBY", "address": {"city": "PIERRE", "state": "SD", "street": "225 S PIERRE ST", "postcode": "57501"}}},
{"geometry": {"type": "Point", "coordinates": [-100.3527673619, 44.3678450274]}, "type": "Feature", "properties": {"collection_times": [{"days": "Mon-Fri", "time": "6:00pm"}, {"days": "Sat", "time": "4:00pm"}, {"days": "Sun", "time": "Closed"}], "id": "5750100032", "name": "USPS COLLECTION BOX - BLUE BOX", "address": {"city": "PIERRE", "state": "SD", "street": "225 S PIERRE ST", "postcode": "57501"}}},
{"geometry": {"type": "Point", "coordinates": [-100.0739671776, 44.8383739771]}, "type": "Feature", "properties": {"collection_times": [{"days": "Mon-Sat", "time": "3:45pm"}, {"days": "Sun", "time": "Closed"}], "id": "5752000000", "name": "USPS COLLECTION BOX - BLUE BOX", "address": {"city": "AGAR", "state": "SD", "street": "206 ASH ST", "postcode": "57520"}}},
{"geometry": {"type": "Point", "coordinates": [-100.0739671776, 44.8383739771]}, "type": "Feature", "properties": {"collection_times": [{"days": "Mon-Fri", "time": "9:45am"}, {"days": "Sat", "time": "10:00am"}, {"days": "Sun", "time": "Closed"}], "id": "5752000001", "name": "USPS COLLECTION BOX - PO LOBBY", "address": {"city": "AGAR", "state": "SD", "street": "206 ASH ST", "postcode": "57520"}}},
{"geometry": {"type": "Point", "coordinates": [-101.2485661821, 43.9014832267]}, "type": "Feature", "properties": {"collection_times": [{"days": "Mon-Sat", "time": "2:25pm"}, {"days": "Sun", "time": "Closed"}], "id": "5752100001", "name": "USPS COLLECTION BOX - BLUE BOX", "address": {"city": "BELVIDERE", "state": "SD", "street": "406 B ST", "postcode": "57521"}}},
{"geometry": {"type": "Point", "coordinates": [-101.2485661821, 43.9014832267]}, "type": "Feature", "properties": {"collection_times": [{"days": "Mon-Fri", "time": "11:00am"}, {"days": "Sat", "time": "8:30am"}, {"days": "Sun", "time": "Closed"}], "id": "5752100002", "name": "USPS COLLECTION BOX - PO LOBBY", "address": {"city": "BELVIDERE", "state": "SD", "street": "406 B ST", "postcode": "57521"}}},
{"geometry": {"type": "Point", "coordinates": [-99.986037215, 44.5149675915]}, "type": "Feature", "properties": {"collection_times": [{"days": "Mon-Sat", "time": "4:15pm"}, {"days": "Sun", "time": "Closed"}], "id": "5752200001", "name": "USPS COLLECTION BOX - BLUE BOX", "address": {"city": "BLUNT", "state": "SD", "street": "301 N MAIN ST", "postcode": "57522"}}},
{"geometry": {"type": "Point", "coordinates": [-99.986037215, 44.5149675915]}, "type": "Feature", "properties": {"collection_times": [{"days": "Mon-Fri", "time": "12:00pm"}, {"days": "Sat", "time": "9:45am"}, {"days": "Sun", "time": "Closed"}], "id": "5752200002", "name": "USPS COLLECTION BOX - PO LOBBY", "address": {"city": "BLUNT", "state": "SD", "street": "301 N MAIN ST", "postcode": "57522"}}},
{"geometry": {"type": "Point", "coordinates": [-99.2922728709, 43.1821177949]}, "type": "Feature", "properties": {"collection_times": [{"days": "Mon-Sat", "time": "1:45pm"}, {"days": "Sun", "time": "Closed"}], "id": "5752300001", "name": "USPS COLLECTION BOX - BLUE BOX", "address": {"city": "BURKE", "state": "SD", "street": "833 MAIN ST", "postcode": "57523"}}},
{"geometry": {"type": "Point", "coordinates": [-99.2922728709, 43.1821177949]}, "type": "Feature", "properties": {"collection_times": [{"days": "Mon-Fri", "time": "1:45pm"}, {"days": "Sat", "time": "9:00am"}, {"days": "Sun", "time": "Closed"}], "id": "5752300002", "name": "USPS COLLECTION BOX - PO LOBBY", "address": {"city": "BURKE", "state": "SD", "street": "833 MAIN ST", "postcode": "57523"}}},
{"geometry": {"type": "Point", "coordinates": [-99.71515803, 43.2625197949]}, "type": "Feature", "properties": {"collection_times": [{"days": "Mon-Sat", "time": "2:25pm"}, {"days": "Sun", "time": "Closed"}], "id": "5752800001", "name": "USPS COLLECTION BOX - BLUE BOX", "address": {"city": "COLOME", "state": "SD", "street": "202 MAIN ST", "postcode": "57528"}}},
{"geometry": {"type": "Point", "coordinates": [-99.71515803, 43.2625197949]}, "type": "Feature", "properties": {"collection_times": [{"days": "Mon-Fri", "time": "2:00pm"}, {"days": "Sat", "time": "9:00am"}, {"days": "Sun", "time": "Closed"}], "id": "5752800002", "name": "USPS COLLECTION BOX - PO LOBBY", "address": {"city": "COLOME", "state": "SD", "street": "202 MAIN ST", "postcode": "57528"}}},
{"geometry": {"type": "Point", "coordinates": [-100.4810453313, 43.9399154613]}, "type": "Feature", "properties": {"collection_times": [{"days": "Mon-Fri", "time": "10:45am"}, {"days": "Sat", "time": "11:00am"}, {"days": "Sun", "time": "Closed"}], "id": "5753100002", "name": "USPS COLLECTION BOX - PO LOBBY", "address": {"city": "DRAPER", "state": "SD", "street": "147 S MAIN ST", "postcode": "57531"}}},
{"geometry": {"type": "Point", "coordinates": [-100.4038277955, 44.3675717646]}, "type": "Feature", "properties": {"collection_times": [{"days": "Mon-Sat", "time": "4:00pm"}, {"days": "Sun", "time": "Closed"}], "id": "5753200001", "name": "USPS COLLECTION BOX - BLUE BOX", "address": {"city": "FT PIERRE", "state": "SD", "street": "412 N DEADWOOD ST", "postcode": "57532"}}},
{"geometry": {"type": "Point", "coordinates": [-100.4038277955, 44.3675717646]}, "type": "Feature", "properties": {"collection_times": [{"days": "Mon-Fri", "time": "4:15pm"}, {"days": "Sat", "time": "11:00am"}, {"days": "Sun", "time": "Closed"}], "id": "5753200002", "name": "USPS COLLECTION BOX - PO LOBBY", "address": {"city": "FT PIERRE", "state": "SD", "street": "412 N DEADWOOD ST", "postcode": "57532"}}},
{"geometry": {"type": "Point", "coordinates": [-99.4308502522, 43.2314972311]}, "type": "Feature", "properties": {"collection_times": [{"days": "Mon-Sat", "time": "2:00pm"}, {"days": "Sun", "time": "Closed"}], "id": "5753300001", "name": "USPS COLLECTION BOX - BLUE BOX", "address": {"city": "GREGORY", "state": "SD", "street": "517 MAIN ST", "postcode": "57533"}}},
{"geometry": {"type": "Point", "coordinates": [-99.4308502522, 43.2314972311]}, "type": "Feature", "properties": {"collection_times": [{"days": "Mon-Fri", "time": "2:00pm"}, {"days": "Sat", "time": "10:15am"}, {"days": "Sun", "time": "Closed"}], "id": "5753300004", "name": "USPS COLLECTION BOX - PO LOBBY", "address": {"city": "GREGORY", "state": "SD", "street": "517 MAIN ST", "postcode": "57533"}}},
{"geometry": {"type": "Point", "coordinates": [-99.4308502522, 43.2314972311]}, "type": "Feature", "properties": {"collection_times": [{"days": "Mon-Sat", "time": "2:00pm"}, {"days": "Sun", "time": "Closed"}], "id": "5753300005", "name": "USPS COLLECTION BOX - BLUE BOX", "address": {"city": "GREGORY", "state": "SD", "street": "517 MAIN ST", "postcode": "57533"}}},
{"geometry": {"type": "Point", "coordinates": [-99.68192229, 43.5962769909]}, "type": "Feature", "properties": {"collection_times": [{"days": "Mon-Sat", "time": "11:30am"}, {"days": "Sun", "time": "Closed"}], "id": "5753400001", "name": "USPS COLLECTION BOX - BLUE BOX", "address": {"city": "HAMILL", "state": "SD", "street": "26245 MAIN ST", "postcode": "57534"}}},
{"geometry": {"type": "Point", "coordinates": [-99.68192229, 43.5962769909]}, "type": "Feature", "properties": {"collection_times": [{"days": "Mon-Sat", "time": "11:45am"}, {"days": "Sun", "time": "Closed"}], "id": "5753400002", "name": "USPS COLLECTION BOX - PO LOBBY", "address": {"city": "HAMILL", "state": "SD", "street": "26245 MAIN ST", "postcode": "57534"}}},
{"geometry": {"type": "Point", "coordinates": [-99.7395442151, 44.5226754255]}, "type": "Feature", "properties": {"collection_times": [{"days": "Mon-Sat", "time": "3:45pm"}, {"days": "Sun", "time": "Closed"}], "id": "5753600001", "name": "USPS COLLECTION BOX - BLUE BOX", "address": {"city": "HARROLD", "state": "SD", "street": "204 S WYMAN ST", "postcode": "57536"}}},
{"geometry": {"type": "Point", "coordinates": [-99.7395442151, 44.5226754255]}, "type": "Feature", "properties": {"collection_times": [{"days": "Mon-Fri", "time": "12:00pm"}, {"days": "Sat", "time": "9:30am"}, {"days": "Sun", "time": "Closed"}], "id": "5753600003", "name": "USPS COLLECTION BOX - PO LOBBY", "address": {"city": "HARROLD", "state": "SD", "street": "204 S WYMAN ST", "postcode": "57536"}}},
{"geometry": {"type": "Point", "coordinates": [-99.2375813922, 43.0836225421]}, "type": "Feature", "properties": {"collection_times": [{"days": "Mon-Sat", "time": "1:30pm"}, {"days": "Sun", "time": "Closed"}], "id": "5753800001", "name": "USPS COLLECTION BOX - BLUE BOX", "address": {"city": "HERRICK", "state": "SD", "street": "727 HERRICK AVE", "postcode": "57538"}}},
{"geometry": {"type": "Point", "coordinates": [-99.2375813922, 43.0836225421]}, "type": "Feature", "properties": {"collection_times": [{"days": "Mon-Fri", "time": "12:00pm"}, {"days": "Sat", "time": "10:25am"}, {"days": "Sun", "time": "Closed"}], "id": "5753800002", "name": "USPS COLLECTION BOX - PO LOBBY", "address": {"city": "HERRICK", "state": "SD", "street": "727 HERRICK AVE", "postcode": "57538"}}},
{"geometry": {"type": "Point", "coordinates": [-99.9192651393, 43.543510193]}, "type": "Feature", "properties": {"collection_times": [{"days": "Mon-Sat", "time": "12:00pm"}, {"days": "Sun", "time": "Closed"}], "id": "5754100000", "name": "USPS COLLECTION BOX - BLUE BOX", "address": {"city": "IDEAL", "state": "SD", "street": "31210 266TH ST", "postcode": "57541"}}},
{"geometry": {"type": "Point", "coordinates": [-99.9192651393, 43.543510193]}, "type": "Feature", "properties": {"collection_times": [{"days": "Mon-Fri", "time": "11:00am"}, {"days": "Sat", "time": "12:00pm"}, {"days": "Sun", "time": "Closed"}], "id": "5754100001", "name": "USPS COLLECTION BOX - PO LOBBY", "address": {"city": "IDEAL", "state": "SD", "street": "31210 266TH ST", "postcode": "57541"}}},
{"geometry": {"type": "Point", "coordinates": [-101.5073243403, 43.8285692041]}, "type": "Feature", "properties": {"collection_times": [{"days": "Mon-Sat", "time": "2:15pm"}, {"days": "Sun", "time": "Closed"}], "id": "5754300001", "name": "USPS COLLECTION BOX - BLUE BOX", "address": {"city": "KADOKA", "state": "SD", "street": "1001 MAIN ST", "postcode": "57543"}}},
{"geometry": {"type": "Point", "coordinates": [-101.5073243403, 43.8285692041]}, "type": "Feature", "properties": {"collection_times": [{"days": "Mon-Fri", "time": "2:15pm"}, {"days": "Sat-Sun", "time": "Closed"}], "id": "5754300003", "name": "USPS COLLECTION BOX - PO LOBBY", "address": {"city": "KADOKA", "state": "SD", "street": "1001 MAIN ST", "postcode": "57543"}}},
{"geometry": {"type": "Point", "coordinates": [-99.8619462735, 43.9038458976]}, "type": "Feature", "properties": {"collection_times": [{"days": "Mon-Fri", "time": "11:30am"}, {"days": "Sat", "time": "9:30am"}, {"days": "Sun", "time": "Closed"}], "id": "5754400002", "name": "USPS COLLECTION BOX - PO LOBBY", "address": {"city": "KENNEBEC", "state": "SD", "street": "210 S MAIN ST", "postcode": "57544"}}},
{"geometry": {"type": "Point", "coordinates": [-99.8556575567, 43.9032427519]}, "type": "Feature", "properties": {"collection_times": [{"days": "Mon-Sat", "time": "3:40pm"}, {"days": "Sun", "time": "Closed"}], "id": "5754400003", "name": "USPS COLLECTION BOX - BLUE BOX", "address": {"city": "KENNEBEC", "state": "SD", "street": "210 S MAIN ST", "postcode": "57544"}}},
{"geometry": {"type": "Point", "coordinates": [-99.7086639749, 44.0575152576]}, "type": "Feature", "properties": {"collection_times": [{"days": "Mon-Sat", "time": "2:45pm"}, {"days": "Sun", "time": "Closed"}], "id": "5754800001", "name": "USPS COLLECTION BOX - BLUE BOX", "address": {"city": "LOWER BRULE", "state": "SD", "street": "1 CRAZY HORSE ST", "postcode": "57548"}}},
{"geometry": {"type": "Point", "coordinates": [-99.7086639749, 44.0575152576]}, "type": "Feature", "properties": {"collection_times": [{"days": "Mon-Fri", "time": "1:00pm"}, {"days": "Sat", "time": "9:45am"}, {"days": "Sun", "time": "Closed"}], "id": "5754800002", "name": "USPS COLLECTION BOX - PO LOBBY", "address": {"city": "LOWER BRULE", "state": "SD", "street": "1 CRAZY HORSE ST", "postcode": "57548"}}},
{"geometry": {"type": "Point", "coordinates": [-101.7349324548, 43.1751808324]}, "type": "Feature", "properties": {"collection_times": [{"days": "Mon-Fri", "time": "12:45pm"}, {"days": "Sat", "time": "10:45am"}, {"days": "Sun", "time": "Closed"}], "id": "5755100001", "name": "USPS COLLECTION BOX - BLUE BOX", "address": {"city": "MARTIN", "state": "SD", "street": "506 3RD AVE", "postcode": "57551"}}},
{"geometry": {"type": "Point", "coordinates": [-101.8891697285, 43.1076309673]}, "type": "Feature", "properties": {"collection_times": [{"days": "Mon-Sat", "time": "12:00pm"}, {"days": "Sun", "time": "Closed"}], "id": "5755100002", "name": "USPS COLLECTION BOX - BLUE BOX", "address": {"city": "MARTIN", "state": "SD", "street": "2 HIGHWAY 73", "postcode": "57551"}}},
{"geometry": {"type": "Point", "coordinates": [-101.7349324548, 43.1751808324]}, "type": "Feature", "properties": {"collection_times": [{"days": "Mon-Fri", "time": "12:45pm"}, {"days": "Sat", "time": "10:45am"}, {"days": "Sun", "time": "Closed"}], "id": "5755100003", "name": "USPS COLLECTION BOX - PO LOBBY", "address": {"city": "MARTIN", "state": "SD", "street": "506 3RD AVE", "postcode": "57551"}}},
{"geometry": {"type": "Point", "coordinates": [-101.1557457486, 44.0705629853]}, "type": "Feature", "properties": {"collection_times": [{"days": "Mon-Sat", "time": "1:10pm"}, {"days": "Sun", "time": "Closed"}], "id": "5755200001", "name": "USPS COLLECTION BOX - BLUE BOX", "address": {"city": "MIDLAND", "state": "SD", "street": "402 MAIN ST", "postcode": "57552"}}},
{"geometry": {"type": "Point", "coordinates": [-101.1557457486, 44.0705629853]}, "type": "Feature", "properties": {"collection_times": [{"days": "Mon-Fri", "time": "1:10pm"}, {"days": "Sat", "time": "9:00am"}, {"days": "Sun", "time": "Closed"}], "id": "5755200002", "name": "USPS COLLECTION BOX - PO LOBBY", "address": {"city": "MIDLAND", "state": "SD", "street": "402 MAIN ST", "postcode": "57552"}}},
{"geometry": {"type": "Point", "coordinates": [-100.6593595437, 43.3047634936]}, "type": "Feature", "properties": {"collection_times": [{"days": "Mon-Sat", "time": "2:15pm"}, {"days": "Sun", "time": "Closed"}], "id": "5755500001", "name": "USPS COLLECTION BOX - BLUE BOX", "address": {"city": "MISSION", "state": "SD", "street": "150 E 3RD ST", "postcode": "57555"}}},
{"geometry": {"type": "Point", "coordinates": [-100.4750098365, 43.1909401173]}, "type": "Feature", "properties": {"collection_times": [{"days": "Mon-Fri", "time": "2:15pm"}, {"days": "Sat", "time": "1:00pm"}, {"days": "Sun", "time": "Closed"}], "id": "5755500002", "name": "USPS COLLECTION BOX - PO LOBBY", "address": {"city": "MISSION", "state": "SD", "street": "150 E 3RD ST", "postcode": "57555"}}},
{"geometry": {"type": "Point", "coordinates": [-100.7131810447, 43.8894680075]}, "type": "Feature", "properties": {"collection_times": [{"days": "Mon-Sat", "time": "3:30pm"}, {"days": "Sun", "time": "Closed"}], "id": "5755900001", "name": "USPS COLLECTION BOX - BLUE BOX", "address": {"city": "MURDO", "state": "SD", "street": "216 MAIN ST", "postcode": "57559"}}},
{"geometry": {"type": "Point", "coordinates": [-100.7131810447, 43.8894680075]}, "type": "Feature", "properties": {"collection_times": [{"days": "Mon-Fri", "time": "3:30pm"}, {"days": "Sat", "time": "9:30am"}, {"days": "Sun", "time": "Closed"}], "id": "5755900002", "name": "USPS COLLECTION BOX - PO LOBBY", "address": {"city": "MURDO", "state": "SD", "street": "216 MAIN ST", "postcode": "57559"}}},
{"geometry": {"type": "Point", "coordinates": [-101.0784024493, 43.3945651795]}, "type": "Feature", "properties": {"collection_times": [{"days": "Mon-Fri", "time": "1:30pm"}, {"days": "Sat", "time": "10:15am"}, {"days": "Sun", "time": "Closed"}], "id": "5756000000", "name": "USPS COLLECTION BOX - BLUE BOX", "address": {"city": "NORRIS", "state": "SD", "street": "27149 SD HIGHWAY 63", "postcode": "57560"}}},
{"geometry": {"type": "Point", "coordinates": [-101.0784024493, 43.3945651795]}, "type": "Feature", "properties": {"collection_times": [{"days": "Mon-Fri", "time": "12:30pm"}, {"days": "Sat", "time": "10:45am"}, {"days": "Sun", "time": "Closed"}], "id": "5756000001", "name": "USPS COLLECTION BOX - PO LOBBY", "address": {"city": "NORRIS", "state": "SD", "street": "27149 SD HIGHWAY 63", "postcode": "57560"}}},
{"geometry": {"type": "Point", "coordinates": [-100.3878375721, 43.3607154016]}, "type": "Feature", "properties": {"collection_times": [{"days": "Mon-Sat", "time": "10:50am"}, {"days": "Sun", "time": "Closed"}], "id": "5756300001", "name": "USPS COLLECTION BOX - BLUE BOX", "address": {"city": "OKREEK", "state": "SD", "street": "1 SE 1ST ST", "postcode": "57563"}}},
{"geometry": {"type": "Point", "coordinates": [-100.0660717197, 44.7066712706]}, "type": "Feature", "properties": {"collection_times": [{"days": "Mon-Sat", "time": "4:00pm"}, {"days": "Sun", "time": "Closed"}], "id": "5756400001", "name": "USPS COLLECTION BOX - BLUE BOX", "address": {"city": "ONIDA", "state": "SD", "street": "703 BIRCH AVE", "postcode": "57564"}}},
{"geometry": {"type": "Point", "coordinates": [-100.0660717197, 44.7066712706]}, "type": "Feature", "properties": {"collection_times": [{"days": "Mon-Fri", "time": "4:00pm"}, {"days": "Sat", "time": "10:00am"}, {"days": "Sun", "time": "Closed"}], "id": "5756400002", "name": "USPS COLLECTION BOX - PO LOBBY", "address": {"city": "ONIDA", "state": "SD", "street": "703 BIRCH AVE", "postcode": "57564"}}},
{"geometry": {"type": "Point", "coordinates": [-101.0163033522, 43.3292080731]}, "type": "Feature", "properties": {"collection_times": [{"days": "Mon-Fri", "time": "11:45am"}, {"days": "Sat", "time": "10:30am"}, {"days": "Sun", "time": "Closed"}], "id": "5756600001", "name": "USPS COLLECTION BOX - BLUE BOX", "address": {"city": "PARMELEE", "state": "SD", "street": "200 2ND ST", "postcode": "57566"}}},
{"geometry": {"type": "Point", "coordinates": [-101.0163033522, 43.3292080731]}, "type": "Feature", "properties": {"collection_times": [{"days": "Mon-Fri", "time": "12:00pm"}, {"days": "Sat", "time": "11:55am"}, {"days": "Sun", "time": "Closed"}], "id": "5756600002", "name": "USPS COLLECTION BOX - PO LOBBY", "address": {"city": "PARMELEE", "state": "SD", "street": "200 2ND ST", "postcode": "57566"}}},
{"geometry": {"type": "Point", "coordinates": [-101.6637933771, 44.0393954579]}, "type": "Feature", "properties": {"collection_times": [{"days": "Mon-Sat", "time": "1:40pm"}, {"days": "Sun", "time": "Closed"}], "id": "5756700001", "name": "USPS COLLECTION BOX - BLUE BOX", "address": {"city": "PHILIP", "state": "SD", "street": "214 E PINE ST", "postcode": "57567"}}},
{"geometry": {"type": "Point", "coordinates": [-101.6637933771, 44.0393954579]}, "type": "Feature", "properties": {"collection_times": [{"days": "Mon-Fri", "time": "1:40pm"}, {"days": "Sat", "time": "10:00am"}, {"days": "Sun", "time": "Closed"}], "id": "5756700002", "name": "USPS COLLECTION BOX - PO LOBBY", "address": {"city": "PHILIP", "state": "SD", "street": "214 E PINE ST", "postcode": "57567"}}},
{"geometry": {"type": "Point", "coordinates": [-100.0586360498, 43.9097651001]}, "type": "Feature", "properties": {"collection_times": [{"days": "Mon-Sat", "time": "4:00pm"}, {"days": "Sun", "time": "Closed"}], "id": "5756800001", "name": "USPS COLLECTION BOX - BLUE BOX", "address": {"city": "PRESHO", "state": "SD", "street": "210 N MAIN AVE", "postcode": "57568"}}},
{"geometry": {"type": "Point", "coordinates": [-100.0586360498, 43.9097651001]}, "type": "Feature", "properties": {"collection_times": [{"days": "Mon-Fri", "time": "4:00pm"}, {"days": "Sat", "time": "10:00am"}, {"days": "Sun", "time": "Closed"}], "id": "5756800002", "name": "USPS COLLECTION BOX - PO LOBBY", "address": {"city": "PRESHO", "state": "SD", "street": "210 N MAIN AVE", "postcode": "57568"}}},
{"geometry": {"type": "Point", "coordinates": [-99.5721009611, 43.8308645285]}, "type": "Feature", "properties": {"collection_times": [{"days": "Mon-Sat", "time": "3:15pm"}, {"days": "Sun", "time": "Closed"}], "id": "5756900001", "name": "USPS COLLECTION BOX - BLUE BOX", "address": {"city": "RELIANCE", "state": "SD", "street": "202 W HIGHWAY 47", "postcode": "57569"}}},
{"geometry": {"type": "Point", "coordinates": [-99.5721009611, 43.8308645285]}, "type": "Feature", "properties": {"collection_times": [{"days": "Mon-Fri", "time": "11:00am"}, {"days": "Sat", "time": "8:30am"}, {"days": "Sun", "time": "Closed"}], "id": "5756900002", "name": "USPS COLLECTION BOX - PO LOBBY", "address": {"city": "RELIANCE", "state": "SD", "street": "202 W HIGHWAY 47", "postcode": "57569"}}},
{"geometry": {"type": "Point", "coordinates": [-100.8535140678, 43.2328490128]}, "type": "Feature", "properties": {"collection_times": [{"days": "Mon-Sat", "time": "1:50pm"}, {"days": "Sun", "time": "Closed"}], "id": "5757000001", "name": "USPS COLLECTION BOX - BLUE BOX", "address": {"city": "ROSEBUD", "state": "SD", "street": "9998 FAIRGROUNDS RD", "postcode": "57570"}}},
{"geometry": {"type": "Point", "coordinates": [-100.8535140678, 43.2328490128]}, "type": "Feature", "properties": {"collection_times": [{"days": "Mon-Fri", "time": "1:50pm"}, {"days": "Sat", "time": "11:30am"}, {"days": "Sun", "time": "Closed"}], "id": "5757000003", "name": "USPS COLLECTION BOX - PO LOBBY", "address": {"city": "ROSEBUD", "state": "SD", "street": "9998 FAIRGROUNDS RD", "postcode": "57570"}}},
{"geometry": {"type": "Point", "coordinates": [-100.9706407426, 43.1403530669]}, "type": "Feature", "properties": {"collection_times": [{"days": "Mon-Fri", "time": "1:30pm"}, {"days": "Sat", "time": "11:00am"}, {"days": "Sun", "time": "Closed"}], "id": "5757200002", "name": "USPS COLLECTION BOX - PO LOBBY", "address": {"city": "SAINT FRANCIS", "state": "SD", "street": "1 MAIN ST", "postcode": "57572"}}},
{"geometry": {"type": "Point", "coordinates": [-100.3074083533, 44.0132066562]}, "type": "Feature", "properties": {"collection_times": [{"days": "Mon-Sat", "time": "4:20pm"}, {"days": "Sun", "time": "Closed"}], "id": "5757600001", "name": "USPS COLLECTION BOX - BLUE BOX", "address": {"city": "VIVIAN", "state": "SD", "street": "109 S MAIN AVE", "postcode": "57576"}}},
{"geometry": {"type": "Point", "coordinates": [-100.3074083533, 44.0132066562]}, "type": "Feature", "properties": {"collection_times": [{"days": "Mon-Fri", "time": "12:00pm"}, {"days": "Sat", "time": "9:30am"}, {"days": "Sun", "time": "Closed"}], "id": "5757600002", "name": "USPS COLLECTION BOX - PO LOBBY", "address": {"city": "VIVIAN", "state": "SD", "street": "109 S MAIN AVE", "postcode": "57576"}}},
{"geometry": {"type": "Point", "coordinates": [-101.8126320399, 43.5482050334]}, "type": "Feature", "properties": {"collection_times": [{"days": "Mon-Fri", "time": "1:15pm"}, {"days": "Sat", "time": "12:15pm"}, {"days": "Sun", "time": "Closed"}], "id": "5757700001", "name": "USPS COLLECTION BOX - BLUE BOX", "address": {"city": "WANBLEE", "state": "SD", "street": "310 SD HIGHWAY 44", "postcode": "57577"}}},
{"geometry": {"type": "Point", "coordinates": [-101.8126320399, 43.5482050334]}, "type": "Feature", "properties": {"collection_times": [{"days": "Mon-Fri", "time": "1:15pm"}, {"days": "Sat", "time": "12:15pm"}, {"days": "Sun", "time": "Closed"}], "id": "5757700002", "name": "USPS COLLECTION BOX - PO LOBBY", "address": {"city": "WANBLEE", "state": "SD", "street": "310 SD HIGHWAY 44", "postcode": "57577"}}},
{"geometry": {"type": "Point", "coordinates": [-100.732130721, 43.5487790305]}, "type": "Feature", "properties": {"collection_times": [{"days": "Mon-Sat", "time": "2:45pm"}, {"days": "Sun", "time": "Closed"}], "id": "5757900001", "name": "USPS COLLECTION BOX - BLUE BOX", "address": {"city": "WHITE RIVER", "state": "SD", "street": "415 N MAIN ST", "postcode": "57579"}}},
{"geometry": {"type": "Point", "coordinates": [-100.732130721, 43.5487790305]}, "type": "Feature", "properties": {"collection_times": [{"days": "Mon-Fri", "time": "2:00pm"}, {"days": "Sat-Sun", "time": "Closed"}], "id": "5757900002", "name": "USPS COLLECTION BOX - PO LOBBY", "address": {"city": "WHITE RIVER", "state": "SD", "street": "415 N MAIN ST", "postcode": "57579"}}},
{"geometry": {"type": "Point", "coordinates": [-100.7301093328, 43.5147155144]}, "type": "Feature", "properties": {"collection_times": [{"days": "Mon-Sat", "time": "2:45pm"}, {"days": "Sun", "time": "Closed"}], "id": "5757900004", "name": "USPS COLLECTION BOX - BLUE BOX", "address": {"city": "WHITE RIVER", "state": "SD", "street": "312 N US HIGHWAY 83", "postcode": "57579"}}},
{"geometry": {"type": "Point", "coordinates": [-99.8582946844, 43.3743701275]}, "type": "Feature", "properties": {"collection_times": [{"days": "Mon-Sat", "time": "2:50pm"}, {"days": "Sun", "time": "Closed"}], "id": "5758000009", "name": "USPS COLLECTION BOX - BLUE BOX", "address": {"city": "WINNER", "state": "SD", "street": "402 S MONROE ST", "postcode": "57580"}}},
{"geometry": {"type": "Point", "coordinates": [-99.8582946844, 43.3743701275]}, "type": "Feature", "properties": {"collection_times": [{"days": "Mon-Sat", "time": "2:50pm"}, {"days": "Sun", "time": "Closed"}], "id": "5758000012", "name": "USPS COLLECTION BOX - BLUE BOX", "address": {"city": "WINNER", "state": "SD", "street": "402 S MONROE ST", "postcode": "57580"}}},
{"geometry": {"type": "Point", "coordinates": [-99.8582946844, 43.3743701275]}, "type": "Feature", "properties": {"collection_times": [{"days": "Mon-Fri", "time": "2:50pm"}, {"days": "Sat", "time": "10:30am"}, {"days": "Sun", "time": "Closed"}], "id": "5758000013", "name": "USPS COLLECTION BOX - PO LOBBY", "address": {"city": "WINNER", "state": "SD", "street": "402 S MONROE ST", "postcode": "57580"}}},
{"geometry": {"type": "Point", "coordinates": [-99.9114865323, 43.3429803627]}, "type": "Feature", "properties": {"collection_times": [{"days": "Mon-Fri", "time": "10:30am"}, {"days": "Sat-Sun", "time": "Closed"}], "id": "5758000015", "name": "USPS COLLECTION BOX - BLUE BOX", "address": {"city": "WINNER", "state": "SD", "street": "502 E 2ND ST", "postcode": "57580"}}},
{"geometry": {"type": "Point", "coordinates": [-100.0669518562, 43.4647367555]}, "type": "Feature", "properties": {"collection_times": [{"days": "Mon-Fri", "time": "1:45pm"}, {"days": "Sat", "time": "10:30am"}, {"days": "Sun", "time": "Closed"}], "id": "5758400001", "name": "USPS COLLECTION BOX - BLUE BOX", "address": {"city": "WITTEN", "state": "SD", "street": "119 E 1ST ST", "postcode": "57584"}}},
{"geometry": {"type": "Point", "coordinates": [-100.0669518562, 43.4647367555]}, "type": "Feature", "properties": {"collection_times": [{"days": "Mon-Sat", "time": "10:30am"}, {"days": "Sun", "time": "Closed"}], "id": "5758400002", "name": "USPS COLLECTION BOX - PO LOBBY", "address": {"city": "WITTEN", "state": "SD", "street": "119 E 1ST ST", "postcode": "57584"}}},
{"geometry": {"type": "Point", "coordinates": [-100.4086648596, 43.5596778724]}, "type": "Feature", "properties": {"collection_times": [{"days": "Mon-Fri", "time": "1:10pm"}, {"days": "Sat", "time": "11:00am"}, {"days": "Sun", "time": "Closed"}], "id": "5758500001", "name": "USPS COLLECTION BOX - BLUE BOX", "address": {"city": "WOOD", "state": "SD", "street": "118 W MAIN ST", "postcode": "57585"}}},
{"geometry": {"type": "Point", "coordinates": [-100.4086648596, 43.5596778724]}, "type": "Feature", "properties": {"collection_times": [{"days": "Mon-Fri", "time": "1:10pm"}, {"days": "Sat", "time": "11:00am"}, {"days": "Sun", "time": "Closed"}], "id": "5758500002", "name": "USPS COLLECTION BOX - PO LOBBY", "address": {"city": "WOOD", "state": "SD", "street": "118 W MAIN ST", "postcode": "57585"}}}
]}
