{"type": "FeatureCollection", "features": [
{"geometry": {"type": "Point", "coordinates": [-100.4369911271, 45.537456288]}, "type": "Feature", "properties": {"collection_times": [{"days": "Mon-Sat", "time": "2:30pm"}, {"days": "Sun", "time": "Closed"}], "id": "5760100002", "name": "USPS COLLECTION BOX - BLUE BOX", "address": {"city": "MOBRIDGE", "state": "SD", "street": "214 W GRAND XING", "postcode": "57601"}}},
{"geometry": {"type": "Point", "coordinates": [-100.4337590648, 45.53648638]}, "type": "Feature", "properties": {"collection_times": [{"days": "Mon-Sat", "time": "5:15pm"}, {"days": "Sun", "time": "Closed"}], "id": "5760100003", "name": "USPS COLLECTION BOX - BLUE BOX", "address": {"city": "MOBRIDGE", "state": "SD", "street": "404 N MAIN ST", "postcode": "57601"}}},
{"geometry": {"type": "Point", "coordinates": [-100.4337590648, 45.53648638]}, "type": "Feature", "properties": {"collection_times": [{"days": "Mon-Sat", "time": "5:15pm"}, {"days": "Sun", "time": "Closed"}], "id": "5760100007", "name": "USPS COLLECTION BOX - PO LOBBY", "address": {"city": "MOBRIDGE", "state": "SD", "street": "404 N MAIN ST", "postcode": "57601"}}},
{"geometry": {"type": "Point", "coordinates": [-100.4337590648, 45.53648638]}, "type": "Feature", "properties": {"collection_times": [{"days": "Mon-Sat", "time": "5:15pm"}, {"days": "Sun", "time": "Closed"}], "id": "5760100008", "name": "USPS COLLECTION BOX - BLUE BOX", "address": {"city": "MOBRIDGE", "state": "SD", "street": "404 N MAIN ST", "postcode": "57601"}}},
{"geometry": {"type": "Point", "coordinates": [-102.47755, 45.522327]}, "type": "Feature", "properties": {"collection_times": [{"days": "Mon-Fri", "time": "1:00pm"}, {"days": "Sat", "time": "10:30am"}, {"days": "Sun", "time": "Closed"}], "id": "5762000001", "name": "USPS COLLECTION BOX - BLUE BOX", "address": {"city": "BISON", "state": "SD", "street": "118 W MAIN ST", "postcode": "57620"}}},
{"geometry": {"type": "Point", "coordinates": [-102.47755, 45.522327]}, "type": "Feature", "properties": {"collection_times": [{"days": "Mon-Fri", "time": "1:00pm"}, {"days": "Sat", "time": "10:30am"}, {"days": "Sun", "time": "Closed"}], "id": "5762000002", "name": "USPS COLLECTION BOX - PO LOBBY", "address": {"city": "BISON", "state": "SD", "street": "118 W MAIN ST", "postcode": "57620"}}},
{"geometry": {"type": "Point", "coordinates": [-101.0795564774, 45.7540879974]}, "type": "Feature", "properties": {"collection_times": [{"days": "Mon-Sat", "time": "10:00am"}, {"days": "Sun", "time": "Closed"}], "id": "5762100000", "name": "USPS COLLECTION BOX - BLUE BOX", "address": {"city": "BULLHEAD", "state": "SD", "street": "104 TASUNKA", "postcode": "57621"}}},
{"geometry": {"type": "Point", "coordinates": [-101.079556477, 45.754087997]}, "type": "Feature", "properties": {"collection_times": [{"days": "Mon-Sat", "time": "10:00am"}, {"days": "Sun", "time": "Closed"}], "id": "5762100001", "name": "USPS COLLECTION BOX - PO LOBBY", "address": {"city": "BULLHEAD", "state": "SD", "street": "104 TASUNKA", "postcode": "57621"}}},
{"geometry": {"type": "Point", "coordinates": [-101.2347203717, 44.9921754055]}, "type": "Feature", "properties": {"collection_times": [{"days": "Mon-Sat", "time": "2:55pm"}, {"days": "Sun", "time": "Closed"}], "id": "5762300001", "name": "USPS COLLECTION BOX - BLUE BOX", "address": {"city": "DUPREE", "state": "SD", "street": "323 S MAIN ST", "postcode": "57623"}}},
{"geometry": {"type": "Point", "coordinates": [-101.234720372, 44.992175405]}, "type": "Feature", "properties": {"collection_times": [{"days": "Mon-Fri", "time": "2:00pm"}, {"days": "Sat", "time": "10:00am"}, {"days": "Sun", "time": "Closed"}], "id": "5762300006", "name": "USPS COLLECTION BOX - PO LOBBY", "address": {"city": "DUPREE", "state": "SD", "street": "323 S MAIN ST", "postcode": "57623"}}},
{"geometry": {"type": "Point", "coordinates": [-101.2348560031, 44.9962083735]}, "type": "Feature", "properties": {"collection_times": [{"days": "Mon-Sat", "time": "2:15pm"}, {"days": "Sun", "time": "Closed"}], "id": "5762500001", "name": "USPS COLLECTION BOX - BLUE BOX", "address": {"city": "EAGLE BUTTE", "state": "SD", "street": "121 MAIN ST", "postcode": "57625"}}},
{"geometry": {"type": "Point", "coordinates": [-101.2348560031, 44.9962083735]}, "type": "Feature", "properties": {"collection_times": [{"days": "Mon-Fri", "time": "2:15pm"}, {"days": "Sat", "time": "12:00pm"}, {"days": "Sun", "time": "Closed"}], "id": "5762500002", "name": "USPS COLLECTION BOX - PO LOBBY", "address": {"city": "EAGLE BUTTE", "state": "SD", "street": "121 MAIN ST", "postcode": "57625"}}},
{"geometry": {"type": "Point", "coordinates": [-102.0385628722, 45.023001772]}, "type": "Feature", "properties": {"collection_times": [{"days": "Mon-Sat", "time": "2:25pm"}, {"days": "Sun", "time": "Closed"}], "id": "5762600001", "name": "USPS COLLECTION BOX - BLUE BOX", "address": {"city": "FAITH", "state": "SD", "street": "114 MAIN ST", "postcode": "57626"}}},
{"geometry": {"type": "Point", "coordinates": [-102.0385628722, 45.023001772]}, "type": "Feature", "properties": {"collection_times": [{"days": "Mon-Fri", "time": "2:25pm"}, {"days": "Sat", "time": "10:45am"}, {"days": "Sun", "time": "Closed"}], "id": "5762600002", "name": "USPS COLLECTION BOX - PO LOBBY", "address": {"city": "FAITH", "state": "SD", "street": "114 MAIN ST", "postcode": "57626"}}},
{"geometry": {"type": "Point", "coordinates": [-102.0385628722, 45.023001772]}, "type": "Feature", "properties": {"collection_times": [{"days": "Mon-Fri", "time": "2:25pm"}, {"days": "Sat", "time": "10:45am"}, {"days": "Sun", "time": "Closed"}], "id": "5762600004", "name": "USPS COLLECTION BOX - PO LOBBY", "address": {"city": "FAITH", "state": "SD", "street": "114 MAIN ST", "postcode": "57626"}}},
{"geometry": {"type": "Point", "coordinates": [-100.250727556, 45.5802444363]}, "type": "Feature", "properties": {"collection_times": [{"days": "Mon-Sat", "time": "12:40pm"}, {"days": "Sun", "time": "Closed"}], "id": "5763100001", "name": "USPS COLLECTION BOX - BLUE BOX", "address": {"city": "GLENHAM", "state": "SD", "street": "23 MAIN ST", "postcode": "57631"}}},
{"geometry": {"type": "Point", "coordinates": [-100.250727556, 45.5802444363]}, "type": "Feature", "properties": {"collection_times": [{"days": "Mon-Sat", "time": "12:40pm"}, {"days": "Sun", "time": "Closed"}], "id": "5763100002", "name": "USPS COLLECTION BOX - PO LOBBY", "address": {"city": "GLENHAM", "state": "SD", "street": "23 MAIN ST", "postcode": "57631"}}},
{"geometry": {"type": "Point", "coordinates": [-100.0690343562, 45.8339990979]}, "type": "Feature", "properties": {"collection_times": [{"days": "Mon-Sat", "time": "4:05pm"}, {"days": "Sun", "time": "Closed"}], "id": "5763200001", "name": "USPS COLLECTION BOX - BLUE BOX", "address": {"city": "HERREID", "state": "SD", "street": "118 MAIN ST N", "postcode": "57632"}}},
{"geometry": {"type": "Point", "coordinates": [-100.0690343562, 45.8339990979]}, "type": "Feature", "properties": {"collection_times": [{"days": "Mon-Fri", "time": "2:30pm"}, {"days": "Sat-Sun", "time": "Closed"}], "id": "5763200002", "name": "USPS COLLECTION BOX - PO LOBBY", "address": {"city": "HERREID", "state": "SD", "street": "118 MAIN ST N", "postcode": "57632"}}},
{"geometry": {"type": "Point", "coordinates": [-101.429877711, 45.3932496134]}, "type": "Feature", "properties": {"collection_times": [{"days": "Mon-Sat", "time": "3:35pm"}, {"days": "Sun", "time": "Closed"}], "id": "5763300001", "name": "USPS COLLECTION BOX - BLUE BOX", "address": {"city": "ISABEL", "state": "SD", "street": "200 MAIN ST", "postcode": "57633"}}},
{"geometry": {"type": "Point", "coordinates": [-101.2347259358, 44.9970447733]}, "type": "Feature", "properties": {"collection_times": [{"days": "Mon-Fri", "time": "2:00pm"}, {"days": "Sat", "time": "10:00am"}, {"days": "Sun", "time": "Closed"}], "id": "5763300002", "name": "USPS COLLECTION BOX - PO LOBBY", "address": {"city": "ISABEL", "state": "SD", "street": "200 MAIN ST", "postcode": "57633"}}},
{"geometry": {"type": "Point", "coordinates": [-101.4401389459, 45.0220691626]}, "type": "Feature", "properties": {"collection_times": [{"days": "Mon-Sat", "time": "2:30pm"}, {"days": "Sun", "time": "Closed"}], "id": "5763600001", "name": "USPS COLLECTION BOX - BLUE BOX", "address": {"city": "LANTRY", "state": "SD", "street": "1 N HIGHWAY 212", "postcode": "57636"}}},
{"geometry": {"type": "Point", "coordinates": [-102.1608415348, 45.9418010723]}, "type": "Feature", "properties": {"collection_times": [{"days": "Mon-Sat", "time": "3:05pm"}, {"days": "Sun", "time": "Closed"}], "id": "5763800002", "name": "USPS COLLECTION BOX - BLUE BOX", "address": {"city": "LEMMON", "state": "SD", "street": "310 1ST AVE W", "postcode": "57638"}}},
{"geometry": {"type": "Point", "coordinates": [-102.1608415348, 45.9418010723]}, "type": "Feature", "properties": {"collection_times": [{"days": "Mon-Sat", "time": "3:05pm"}, {"days": "Sun", "time": "Closed"}], "id": "5763800005", "name": "USPS COLLECTION BOX - PO LOBBY", "address": {"city": "LEMMON", "state": "SD", "street": "310 1ST AVE W", "postcode": "57638"}}},
{"geometry": {"type": "Point", "coordinates": [-100.8087863348, 45.6741256476]}, "type": "Feature", "properties": {"collection_times": [{"days": "Mon-Sat", "time": "2:45pm"}, {"days": "Sun", "time": "Closed"}], "id": "5763900002", "name": "USPS COLLECTION BOX - PO LOBBY", "address": {"city": "LITTLE EAGLE", "state": "SD", "street": "1 MAIN ST", "postcode": "57639"}}},
{"geometry": {"type": "Point", "coordinates": [-101.3494602517, 45.9212128202]}, "type": "Feature", "properties": {"collection_times": [{"days": "Mon-Fri", "time": "4:00pm"}, {"days": "Sat", "time": "4:15pm"}, {"days": "Sun", "time": "Closed"}], "id": "5764100001", "name": "USPS COLLECTION BOX - BLUE BOX", "address": {"city": "MCINTOSH", "state": "SD", "street": "188 MAIN ST", "postcode": "57641"}}},
{"geometry": {"type": "Point", "coordinates": [-101.3494602517, 45.9212128202]}, "type": "Feature", "properties": {"collection_times": [{"days": "Mon-Fri", "time": "4:00pm"}, {"days": "Sat", "time": "9:15am"}, {"days": "Sun", "time": "Closed"}], "id": "5764100002", "name": "USPS COLLECTION BOX - PO LOBBY", "address": {"city": "MCINTOSH", "state": "SD", "street": "188 MAIN ST", "postcode": "57641"}}},
{"geometry": {"type": "Point", "coordinates": [-100.8108134127, 45.8132918826]}, "type": "Feature", "properties": {"collection_times": [{"days": "Mon-Sat", "time": "5:00pm"}, {"days": "Sun", "time": "Closed"}], "id": "5764200002", "name": "USPS COLLECTION BOX - BLUE BOX", "address": {"city": "MCLAUGHLIN", "state": "SD", "street": "221 MAIN ST", "postcode": "57642"}}},
{"geometry": {"type": "Point", "coordinates": [-100.8108134127, 45.8132918826]}, "type": "Feature", "properties": {"collection_times": [{"days": "Mon-Fri", "time": "3:45pm"}, {"days": "Sat", "time": "10:00am"}, {"days": "Sun", "time": "Closed"}], "id": "5764200003", "name": "USPS COLLECTION BOX - PO LOBBY", "address": {"city": "MCLAUGHLIN", "state": "SD", "street": "221 MAIN ST", "postcode": "57642"}}},
{"geometry": {"type": "Point", "coordinates": [-102.1375783593, 45.3870730852]}, "type": "Feature", "properties": {"collection_times": [{"days": "Mon-Fri", "time": "12:30pm"}, {"days": "Sat", "time": "11:00am"}, {"days": "Sun", "time": "Closed"}], "id": "5764400001", "name": "USPS COLLECTION BOX - PO LOBBY", "address": {"city": "MEADOW", "state": "SD", "street": "111 MAIN ST", "postcode": "57644"}}},
{"geometry": {"type": "Point", "coordinates": [-101.7202439813, 45.9373509659]}, "type": "Feature", "properties": {"collection_times": [{"days": "Mon-Fri", "time": "3:45pm"}, {"days": "Sat", "time": "3:30pm"}, {"days": "Sun", "time": "Closed"}], "id": "5764500001", "name": "USPS COLLECTION BOX - BLUE BOX", "address": {"city": "MORRISTOWN", "state": "SD", "street": "223 MAIN ST", "postcode": "57645"}}},
{"geometry": {"type": "Point", "coordinates": [-101.7202439813, 45.9373509659]}, "type": "Feature", "properties": {"collection_times": [{"days": "Mon-Fri", "time": "11:30am"}, {"days": "Sat", "time": "10:30am"}, {"days": "Sun", "time": "Closed"}], "id": "5764500002", "name": "USPS COLLECTION BOX - PO LOBBY", "address": {"city": "MORRISTOWN", "state": "SD", "street": "223 MAIN ST", "postcode": "57645"}}},
{"geometry": {"type": "Point", "coordinates": [-100.0687821676, 45.7253906777]}, "type": "Feature", "properties": {"collection_times": [{"days": "Mon-Sat", "time": "12:00pm"}, {"days": "Sun", "time": "Closed"}], "id": "5764600001", "name": "USPS COLLECTION BOX - BLUE BOX", "address": {"city": "MOUND CITY", "state": "SD", "street": "202 MAIN ST N", "postcode": "57646"}}},
{"geometry": {"type": "Point", "coordinates": [-100.0687821676, 45.7253906777]}, "type": "Feature", "properties": {"collection_times": [{"days": "Mon-Sat", "time": "12:00pm"}, {"days": "Sun", "time": "Closed"}], "id": "5764600002", "name": "USPS COLLECTION BOX - PO LOBBY", "address": {"city": "MOUND CITY", "state": "SD", "street": "202 MAIN ST N", "postcode": "57646"}}},
{"geometry": {"type": "Point", "coordinates": [-100.2863547351, 45.8992495205]}, "type": "Feature", "properties": {"collection_times": [{"days": "Mon-Sat", "time": "4:30pm"}, {"days": "Sun", "time": "Closed"}], "id": "5764800001", "name": "USPS COLLECTION BOX - BLUE BOX", "address": {"city": "POLLOCK", "state": "SD", "street": "123 MAIN ST", "postcode": "57648"}}},
{"geometry": {"type": "Point", "coordinates": [-100.2863547351, 45.8992495205]}, "type": "Feature", "properties": {"collection_times": [{"days": "Mon-Fri", "time": "11:30am"}, {"days": "Sat", "time": "9:45am"}, {"days": "Sun", "time": "Closed"}], "id": "5764800002", "name": "USPS COLLECTION BOX - PO LOBBY", "address": {"city": "POLLOCK", "state": "SD", "street": "123 MAIN ST", "postcode": "57648"}}},
{"geometry": {"type": "Point", "coordinates": [-103.1041284578, 45.5332406058]}, "type": "Feature", "properties": {"collection_times": [{"days": "Mon-Sat", "time": "10:30am"}, {"days": "Sun", "time": "Closed"}], "id": "5765100001", "name": "USPS COLLECTION BOX - BLUE BOX", "address": {"city": "REVA", "state": "SD", "street": "14759 SD HIGHWAY 20", "postcode": "57651"}}},
{"geometry": {"type": "Point", "coordinates": [-103.1041284578, 45.5332406058]}, "type": "Feature", "properties": {"collection_times": [{"days": "Mon-Sat", "time": "10:30am"}, {"days": "Sun", "time": "Closed"}], "id": "5765100002", "name": "USPS COLLECTION BOX - PO LOBBY", "address": {"city": "REVA", "state": "SD", "street": "14759 SD HIGHWAY 20", "postcode": "57651"}}},
{"geometry": {"type": "Point", "coordinates": [-100.7588983107, 45.1102246008]}, "type": "Feature", "properties": {"collection_times": [{"days": "Mon-Sat", "time": "11:30am"}, {"days": "Sun", "time": "Closed"}], "id": "5765200002", "name": "USPS COLLECTION BOX - PO LOBBY", "address": {"city": "RIDGEVIEW", "state": "SD", "street": "1 HIGHWAY 212", "postcode": "57652"}}},
{"geometry": {"type": "Point", "coordinates": [-100.7588983107, 45.1102246008]}, "type": "Feature", "properties": {"collection_times": [{"days": "Mon-Sat", "time": "11:30am"}, {"days": "Sun", "time": "Closed"}], "id": "5765200003", "name": "USPS COLLECTION BOX - BLUE BOX", "address": {"city": "RIDGEVIEW", "state": "SD", "street": "1 HIGHWAY 212", "postcode": "57652"}}},
{"geometry": {"type": "Point", "coordinates": [-101.074000272, 45.4292153747]}, "type": "Feature", "properties": {"collection_times": [{"days": "Mon-Sat", "time": "4:00pm"}, {"days": "Sun", "time": "Closed"}], "id": "5765600001", "name": "USPS COLLECTION BOX - BLUE BOX", "address": {"city": "TIMBER LAKE", "state": "SD", "street": "801 MAIN ST", "postcode": "57656"}}},
{"geometry": {"type": "Point", "coordinates": [-100.703773273, 45.415954803]}, "type": "Feature", "properties": {"collection_times": [{"days": "Mon-Sat", "time": "10:10am"}, {"days": "Sun", "time": "Closed"}], "id": "5765700002", "name": "USPS COLLECTION BOX - PO LOBBY", "address": {"city": "TRAIL CITY", "state": "SD", "street": "130 N MAIN ST", "postcode": "57657"}}},
{"geometry": {"type": "Point", "coordinates": [-100.5338956922, 45.7153156259]}, "type": "Feature", "properties": {"collection_times": [{"days": "Mon-Sat", "time": "9:45am"}, {"days": "Sun", "time": "Closed"}], "id": "5765800001", "name": "USPS COLLECTION BOX - BLUE BOX", "address": {"city": "WAKPALA", "state": "SD", "street": "210 MAIN ST", "postcode": "57658"}}},
{"geometry": {"type": "Point", "coordinates": [-100.5338956922, 45.7153156259]}, "type": "Feature", "properties": {"collection_times": [{"days": "Mon-Sat", "time": "9:45am"}, {"days": "Sun", "time": "Closed"}], "id": "5765800002", "name": "USPS COLLECTION BOX - PO LOBBY", "address": {"city": "WAKPALA", "state": "SD", "street": "210 MAIN ST", "postcode": "57658"}}},
{"geometry": {"type": "Point", "coordinates": [-100.8874821959, 45.2706383327]}, "type": "Feature", "properties": {"collection_times": [{"days": "Mon-Fri", "time": "1:15pm"}, {"days": "Sat-Sun", "time": "Closed"}], "id": "5766100000", "name": "USPS COLLECTION BOX - BLUE BOX", "address": {"city": "WHITEHORSE", "state": "SD", "street": "500 MAIN ST", "postcode": "57661"}}},
{"geometry": {"type": "Point", "coordinates": [-100.8874821959, 45.2706383327]}, "type": "Feature", "properties": {"collection_times": [{"days": "Mon-Fri", "time": "1:15pm"}, {"days": "Sat-Sun", "time": "Closed"}], "id": "5766100001", "name": "USPS COLLECTION BOX - PO LOBBY", "address": {"city": "WHITEHORSE", "state": "SD", "street": "500 MAIN ST", "postcode": "57661"}}}
]}
