{"type": "FeatureCollection", "features": [
{"geometry": {"type": "Point", "coordinates": [-103.2306156171, 44.0820280109]}, "type": "Feature", "properties": {"collection_times": [{"days": "Mon-Fri", "time": "2:30pm"}, {"days": "Sat-Sun", "time": "Closed"}], "id": "5770100004", "name": "USPS COLLECTION BOX - BLUE BOX", "address": {"city": "RAPID CITY", "state": "SD", "street": "445 MOUNT RUSHMORE RD", "postcode": "57701"}}},
{"geometry": {"type": "Point", "coordinates": [-103.224327169, 44.0675384756]}, "type": "Feature", "properties": {"collection_times": [{"days": "Mon-Fri", "time": "2:30pm"}, {"days": "Sat", "time": "10:00am"}, {"days": "Sun", "time": "Closed"}], "id": "5770100006", "name": "USPS COLLECTION BOX - BLUE BOX", "address": {"city": "RAPID CITY", "state": "SD", "street": "319 SAINT PATRICK ST", "postcode": "57701"}}},
{"geometry": {"type": "Point", "coordinates": [-103.2304602281, 44.0822796893]}, "type": "Feature", "properties": {"collection_times": [{"days": "Mon-Fri", "time": "2:30pm"}, {"days": "Sat-Sun", "time": "Closed"}], "id": "5770100012", "name": "USPS COLLECTION BOX - BLUE BOX", "address": {"city": "RAPID CITY", "state": "SD", "street": "444 N MOUNT RUSHMORE RD", "postcode": "57701"}}},
{"geometry": {"type": "Point", "coordinates": [-103.2256773867, 44.08095788]}, "type": "Feature", "properties": {"collection_times": [{"days": "Mon-Fri", "time": "2:30pm"}, {"days": "Sat-Sun", "time": "Closed"}], "id": "5770100021", "name": "USPS COLLECTION BOX - BLUE BOX", "address": {"city": "RAPID CITY", "state": "SD", "street": "632 MAIN ST", "postcode": "57701"}}},
{"geometry": {"type": "Point", "coordinates": [-103.2266834932, 44.0776235352]}, "type": "Feature", "properties": {"collection_times": [{"days": "Mon-Fri", "time": "3:00pm"}, {"days": "Sat", "time": "10:00am"}, {"days": "Sun", "time": "Closed"}], "id": "5770100023", "name": "USPS COLLECTION BOX - BLUE BOX", "address": {"city": "RAPID CITY", "state": "SD", "street": "527 QUINCY ST", "postcode": "57701"}}},
{"geometry": {"type": "Point", "coordinates": [-103.2216741695, 44.0988320872]}, "type": "Feature", "properties": {"collection_times": [{"days": "Mon-Sat", "time": "2:30pm"}, {"days": "Sun", "time": "Closed"}], "id": "5770100024", "name": "USPS COLLECTION BOX - BLUE BOX", "address": {"city": "RAPID CITY", "state": "SD", "street": "1845 HAINES AVE", "postcode": "57701"}}},
{"geometry": {"type": "Point", "coordinates": [-103.2155238106, 44.079215398]}, "type": "Feature", "properties": {"collection_times": [{"days": "Mon-Sat", "time": "7:00pm"}, {"days": "Sun", "time": "Closed"}], "id": "5770100025", "name": "USPS COLLECTION BOX - BLUE BOX", "address": {"city": "RAPID CITY", "state": "SD", "street": "500 EAST BLVD", "postcode": "57701"}}},
{"geometry": {"type": "Point", "coordinates": [-103.2155238106, 44.079215398]}, "type": "Feature", "properties": {"collection_times": [{"days": "Mon-Sat", "time": "7:00pm"}, {"days": "Sun", "time": "Closed"}], "id": "5770100027", "name": "USPS COLLECTION BOX - BLUE BOX", "address": {"city": "RAPID CITY", "state": "SD", "street": "500 EAST BLVD", "postcode": "57701"}}},
{"geometry": {"type": "Point", "coordinates": [-103.2155238106, 44.079215398]}, "type": "Feature", "properties": {"collection_times": [{"days": "Mon-Sat", "time": "7:00pm"}, {"days": "Sun", "time": "Closed"}], "id": "5770100028", "name": "USPS COLLECTION BOX - BLUE BOX", "address": {"city": "RAPID CITY", "state": "SD", "street": "500 EAST BLVD", "postcode": "57701"}}},
{"geometry": {"type": "Point", "coordinates": [-103.2155238106, 44.079215398]}, "type": "Feature", "properties": {"collection_times": [{"days": "Mon-Sat", "time": "7:00pm"}, {"days": "Sun", "time": "Closed"}], "id": "5770100031", "name": "USPS COLLECTION BOX - BLUE BOX", "address": {"city": "RAPID CITY", "state": "SD", "street": "500 EAST BLVD", "postcode": "57701"}}},
{"geometry": {"type": "Point", "coordinates": [-103.2015599769, 44.0976190658]}, "type": "Feature", "properties": {"collection_times": [{"days": "Mon-Sat", "time": "10:00am"}, {"days": "Sun", "time": "Closed"}], "id": "5770100033", "name": "USPS COLLECTION BOX - BLUE BOX", "address": {"city": "RAPID CITY", "state": "SD", "street": "1200 N LACROSSE ST", "postcode": "57701"}}},
{"geometry": {"type": "Point", "coordinates": [-103.22789602, 44.0800700204]}, "type": "Feature", "properties": {"collection_times": [{"days": "Mon-Fri", "time": "3:00pm"}, {"days": "Sat-Sun", "time": "Closed"}], "id": "5770100042", "name": "USPS COLLECTION BOX - BLUE BOX", "address": {"city": "RAPID CITY", "state": "SD", "street": "629 SAINT JOSEPH ST", "postcode": "57701"}}},
{"geometry": {"type": "Point", "coordinates": [-103.2274740721, 44.0798095113]}, "type": "Feature", "properties": {"collection_times": [{"days": "Mon-Fri", "time": "3:00pm"}, {"days": "Sat-Sun", "time": "Closed"}], "id": "5770100045", "name": "USPS COLLECTION BOX - BLUE BOX", "address": {"city": "RAPID CITY", "state": "SD", "street": "621 6TH ST", "postcode": "57701"}}},
{"geometry": {"type": "Point", "coordinates": [-103.2115862014, 44.0551405003]}, "type": "Feature", "properties": {"collection_times": [{"days": "Mon-Fri", "time": "2:30pm"}, {"days": "Sat-Sun", "time": "Closed"}], "id": "5770100058", "name": "USPS COLLECTION BOX - BLUE BOX", "address": {"city": "RAPID CITY", "state": "SD", "street": "310 E FAIRMONT BLVD", "postcode": "57701"}}},
{"geometry": {"type": "Point", "coordinates": [-103.2155238106, 44.079215398]}, "type": "Feature", "properties": {"collection_times": [{"days": "Mon-Sat", "time": "7:00pm"}, {"days": "Sun", "time": "Closed"}], "id": "5770100065", "name": "USPS COLLECTION BOX - BLUE BOX", "address": {"city": "RAPID CITY", "state": "SD", "street": "500 EAST BLVD", "postcode": "57701"}}},
{"geometry": {"type": "Point", "coordinates": [-103.2155238106, 44.079215398]}, "type": "Feature", "properties": {"collection_times": [{"days": "Mon-Sat", "time": "7:00pm"}, {"days": "Sun", "time": "Closed"}], "id": "5770100066", "name": "USPS COLLECTION BOX - BLUE BOX", "address": {"city": "RAPID CITY", "state": "SD", "street": "500 EAST BLVD", "postcode": "57701"}}},
{"geometry": {"type": "Point", "coordinates": [-103.2155238106, 44.079215398]}, "type": "Feature", "properties": {"collection_times": [{"days": "Mon-Sat", "time": "7:00pm"}, {"days": "Sun", "time": "Closed"}], "id": "5770100067", "name": "USPS COLLECTION BOX - BLUE BOX", "address": {"city": "RAPID CITY", "state": "SD", "street": "500 EAST BLVD", "postcode": "57701"}}},
{"geometry": {"type": "Point", "coordinates": [-103.2328792871, 44.0820082122]}, "type": "Feature", "properties": {"collection_times": [{"days": "Mon-Sat", "time": "2:30pm"}, {"days": "Sun", "time": "Closed"}], "id": "5770100073", "name": "USPS COLLECTION BOX - BLUE BOX", "address": {"city": "RAPID CITY", "state": "SD", "street": "919 MAIN ST", "postcode": "57701"}}},
{"geometry": {"type": "Point", "coordinates": [-103.2155238106, 44.079215398]}, "type": "Feature", "properties": {"collection_times": [{"days": "Mon-Sat", "time": "7:00pm"}, {"days": "Sun", "time": "Closed"}], "id": "5770100083", "name": "USPS COLLECTION BOX - PO LOBBY", "address": {"city": "RAPID CITY", "state": "SD", "street": "500 EAST BLVD", "postcode": "57701"}}},
{"geometry": {"type": "Point", "coordinates": [-103.2018989017, 44.0674743043]}, "type": "Feature", "properties": {"collection_times": [{"days": "Mon-Sat", "time": "4:00pm"}, {"days": "Sun", "time": "Closed"}], "id": "5770100089", "name": "USPS COLLECTION BOX - BLUE BOX", "address": {"city": "RAPID CITY", "state": "SD", "street": "909 E SAINT PATRICK ST", "postcode": "57701"}}},
{"geometry": {"type": "Point", "coordinates": [-103.225363575, 44.0586476278]}, "type": "Feature", "properties": {"collection_times": [{"days": "Mon-Fri", "time": "2:45pm"}, {"days": "Sat-Sun", "time": "Closed"}], "id": "5770100091", "name": "USPS COLLECTION BOX - BLUE BOX", "address": {"city": "RAPID CITY", "state": "SD", "street": "353 FAIRMONT BLVD", "postcode": "57701"}}},
{"geometry": {"type": "Point", "coordinates": [-103.2218999804, 44.0956983763]}, "type": "Feature", "properties": {"collection_times": [{"days": "Mon-Fri", "time": "2:30pm"}, {"days": "Sat-Sun", "time": "Closed"}], "id": "5770100096", "name": "USPS COLLECTION BOX - BLUE BOX", "address": {"city": "RAPID CITY", "state": "SD", "street": "1430 HAINES AVE", "postcode": "57701"}}},
{"geometry": {"type": "Point", "coordinates": [-103.2338600058, 44.0775696132]}, "type": "Feature", "properties": {"collection_times": [{"days": "Mon-Fri", "time": "2:30pm"}, {"days": "Sat-Sun", "time": "Closed"}], "id": "5770100097", "name": "USPS COLLECTION BOX - BLUE BOX", "address": {"city": "RAPID CITY", "state": "SD", "street": "912 9TH ST", "postcode": "57701"}}},
{"geometry": {"type": "Point", "coordinates": [-103.2245656432, 44.0675350769]}, "type": "Feature", "properties": {"collection_times": [{"days": "Mon-Fri", "time": "3:00pm"}, {"days": "Sat", "time": "2:30pm"}, {"days": "Sun", "time": "Closed"}], "id": "5770100098", "name": "USPS COLLECTION BOX - BLUE BOX", "address": {"city": "RAPID CITY", "state": "SD", "street": "339 SAINT PATRICK ST", "postcode": "57701"}}},
{"geometry": {"type": "Point", "coordinates": [-103.2520888863, 44.0805287777]}, "type": "Feature", "properties": {"collection_times": [{"days": "Mon-Sat", "time": "4:30pm"}, {"days": "Sun", "time": "Closed"}], "id": "5770200011", "name": "USPS COLLECTION BOX - BLUE BOX", "address": {"city": "RAPID CITY", "state": "SD", "street": "655 MOUNTAIN VIEW RD", "postcode": "57702"}}},
{"geometry": {"type": "Point", "coordinates": [-103.2520990172, 44.0800756888]}, "type": "Feature", "properties": {"collection_times": [{"days": "Mon-Sat", "time": "4:30pm"}, {"days": "Sun", "time": "Closed"}], "id": "5770200016", "name": "USPS COLLECTION BOX - BLUE BOX", "address": {"city": "RAPID CITY", "state": "SD", "street": "701 MOUNTAIN VIEW RD", "postcode": "57702"}}},
{"geometry": {"type": "Point", "coordinates": [-103.2774359461, 44.0848517812]}, "type": "Feature", "properties": {"collection_times": [{"days": "Mon-Sat", "time": "4:15pm"}, {"days": "Sun", "time": "Closed"}], "id": "5770200022", "name": "USPS COLLECTION BOX - BLUE BOX", "address": {"city": "RAPID CITY", "state": "SD", "street": "3464 STURGIS RD", "postcode": "57702"}}},
{"geometry": {"type": "Point", "coordinates": [-103.2528266336, 44.0811937111]}, "type": "Feature", "properties": {"collection_times": [{"days": "Mon-Fri", "time": "2:30pm"}, {"days": "Sat-Sun", "time": "Closed"}], "id": "5770200025", "name": "USPS COLLECTION BOX - BLUE BOX", "address": {"city": "RAPID CITY", "state": "SD", "street": "2040 W MAIN ST", "postcode": "57702"}}},
{"geometry": {"type": "Point", "coordinates": [-103.2620127504, 44.05726883]}, "type": "Feature", "properties": {"collection_times": [{"days": "Mon-Sat", "time": "2:00pm"}, {"days": "Sun", "time": "Closed"}], "id": "5770200027", "name": "USPS COLLECTION BOX - BLUE BOX", "address": {"city": "RAPID CITY", "state": "SD", "street": "2920 SHERIDAN LAKE RD", "postcode": "57702"}}},
{"geometry": {"type": "Point", "coordinates": [-103.288342752, 44.0606351935]}, "type": "Feature", "properties": {"collection_times": [{"days": "Mon-Sat", "time": "2:00pm"}, {"days": "Sun", "time": "Closed"}], "id": "5770200028", "name": "USPS COLLECTION BOX - BLUE BOX", "address": {"city": "RAPID CITY", "state": "SD", "street": "4200 BEACH DR", "postcode": "57702"}}},
{"geometry": {"type": "Point", "coordinates": [-103.2519703552, 44.0788388911]}, "type": "Feature", "properties": {"collection_times": [{"days": "Mon-Sat", "time": "2:30pm"}, {"days": "Sun", "time": "Closed"}], "id": "5770200030", "name": "USPS COLLECTION BOX - BLUE BOX", "address": {"city": "RAPID CITY", "state": "SD", "street": "780 MOUNTAIN VIEW RD", "postcode": "57702"}}},
{"geometry": {"type": "Point", "coordinates": [-103.2722177819, 44.0822316551]}, "type": "Feature", "properties": {"collection_times": [{"days": "Mon-Fri", "time": "2:30pm"}, {"days": "Sat", "time": "2:00pm"}, {"days": "Sun", "time": "Closed"}], "id": "5770200032", "name": "USPS COLLECTION BOX - BLUE BOX", "address": {"city": "RAPID CITY", "state": "SD", "street": "3213 W MAIN ST", "postcode": "57702"}}},
{"geometry": {"type": "Point", "coordinates": [-103.2622413409, 44.0701455477]}, "type": "Feature", "properties": {"collection_times": [{"days": "Mon-Fri", "time": "2:30pm"}, {"days": "Sat-Sun", "time": "Closed"}], "id": "5770200035", "name": "USPS COLLECTION BOX - BLUE BOX", "address": {"city": "RAPID CITY", "state": "SD", "street": "2620 JACKSON BLVD", "postcode": "57702"}}},
{"geometry": {"type": "Point", "coordinates": [-103.2486784964, 44.0764273092]}, "type": "Feature", "properties": {"collection_times": [{"days": "Mon-Sat", "time": "2:30pm"}, {"days": "Sun", "time": "Closed"}], "id": "5770200036", "name": "USPS COLLECTION BOX - BLUE BOX", "address": {"city": "RAPID CITY", "state": "SD", "street": "1805 W FULTON ST", "postcode": "57702"}}},
{"geometry": {"type": "Point", "coordinates": [-103.2520888863, 44.0805287777]}, "type": "Feature", "properties": {"collection_times": [{"days": "Mon-Sat", "time": "4:30pm"}, {"days": "Sun", "time": "Closed"}], "id": "5770200037", "name": "USPS COLLECTION BOX - BLUE BOX", "address": {"city": "RAPID CITY", "state": "SD", "street": "655 MOUNTAIN VIEW RD", "postcode": "57702"}}},
{"geometry": {"type": "Point", "coordinates": [-103.164099126, 44.0663283146]}, "type": "Feature", "properties": {"collection_times": [{"days": "Mon-Sat", "time": "2:30pm"}, {"days": "Sun", "time": "Closed"}], "id": "5770300002", "name": "USPS COLLECTION BOX - BLUE BOX", "address": {"city": "RAPID CITY", "state": "SD", "street": "2700 E HIGHWAY 44", "postcode": "57703"}}},
{"geometry": {"type": "Point", "coordinates": [-103.1910656608, 44.0675503792]}, "type": "Feature", "properties": {"collection_times": [{"days": "Mon-Fri", "time": "2:30pm"}, {"days": "Sat-Sun", "time": "Closed"}], "id": "5770300003", "name": "USPS COLLECTION BOX - BLUE BOX", "address": {"city": "RAPID CITY", "state": "SD", "street": "1516 E SAINT PATRICK ST", "postcode": "57703"}}},
{"geometry": {"type": "Point", "coordinates": [-103.1337234096, 44.0381655865]}, "type": "Feature", "properties": {"collection_times": [{"days": "Mon-Sat", "time": "4:00pm"}, {"days": "Sun", "time": "Closed"}], "id": "5770300004", "name": "USPS COLLECTION BOX - BLUE BOX", "address": {"city": "RAPID CITY", "state": "SD", "street": "747 TIMMONS BLVD", "postcode": "57703"}}},
{"geometry": {"type": "Point", "coordinates": [-101.9034969246, 43.3025385177]}, "type": "Feature", "properties": {"collection_times": [{"days": "Mon-Sat", "time": "12:10pm"}, {"days": "Sun", "time": "Closed"}], "id": "5771400002", "name": "USPS COLLECTION BOX - PO LOBBY", "address": {"city": "ALLEN", "state": "SD", "street": "1 MAIN ST", "postcode": "57714"}}},
{"geometry": {"type": "Point", "coordinates": [-102.0996095771, 43.1272117346]}, "type": "Feature", "properties": {"collection_times": [{"days": "Mon-Fri", "time": "1:15pm"}, {"days": "Sat", "time": "11:45am"}, {"days": "Sun", "time": "Closed"}], "id": "5771600000", "name": "USPS COLLECTION BOX - BLUE BOX", "address": {"city": "BATESLAND", "state": "SD", "street": "100 ASH ST", "postcode": "57716"}}},
{"geometry": {"type": "Point", "coordinates": [-102.0996095771, 43.1272117346]}, "type": "Feature", "properties": {"collection_times": [{"days": "Mon-Fri", "time": "1:15pm"}, {"days": "Sat", "time": "11:30am"}, {"days": "Sun", "time": "Closed"}], "id": "5771600001", "name": "USPS COLLECTION BOX - PO LOBBY", "address": {"city": "BATESLAND", "state": "SD", "street": "100 ASH ST", "postcode": "57716"}}},
{"geometry": {"type": "Point", "coordinates": [-103.846687529, 44.6715110236]}, "type": "Feature", "properties": {"collection_times": [{"days": "Mon-Fri", "time": "4:15pm"}, {"days": "Sat", "time": "4:00pm"}, {"days": "Sun", "time": "Closed"}], "id": "5771700001", "name": "USPS COLLECTION BOX - BLUE BOX", "address": {"city": "BELLE FOURCHE", "state": "SD", "street": "804 STATE ST", "postcode": "57717"}}},
{"geometry": {"type": "Point", "coordinates": [-103.846687529, 44.6715110236]}, "type": "Feature", "properties": {"collection_times": [{"days": "Mon-Fri", "time": "4:15pm"}, {"days": "Sat", "time": "4:00pm"}, {"days": "Sun", "time": "Closed"}], "id": "5771700002", "name": "USPS COLLECTION BOX - BLUE BOX", "address": {"city": "BELLE FOURCHE", "state": "SD", "street": "804 STATE ST", "postcode": "57717"}}},
{"geometry": {"type": "Point", "coordinates": [-103.8537355613, 44.6791545822]}, "type": "Feature", "properties": {"collection_times": [{"days": "Mon-Sat", "time": "2:00pm"}, {"days": "Sun", "time": "Closed"}], "id": "5771700006", "name": "USPS COLLECTION BOX - BLUE BOX", "address": {"city": "BELLE FOURCHE", "state": "SD", "street": "41 5TH AVE", "postcode": "57717"}}},
{"geometry": {"type": "Point", "coordinates": [-103.846687529, 44.6715110236]}, "type": "Feature", "properties": {"collection_times": [{"days": "Mon-Fri", "time": "4:15pm"}, {"days": "Sat", "time": "4:00pm"}, {"days": "Sun", "time": "Closed"}], "id": "5771700015", "name": "USPS COLLECTION BOX - PO LOBBY", "address": {"city": "BELLE FOURCHE", "state": "SD", "street": "804 STATE ST", "postcode": "57717"}}},
{"geometry": {"type": "Point", "coordinates": [-103.3322572224, 44.1693308887]}, "type": "Feature", "properties": {"collection_times": [{"days": "Mon-Sat", "time": "10:30am"}, {"days": "Sun", "time": "Closed"}], "id": "5771800004", "name": "USPS COLLECTION BOX - BLUE BOX", "address": {"city": "BLACK HAWK", "state": "SD", "street": "8031 STAGESTOP RD", "postcode": "57718"}}},
{"geometry": {"type": "Point", "coordinates": [-103.3322572224, 44.1693308887]}, "type": "Feature", "properties": {"collection_times": [{"days": "Mon-Fri", "time": "4:15pm"}, {"days": "Sat", "time": "11:00am"}, {"days": "Sun", "time": "Closed"}], "id": "5771800005", "name": "USPS COLLECTION BOX - BLUE BOX", "address": {"city": "BLACK HAWK", "state": "SD", "street": "7501 CAPTAIN SOELZER ST", "postcode": "57718"}}},
{"geometry": {"type": "Point", "coordinates": [-103.3322572224, 44.1693308887]}, "type": "Feature", "properties": {"collection_times": [{"days": "Mon-Fri", "time": "4:15pm"}, {"days": "Sat", "time": "11:00am"}, {"days": "Sun", "time": "Closed"}], "id": "5771800006", "name": "USPS COLLECTION BOX - PO LOBBY", "address": {"city": "BLACK HAWK", "state": "SD", "street": "7501 CAPTAIN SOELZER ST", "postcode": "57718"}}},
{"geometry": {"type": "Point", "coordinates": [-103.0702881508, 44.1226829097]}, "type": "Feature", "properties": {"collection_times": [{"days": "Mon-Fri", "time": "4:15pm"}, {"days": "Sat", "time": "11:30am"}, {"days": "Sun", "time": "Closed"}], "id": "5771900001", "name": "USPS COLLECTION BOX - BLUE BOX", "address": {"city": "BOX ELDER", "state": "SD", "street": "511 N ELLSWORTH RD", "postcode": "57719"}}},
{"geometry": {"type": "Point", "coordinates": [-103.0702881508, 44.1226829097]}, "type": "Feature", "properties": {"collection_times": [{"days": "Mon-Fri", "time": "4:15pm"}, {"days": "Sat", "time": "11:30am"}, {"days": "Sun", "time": "Closed"}], "id": "5771900002", "name": "USPS COLLECTION BOX - BLUE BOX", "address": {"city": "BOX ELDER", "state": "SD", "street": "511 N ELLSWORTH RD", "postcode": "57719"}}},
{"geometry": {"type": "Point", "coordinates": [-103.0702881508, 44.1226829097]}, "type": "Feature", "properties": {"collection_times": [{"days": "Mon-Sat", "time": "1:00pm"}, {"days": "Sun", "time": "Closed"}], "id": "5771900007", "name": "USPS COLLECTION BOX - BLUE BOX", "address": {"city": "BOX ELDER", "state": "SD", "street": "2725 LEMAY BLVD", "postcode": "57719"}}},
{"geometry": {"type": "Point", "coordinates": [-103.0702881508, 44.1226829097]}, "type": "Feature", "properties": {"collection_times": [{"days": "Mon-Sat", "time": "1:00pm"}, {"days": "Sun", "time": "Closed"}], "id": "5771900009", "name": "USPS COLLECTION BOX - BLUE BOX", "address": {"city": "BOX ELDER", "state": "SD", "street": "2650 SPAATZ DR", "postcode": "57719"}}},
{"geometry": {"type": "Point", "coordinates": [-103.0702881508, 44.1226829097]}, "type": "Feature", "properties": {"collection_times": [{"days": "Mon-Fri", "time": "4:15pm"}, {"days": "Sat", "time": "11:30am"}, {"days": "Sun", "time": "Closed"}], "id": "5771900016", "name": "USPS COLLECTION BOX - PO LOBBY", "address": {"city": "BOX ELDER", "state": "SD", "street": "511 N ELLSWORTH RD", "postcode": "57719"}}},
{"geometry": {"type": "Point", "coordinates": [-103.5465756531, 45.5816937111]}, "type": "Feature", "properties": {"collection_times": [{"days": "Mon-Sat", "time": "12:00pm"}, {"days": "Sun", "time": "Closed"}], "id": "5772000001", "name": "USPS COLLECTION BOX - BLUE BOX", "address": {"city": "BUFFALO", "state": "SD", "street": "109 1ST ST W", "postcode": "57720"}}},
{"geometry": {"type": "Point", "coordinates": [-103.5465756531, 45.5816937111]}, "type": "Feature", "properties": {"collection_times": [{"days": "Mon-Sat", "time": "12:00pm"}, {"days": "Sun", "time": "Closed"}], "id": "5772000002", "name": "USPS COLLECTION BOX - PO LOBBY", "address": {"city": "BUFFALO", "state": "SD", "street": "109 1ST ST W", "postcode": "57720"}}},
{"geometry": {"type": "Point", "coordinates": [-103.3130453168, 43.4928440462]}, "type": "Feature", "properties": {"collection_times": [{"days": "Mon-Fri", "time": "3:45pm"}, {"days": "Sat", "time": "9:15am"}, {"days": "Sun", "time": "Closed"}], "id": "5772200001", "name": "USPS COLLECTION BOX - BLUE BOX", "address": {"city": "BUFFALO GAP", "state": "SD", "street": "200 N WALNUT ST", "postcode": "57722"}}},
{"geometry": {"type": "Point", "coordinates": [-103.3130453168, 43.4928440462]}, "type": "Feature", "properties": {"collection_times": [{"days": "Mon-Fri", "time": "11:30am"}, {"days": "Sat", "time": "9:15am"}, {"days": "Sun", "time": "Closed"}], "id": "5772200002", "name": "USPS COLLECTION BOX - PO LOBBY", "address": {"city": "BUFFALO GAP", "state": "SD", "street": "200 N WALNUT ST", "postcode": "57722"}}},
{"geometry": {"type": "Point", "coordinates": [-103.9377044455, 45.6511955983]}, "type": "Feature", "properties": {"collection_times": [{"days": "Mon-Sat", "time": "11:00am"}, {"days": "Sun", "time": "Closed"}], "id": "5772400001", "name": "USPS COLLECTION BOX - BLUE BOX", "address": {"city": "CAMP CROOK", "state": "SD", "street": "107 N MAIN ST", "postcode": "57724"}}},
{"geometry": {"type": "Point", "coordinates": [-103.9377044455, 45.6511955983]}, "type": "Feature", "properties": {"collection_times": [{"days": "Mon-Sat", "time": "12:30pm"}, {"days": "Sun", "time": "Closed"}], "id": "5772400002", "name": "USPS COLLECTION BOX - PO LOBBY", "address": {"city": "CAMP CROOK", "state": "SD", "street": "107 N MAIN ST", "postcode": "57724"}}},
{"geometry": {"type": "Point", "coordinates": [-102.8147974824, 43.9417916407]}, "type": "Feature", "properties": {"collection_times": [{"days": "Mon-Sat", "time": "10:30am"}, {"days": "Sun", "time": "Closed"}], "id": "5772500001", "name": "USPS COLLECTION BOX - BLUE BOX", "address": {"city": "CAPUTA", "state": "SD", "street": "23502 MAIN ST", "postcode": "57725"}}},
{"geometry": {"type": "Point", "coordinates": [-102.8147974824, 43.9417916407]}, "type": "Feature", "properties": {"collection_times": [{"days": "Mon-Sat", "time": "10:30am"}, {"days": "Sun", "time": "Closed"}], "id": "5772500002", "name": "USPS COLLECTION BOX - PO LOBBY", "address": {"city": "CAPUTA", "state": "SD", "street": "23502 MAIN ST", "postcode": "57725"}}},
{"geometry": {"type": "Point", "coordinates": [-103.6093164981, 43.7629729393]}, "type": "Feature", "properties": {"collection_times": [{"days": "Mon-Sat", "time": "5:00pm"}, {"days": "Sun", "time": "Closed"}], "id": "5773000002", "name": "USPS COLLECTION BOX - BLUE BOX", "address": {"city": "CUSTER", "state": "SD", "street": "643 MOUNT RUSHMORE RD", "postcode": "57730"}}},
{"geometry": {"type": "Point", "coordinates": [-103.6093164981, 43.7629729393]}, "type": "Feature", "properties": {"collection_times": [{"days": "Mon-Sat", "time": "5:00pm"}, {"days": "Sun", "time": "Closed"}], "id": "5773000003", "name": "USPS COLLECTION BOX - PO LOBBY", "address": {"city": "CUSTER", "state": "SD", "street": "643 MOUNT RUSHMORE RD", "postcode": "57730"}}},
{"geometry": {"type": "Point", "coordinates": [-103.6093164981, 43.7629729393]}, "type": "Feature", "properties": {"collection_times": [{"days": "Mon-Sat", "time": "10:00am"}, {"days": "Sun", "time": "Closed"}], "id": "5773000004", "name": "USPS COLLECTION BOX - BLUE BOX", "address": {"city": "CUSTER", "state": "SD", "street": "12151 AVENUE OF THE CHIEFS", "postcode": "57730"}}},
{"geometry": {"type": "Point", "coordinates": [-103.6093164981, 43.7629729393]}, "type": "Feature", "properties": {"collection_times": [{"days": "Mon-Sat", "time": "5:00pm"}, {"days": "Sun", "time": "Closed"}], "id": "5773000007", "name": "USPS COLLECTION BOX - BLUE BOX", "address": {"city": "CUSTER", "state": "SD", "street": "643 MOUNT RUSHMORE RD", "postcode": "57730"}}},
{"geometry": {"type": "Point", "coordinates": [-103.7288998376, 44.3765960115]}, "type": "Feature", "properties": {"collection_times": [{"days": "Mon-Fri", "time": "3:45pm"}, {"days": "Sat", "time": "3:00pm"}, {"days": "Sun", "time": "Closed"}], "id": "5773200001", "name": "USPS COLLECTION BOX - BLUE BOX", "address": {"city": "DEADWOOD", "state": "SD", "street": "68 SHERMAN ST", "postcode": "57732"}}},
{"geometry": {"type": "Point", "coordinates": [-103.7288998376, 44.3765960115]}, "type": "Feature", "properties": {"collection_times": [{"days": "Mon-Fri", "time": "4:15pm"}, {"days": "Sat", "time": "11:30am"}, {"days": "Sun", "time": "Closed"}], "id": "5773200006", "name": "USPS COLLECTION BOX - PO LOBBY", "address": {"city": "DEADWOOD", "state": "SD", "street": "68 SHERMAN ST", "postcode": "57732"}}},
{"geometry": {"type": "Point", "coordinates": [-103.8250884932, 43.2997064142]}, "type": "Feature", "properties": {"collection_times": [{"days": "Mon-Fri", "time": "3:45pm"}, {"days": "Sat", "time": "12:00pm"}, {"days": "Sun", "time": "Closed"}], "id": "5773500001", "name": "USPS COLLECTION BOX - BLUE BOX", "address": {"city": "EDGEMONT", "state": "SD", "street": "519 2ND AVE", "postcode": "57735"}}},
{"geometry": {"type": "Point", "coordinates": [-103.8250884932, 43.2997064142]}, "type": "Feature", "properties": {"collection_times": [{"days": "Mon-Fri", "time": "3:45pm"}, {"days": "Sat", "time": "11:00am"}, {"days": "Sun", "time": "Closed"}], "id": "5773500002", "name": "USPS COLLECTION BOX - PO LOBBY", "address": {"city": "EDGEMONT", "state": "SD", "street": "519 2ND AVE", "postcode": "57735"}}},
{"geometry": {"type": "Point", "coordinates": [-102.5770030103, 44.5338575864]}, "type": "Feature", "properties": {"collection_times": [{"days": "Mon-Sat", "time": "2:30pm"}, {"days": "Sun", "time": "Closed"}], "id": "5773700001", "name": "USPS COLLECTION BOX - BLUE BOX", "address": {"city": "ENNING", "state": "SD", "street": "17500 HIGHWAY 34", "postcode": "57737"}}},
{"geometry": {"type": "Point", "coordinates": [-102.5770030103, 44.5338575864]}, "type": "Feature", "properties": {"collection_times": [{"days": "Mon-Fri", "time": "2:30pm"}, {"days": "Sat", "time": "1:00pm"}, {"days": "Sun", "time": "Closed"}], "id": "5773700002", "name": "USPS COLLECTION BOX - PO LOBBY", "address": {"city": "ENNING", "state": "SD", "street": "17500 HIGHWAY 34", "postcode": "57737"}}},
{"geometry": {"type": "Point", "coordinates": [-103.2158149469, 43.6511963182]}, "type": "Feature", "properties": {"collection_times": [{"days": "Mon-Fri", "time": "3:45pm"}, {"days": "Sat", "time": "9:45am"}, {"days": "Sun", "time": "Closed"}], "id": "5773800000", "name": "USPS COLLECTION BOX - BLUE BOX", "address": {"city": "FAIRBURN", "state": "SD", "street": "120 OAK ST", "postcode": "57738"}}},
{"geometry": {"type": "Point", "coordinates": [-103.2158149469, 43.6511963182]}, "type": "Feature", "properties": {"collection_times": [{"days": "Mon-Fri", "time": "11:30am"}, {"days": "Sat", "time": "9:45am"}, {"days": "Sun", "time": "Closed"}], "id": "5773800001", "name": "USPS COLLECTION BOX - PO LOBBY", "address": {"city": "FAIRBURN", "state": "SD", "street": "120 OAK ST", "postcode": "57738"}}},
{"geometry": {"type": "Point", "coordinates": [-103.4731247958, 44.4044013392]}, "type": "Feature", "properties": {"collection_times": [{"days": "Mon-Fri", "time": "4:00pm"}, {"days": "Sat", "time": "1:45pm"}, {"days": "Sun", "time": "Closed"}], "id": "5774100001", "name": "USPS COLLECTION BOX - BLUE BOX", "address": {"city": "FORT MEADE", "state": "SD", "street": "50 SHERIDAN RD", "postcode": "57741"}}},
{"geometry": {"type": "Point", "coordinates": [-103.4731247958, 44.4044013392]}, "type": "Feature", "properties": {"collection_times": [{"days": "Mon-Fri", "time": "2:00pm"}, {"days": "Sat", "time": "1:45pm"}, {"days": "Sun", "time": "Closed"}], "id": "5774100002", "name": "USPS COLLECTION BOX - PO LOBBY", "address": {"city": "FORT MEADE", "state": "SD", "street": "50 SHERIDAN RD", "postcode": "57741"}}},
{"geometry": {"type": "Point", "coordinates": [-103.1912581929, 43.8397484316]}, "type": "Feature", "properties": {"collection_times": [{"days": "Mon-Fri", "time": "4:25pm"}, {"days": "Sat", "time": "9:15am"}, {"days": "Sun", "time": "Closed"}], "id": "5774400001", "name": "USPS COLLECTION BOX - BLUE BOX", "address": {"city": "HERMOSA", "state": "SD", "street": "208 MAIN ST", "postcode": "57744"}}},
{"geometry": {"type": "Point", "coordinates": [-103.1912581929, 43.8397484316]}, "type": "Feature", "properties": {"collection_times": [{"days": "Mon-Fri", "time": "1:30pm"}, {"days": "Sat", "time": "9:15am"}, {"days": "Sun", "time": "Closed"}], "id": "5774400002", "name": "USPS COLLECTION BOX - PO LOBBY", "address": {"city": "HERMOSA", "state": "SD", "street": "208 MAIN ST", "postcode": "57744"}}},
{"geometry": {"type": "Point", "coordinates": [-103.5749977102, 43.9337133604]}, "type": "Feature", "properties": {"collection_times": [{"days": "Mon-Fri", "time": "4:15pm"}, {"days": "Sat", "time": "10:30am"}, {"days": "Sun", "time": "Closed"}], "id": "5774500001", "name": "USPS COLLECTION BOX - BLUE BOX", "address": {"city": "HILL CITY", "state": "SD", "street": "150 E MAIN ST", "postcode": "57745"}}},
{"geometry": {"type": "Point", "coordinates": [-103.5749977102, 43.9337133604]}, "type": "Feature", "properties": {"collection_times": [{"days": "Mon-Fri", "time": "4:15pm"}, {"days": "Sat", "time": "10:30am"}, {"days": "Sun", "time": "Closed"}], "id": "5774500002", "name": "USPS COLLECTION BOX - PO LOBBY", "address": {"city": "HILL CITY", "state": "SD", "street": "150 E MAIN ST", "postcode": "57745"}}},
{"geometry": {"type": "Point", "coordinates": [-103.474048996, 43.435081217]}, "type": "Feature", "properties": {"collection_times": [{"days": "Mon-Sat", "time": "3:30pm"}, {"days": "Sun", "time": "Closed"}], "id": "5774700001", "name": "USPS COLLECTION BOX - BLUE BOX", "address": {"city": "HOT SPRINGS", "state": "SD", "street": "500 N 5TH ST", "postcode": "57747"}}},
{"geometry": {"type": "Point", "coordinates": [-103.4810703677, 43.4356622974]}, "type": "Feature", "properties": {"collection_times": [{"days": "Mon-Sat", "time": "3:30pm"}, {"days": "Sun", "time": "Closed"}], "id": "5774700003", "name": "USPS COLLECTION BOX - BLUE BOX", "address": {"city": "HOT SPRINGS", "state": "SD", "street": "906 N RIVER ST", "postcode": "57747"}}},
{"geometry": {"type": "Point", "coordinates": [-103.4709013985, 43.4272707787]}, "type": "Feature", "properties": {"collection_times": [{"days": "Mon-Sat", "time": "12:00pm"}, {"days": "Sun", "time": "Closed"}], "id": "5774700005", "name": "USPS COLLECTION BOX - BLUE BOX", "address": {"city": "HOT SPRINGS", "state": "SD", "street": "505 S 6TH ST", "postcode": "57747"}}},
{"geometry": {"type": "Point", "coordinates": [-103.4750640854, 43.4317084724]}, "type": "Feature", "properties": {"collection_times": [{"days": "Mon-Sat", "time": "4:30pm"}, {"days": "Sun", "time": "Closed"}], "id": "5774700006", "name": "USPS COLLECTION BOX - BLUE BOX", "address": {"city": "HOT SPRINGS", "state": "SD", "street": "146 N CHICAGO ST", "postcode": "57747"}}},
{"geometry": {"type": "Point", "coordinates": [-103.4750640854, 43.4317084724]}, "type": "Feature", "properties": {"collection_times": [{"days": "Mon-Sat", "time": "4:30pm"}, {"days": "Sun", "time": "Closed"}], "id": "5774700007", "name": "USPS COLLECTION BOX - BLUE BOX", "address": {"city": "HOT SPRINGS", "state": "SD", "street": "146 N CHICAGO ST", "postcode": "57747"}}},
{"geometry": {"type": "Point", "coordinates": [-103.4750640854, 43.4317084724]}, "type": "Feature", "properties": {"collection_times": [{"days": "Mon-Sat", "time": "4:30pm"}, {"days": "Sun", "time": "Closed"}], "id": "5774700010", "name": "USPS COLLECTION BOX - PO LOBBY", "address": {"city": "HOT SPRINGS", "state": "SD", "street": "146 N CHICAGO ST", "postcode": "57747"}}},
{"geometry": {"type": "Point", "coordinates": [-103.4897274013, 43.4371493217]}, "type": "Feature", "properties": {"collection_times": [{"days": "Mon-Sat", "time": "3:30pm"}, {"days": "Sun", "time": "Closed"}], "id": "5774700011", "name": "USPS COLLECTION BOX - BLUE BOX", "address": {"city": "HOT SPRINGS", "state": "SD", "street": "2500 MINNEKAHTA AVE", "postcode": "57747"}}},
{"geometry": {"type": "Point", "coordinates": [-102.05170701, 44.6198459786]}, "type": "Feature", "properties": {"collection_times": [{"days": "Mon-Sat", "time": "12:55pm"}, {"days": "Sun", "time": "Closed"}], "id": "5774800001", "name": "USPS COLLECTION BOX - PO LOBBY", "address": {"city": "HOWES", "state": "SD", "street": "19188 ST HIGHWAY 73", "postcode": "57748"}}},
{"geometry": {"type": "Point", "coordinates": [-103.4268370688, 43.8917639693]}, "type": "Feature", "properties": {"collection_times": [{"days": "Mon-Fri", "time": "4:00pm"}, {"days": "Sat", "time": "11:00am"}, {"days": "Sun", "time": "Closed"}], "id": "5775100001", "name": "USPS COLLECTION BOX - BLUE BOX", "address": {"city": "KEYSTONE", "state": "SD", "street": "111 WINTER ST", "postcode": "57751"}}},
{"geometry": {"type": "Point", "coordinates": [-103.4268370688, 43.8917639693]}, "type": "Feature", "properties": {"collection_times": [{"days": "Mon-Fri", "time": "2:30pm"}, {"days": "Sat", "time": "10:00am"}, {"days": "Sun", "time": "Closed"}], "id": "5775100002", "name": "USPS COLLECTION BOX - PO LOBBY", "address": {"city": "KEYSTONE", "state": "SD", "street": "111 WINTER ST", "postcode": "57751"}}},
{"geometry": {"type": "Point", "coordinates": [-102.318479811, 43.5351465983]}, "type": "Feature", "properties": {"collection_times": [{"days": "Mon-Fri", "time": "1:50pm"}, {"days": "Sat", "time": "11:30am"}, {"days": "Sun", "time": "Closed"}], "id": "5775200000", "name": "USPS COLLECTION BOX - BLUE BOX", "address": {"city": "KYLE", "state": "SD", "street": "101 BIA 2", "postcode": "57752"}}},
{"geometry": {"type": "Point", "coordinates": [-102.318479811, 43.5351465983]}, "type": "Feature", "properties": {"collection_times": [{"days": "Mon-Fri", "time": "1:50pm"}, {"days": "Sat", "time": "11:30am"}, {"days": "Sun", "time": "Closed"}], "id": "5775200001", "name": "USPS COLLECTION BOX - PO LOBBY", "address": {"city": "KYLE", "state": "SD", "street": "101 BIA 2", "postcode": "57752"}}},
{"geometry": {"type": "Point", "coordinates": [-103.7667061821, 44.351912565]}, "type": "Feature", "properties": {"collection_times": [{"days": "Mon-Fri", "time": "3:45pm"}, {"days": "Sat", "time": "10:30am"}, {"days": "Sun", "time": "Closed"}], "id": "5775400004", "name": "USPS COLLECTION BOX - BLUE BOX", "address": {"city": "LEAD", "state": "SD", "street": "329 W MAIN ST", "postcode": "57754"}}},
{"geometry": {"type": "Point", "coordinates": [-103.7667061821, 44.351912565]}, "type": "Feature", "properties": {"collection_times": [{"days": "Mon-Fri", "time": "4:00pm"}, {"days": "Sat", "time": "10:30am"}, {"days": "Sun", "time": "Closed"}], "id": "5775400009", "name": "USPS COLLECTION BOX - PO LOBBY", "address": {"city": "LEAD", "state": "SD", "street": "329 W MAIN ST", "postcode": "57754"}}},
{"geometry": {"type": "Point", "coordinates": [-102.3877629714, 43.3087928133]}, "type": "Feature", "properties": {"collection_times": [{"days": "Mon-Fri", "time": "12:30pm"}, {"days": "Sat-Sun", "time": "Closed"}], "id": "5775600002", "name": "USPS COLLECTION BOX - PO LOBBY", "address": {"city": "MANDERSON", "state": "SD", "street": "201 MAIN ST", "postcode": "57756"}}},
{"geometry": {"type": "Point", "coordinates": [-103.5043824179, 44.1859814594]}, "type": "Feature", "properties": {"collection_times": [{"days": "Mon-Sat", "time": "12:00pm"}, {"days": "Sun", "time": "Closed"}], "id": "5775900002", "name": "USPS COLLECTION BOX - PO LOBBY", "address": {"city": "NEMO", "state": "SD", "street": "12748 NEMO RD", "postcode": "57759"}}},
{"geometry": {"type": "Point", "coordinates": [-103.4204565046, 44.7112043591]}, "type": "Feature", "properties": {"collection_times": [{"days": "Mon-Fri", "time": "4:00pm"}, {"days": "Sat", "time": "10:30am"}, {"days": "Sun", "time": "Closed"}], "id": "5776000001", "name": "USPS COLLECTION BOX - BLUE BOX", "address": {"city": "NEWELL", "state": "SD", "street": "207 GIRARD AVE", "postcode": "57760"}}},
{"geometry": {"type": "Point", "coordinates": [-103.4204565046, 44.7112043591]}, "type": "Feature", "properties": {"collection_times": [{"days": "Mon-Fri", "time": "2:30pm"}, {"days": "Sat", "time": "10:30am"}, {"days": "Sun", "time": "Closed"}], "id": "5776000002", "name": "USPS COLLECTION BOX - PO LOBBY", "address": {"city": "NEWELL", "state": "SD", "street": "207 GIRARD AVE", "postcode": "57760"}}},
{"geometry": {"type": "Point", "coordinates": [-102.8362538933, 44.0931043791]}, "type": "Feature", "properties": {"collection_times": [{"days": "Mon-Fri", "time": "4:30pm"}, {"days": "Sat", "time": "9:45am"}, {"days": "Sun", "time": "Closed"}], "id": "5776100001", "name": "USPS COLLECTION BOX - BLUE BOX", "address": {"city": "NEW UNDERWOOD", "state": "SD", "street": "408 S A AVE", "postcode": "57761"}}},
{"geometry": {"type": "Point", "coordinates": [-102.8362538933, 44.0931043791]}, "type": "Feature", "properties": {"collection_times": [{"days": "Mon-Fri", "time": "2:00pm"}, {"days": "Sat", "time": "9:00am"}, {"days": "Sun", "time": "Closed"}], "id": "5776100002", "name": "USPS COLLECTION BOX - PO LOBBY", "address": {"city": "NEW UNDERWOOD", "state": "SD", "street": "408 S A AVE", "postcode": "57761"}}},
{"geometry": {"type": "Point", "coordinates": [-103.5529891259, 44.6728947364]}, "type": "Feature", "properties": {"collection_times": [{"days": "Mon-Fri", "time": "2:20pm"}, {"days": "Sat", "time": "11:45am"}, {"days": "Sun", "time": "Closed"}], "id": "5776200001", "name": "USPS COLLECTION BOX - BLUE BOX", "address": {"city": "NISLAND", "state": "SD", "street": "405 2ND ST", "postcode": "57762"}}},
{"geometry": {"type": "Point", "coordinates": [-103.5525630442, 44.6728445517]}, "type": "Feature", "properties": {"collection_times": [{"days": "Mon-Fri", "time": "2:00pm"}, {"days": "Sat", "time": "11:30am"}, {"days": "Sun", "time": "Closed"}], "id": "5776200002", "name": "USPS COLLECTION BOX - PO LOBBY", "address": {"city": "NISLAND", "state": "SD", "street": "405 2ND ST", "postcode": "57762"}}},
{"geometry": {"type": "Point", "coordinates": [-103.1736517308, 43.1088301098]}, "type": "Feature", "properties": {"collection_times": [{"days": "Mon-Fri", "time": "1:15pm"}, {"days": "Sat", "time": "10:00am"}, {"days": "Sun", "time": "Closed"}], "id": "5776300001", "name": "USPS COLLECTION BOX - BLUE BOX", "address": {"city": "OELRICHS", "state": "SD", "street": "411 MAIN ST", "postcode": "57763"}}},
{"geometry": {"type": "Point", "coordinates": [-103.1736517308, 43.1088301098]}, "type": "Feature", "properties": {"collection_times": [{"days": "Mon-Fri", "time": "12:00pm"}, {"days": "Sat", "time": "9:45am"}, {"days": "Sun", "time": "Closed"}], "id": "5776300002", "name": "USPS COLLECTION BOX - PO LOBBY", "address": {"city": "OELRICHS", "state": "SD", "street": "411 MAIN ST", "postcode": "57763"}}},
{"geometry": {"type": "Point", "coordinates": [-102.7396786319, 43.1876850988]}, "type": "Feature", "properties": {"collection_times": [{"days": "Mon-Fri", "time": "12:30pm"}, {"days": "Sat", "time": "11:15am"}, {"days": "Sun", "time": "Closed"}], "id": "5776400002", "name": "USPS COLLECTION BOX - PO LOBBY", "address": {"city": "OGLALA", "state": "SD", "street": "1 HIGHWAY 18 W", "postcode": "57764"}}},
{"geometry": {"type": "Point", "coordinates": [-103.1360620218, 43.3649649695]}, "type": "Feature", "properties": {"collection_times": [{"days": "Mon-Fri", "time": "2:05pm"}, {"days": "Sat", "time": "11:45am"}, {"days": "Sun", "time": "Closed"}], "id": "5776600001", "name": "USPS COLLECTION BOX - BLUE BOX", "address": {"city": "ORAL", "state": "SD", "street": "117 S GOODMAN ST", "postcode": "57766"}}},
{"geometry": {"type": "Point", "coordinates": [-103.1360620218, 43.3649649695]}, "type": "Feature", "properties": {"collection_times": [{"days": "Mon-Fri", "time": "2:00pm"}, {"days": "Sat", "time": "11:25am"}, {"days": "Sun", "time": "Closed"}], "id": "5776600002", "name": "USPS COLLECTION BOX - PO LOBBY", "address": {"city": "ORAL", "state": "SD", "street": "117 S GOODMAN ST", "postcode": "57766"}}},
{"geometry": {"type": "Point", "coordinates": [-103.3940591681, 44.2292015267]}, "type": "Feature", "properties": {"collection_times": [{"days": "Mon-Fri", "time": "4:30pm"}, {"days": "Sat", "time": "10:30am"}, {"days": "Sun", "time": "Closed"}], "id": "5776900001", "name": "USPS COLLECTION BOX - BLUE BOX", "address": {"city": "PIEDMONT", "state": "SD", "street": "10224 MAIN ST", "postcode": "57769"}}},
{"geometry": {"type": "Point", "coordinates": [-103.3940591681, 44.2292015267]}, "type": "Feature", "properties": {"collection_times": [{"days": "Mon-Fri", "time": "4:30pm"}, {"days": "Sat", "time": "10:30am"}, {"days": "Sun", "time": "Closed"}], "id": "5776900004", "name": "USPS COLLECTION BOX - PO LOBBY", "address": {"city": "PIEDMONT", "state": "SD", "street": "10224 MAIN ST", "postcode": "57769"}}},
{"geometry": {"type": "Point", "coordinates": [-103.1209988591, 44.2563939021]}, "type": "Feature", "properties": {"collection_times": [{"days": "Mon-Sat", "time": "5:05pm"}, {"days": "Sun", "time": "Closed"}], "id": "5776900005", "name": "USPS COLLECTION BOX - BLUE BOX", "address": {"city": "PIEDMONT", "state": "SD", "street": "15003 STURGIS RD", "postcode": "57769"}}},
{"geometry": {"type": "Point", "coordinates": [-102.7358737697, 43.3264304384]}, "type": "Feature", "properties": {"collection_times": [{"days": "Mon-Fri", "time": "2:45pm"}, {"days": "Sat", "time": "1:00pm"}, {"days": "Sun", "time": "Closed"}], "id": "5777000002", "name": "USPS COLLECTION BOX - PO LOBBY", "address": {"city": "PINE RIDGE", "state": "SD", "street": "1 HIGHWAY 18", "postcode": "57770"}}},
{"geometry": {"type": "Point", "coordinates": [-102.2109619052, 43.3009216643]}, "type": "Feature", "properties": {"collection_times": [{"days": "Mon-Sat", "time": "11:30am"}, {"days": "Sun", "time": "Closed"}], "id": "5777200001", "name": "USPS COLLECTION BOX - BLUE BOX", "address": {"city": "PORCUPINE", "state": "SD", "street": "1 MAIN ST", "postcode": "57772"}}},
{"geometry": {"type": "Point", "coordinates": [-102.2109619052, 43.3009216643]}, "type": "Feature", "properties": {"collection_times": [{"days": "Mon-Sat", "time": "11:30am"}, {"days": "Sun", "time": "Closed"}], "id": "5777200002", "name": "USPS COLLECTION BOX - PO LOBBY", "address": {"city": "PORCUPINE", "state": "SD", "street": "1 MAIN ST", "postcode": "57772"}}},
{"geometry": {"type": "Point", "coordinates": [-103.5981140949, 43.766862426]}, "type": "Feature", "properties": {"collection_times": [{"days": "Mon-Fri", "time": "11:30am"}, {"days": "Sat", "time": "1:00pm"}, {"days": "Sun", "time": "Closed"}], "id": "5777300001", "name": "USPS COLLECTION BOX - BLUE BOX", "address": {"city": "PRINGLE", "state": "SD", "street": "369 MAIN ST", "postcode": "57773"}}},
{"geometry": {"type": "Point", "coordinates": [-103.5981140949, 43.766862426]}, "type": "Feature", "properties": {"collection_times": [{"days": "Mon-Fri", "time": "11:30am"}, {"days": "Sat", "time": "1:00pm"}, {"days": "Sun", "time": "Closed"}], "id": "5777300002", "name": "USPS COLLECTION BOX - PO LOBBY", "address": {"city": "PRINGLE", "state": "SD", "street": "369 MAIN ST", "postcode": "57773"}}},
{"geometry": {"type": "Point", "coordinates": [-102.0624316192, 44.0814128615]}, "type": "Feature", "properties": {"collection_times": [{"days": "Mon-Fri", "time": "12:15pm"}, {"days": "Sat", "time": "11:30am"}, {"days": "Sun", "time": "Closed"}], "id": "5777500001", "name": "USPS COLLECTION BOX - BLUE BOX", "address": {"city": "QUINN", "state": "SD", "street": "30 HIGHWAY 1416", "postcode": "57775"}}},
{"geometry": {"type": "Point", "coordinates": [-102.0624316192, 44.0814128615]}, "type": "Feature", "properties": {"collection_times": [{"days": "Mon-Fri", "time": "11:30am"}, {"days": "Sat", "time": "11:00am"}, {"days": "Sun", "time": "Closed"}], "id": "5777500002", "name": "USPS COLLECTION BOX - PO LOBBY", "address": {"city": "QUINN", "state": "SD", "street": "30 HIGHWAY 1416", "postcode": "57775"}}},
{"geometry": {"type": "Point", "coordinates": [-103.5486622518, 45.2709153858]}, "type": "Feature", "properties": {"collection_times": [{"days": "Mon-Sat", "time": "11:45am"}, {"days": "Sun", "time": "Closed"}], "id": "5777600000", "name": "USPS COLLECTION BOX - PO LOBBY", "address": {"city": "REDIG", "state": "SD", "street": "14695 US HIGHWAY 85", "postcode": "57776"}}},
{"geometry": {"type": "Point", "coordinates": [-103.7546675539, 44.552781022]}, "type": "Feature", "properties": {"collection_times": [{"days": "Mon-Fri", "time": "11:30am"}, {"days": "Sat", "time": "11:00am"}, {"days": "Sun", "time": "Closed"}], "id": "5777900001", "name": "USPS COLLECTION BOX - BLUE BOX", "address": {"city": "SAINT ONGE", "state": "SD", "street": "176 PURL ST", "postcode": "57779"}}},
{"geometry": {"type": "Point", "coordinates": [-103.7546675539, 44.552781022]}, "type": "Feature", "properties": {"collection_times": [{"days": "Mon-Fri", "time": "11:15am"}, {"days": "Sat-Sun", "time": "Closed"}], "id": "5777900002", "name": "USPS COLLECTION BOX - PO LOBBY", "address": {"city": "SAINT ONGE", "state": "SD", "street": "176 PURL ST", "postcode": "57779"}}},
{"geometry": {"type": "Point", "coordinates": [-102.4240924442, 43.7895651497]}, "type": "Feature", "properties": {"collection_times": [{"days": "Mon-Sat", "time": "11:30am"}, {"days": "Sun", "time": "Closed"}], "id": "5778000001", "name": "USPS COLLECTION BOX - BLUE BOX", "address": {"city": "SCENIC", "state": "SD", "street": "27 2ND ST", "postcode": "57780"}}},
{"geometry": {"type": "Point", "coordinates": [-102.4240924442, 43.7895651497]}, "type": "Feature", "properties": {"collection_times": [{"days": "Mon-Sat", "time": "11:30am"}, {"days": "Sun", "time": "Closed"}], "id": "5778000002", "name": "USPS COLLECTION BOX - PO LOBBY", "address": {"city": "SCENIC", "state": "SD", "street": "27 2ND ST", "postcode": "57780"}}},
{"geometry": {"type": "Point", "coordinates": [-103.8623446228, 44.4906401066]}, "type": "Feature", "properties": {"collection_times": [{"days": "Mon-Sat", "time": "12:00pm"}, {"days": "Sun", "time": "Closed"}], "id": "5778300002", "name": "USPS COLLECTION BOX - BLUE BOX", "address": {"city": "SPEARFISH", "state": "SD", "street": "305 W JACKSON BLVD", "postcode": "57783"}}},
{"geometry": {"type": "Point", "coordinates": [-103.8599134951, 44.4932273497]}, "type": "Feature", "properties": {"collection_times": [{"days": "Mon-Sat", "time": "2:45pm"}, {"days": "Sun", "time": "Closed"}], "id": "5778300003", "name": "USPS COLLECTION BOX - BLUE BOX", "address": {"city": "SPEARFISH", "state": "SD", "street": "905 N MAIN ST", "postcode": "57783"}}},
{"geometry": {"type": "Point", "coordinates": [-103.8599954331, 44.4976301993]}, "type": "Feature", "properties": {"collection_times": [{"days": "Mon-Sat", "time": "2:00pm"}, {"days": "Sun", "time": "Closed"}], "id": "5778300004", "name": "USPS COLLECTION BOX - BLUE BOX", "address": {"city": "SPEARFISH", "state": "SD", "street": "1400 NORTH AVE", "postcode": "57783"}}},
{"geometry": {"type": "Point", "coordinates": [-103.8610915103, 44.5067199303]}, "type": "Feature", "properties": {"collection_times": [{"days": "Mon-Fri", "time": "5:00pm"}, {"days": "Sat", "time": "4:00pm"}, {"days": "Sun", "time": "Closed"}], "id": "5778300006", "name": "USPS COLLECTION BOX - BLUE BOX", "address": {"city": "SPEARFISH", "state": "SD", "street": "120 YANKEE ST", "postcode": "57783"}}},
{"geometry": {"type": "Point", "coordinates": [-103.8610915103, 44.5067199303]}, "type": "Feature", "properties": {"collection_times": [{"days": "Mon-Fri", "time": "4:30pm"}, {"days": "Sat", "time": "4:00pm"}, {"days": "Sun", "time": "Closed"}], "id": "5778300007", "name": "USPS COLLECTION BOX - PO LOBBY", "address": {"city": "SPEARFISH", "state": "SD", "street": "120 YANKEE ST", "postcode": "57783"}}},
{"geometry": {"type": "Point", "coordinates": [-103.8586884254, 44.4892908942]}, "type": "Feature", "properties": {"collection_times": [{"days": "Mon-Sat", "time": "3:00pm"}, {"days": "Sun", "time": "Closed"}], "id": "5778300012", "name": "USPS COLLECTION BOX - BLUE BOX", "address": {"city": "SPEARFISH", "state": "SD", "street": "526 N MAIN ST", "postcode": "57783"}}},
{"geometry": {"type": "Point", "coordinates": [-103.8122477995, 44.4803965406]}, "type": "Feature", "properties": {"collection_times": [{"days": "Mon-Sat", "time": "12:15pm"}, {"days": "Sun", "time": "Closed"}], "id": "5778300014", "name": "USPS COLLECTION BOX - BLUE BOX", "address": {"city": "SPEARFISH", "state": "SD", "street": "2825 1ST AVE", "postcode": "57783"}}},
{"geometry": {"type": "Point", "coordinates": [-103.5063027052, 44.397272254]}, "type": "Feature", "properties": {"collection_times": [{"days": "Mon-Sat", "time": "2:30pm"}, {"days": "Sun", "time": "Closed"}], "id": "5778500004", "name": "USPS COLLECTION BOX - BLUE BOX", "address": {"city": "STURGIS", "state": "SD", "street": "2421 JUNCTION AVE", "postcode": "57785"}}},
{"geometry": {"type": "Point", "coordinates": [-103.5124395676, 44.413468617]}, "type": "Feature", "properties": {"collection_times": [{"days": "Mon-Fri", "time": "2:30pm"}, {"days": "Sat-Sun", "time": "Closed"}], "id": "5778500010", "name": "USPS COLLECTION BOX - BLUE BOX", "address": {"city": "STURGIS", "state": "SD", "street": "1425 SHERMAN ST", "postcode": "57785"}}},
{"geometry": {"type": "Point", "coordinates": [-103.5153195136, 44.416295628]}, "type": "Feature", "properties": {"collection_times": [{"days": "Mon-Fri", "time": "5:00pm"}, {"days": "Sat", "time": "4:45pm"}, {"days": "Sun", "time": "Closed"}], "id": "5778500013", "name": "USPS COLLECTION BOX - BLUE BOX", "address": {"city": "STURGIS", "state": "SD", "street": "820 KINSHIP RD", "postcode": "57785"}}},
{"geometry": {"type": "Point", "coordinates": [-103.5153195136, 44.416295628]}, "type": "Feature", "properties": {"collection_times": [{"days": "Mon-Fri", "time": "5:00pm"}, {"days": "Sat", "time": "4:45pm"}, {"days": "Sun", "time": "Closed"}], "id": "5778500014", "name": "USPS COLLECTION BOX - BLUE BOX", "address": {"city": "STURGIS", "state": "SD", "street": "820 KINSHIP RD", "postcode": "57785"}}},
{"geometry": {"type": "Point", "coordinates": [-103.5153195136, 44.416295628]}, "type": "Feature", "properties": {"collection_times": [{"days": "Mon-Sat", "time": "4:45pm"}, {"days": "Sun", "time": "Closed"}], "id": "5778500015", "name": "USPS COLLECTION BOX - PO LOBBY", "address": {"city": "STURGIS", "state": "SD", "street": "820 KINSHIP RD", "postcode": "57785"}}},
{"geometry": {"type": "Point", "coordinates": [-103.5153195136, 44.416295628]}, "type": "Feature", "properties": {"collection_times": [{"days": "Mon-Sat", "time": "4:45pm"}, {"days": "Sun", "time": "Closed"}], "id": "5778500016", "name": "USPS COLLECTION BOX - PO LOBBY", "address": {"city": "STURGIS", "state": "SD", "street": "820 KINSHIP RD", "postcode": "57785"}}},
{"geometry": {"type": "Point", "coordinates": [-103.4484671586, 44.4158639172]}, "type": "Feature", "properties": {"collection_times": [{"days": "Mon-Fri", "time": "3:30pm"}, {"days": "Sat", "time": "3:00pm"}, {"days": "Sun", "time": "Closed"}], "id": "5778500019", "name": "USPS COLLECTION BOX - BLUE BOX", "address": {"city": "STURGIS", "state": "SD", "street": "12998 SD HIGHWAY 34", "postcode": "57785"}}},
{"geometry": {"type": "Point", "coordinates": [-102.9046207897, 44.5145995768]}, "type": "Feature", "properties": {"collection_times": [{"days": "Mon-Sat", "time": "3:15pm"}, {"days": "Sun", "time": "Closed"}], "id": "5778700001", "name": "USPS COLLECTION BOX - BLUE BOX", "address": {"city": "UNION CENTER", "state": "SD", "street": "16946 SD HIGHWAY 34 STE 3", "postcode": "57787"}}},
{"geometry": {"type": "Point", "coordinates": [-102.9046207897, 44.5145995768]}, "type": "Feature", "properties": {"collection_times": [{"days": "Mon-Fri", "time": "3:00pm"}, {"days": "Sat", "time": "11:30am"}, {"days": "Sun", "time": "Closed"}], "id": "5778700002", "name": "USPS COLLECTION BOX - PO LOBBY", "address": {"city": "UNION CENTER", "state": "SD", "street": "16946 SD HIGHWAY 34 STE 3", "postcode": "57787"}}},
{"geometry": {"type": "Point", "coordinates": [-103.3725957314, 44.5874851167]}, "type": "Feature", "properties": {"collection_times": [{"days": "Mon-Fri", "time": "3:45pm"}, {"days": "Sat", "time": "9:00am"}, {"days": "Sun", "time": "Closed"}], "id": "5778800001", "name": "USPS COLLECTION BOX - BLUE BOX", "address": {"city": "VALE", "state": "SD", "street": "304 ROSANDER AVE", "postcode": "57788"}}},
{"geometry": {"type": "Point", "coordinates": [-103.3725957314, 44.5874851167]}, "type": "Feature", "properties": {"collection_times": [{"days": "Mon-Fri", "time": "11:15am"}, {"days": "Sat", "time": "9:00am"}, {"days": "Sun", "time": "Closed"}], "id": "5778800002", "name": "USPS COLLECTION BOX - PO LOBBY", "address": {"city": "VALE", "state": "SD", "street": "304 ROSANDER AVE", "postcode": "57788"}}},
{"geometry": {"type": "Point", "coordinates": [-102.2397881445, 44.110312679]}, "type": "Feature", "properties": {"collection_times": [{"days": "Mon-Fri", "time": "4:00pm"}, {"days": "Sat", "time": "10:30am"}, {"days": "Sun", "time": "Closed"}], "id": "5779000001", "name": "USPS COLLECTION BOX - BLUE BOX", "address": {"city": "WALL", "state": "SD", "street": "529 MAIN ST", "postcode": "57790"}}},
{"geometry": {"type": "Point", "coordinates": [-102.2397881445, 44.110312679]}, "type": "Feature", "properties": {"collection_times": [{"days": "Mon-Fri", "time": "4:00pm"}, {"days": "Sat", "time": "10:30am"}, {"days": "Sun", "time": "Closed"}], "id": "5779000003", "name": "USPS COLLECTION BOX - PO LOBBY", "address": {"city": "WALL", "state": "SD", "street": "529 MAIN ST", "postcode": "57790"}}},
{"geometry": {"type": "Point", "coordinates": [-102.4477629242, 44.0686521373]}, "type": "Feature", "properties": {"collection_times": [{"days": "Mon-Fri", "time": "3:45pm"}, {"days": "Sat", "time": "8:45am"}, {"days": "Sun", "time": "Closed"}], "id": "5779100001", "name": "USPS COLLECTION BOX - BLUE BOX", "address": {"city": "WASTA", "state": "SD", "street": "54 C AVE", "postcode": "57791"}}},
{"geometry": {"type": "Point", "coordinates": [-102.4477629242, 44.0686521373]}, "type": "Feature", "properties": {"collection_times": [{"days": "Mon-Fri", "time": "11:30am"}, {"days": "Sat", "time": "8:45am"}, {"days": "Sun", "time": "Closed"}], "id": "5779100002", "name": "USPS COLLECTION BOX - PO LOBBY", "address": {"city": "WASTA", "state": "SD", "street": "54 C AVE", "postcode": "57791"}}},
{"geometry": {"type": "Point", "coordinates": [-102.4020219698, 44.6210738952]}, "type": "Feature", "properties": {"collection_times": [{"days": "Mon-Fri", "time": "2:30pm"}, {"days": "Sat", "time": "1:00pm"}, {"days": "Sun", "time": "Closed"}], "id": "5779200001", "name": "USPS COLLECTION BOX - PO LOBBY", "address": {"city": "WHITE OWL", "state": "SD", "street": "19371 MAIN ST", "postcode": "57792"}}},
{"geometry": {"type": "Point", "coordinates": [-103.6383130116, 44.4666672069]}, "type": "Feature", "properties": {"collection_times": [{"days": "Mon-Fri", "time": "4:15pm"}, {"days": "Sat", "time": "10:45am"}, {"days": "Sun", "time": "Closed"}], "id": "5779300001", "name": "USPS COLLECTION BOX - BLUE BOX", "address": {"city": "WHITEWOOD", "state": "SD", "street": "1400 LAUREL ST", "postcode": "57793"}}},
{"geometry": {"type": "Point", "coordinates": [-103.6383130116, 44.4666672069]}, "type": "Feature", "properties": {"collection_times": [{"days": "Mon-Fri", "time": "2:30pm"}, {"days": "Sat", "time": "10:00am"}, {"days": "Sun", "time": "Closed"}], "id": "5779300002", "name": "USPS COLLECTION BOX - PO LOBBY", "address": {"city": "WHITEWOOD", "state": "SD", "street": "1400 LAUREL ST", "postcode": "57793"}}},
{"geometry": {"type": "Point", "coordinates": [-102.364912486, 43.1561138351]}, "type": "Feature", "properties": {"collection_times": [{"days": "Mon-Sat", "time": "12:00pm"}, {"days": "Sun", "time": "Closed"}], "id": "5779400002", "name": "USPS COLLECTION BOX - PO LOBBY", "address": {"city": "WOUNDED KNEE", "state": "SD", "street": "101 MAIN ST", "postcode": "57794"}}}
]}
