{"type": "FeatureCollection", "features": [
{"geometry": {"type": "Point", "coordinates": [-92.0108830976, 34.2238475485]}, "type": "Feature", "properties": {"collection_times": [{"days": "Mon-Sat", "time": "1:45pm"}, {"days": "Sun", "time": "Closed"}], "id": "7160100007", "name": "USPS COLLECTION BOX - BLUE BOX", "address": {"city": "PINE BLUFF", "state": "AR", "street": "819 W 6TH AVE", "postcode": "71601"}}},
{"geometry": {"type": "Point", "coordinates": [-92.0186596368, 34.2411908377]}, "type": "Feature", "properties": {"collection_times": [{"days": "Mon-Sat", "time": "10:30am"}, {"days": "Sun", "time": "Closed"}], "id": "7160100029", "name": "USPS COLLECTION BOX - BLUE BOX", "address": {"city": "PINE BLUFF", "state": "AR", "street": "1301 L A PREXY DAVIS DR", "postcode": "71601"}}},
{"geometry": {"type": "Point", "coordinates": [-91.9759700924, 34.2129449782]}, "type": "Feature", "properties": {"collection_times": [{"days": "Mon-Sat", "time": "2:00pm"}, {"days": "Sun", "time": "Closed"}], "id": "7160100033", "name": "USPS COLLECTION BOX - BLUE BOX", "address": {"city": "PINE BLUFF", "state": "AR", "street": "2526 E HARDING AVE", "postcode": "71601"}}},
{"geometry": {"type": "Point", "coordinates": [-91.9782562997, 34.2131934753]}, "type": "Feature", "properties": {"collection_times": [{"days": "Mon-Sat", "time": "2:00pm"}, {"days": "Sun", "time": "Closed"}], "id": "7160100035", "name": "USPS COLLECTION BOX - BLUE BOX", "address": {"city": "PINE BLUFF", "state": "AR", "street": "2401 E HARDING AVE", "postcode": "71601"}}},
{"geometry": {"type": "Point", "coordinates": [-91.9852363243, 34.2130812315]}, "type": "Feature", "properties": {"collection_times": [{"days": "Mon-Sat", "time": "2:00pm"}, {"days": "Sun", "time": "Closed"}], "id": "7160100036", "name": "USPS COLLECTION BOX - BLUE BOX", "address": {"city": "PINE BLUFF", "state": "AR", "street": "1611 E HARDING AVE", "postcode": "71601"}}},
{"geometry": {"type": "Point", "coordinates": [-92.0172541748, 34.2238652947]}, "type": "Feature", "properties": {"collection_times": [{"days": "Mon-Sat", "time": "1:45pm"}, {"days": "Sun", "time": "Closed"}], "id": "7160100037", "name": "USPS COLLECTION BOX - BLUE BOX", "address": {"city": "PINE BLUFF", "state": "AR", "street": "1419 W 6TH AVE", "postcode": "71601"}}},
{"geometry": {"type": "Point", "coordinates": [-92.013613611, 34.2173560905]}, "type": "Feature", "properties": {"collection_times": [{"days": "Mon-Sat", "time": "1:45pm"}, {"days": "Sun", "time": "Closed"}], "id": "7160100042", "name": "USPS COLLECTION BOX - BLUE BOX", "address": {"city": "PINE BLUFF", "state": "AR", "street": "1210 S CHERRY ST", "postcode": "71601"}}},
{"geometry": {"type": "Point", "coordinates": [-92.0033282028, 34.2281836071]}, "type": "Feature", "properties": {"collection_times": [{"days": "Mon-Sat", "time": "1:30pm"}, {"days": "Sun", "time": "Closed"}], "id": "7160100052", "name": "USPS COLLECTION BOX - BLUE BOX", "address": {"city": "PINE BLUFF", "state": "AR", "street": "211 S MAIN ST", "postcode": "71601"}}},
{"geometry": {"type": "Point", "coordinates": [-92.0033632544, 34.2293389348]}, "type": "Feature", "properties": {"collection_times": [{"days": "Mon-Sat", "time": "1:30pm"}, {"days": "Sun", "time": "Closed"}], "id": "7160100053", "name": "USPS COLLECTION BOX - BLUE BOX", "address": {"city": "PINE BLUFF", "state": "AR", "street": "100 W BARRAQUE ST", "postcode": "71601"}}},
{"geometry": {"type": "Point", "coordinates": [-92.0033642395, 34.2215427571]}, "type": "Feature", "properties": {"collection_times": [{"days": "Mon-Sat", "time": "6:00pm"}, {"days": "Sun", "time": "Closed"}], "id": "7160100055", "name": "USPS COLLECTION BOX - BLUE BOX", "address": {"city": "PINE BLUFF", "state": "AR", "street": "100 E 8TH AVE", "postcode": "71601"}}},
{"geometry": {"type": "Point", "coordinates": [-92.0033642395, 34.2215427571]}, "type": "Feature", "properties": {"collection_times": [{"days": "Mon-Sat", "time": "6:00pm"}, {"days": "Sun", "time": "Closed"}], "id": "7160100056", "name": "USPS COLLECTION BOX - BLUE BOX", "address": {"city": "PINE BLUFF", "state": "AR", "street": "100 E 8TH AVE", "postcode": "71601"}}},
{"geometry": {"type": "Point", "coordinates": [-92.0033642395, 34.2215427571]}, "type": "Feature", "properties": {"collection_times": [{"days": "Mon-Sat", "time": "6:00pm"}, {"days": "Sun", "time": "Closed"}], "id": "7160100057", "name": "USPS COLLECTION BOX - BLUE BOX", "address": {"city": "PINE BLUFF", "state": "AR", "street": "100 E 8TH AVE", "postcode": "71601"}}},
{"geometry": {"type": "Point", "coordinates": [-92.0033642395, 34.2215427571]}, "type": "Feature", "properties": {"collection_times": [{"days": "Mon-Sat", "time": "6:00pm"}, {"days": "Sun", "time": "Closed"}], "id": "7160100058", "name": "USPS COLLECTION BOX - BLUE BOX", "address": {"city": "PINE BLUFF", "state": "AR", "street": "100 E 8TH AVE", "postcode": "71601"}}},
{"geometry": {"type": "Point", "coordinates": [-92.0033642395, 34.2215427571]}, "type": "Feature", "properties": {"collection_times": [{"days": "Mon-Sat", "time": "6:00pm"}, {"days": "Sun", "time": "Closed"}], "id": "7160100059", "name": "USPS COLLECTION BOX - BLUE BOX", "address": {"city": "PINE BLUFF", "state": "AR", "street": "100 E 8TH AVE", "postcode": "71601"}}},
{"geometry": {"type": "Point", "coordinates": [-92.0033642395, 34.2215427571]}, "type": "Feature", "properties": {"collection_times": [{"days": "Mon-Sat", "time": "6:00pm"}, {"days": "Sun", "time": "Closed"}], "id": "7160100060", "name": "USPS COLLECTION BOX - PO LOBBY", "address": {"city": "PINE BLUFF", "state": "AR", "street": "100 E 8TH AVE", "postcode": "71601"}}},
{"geometry": {"type": "Point", "coordinates": [-92.0033642395, 34.2215427571]}, "type": "Feature", "properties": {"collection_times": [{"days": "Mon-Sat", "time": "6:00pm"}, {"days": "Sun", "time": "Closed"}], "id": "7160100065", "name": "USPS COLLECTION BOX - PO LOBBY", "address": {"city": "PINE BLUFF", "state": "AR", "street": "100 E 8TH AVE", "postcode": "71601"}}},
{"geometry": {"type": "Point", "coordinates": [-92.0033642395, 34.2215427571]}, "type": "Feature", "properties": {"collection_times": [{"days": "Mon-Sat", "time": "6:00pm"}, {"days": "Sun", "time": "Closed"}], "id": "7160100071", "name": "USPS COLLECTION BOX - BLUE BOX", "address": {"city": "PINE BLUFF", "state": "AR", "street": "100 E 8TH AVE", "postcode": "71601"}}},
{"geometry": {"type": "Point", "coordinates": [-92.0033642395, 34.2215427571]}, "type": "Feature", "properties": {"collection_times": [{"days": "Mon-Sat", "time": "6:00pm"}, {"days": "Sun", "time": "Closed"}], "id": "7160100072", "name": "USPS COLLECTION BOX - PO LOBBY", "address": {"city": "PINE BLUFF", "state": "AR", "street": "100 E 8TH AVE", "postcode": "71601"}}},
{"geometry": {"type": "Point", "coordinates": [-92.0186596368, 34.2411908377]}, "type": "Feature", "properties": {"collection_times": [{"days": "Mon-Sat", "time": "10:30am"}, {"days": "Sun", "time": "Closed"}], "id": "7160100080", "name": "USPS COLLECTION BOX - BLUE BOX", "address": {"city": "PINE BLUFF", "state": "AR", "street": "1301 L A PREXY DAVIS DR", "postcode": "71601"}}},
{"geometry": {"type": "Point", "coordinates": [-92.0033642395, 34.2215427571]}, "type": "Feature", "properties": {"collection_times": [{"days": "Mon-Sat", "time": "6:00pm"}, {"days": "Sun", "time": "Closed"}], "id": "7160100081", "name": "USPS COLLECTION BOX - PO LOBBY", "address": {"city": "PINE BLUFF", "state": "AR", "street": "100 E 8TH AVE", "postcode": "71601"}}},
{"geometry": {"type": "Point", "coordinates": [-92.0033642395, 34.2215427571]}, "type": "Feature", "properties": {"collection_times": [{"days": "Mon-Sat", "time": "6:00pm"}, {"days": "Sun", "time": "Closed"}], "id": "7160100082", "name": "USPS COLLECTION BOX - PO LOBBY", "address": {"city": "PINE BLUFF", "state": "AR", "street": "100 E 8TH AVE", "postcode": "71601"}}},
{"geometry": {"type": "Point", "coordinates": [-92.0033642395, 34.2215427571]}, "type": "Feature", "properties": {"collection_times": [{"days": "Mon-Sat", "time": "6:00pm"}, {"days": "Sun", "time": "Closed"}], "id": "7160100083", "name": "USPS COLLECTION BOX - PO LOBBY", "address": {"city": "PINE BLUFF", "state": "AR", "street": "100 E 8TH AVE", "postcode": "71601"}}},
{"geometry": {"type": "Point", "coordinates": [-92.0033642395, 34.2215427571]}, "type": "Feature", "properties": {"collection_times": [{"days": "Mon-Sat", "time": "6:00pm"}, {"days": "Sun", "time": "Closed"}], "id": "7160100084", "name": "USPS COLLECTION BOX - PO LOBBY", "address": {"city": "PINE BLUFF", "state": "AR", "street": "100 E 8TH AVE", "postcode": "71601"}}},
{"geometry": {"type": "Point", "coordinates": [-92.0108574051, 34.2248770666]}, "type": "Feature", "properties": {"collection_times": [{"days": "Mon-Fri", "time": "1:00pm"}, {"days": "Sat-Sun", "time": "Closed"}], "id": "7160100085", "name": "USPS COLLECTION BOX - BLUE BOX", "address": {"city": "PINE BLUFF", "state": "AR", "street": "820 W 5TH AVE", "postcode": "71601"}}},
{"geometry": {"type": "Point", "coordinates": [-92.0897598675, 34.2554006892]}, "type": "Feature", "properties": {"collection_times": [{"days": "Mon-Sat", "time": "3:00pm"}, {"days": "Sun", "time": "Closed"}], "id": "7160200001", "name": "USPS COLLECTION BOX - BLUE BOX", "address": {"city": "PINE BLUFF", "state": "AR", "street": "7199 SHERIDAN RD", "postcode": "71602"}}},
{"geometry": {"type": "Point", "coordinates": [-92.0881244303, 34.268753916]}, "type": "Feature", "properties": {"collection_times": [{"days": "Mon-Sat", "time": "3:00pm"}, {"days": "Sun", "time": "Closed"}], "id": "7160200004", "name": "USPS COLLECTION BOX - BLUE BOX", "address": {"city": "PINE BLUFF", "state": "AR", "street": "7907 DOLLARWAY RD", "postcode": "71602"}}},
{"geometry": {"type": "Point", "coordinates": [-92.0775306876, 34.2612204687]}, "type": "Feature", "properties": {"collection_times": [{"days": "Mon-Fri", "time": "3:00pm"}, {"days": "Sat-Sun", "time": "Closed"}], "id": "7160200005", "name": "USPS COLLECTION BOX - BLUE BOX", "address": {"city": "PINE BLUFF", "state": "AR", "street": "5500 JEFFERSON PKWY", "postcode": "71602"}}},
{"geometry": {"type": "Point", "coordinates": [-92.0820210683, 34.3024163212]}, "type": "Feature", "properties": {"collection_times": [{"days": "Mon-Sat", "time": "9:00am"}, {"days": "Sun", "time": "Closed"}], "id": "7160200007", "name": "USPS COLLECTION BOX - BLUE BOX", "address": {"city": "PINE BLUFF", "state": "AR", "street": "16065 SIBERT RD", "postcode": "71602"}}},
{"geometry": {"type": "Point", "coordinates": [-92.0520036398, 34.240374454]}, "type": "Feature", "properties": {"collection_times": [{"days": "Mon-Sat", "time": "3:30pm"}, {"days": "Sun", "time": "Closed"}], "id": "7160200009", "name": "USPS COLLECTION BOX - BLUE BOX", "address": {"city": "PINE BLUFF", "state": "AR", "street": "4720 DOLLARWAY RD", "postcode": "71602"}}},
{"geometry": {"type": "Point", "coordinates": [-92.0831717652, 34.2625432532]}, "type": "Feature", "properties": {"collection_times": [{"days": "Mon-Fri", "time": "5:00pm"}, {"days": "Sat", "time": "3:00pm"}, {"days": "Sun", "time": "Closed"}], "id": "7160200010", "name": "USPS COLLECTION BOX - BLUE BOX", "address": {"city": "PINE BLUFF", "state": "AR", "street": "7402 DOLLARWAY RD", "postcode": "71602"}}},
{"geometry": {"type": "Point", "coordinates": [-92.0831717652, 34.2625432532]}, "type": "Feature", "properties": {"collection_times": [{"days": "Mon-Fri", "time": "5:00pm"}, {"days": "Sat", "time": "3:00pm"}, {"days": "Sun", "time": "Closed"}], "id": "7160200011", "name": "USPS COLLECTION BOX - BLUE BOX", "address": {"city": "PINE BLUFF", "state": "AR", "street": "7402 DOLLARWAY RD", "postcode": "71602"}}},
{"geometry": {"type": "Point", "coordinates": [-92.0831717652, 34.2625432532]}, "type": "Feature", "properties": {"collection_times": [{"days": "Mon-Fri", "time": "5:00pm"}, {"days": "Sat", "time": "3:00pm"}, {"days": "Sun", "time": "Closed"}], "id": "7160200012", "name": "USPS COLLECTION BOX - BLUE BOX", "address": {"city": "PINE BLUFF", "state": "AR", "street": "7402 DOLLARWAY RD", "postcode": "71602"}}},
{"geometry": {"type": "Point", "coordinates": [-92.0831717652, 34.2625432532]}, "type": "Feature", "properties": {"collection_times": [{"days": "Mon-Fri", "time": "5:00pm"}, {"days": "Sat", "time": "3:00pm"}, {"days": "Sun", "time": "Closed"}], "id": "7160200014", "name": "USPS COLLECTION BOX - PO LOBBY", "address": {"city": "PINE BLUFF", "state": "AR", "street": "7402 DOLLARWAY RD", "postcode": "71602"}}},
{"geometry": {"type": "Point", "coordinates": [-92.0831717652, 34.2625432532]}, "type": "Feature", "properties": {"collection_times": [{"days": "Mon-Fri", "time": "5:00pm"}, {"days": "Sat", "time": "3:00pm"}, {"days": "Sun", "time": "Closed"}], "id": "7160200016", "name": "USPS COLLECTION BOX - PO LOBBY", "address": {"city": "PINE BLUFF", "state": "AR", "street": "7402 DOLLARWAY RD", "postcode": "71602"}}},
{"geometry": {"type": "Point", "coordinates": [-92.0200993126, 34.1891139494]}, "type": "Feature", "properties": {"collection_times": [{"days": "Mon-Fri", "time": "10:30am"}, {"days": "Sat", "time": "10:00am"}, {"days": "Sun", "time": "Closed"}], "id": "7160300008", "name": "USPS COLLECTION BOX - BLUE BOX", "address": {"city": "PINE BLUFF", "state": "AR", "street": "1801 W 40TH AVE", "postcode": "71603"}}},
{"geometry": {"type": "Point", "coordinates": [-92.0187002873, 34.1864528392]}, "type": "Feature", "properties": {"collection_times": [{"days": "Mon-Fri", "time": "10:30am"}, {"days": "Sat", "time": "10:00am"}, {"days": "Sun", "time": "Closed"}], "id": "7160300009", "name": "USPS COLLECTION BOX - BLUE BOX", "address": {"city": "PINE BLUFF", "state": "AR", "street": "1718 W 42ND AVE", "postcode": "71603"}}},
{"geometry": {"type": "Point", "coordinates": [-92.0289322588, 34.2004317142]}, "type": "Feature", "properties": {"collection_times": [{"days": "Mon-Fri", "time": "5:15pm"}, {"days": "Sat", "time": "3:30pm"}, {"days": "Sun", "time": "Closed"}], "id": "7160300013", "name": "USPS COLLECTION BOX - BLUE BOX", "address": {"city": "PINE BLUFF", "state": "AR", "street": "2901 S FIR ST", "postcode": "71603"}}},
{"geometry": {"type": "Point", "coordinates": [-92.0721765421, 34.1900202612]}, "type": "Feature", "properties": {"collection_times": [{"days": "Mon-Fri", "time": "5:00pm"}, {"days": "Sat", "time": "2:45pm"}, {"days": "Sun", "time": "Closed"}], "id": "7160300014", "name": "USPS COLLECTION BOX - BLUE BOX", "address": {"city": "PINE BLUFF", "state": "AR", "street": "5901 SULPHUR SPRINGS RD", "postcode": "71603"}}},
{"geometry": {"type": "Point", "coordinates": [-92.0541280286, 34.1971381296]}, "type": "Feature", "properties": {"collection_times": [{"days": "Mon-Sat", "time": "2:45pm"}, {"days": "Sun", "time": "Closed"}], "id": "7160300015", "name": "USPS COLLECTION BOX - BLUE BOX", "address": {"city": "PINE BLUFF", "state": "AR", "street": "3801 CAMDEN RD", "postcode": "71603"}}},
{"geometry": {"type": "Point", "coordinates": [-92.0181884702, 34.1890166706]}, "type": "Feature", "properties": {"collection_times": [{"days": "Mon-Sat", "time": "10:30am"}, {"days": "Sun", "time": "Closed"}], "id": "7160300016", "name": "USPS COLLECTION BOX - BLUE BOX", "address": {"city": "PINE BLUFF", "state": "AR", "street": "1600 W 40TH AVE", "postcode": "71603"}}},
{"geometry": {"type": "Point", "coordinates": [-92.0289322588, 34.2004317142]}, "type": "Feature", "properties": {"collection_times": [{"days": "Mon-Fri", "time": "5:15pm"}, {"days": "Sat", "time": "3:30pm"}, {"days": "Sun", "time": "Closed"}], "id": "7160300017", "name": "USPS COLLECTION BOX - BLUE BOX", "address": {"city": "PINE BLUFF", "state": "AR", "street": "2901 S FIR ST", "postcode": "71603"}}},
{"geometry": {"type": "Point", "coordinates": [-92.0289322588, 34.2004317142]}, "type": "Feature", "properties": {"collection_times": [{"days": "Mon-Fri", "time": "5:15pm"}, {"days": "Sat", "time": "3:30pm"}, {"days": "Sun", "time": "Closed"}], "id": "7160300018", "name": "USPS COLLECTION BOX - BLUE BOX", "address": {"city": "PINE BLUFF", "state": "AR", "street": "2901 S FIR ST", "postcode": "71603"}}},
{"geometry": {"type": "Point", "coordinates": [-92.0289322588, 34.2004317142]}, "type": "Feature", "properties": {"collection_times": [{"days": "Mon-Fri", "time": "5:15pm"}, {"days": "Sat", "time": "3:30pm"}, {"days": "Sun", "time": "Closed"}], "id": "7160300019", "name": "USPS COLLECTION BOX - BLUE BOX", "address": {"city": "PINE BLUFF", "state": "AR", "street": "2901 S FIR ST", "postcode": "71603"}}},
{"geometry": {"type": "Point", "coordinates": [-92.0289830078, 34.2005611519]}, "type": "Feature", "properties": {"collection_times": [{"days": "Mon-Fri", "time": "5:00pm"}, {"days": "Sat", "time": "3:30pm"}, {"days": "Sun", "time": "Closed"}], "id": "7160300020", "name": "USPS COLLECTION BOX - PO LOBBY", "address": {"city": "PINE BLUFF", "state": "AR", "street": "2901 S FIR ST", "postcode": "71603"}}},
{"geometry": {"type": "Point", "coordinates": [-92.0069560475, 34.2012524136]}, "type": "Feature", "properties": {"collection_times": [{"days": "Mon-Sat", "time": "2:15pm"}, {"days": "Sun", "time": "Closed"}], "id": "7160300021", "name": "USPS COLLECTION BOX - BLUE BOX", "address": {"city": "PINE BLUFF", "state": "AR", "street": "2801 S OLIVE ST", "postcode": "71603"}}},
{"geometry": {"type": "Point", "coordinates": [-92.0289830078, 34.2005611519]}, "type": "Feature", "properties": {"collection_times": [{"days": "Mon-Fri", "time": "5:00pm"}, {"days": "Sat", "time": "3:30pm"}, {"days": "Sun", "time": "Closed"}], "id": "7160300024", "name": "USPS COLLECTION BOX - PO LOBBY", "address": {"city": "PINE BLUFF", "state": "AR", "street": "2901 S FIR ST", "postcode": "71603"}}},
{"geometry": {"type": "Point", "coordinates": [-92.0541280286, 34.1971381296]}, "type": "Feature", "properties": {"collection_times": [{"days": "Mon-Sat", "time": "2:45pm"}, {"days": "Sun", "time": "Closed"}], "id": "7160300025", "name": "USPS COLLECTION BOX - BLUE BOX", "address": {"city": "PINE BLUFF", "state": "AR", "street": "3801 CAMDEN RD", "postcode": "71603"}}},
{"geometry": {"type": "Point", "coordinates": [-91.2047153107, 33.6061179139]}, "type": "Feature", "properties": {"collection_times": [{"days": "Mon-Fri", "time": "3:15pm"}, {"days": "Sat", "time": "10:00am"}, {"days": "Sun", "time": "Closed"}], "id": "7163000001", "name": "USPS COLLECTION BOX - BLUE BOX", "address": {"city": "ARKANSAS CITY", "state": "AR", "street": "201 SPRAGUE ST", "postcode": "71630"}}},
{"geometry": {"type": "Point", "coordinates": [-91.2047153107, 33.6061179139]}, "type": "Feature", "properties": {"collection_times": [{"days": "Mon-Fri", "time": "11:30am"}, {"days": "Sat", "time": "10:00am"}, {"days": "Sun", "time": "Closed"}], "id": "7163000002", "name": "USPS COLLECTION BOX - PO LOBBY", "address": {"city": "ARKANSAS CITY", "state": "AR", "street": "201 SPRAGUE ST", "postcode": "71630"}}},
{"geometry": {"type": "Point", "coordinates": [-92.2601795121, 33.5476738286]}, "type": "Feature", "properties": {"collection_times": [{"days": "Mon-Fri", "time": "3:45pm"}, {"days": "Sat", "time": "10:15am"}, {"days": "Sun", "time": "Closed"}], "id": "7163100000", "name": "USPS COLLECTION BOX - BLUE BOX", "address": {"city": "BANKS", "state": "AR", "street": "205 E BUCK FEVER HWY", "postcode": "71631"}}},
{"geometry": {"type": "Point", "coordinates": [-92.2660849631, 33.5781802694]}, "type": "Feature", "properties": {"collection_times": [{"days": "Mon-Fri", "time": "11:00am"}, {"days": "Sat", "time": "10:15am"}, {"days": "Sun", "time": "Closed"}], "id": "7163100001", "name": "USPS COLLECTION BOX - PO LOBBY", "address": {"city": "BANKS", "state": "AR", "street": "205 E BUCK FEVER HWY", "postcode": "71631"}}},
{"geometry": {"type": "Point", "coordinates": [-92.2660849631, 33.5781802694]}, "type": "Feature", "properties": {"collection_times": [{"days": "Mon-Fri", "time": "11:00am"}, {"days": "Sat", "time": "10:15am"}, {"days": "Sun", "time": "Closed"}], "id": "7163100002", "name": "USPS COLLECTION BOX - PO LOBBY", "address": {"city": "BANKS", "state": "AR", "street": "205 E BUCK FEVER HWY", "postcode": "71631"}}},
{"geometry": {"type": "Point", "coordinates": [-91.9615764793, 33.1322989162]}, "type": "Feature", "properties": {"collection_times": [{"days": "Mon-Sat", "time": "4:30pm"}, {"days": "Sun", "time": "Closed"}], "id": "7163500002", "name": "USPS COLLECTION BOX - BLUE BOX", "address": {"city": "CROSSETT", "state": "AR", "street": "312 MAIN ST", "postcode": "71635"}}},
{"geometry": {"type": "Point", "coordinates": [-91.9615764793, 33.1322989162]}, "type": "Feature", "properties": {"collection_times": [{"days": "Mon-Sat", "time": "4:30pm"}, {"days": "Sun", "time": "Closed"}], "id": "7163500004", "name": "USPS COLLECTION BOX - BLUE BOX", "address": {"city": "CROSSETT", "state": "AR", "street": "312 MAIN ST", "postcode": "71635"}}},
{"geometry": {"type": "Point", "coordinates": [-91.9615764793, 33.1322989162]}, "type": "Feature", "properties": {"collection_times": [{"days": "Mon-Sat", "time": "4:30pm"}, {"days": "Sun", "time": "Closed"}], "id": "7163500006", "name": "USPS COLLECTION BOX - PO LOBBY", "address": {"city": "CROSSETT", "state": "AR", "street": "312 MAIN ST", "postcode": "71635"}}},
{"geometry": {"type": "Point", "coordinates": [-91.9615764793, 33.1322989162]}, "type": "Feature", "properties": {"collection_times": [{"days": "Mon-Sat", "time": "4:30pm"}, {"days": "Sun", "time": "Closed"}], "id": "7163500007", "name": "USPS COLLECTION BOX - PO LOBBY", "address": {"city": "CROSSETT", "state": "AR", "street": "312 MAIN ST", "postcode": "71635"}}},
{"geometry": {"type": "Point", "coordinates": [-91.4346702142, 33.5261967173]}, "type": "Feature", "properties": {"collection_times": [{"days": "Mon-Fri", "time": "4:15pm"}, {"days": "Sat", "time": "12:00pm"}, {"days": "Sun", "time": "Closed"}], "id": "7163800006", "name": "USPS COLLECTION BOX - PO LOBBY", "address": {"city": "DERMOTT", "state": "AR", "street": "111 S FREEMAN ST", "postcode": "71638"}}},
{"geometry": {"type": "Point", "coordinates": [-91.4346702142, 33.5261967173]}, "type": "Feature", "properties": {"collection_times": [{"days": "Mon-Fri", "time": "4:15pm"}, {"days": "Sat", "time": "12:00pm"}, {"days": "Sun", "time": "Closed"}], "id": "7163800010", "name": "USPS COLLECTION BOX - BLUE BOX", "address": {"city": "DERMOTT", "state": "AR", "street": "111 S FREEMAN ST", "postcode": "71638"}}},
{"geometry": {"type": "Point", "coordinates": [-91.4346702142, 33.5261967173]}, "type": "Feature", "properties": {"collection_times": [{"days": "Mon-Fri", "time": "4:15pm"}, {"days": "Sat", "time": "12:00pm"}, {"days": "Sun", "time": "Closed"}], "id": "7163800013", "name": "USPS COLLECTION BOX - PO LOBBY", "address": {"city": "DERMOTT", "state": "AR", "street": "111 S FREEMAN ST", "postcode": "71638"}}},
{"geometry": {"type": "Point", "coordinates": [-91.4836971322, 33.8842423574]}, "type": "Feature", "properties": {"collection_times": [{"days": "Mon-Sat", "time": "2:00pm"}, {"days": "Sun", "time": "Closed"}], "id": "7163900009", "name": "USPS COLLECTION BOX - BLUE BOX", "address": {"city": "DUMAS", "state": "AR", "street": "358 HIGHWAY 65 S", "postcode": "71639"}}},
{"geometry": {"type": "Point", "coordinates": [-91.493911349, 33.8916798009]}, "type": "Feature", "properties": {"collection_times": [{"days": "Mon-Fri", "time": "4:30pm"}, {"days": "Sat", "time": "11:30am"}, {"days": "Sun", "time": "Closed"}], "id": "7163900013", "name": "USPS COLLECTION BOX - PO LOBBY", "address": {"city": "DUMAS", "state": "AR", "street": "320 N MAIN ST", "postcode": "71639"}}},
{"geometry": {"type": "Point", "coordinates": [-91.493911349, 33.8916798009]}, "type": "Feature", "properties": {"collection_times": [{"days": "Mon-Fri", "time": "4:30pm"}, {"days": "Sat", "time": "11:30am"}, {"days": "Sun", "time": "Closed"}], "id": "7163900015", "name": "USPS COLLECTION BOX - BLUE BOX", "address": {"city": "DUMAS", "state": "AR", "street": "320 N MAIN ST", "postcode": "71639"}}},
{"geometry": {"type": "Point", "coordinates": [-91.493911349, 33.8916798009]}, "type": "Feature", "properties": {"collection_times": [{"days": "Mon-Fri", "time": "4:30pm"}, {"days": "Sat", "time": "11:30am"}, {"days": "Sun", "time": "Closed"}], "id": "7163900020", "name": "USPS COLLECTION BOX - PO LOBBY", "address": {"city": "DUMAS", "state": "AR", "street": "320 N MAIN ST", "postcode": "71639"}}},
{"geometry": {"type": "Point", "coordinates": [-91.493911349, 33.8916798009]}, "type": "Feature", "properties": {"collection_times": [{"days": "Mon-Fri", "time": "4:30pm"}, {"days": "Sat", "time": "11:30am"}, {"days": "Sun", "time": "Closed"}], "id": "7163900021", "name": "USPS COLLECTION BOX - PO LOBBY", "address": {"city": "DUMAS", "state": "AR", "street": "320 N MAIN ST", "postcode": "71639"}}},
{"geometry": {"type": "Point", "coordinates": [-91.2630632125, 33.1103053689]}, "type": "Feature", "properties": {"collection_times": [{"days": "Mon-Fri", "time": "4:00pm"}, {"days": "Sat", "time": "10:00am"}, {"days": "Sun", "time": "Closed"}], "id": "7164000002", "name": "USPS COLLECTION BOX - BLUE BOX", "address": {"city": "EUDORA", "state": "AR", "street": "112 N ARCHER ST", "postcode": "71640"}}},
{"geometry": {"type": "Point", "coordinates": [-91.2630632125, 33.1103053689]}, "type": "Feature", "properties": {"collection_times": [{"days": "Mon-Fri", "time": "4:00pm"}, {"days": "Sat", "time": "10:00am"}, {"days": "Sun", "time": "Closed"}], "id": "7164000003", "name": "USPS COLLECTION BOX - PO LOBBY", "address": {"city": "EUDORA", "state": "AR", "street": "112 N ARCHER ST", "postcode": "71640"}}},
{"geometry": {"type": "Point", "coordinates": [-91.2630632125, 33.1103053689]}, "type": "Feature", "properties": {"collection_times": [{"days": "Mon-Fri", "time": "4:00pm"}, {"days": "Sat", "time": "10:00am"}, {"days": "Sun", "time": "Closed"}], "id": "7164000004", "name": "USPS COLLECTION BOX - PO LOBBY", "address": {"city": "EUDORA", "state": "AR", "street": "112 N ARCHER ST", "postcode": "71640"}}},
{"geometry": {"type": "Point", "coordinates": [-91.8511486506, 33.3579254516]}, "type": "Feature", "properties": {"collection_times": [{"days": "Mon-Fri", "time": "3:45pm"}, {"days": "Sat", "time": "1:00pm"}, {"days": "Sun", "time": "Closed"}], "id": "7164200000", "name": "USPS COLLECTION BOX - BLUE BOX", "address": {"city": "FOUNTAIN HILL", "state": "AR", "street": "209 PINE ST", "postcode": "71642"}}},
{"geometry": {"type": "Point", "coordinates": [-91.8511486506, 33.3579254516]}, "type": "Feature", "properties": {"collection_times": [{"days": "Mon-Fri", "time": "3:45pm"}, {"days": "Sat", "time": "1:00pm"}, {"days": "Sun", "time": "Closed"}], "id": "7164200001", "name": "USPS COLLECTION BOX - PO LOBBY", "address": {"city": "FOUNTAIN HILL", "state": "AR", "street": "209 PINE ST", "postcode": "71642"}}},
{"geometry": {"type": "Point", "coordinates": [-91.5364165629, 34.0310879934]}, "type": "Feature", "properties": {"collection_times": [{"days": "Mon-Fri", "time": "4:15pm"}, {"days": "Sat", "time": "11:45am"}, {"days": "Sun", "time": "Closed"}], "id": "7164300001", "name": "USPS COLLECTION BOX - BLUE BOX", "address": {"city": "GOULD", "state": "AR", "street": "305 W JACKSON ST", "postcode": "71643"}}},
{"geometry": {"type": "Point", "coordinates": [-91.5364165627, 34.0310879934]}, "type": "Feature", "properties": {"collection_times": [{"days": "Mon-Fri", "time": "11:30am"}, {"days": "Sat", "time": "11:45am"}, {"days": "Sun", "time": "Closed"}], "id": "7164300002", "name": "USPS COLLECTION BOX - PO LOBBY", "address": {"city": "GOULD", "state": "AR", "street": "305 W JACKSON ST", "postcode": "71643"}}},
{"geometry": {"type": "Point", "coordinates": [-91.7001026785, 34.0802464538]}, "type": "Feature", "properties": {"collection_times": [{"days": "Mon-Fri", "time": "3:40pm"}, {"days": "Sat", "time": "10:30am"}, {"days": "Sun", "time": "Closed"}], "id": "7164400001", "name": "USPS COLLECTION BOX - BLUE BOX", "address": {"city": "GRADY", "state": "AR", "street": "118 HIGHWAY 65 S", "postcode": "71644"}}},
{"geometry": {"type": "Point", "coordinates": [-91.7001026785, 34.0802464538]}, "type": "Feature", "properties": {"collection_times": [{"days": "Mon-Fri", "time": "3:40pm"}, {"days": "Sat", "time": "10:30am"}, {"days": "Sun", "time": "Closed"}], "id": "7164400002", "name": "USPS COLLECTION BOX - PO LOBBY", "address": {"city": "GRADY", "state": "AR", "street": "118 HIGHWAY 65 S", "postcode": "71644"}}},
{"geometry": {"type": "Point", "coordinates": [-91.7001026785, 34.0802464538]}, "type": "Feature", "properties": {"collection_times": [{"days": "Mon-Fri", "time": "3:40pm"}, {"days": "Sat", "time": "10:30am"}, {"days": "Sun", "time": "Closed"}], "id": "7164400003", "name": "USPS COLLECTION BOX - PO LOBBY", "address": {"city": "GRADY", "state": "AR", "street": "118 HIGHWAY 65 S", "postcode": "71644"}}},
{"geometry": {"type": "Point", "coordinates": [-91.7960039213, 33.2264506134]}, "type": "Feature", "properties": {"collection_times": [{"days": "Mon-Fri", "time": "4:30pm"}, {"days": "Sat", "time": "12:00pm"}, {"days": "Sun", "time": "Closed"}], "id": "7164600001", "name": "USPS COLLECTION BOX - BLUE BOX", "address": {"city": "HAMBURG", "state": "AR", "street": "201 N OAK ST", "postcode": "71646"}}},
{"geometry": {"type": "Point", "coordinates": [-91.7966665606, 33.2265005602]}, "type": "Feature", "properties": {"collection_times": [{"days": "Mon-Fri", "time": "4:30pm"}, {"days": "Sat", "time": "12:00pm"}, {"days": "Sun", "time": "Closed"}], "id": "7164600003", "name": "USPS COLLECTION BOX - PO LOBBY", "address": {"city": "HAMBURG", "state": "AR", "street": "203 E ADAMS ST", "postcode": "71646"}}},
{"geometry": {"type": "Point", "coordinates": [-91.7960039213, 33.2264506134]}, "type": "Feature", "properties": {"collection_times": [{"days": "Mon-Fri", "time": "4:30pm"}, {"days": "Sat", "time": "12:00pm"}, {"days": "Sun", "time": "Closed"}], "id": "7164600004", "name": "USPS COLLECTION BOX - BLUE BOX", "address": {"city": "HAMBURG", "state": "AR", "street": "201 N OAK ST", "postcode": "71646"}}},
{"geometry": {"type": "Point", "coordinates": [-91.7966665606, 33.2265005602]}, "type": "Feature", "properties": {"collection_times": [{"days": "Mon-Fri", "time": "4:30pm"}, {"days": "Sat", "time": "12:00pm"}, {"days": "Sun", "time": "Closed"}], "id": "7164600006", "name": "USPS COLLECTION BOX - PO LOBBY", "address": {"city": "HAMBURG", "state": "AR", "street": "203 E ADAMS ST", "postcode": "71646"}}},
{"geometry": {"type": "Point", "coordinates": [-91.7966665606, 33.2265005602]}, "type": "Feature", "properties": {"collection_times": [{"days": "Mon-Fri", "time": "4:30pm"}, {"days": "Sat", "time": "12:00pm"}, {"days": "Sun", "time": "Closed"}], "id": "7164600007", "name": "USPS COLLECTION BOX - PO LOBBY", "address": {"city": "HAMBURG", "state": "AR", "street": "203 E ADAMS ST", "postcode": "71646"}}},
{"geometry": {"type": "Point", "coordinates": [-91.7966665606, 33.2265005602]}, "type": "Feature", "properties": {"collection_times": [{"days": "Mon-Fri", "time": "4:30pm"}, {"days": "Sat", "time": "12:00pm"}, {"days": "Sun", "time": "Closed"}], "id": "7164600008", "name": "USPS COLLECTION BOX - PO LOBBY", "address": {"city": "HAMBURG", "state": "AR", "street": "203 E ADAMS ST", "postcode": "71646"}}},
{"geometry": {"type": "Point", "coordinates": [-92.1743790131, 33.4494149105]}, "type": "Feature", "properties": {"collection_times": [{"days": "Mon-Fri", "time": "1:00pm"}, {"days": "Sat", "time": "10:00am"}, {"days": "Sun", "time": "Closed"}], "id": "7164700002", "name": "USPS COLLECTION BOX - PO LOBBY", "address": {"city": "HERMITAGE", "state": "AR", "street": "300 MAIN ST", "postcode": "71647"}}},
{"geometry": {"type": "Point", "coordinates": [-92.1743790131, 33.4494149105]}, "type": "Feature", "properties": {"collection_times": [{"days": "Mon-Fri", "time": "1:00pm"}, {"days": "Sat", "time": "10:00am"}, {"days": "Sun", "time": "Closed"}], "id": "7164700003", "name": "USPS COLLECTION BOX - PO LOBBY", "address": {"city": "HERMITAGE", "state": "AR", "street": "300 MAIN ST", "postcode": "71647"}}},
{"geometry": {"type": "Point", "coordinates": [-92.3247387929, 33.417103528]}, "type": "Feature", "properties": {"collection_times": [{"days": "Mon-Sat", "time": "2:30pm"}, {"days": "Sun", "time": "Closed"}], "id": "7165100000", "name": "USPS COLLECTION BOX - BLUE BOX", "address": {"city": "JERSEY", "state": "AR", "street": "198 BRADLEY ROAD 1 S", "postcode": "71651"}}},
{"geometry": {"type": "Point", "coordinates": [-92.3247387929, 33.417103528]}, "type": "Feature", "properties": {"collection_times": [{"days": "Mon-Sat", "time": "2:30pm"}, {"days": "Sun", "time": "Closed"}], "id": "7165100001", "name": "USPS COLLECTION BOX - PO LOBBY", "address": {"city": "JERSEY", "state": "AR", "street": "198 BRADLEY ROAD 1 S", "postcode": "71651"}}},
{"geometry": {"type": "Point", "coordinates": [-92.2979238874, 33.8591154974]}, "type": "Feature", "properties": {"collection_times": [{"days": "Mon-Fri", "time": "5:00pm"}, {"days": "Sat", "time": "11:00am"}, {"days": "Sun", "time": "Closed"}], "id": "7165200001", "name": "USPS COLLECTION BOX - BLUE BOX", "address": {"city": "KINGSLAND", "state": "AR", "street": "80 FIRST ST", "postcode": "71652"}}},
{"geometry": {"type": "Point", "coordinates": [-92.2979238874, 33.8591154974]}, "type": "Feature", "properties": {"collection_times": [{"days": "Mon-Fri", "time": "10:30am"}, {"days": "Sat", "time": "11:00am"}, {"days": "Sun", "time": "Closed"}], "id": "7165200002", "name": "USPS COLLECTION BOX - PO LOBBY", "address": {"city": "KINGSLAND", "state": "AR", "street": "80 FIRST ST", "postcode": "71652"}}},
{"geometry": {"type": "Point", "coordinates": [-92.2979238874, 33.8591154974]}, "type": "Feature", "properties": {"collection_times": [{"days": "Mon-Fri", "time": "10:30am"}, {"days": "Sat", "time": "11:00am"}, {"days": "Sun", "time": "Closed"}], "id": "7165200003", "name": "USPS COLLECTION BOX - PO LOBBY", "address": {"city": "KINGSLAND", "state": "AR", "street": "80 FIRST ST", "postcode": "71652"}}},
{"geometry": {"type": "Point", "coordinates": [-91.2843717352, 33.3304136805]}, "type": "Feature", "properties": {"collection_times": [{"days": "Mon-Fri", "time": "4:15pm"}, {"days": "Sat", "time": "10:30am"}, {"days": "Sun", "time": "Closed"}], "id": "7165300001", "name": "USPS COLLECTION BOX - BLUE BOX", "address": {"city": "LAKE VILLAGE", "state": "AR", "street": "205 S CHICOT ST", "postcode": "71653"}}},
{"geometry": {"type": "Point", "coordinates": [-91.2843717352, 33.3304136805]}, "type": "Feature", "properties": {"collection_times": [{"days": "Mon-Fri", "time": "4:15pm"}, {"days": "Sat", "time": "10:30am"}, {"days": "Sun", "time": "Closed"}], "id": "7165300002", "name": "USPS COLLECTION BOX - BLUE BOX", "address": {"city": "LAKE VILLAGE", "state": "AR", "street": "205 S CHICOT ST", "postcode": "71653"}}},
{"geometry": {"type": "Point", "coordinates": [-91.2834116299, 33.3294759959]}, "type": "Feature", "properties": {"collection_times": [{"days": "Mon-Fri", "time": "4:15pm"}, {"days": "Sat", "time": "10:30am"}, {"days": "Sun", "time": "Closed"}], "id": "7165300009", "name": "USPS COLLECTION BOX - PO LOBBY", "address": {"city": "LAKE VILLAGE", "state": "AR", "street": "206 S COKLEY ST", "postcode": "71653"}}},
{"geometry": {"type": "Point", "coordinates": [-91.2834116299, 33.3294759959]}, "type": "Feature", "properties": {"collection_times": [{"days": "Mon-Fri", "time": "4:15pm"}, {"days": "Sat", "time": "10:30am"}, {"days": "Sun", "time": "Closed"}], "id": "7165300010", "name": "USPS COLLECTION BOX - PO LOBBY", "address": {"city": "LAKE VILLAGE", "state": "AR", "street": "206 S COKLEY ST", "postcode": "71653"}}},
{"geometry": {"type": "Point", "coordinates": [-91.2834116299, 33.3294759959]}, "type": "Feature", "properties": {"collection_times": [{"days": "Mon-Fri", "time": "4:15pm"}, {"days": "Sat", "time": "10:30am"}, {"days": "Sun", "time": "Closed"}], "id": "7165300011", "name": "USPS COLLECTION BOX - PO LOBBY", "address": {"city": "LAKE VILLAGE", "state": "AR", "street": "206 S COKLEY ST", "postcode": "71653"}}},
{"geometry": {"type": "Point", "coordinates": [-91.3966820967, 33.630283687]}, "type": "Feature", "properties": {"collection_times": [{"days": "Mon-Fri", "time": "4:30pm"}, {"days": "Sat", "time": "9:30am"}, {"days": "Sun", "time": "Closed"}], "id": "7165400001", "name": "USPS COLLECTION BOX - BLUE BOX", "address": {"city": "MCGEHEE", "state": "AR", "street": "104 S 1ST ST", "postcode": "71654"}}},
{"geometry": {"type": "Point", "coordinates": [-91.3966820967, 33.630283687]}, "type": "Feature", "properties": {"collection_times": [{"days": "Mon-Fri", "time": "4:30pm"}, {"days": "Sat", "time": "9:30am"}, {"days": "Sun", "time": "Closed"}], "id": "7165400008", "name": "USPS COLLECTION BOX - PO LOBBY", "address": {"city": "MCGEHEE", "state": "AR", "street": "104 S 1ST ST", "postcode": "71654"}}},
{"geometry": {"type": "Point", "coordinates": [-91.3966820967, 33.630283687]}, "type": "Feature", "properties": {"collection_times": [{"days": "Mon-Fri", "time": "4:30pm"}, {"days": "Sat", "time": "9:30am"}, {"days": "Sun", "time": "Closed"}], "id": "7165400009", "name": "USPS COLLECTION BOX - BLUE BOX", "address": {"city": "MCGEHEE", "state": "AR", "street": "104 S 1ST ST", "postcode": "71654"}}},
{"geometry": {"type": "Point", "coordinates": [-91.3966820967, 33.630283687]}, "type": "Feature", "properties": {"collection_times": [{"days": "Mon-Fri", "time": "4:30pm"}, {"days": "Sat", "time": "9:30am"}, {"days": "Sun", "time": "Closed"}], "id": "7165400010", "name": "USPS COLLECTION BOX - PO LOBBY", "address": {"city": "MCGEHEE", "state": "AR", "street": "104 S 1ST ST", "postcode": "71654"}}},
{"geometry": {"type": "Point", "coordinates": [-91.3966820967, 33.630283687]}, "type": "Feature", "properties": {"collection_times": [{"days": "Mon-Fri", "time": "4:30pm"}, {"days": "Sat", "time": "9:30am"}, {"days": "Sun", "time": "Closed"}], "id": "7165400011", "name": "USPS COLLECTION BOX - PO LOBBY", "address": {"city": "MCGEHEE", "state": "AR", "street": "104 S 1ST ST", "postcode": "71654"}}},
{"geometry": {"type": "Point", "coordinates": [-91.3966820967, 33.630283687]}, "type": "Feature", "properties": {"collection_times": [{"days": "Mon-Fri", "time": "4:30pm"}, {"days": "Sat", "time": "9:30am"}, {"days": "Sun", "time": "Closed"}], "id": "7165400012", "name": "USPS COLLECTION BOX - PO LOBBY", "address": {"city": "MCGEHEE", "state": "AR", "street": "104 S 1ST ST", "postcode": "71654"}}},
{"geometry": {"type": "Point", "coordinates": [-91.79521136, 33.629815964]}, "type": "Feature", "properties": {"collection_times": [{"days": "Mon-Sat", "time": "2:00pm"}, {"days": "Sun", "time": "Closed"}], "id": "7165500001", "name": "USPS COLLECTION BOX - BLUE BOX", "address": {"city": "MONTICELLO", "state": "AR", "street": "443 W MCCLOY ST", "postcode": "71655"}}},
{"geometry": {"type": "Point", "coordinates": [-91.7901211583, 33.636861246]}, "type": "Feature", "properties": {"collection_times": [{"days": "Mon-Sat", "time": "10:00am"}, {"days": "Sun", "time": "Closed"}], "id": "7165500003", "name": "USPS COLLECTION BOX - BLUE BOX", "address": {"city": "MONTICELLO", "state": "AR", "street": "100 W JEFFERSON AVE", "postcode": "71655"}}},
{"geometry": {"type": "Point", "coordinates": [-91.7910153812, 33.6265319012]}, "type": "Feature", "properties": {"collection_times": [{"days": "Mon-Sat", "time": "2:00pm"}, {"days": "Sun", "time": "Closed"}], "id": "7165500004", "name": "USPS COLLECTION BOX - BLUE BOX", "address": {"city": "MONTICELLO", "state": "AR", "street": "210 S MAIN ST", "postcode": "71655"}}},
{"geometry": {"type": "Point", "coordinates": [-91.8129223805, 33.5886065859]}, "type": "Feature", "properties": {"collection_times": [{"days": "Mon-Fri", "time": "2:00pm"}, {"days": "Sat-Sun", "time": "Closed"}], "id": "7165500005", "name": "USPS COLLECTION BOX - BLUE BOX", "address": {"city": "MONTICELLO", "state": "AR", "street": "580 UNIVERSITY DR", "postcode": "71655"}}},
{"geometry": {"type": "Point", "coordinates": [-91.8004639271, 33.6094417504]}, "type": "Feature", "properties": {"collection_times": [{"days": "Mon-Sat", "time": "10:00am"}, {"days": "Sun", "time": "Closed"}], "id": "7165500008", "name": "USPS COLLECTION BOX - BLUE BOX", "address": {"city": "MONTICELLO", "state": "AR", "street": "430 HIGHWAY 425 S", "postcode": "71655"}}},
{"geometry": {"type": "Point", "coordinates": [-91.7857679037, 33.6141282434]}, "type": "Feature", "properties": {"collection_times": [{"days": "Mon-Sat", "time": "11:00am"}, {"days": "Sun", "time": "Closed"}], "id": "7165500009", "name": "USPS COLLECTION BOX - BLUE BOX", "address": {"city": "MONTICELLO", "state": "AR", "street": "839 S GABBERT ST", "postcode": "71655"}}},
{"geometry": {"type": "Point", "coordinates": [-91.7908228534, 33.6284753244]}, "type": "Feature", "properties": {"collection_times": [{"days": "Mon-Sat", "time": "2:00pm"}, {"days": "Sun", "time": "Closed"}], "id": "7165500010", "name": "USPS COLLECTION BOX - BLUE BOX", "address": {"city": "MONTICELLO", "state": "AR", "street": "118 N MAIN ST", "postcode": "71655"}}},
{"geometry": {"type": "Point", "coordinates": [-91.7839702981, 33.6295678789]}, "type": "Feature", "properties": {"collection_times": [{"days": "Mon-Sat", "time": "9:00am"}, {"days": "Sun", "time": "Closed"}], "id": "7165500011", "name": "USPS COLLECTION BOX - BLUE BOX", "address": {"city": "MONTICELLO", "state": "AR", "street": "115 N CONLEY ST", "postcode": "71655"}}},
{"geometry": {"type": "Point", "coordinates": [-91.8068487554, 33.6228075205]}, "type": "Feature", "properties": {"collection_times": [{"days": "Mon-Sat", "time": "10:00am"}, {"days": "Sun", "time": "Closed"}], "id": "7165500014", "name": "USPS COLLECTION BOX - BLUE BOX", "address": {"city": "MONTICELLO", "state": "AR", "street": "570 W CONRAD AVE", "postcode": "71655"}}},
{"geometry": {"type": "Point", "coordinates": [-91.8004639271, 33.6094417504]}, "type": "Feature", "properties": {"collection_times": [{"days": "Mon-Sat", "time": "10:00am"}, {"days": "Sun", "time": "Closed"}], "id": "7165500018", "name": "USPS COLLECTION BOX - BLUE BOX", "address": {"city": "MONTICELLO", "state": "AR", "street": "430 HIGHWAY 425 S", "postcode": "71655"}}},
{"geometry": {"type": "Point", "coordinates": [-91.79521136, 33.629815964]}, "type": "Feature", "properties": {"collection_times": [{"days": "Mon-Sat", "time": "2:00pm"}, {"days": "Sun", "time": "Closed"}], "id": "7165500020", "name": "USPS COLLECTION BOX - BLUE BOX", "address": {"city": "MONTICELLO", "state": "AR", "street": "443 W MCCLOY ST", "postcode": "71655"}}},
{"geometry": {"type": "Point", "coordinates": [-91.8014580704, 33.648318447]}, "type": "Feature", "properties": {"collection_times": [{"days": "Mon-Fri", "time": "5:00pm"}, {"days": "Sat", "time": "3:00pm"}, {"days": "Sun", "time": "Closed"}], "id": "7165500023", "name": "USPS COLLECTION BOX - PO LOBBY", "address": {"city": "MONTICELLO", "state": "AR", "street": "1492 N HYATT ST", "postcode": "71655"}}},
{"geometry": {"type": "Point", "coordinates": [-91.8014580704, 33.648318447]}, "type": "Feature", "properties": {"collection_times": [{"days": "Mon-Fri", "time": "5:00pm"}, {"days": "Sat", "time": "3:00pm"}, {"days": "Sun", "time": "Closed"}], "id": "7165500024", "name": "USPS COLLECTION BOX - PO LOBBY", "address": {"city": "MONTICELLO", "state": "AR", "street": "1492 N HYATT ST", "postcode": "71655"}}},
{"geometry": {"type": "Point", "coordinates": [-91.8013069245, 33.6396242645]}, "type": "Feature", "properties": {"collection_times": [{"days": "Mon-Sat", "time": "9:30am"}, {"days": "Sun", "time": "Closed"}], "id": "7165500026", "name": "USPS COLLECTION BOX - BLUE BOX", "address": {"city": "MONTICELLO", "state": "AR", "street": "427 HIGHWAY 425 N", "postcode": "71655"}}},
{"geometry": {"type": "Point", "coordinates": [-91.8014580704, 33.648318447]}, "type": "Feature", "properties": {"collection_times": [{"days": "Mon-Fri", "time": "5:00pm"}, {"days": "Sat", "time": "3:00pm"}, {"days": "Sun", "time": "Closed"}], "id": "7165500028", "name": "USPS COLLECTION BOX - BLUE BOX", "address": {"city": "MONTICELLO", "state": "AR", "street": "1492 N HYATT ST", "postcode": "71655"}}},
{"geometry": {"type": "Point", "coordinates": [-91.8014580704, 33.648318447]}, "type": "Feature", "properties": {"collection_times": [{"days": "Mon-Fri", "time": "5:00pm"}, {"days": "Sat", "time": "3:00pm"}, {"days": "Sun", "time": "Closed"}], "id": "7165500029", "name": "USPS COLLECTION BOX - BLUE BOX", "address": {"city": "MONTICELLO", "state": "AR", "street": "1492 N HYATT ST", "postcode": "71655"}}},
{"geometry": {"type": "Point", "coordinates": [-91.8014580704, 33.648318447]}, "type": "Feature", "properties": {"collection_times": [{"days": "Mon-Fri", "time": "5:00pm"}, {"days": "Sat", "time": "3:00pm"}, {"days": "Sun", "time": "Closed"}], "id": "7165500030", "name": "USPS COLLECTION BOX - BLUE BOX", "address": {"city": "MONTICELLO", "state": "AR", "street": "1492 N HYATT ST", "postcode": "71655"}}},
{"geometry": {"type": "Point", "coordinates": [-91.8129223805, 33.5886065859]}, "type": "Feature", "properties": {"collection_times": [{"days": "Mon-Fri", "time": "2:00pm"}, {"days": "Sat-Sun", "time": "Closed"}], "id": "7165500034", "name": "USPS COLLECTION BOX - PO LOBBY", "address": {"city": "MONTICELLO", "state": "AR", "street": "580 UNIVERSITY DR", "postcode": "71655"}}},
{"geometry": {"type": "Point", "coordinates": [-91.8014580704, 33.648318447]}, "type": "Feature", "properties": {"collection_times": [{"days": "Mon-Fri", "time": "5:00pm"}, {"days": "Sat", "time": "3:00pm"}, {"days": "Sun", "time": "Closed"}], "id": "7165500035", "name": "USPS COLLECTION BOX - PO LOBBY", "address": {"city": "MONTICELLO", "state": "AR", "street": "1492 N HYATT ST", "postcode": "71655"}}},
{"geometry": {"type": "Point", "coordinates": [-91.8129223805, 33.5886065859]}, "type": "Feature", "properties": {"collection_times": [{"days": "Mon-Fri", "time": "2:00pm"}, {"days": "Sat-Sun", "time": "Closed"}], "id": "7165500036", "name": "USPS COLLECTION BOX - PO LOBBY", "address": {"city": "MONTICELLO", "state": "AR", "street": "580 UNIVERSITY DR", "postcode": "71655"}}},
{"geometry": {"type": "Point", "coordinates": [-91.492676555, 33.3511276862]}, "type": "Feature", "properties": {"collection_times": [{"days": "Mon-Fri", "time": "3:45pm"}, {"days": "Sat", "time": "10:15am"}, {"days": "Sun", "time": "Closed"}], "id": "7165800000", "name": "USPS COLLECTION BOX - BLUE BOX", "address": {"city": "MONTROSE", "state": "AR", "street": "1400 HIGHWAY 165 N", "postcode": "71658"}}},
{"geometry": {"type": "Point", "coordinates": [-91.492676555, 33.3511276862]}, "type": "Feature", "properties": {"collection_times": [{"days": "Mon-Fri", "time": "2:30pm"}, {"days": "Sat", "time": "2:00pm"}, {"days": "Sun", "time": "Closed"}], "id": "7165800001", "name": "USPS COLLECTION BOX - PO LOBBY", "address": {"city": "MONTROSE", "state": "AR", "street": "1400 HIGHWAY 165 N", "postcode": "71658"}}},
{"geometry": {"type": "Point", "coordinates": [-91.492676555, 33.3511276862]}, "type": "Feature", "properties": {"collection_times": [{"days": "Mon-Fri", "time": "2:30pm"}, {"days": "Sat", "time": "2:00pm"}, {"days": "Sun", "time": "Closed"}], "id": "7165800003", "name": "USPS COLLECTION BOX - PO LOBBY", "address": {"city": "MONTROSE", "state": "AR", "street": "1400 HIGHWAY 165 N", "postcode": "71658"}}},
{"geometry": {"type": "Point", "coordinates": [-91.7997391737, 34.1543510387]}, "type": "Feature", "properties": {"collection_times": [{"days": "Mon-Fri", "time": "1:45pm"}, {"days": "Sat", "time": "10:45am"}, {"days": "Sun", "time": "Closed"}], "id": "7165900001", "name": "USPS COLLECTION BOX - BLUE BOX", "address": {"city": "MOSCOW", "state": "AR", "street": "9201 HIGHWAY 65 S", "postcode": "71659"}}},
{"geometry": {"type": "Point", "coordinates": [-91.7997391737, 34.1543510387]}, "type": "Feature", "properties": {"collection_times": [{"days": "Mon-Fri", "time": "1:45pm"}, {"days": "Sat", "time": "10:45am"}, {"days": "Sun", "time": "Closed"}], "id": "7165900002", "name": "USPS COLLECTION BOX - PO LOBBY", "address": {"city": "MOSCOW", "state": "AR", "street": "9201 HIGHWAY 65 S", "postcode": "71659"}}},
{"geometry": {"type": "Point", "coordinates": [-92.2436401168, 33.7629618276]}, "type": "Feature", "properties": {"collection_times": [{"days": "Mon-Fri", "time": "3:45pm"}, {"days": "Sat", "time": "9:45am"}, {"days": "Sun", "time": "Closed"}], "id": "7166000001", "name": "USPS COLLECTION BOX - BLUE BOX", "address": {"city": "NEW EDINBURG", "state": "AR", "street": "6530 HIGHWAY 8", "postcode": "71660"}}},
{"geometry": {"type": "Point", "coordinates": [-92.2436401168, 33.7629618276]}, "type": "Feature", "properties": {"collection_times": [{"days": "Mon-Fri", "time": "10:30am"}, {"days": "Sat", "time": "9:45am"}, {"days": "Sun", "time": "Closed"}], "id": "7166000002", "name": "USPS COLLECTION BOX - PO LOBBY", "address": {"city": "NEW EDINBURG", "state": "AR", "street": "6530 HIGHWAY 8", "postcode": "71660"}}},
{"geometry": {"type": "Point", "coordinates": [-92.2436401168, 33.7629618276]}, "type": "Feature", "properties": {"collection_times": [{"days": "Mon-Fri", "time": "10:30am"}, {"days": "Sat", "time": "9:45am"}, {"days": "Sun", "time": "Closed"}], "id": "7166000003", "name": "USPS COLLECTION BOX - PO LOBBY", "address": {"city": "NEW EDINBURG", "state": "AR", "street": "6530 HIGHWAY 8", "postcode": "71660"}}},
{"geometry": {"type": "Point", "coordinates": [-91.5503235158, 33.1134494994]}, "type": "Feature", "properties": {"collection_times": [{"days": "Mon-Fri", "time": "3:30pm"}, {"days": "Sat", "time": "1:00pm"}, {"days": "Sun", "time": "Closed"}], "id": "7166100001", "name": "USPS COLLECTION BOX - BLUE BOX", "address": {"city": "PARKDALE", "state": "AR", "street": "208 S MAIN ST", "postcode": "71661"}}},
{"geometry": {"type": "Point", "coordinates": [-91.5503235158, 33.1134494994]}, "type": "Feature", "properties": {"collection_times": [{"days": "Mon-Sat", "time": "1:00pm"}, {"days": "Sun", "time": "Closed"}], "id": "7166100002", "name": "USPS COLLECTION BOX - PO LOBBY", "address": {"city": "PARKDALE", "state": "AR", "street": "208 S MAIN ST", "postcode": "71661"}}},
{"geometry": {"type": "Point", "coordinates": [-91.5503235158, 33.1134494994]}, "type": "Feature", "properties": {"collection_times": [{"days": "Mon-Sat", "time": "1:00pm"}, {"days": "Sun", "time": "Closed"}], "id": "7166100003", "name": "USPS COLLECTION BOX - PO LOBBY", "address": {"city": "PARKDALE", "state": "AR", "street": "208 S MAIN ST", "postcode": "71661"}}},
{"geometry": {"type": "Point", "coordinates": [-91.3883395071, 33.8020872859]}, "type": "Feature", "properties": {"collection_times": [{"days": "Mon-Fri", "time": "1:45pm"}, {"days": "Sat", "time": "10:30am"}, {"days": "Sun", "time": "Closed"}], "id": "7166200001", "name": "USPS COLLECTION BOX - BLUE BOX", "address": {"city": "PICKENS", "state": "AR", "street": "126 PICKENS RD", "postcode": "71662"}}},
{"geometry": {"type": "Point", "coordinates": [-91.3883395071, 33.8020872859]}, "type": "Feature", "properties": {"collection_times": [{"days": "Mon-Fri", "time": "1:45pm"}, {"days": "Sat", "time": "10:30am"}, {"days": "Sun", "time": "Closed"}], "id": "7166200002", "name": "USPS COLLECTION BOX - PO LOBBY", "address": {"city": "PICKENS", "state": "AR", "street": "126 PICKENS RD", "postcode": "71662"}}},
{"geometry": {"type": "Point", "coordinates": [-91.5121062099, 33.237109521]}, "type": "Feature", "properties": {"collection_times": [{"days": "Mon-Fri", "time": "3:45pm"}, {"days": "Sat", "time": "11:30am"}, {"days": "Sun", "time": "Closed"}], "id": "7166300001", "name": "USPS COLLECTION BOX - BLUE BOX", "address": {"city": "PORTLAND", "state": "AR", "street": "145 N MAIN ST", "postcode": "71663"}}},
{"geometry": {"type": "Point", "coordinates": [-91.5121062099, 33.237109521]}, "type": "Feature", "properties": {"collection_times": [{"days": "Mon-Fri", "time": "11:00am"}, {"days": "Sat", "time": "11:30am"}, {"days": "Sun", "time": "Closed"}], "id": "7166300002", "name": "USPS COLLECTION BOX - PO LOBBY", "address": {"city": "PORTLAND", "state": "AR", "street": "145 N MAIN ST", "postcode": "71663"}}},
{"geometry": {"type": "Point", "coordinates": [-92.1896013027, 33.9574918893]}, "type": "Feature", "properties": {"collection_times": [{"days": "Mon-Fri", "time": "4:30pm"}, {"days": "Sat", "time": "9:00am"}, {"days": "Sun", "time": "Closed"}], "id": "7166500002", "name": "USPS COLLECTION BOX - BLUE BOX", "address": {"city": "RISON", "state": "AR", "street": "506 S MAIN ST", "postcode": "71665"}}},
{"geometry": {"type": "Point", "coordinates": [-92.1896013027, 33.9574918893]}, "type": "Feature", "properties": {"collection_times": [{"days": "Mon-Fri", "time": "4:30pm"}, {"days": "Sat", "time": "9:00am"}, {"days": "Sun", "time": "Closed"}], "id": "7166500003", "name": "USPS COLLECTION BOX - PO LOBBY", "address": {"city": "RISON", "state": "AR", "street": "506 S MAIN ST", "postcode": "71665"}}},
{"geometry": {"type": "Point", "coordinates": [-92.1896013027, 33.9574918893]}, "type": "Feature", "properties": {"collection_times": [{"days": "Mon-Fri", "time": "4:30pm"}, {"days": "Sat", "time": "9:00am"}, {"days": "Sun", "time": "Closed"}], "id": "7166500004", "name": "USPS COLLECTION BOX - PO LOBBY", "address": {"city": "RISON", "state": "AR", "street": "506 S MAIN ST", "postcode": "71665"}}},
{"geometry": {"type": "Point", "coordinates": [-91.8460909869, 33.941501047]}, "type": "Feature", "properties": {"collection_times": [{"days": "Mon-Fri", "time": "4:45pm"}, {"days": "Sat", "time": "1:00pm"}, {"days": "Sun", "time": "Closed"}], "id": "7166700001", "name": "USPS COLLECTION BOX - BLUE BOX", "address": {"city": "STAR CITY", "state": "AR", "street": "205 S JEFFERSON ST", "postcode": "71667"}}},
{"geometry": {"type": "Point", "coordinates": [-91.8460909869, 33.941501047]}, "type": "Feature", "properties": {"collection_times": [{"days": "Mon-Fri", "time": "4:45pm"}, {"days": "Sat", "time": "1:00pm"}, {"days": "Sun", "time": "Closed"}], "id": "7166700047", "name": "USPS COLLECTION BOX - BLUE BOX", "address": {"city": "STAR CITY", "state": "AR", "street": "205 S JEFFERSON ST", "postcode": "71667"}}},
{"geometry": {"type": "Point", "coordinates": [-91.8460909869, 33.941501047]}, "type": "Feature", "properties": {"collection_times": [{"days": "Mon-Fri", "time": "4:45pm"}, {"days": "Sat", "time": "1:00pm"}, {"days": "Sun", "time": "Closed"}], "id": "7166700049", "name": "USPS COLLECTION BOX - BLUE BOX", "address": {"city": "STAR CITY", "state": "AR", "street": "205 S JEFFERSON ST", "postcode": "71667"}}},
{"geometry": {"type": "Point", "coordinates": [-91.8460909869, 33.941501047]}, "type": "Feature", "properties": {"collection_times": [{"days": "Mon-Fri", "time": "4:45pm"}, {"days": "Sat", "time": "1:00pm"}, {"days": "Sun", "time": "Closed"}], "id": "7166700050", "name": "USPS COLLECTION BOX - PO LOBBY", "address": {"city": "STAR CITY", "state": "AR", "street": "205 S JEFFERSON ST", "postcode": "71667"}}},
{"geometry": {"type": "Point", "coordinates": [-91.8460909869, 33.941501047]}, "type": "Feature", "properties": {"collection_times": [{"days": "Mon-Fri", "time": "4:45pm"}, {"days": "Sat", "time": "1:00pm"}, {"days": "Sun", "time": "Closed"}], "id": "7166700051", "name": "USPS COLLECTION BOX - PO LOBBY", "address": {"city": "STAR CITY", "state": "AR", "street": "205 S JEFFERSON ST", "postcode": "71667"}}},
{"geometry": {"type": "Point", "coordinates": [-91.5093292964, 33.7031551839]}, "type": "Feature", "properties": {"collection_times": [{"days": "Mon-Fri", "time": "4:00pm"}, {"days": "Sat", "time": "11:30am"}, {"days": "Sun", "time": "Closed"}], "id": "7167000001", "name": "USPS COLLECTION BOX - BLUE BOX", "address": {"city": "TILLAR", "state": "AR", "street": "166 B ST", "postcode": "71670"}}},
{"geometry": {"type": "Point", "coordinates": [-91.5093292964, 33.7031551839]}, "type": "Feature", "properties": {"collection_times": [{"days": "Mon-Sat", "time": "11:30am"}, {"days": "Sun", "time": "Closed"}], "id": "7167000002", "name": "USPS COLLECTION BOX - PO LOBBY", "address": {"city": "TILLAR", "state": "AR", "street": "166 B ST", "postcode": "71670"}}},
{"geometry": {"type": "Point", "coordinates": [-92.0636898348, 33.6144279634]}, "type": "Feature", "properties": {"collection_times": [{"days": "Mon-Fri", "time": "3:00pm"}, {"days": "Sat-Sun", "time": "Closed"}], "id": "7167100003", "name": "USPS COLLECTION BOX - BLUE BOX", "address": {"city": "WARREN", "state": "AR", "street": "101 E CEDAR ST", "postcode": "71671"}}},
{"geometry": {"type": "Point", "coordinates": [-92.0629746036, 33.6125353365]}, "type": "Feature", "properties": {"collection_times": [{"days": "Mon-Fri", "time": "3:00pm"}, {"days": "Sat", "time": "1:30pm"}, {"days": "Sun", "time": "Closed"}], "id": "7167100005", "name": "USPS COLLECTION BOX - BLUE BOX", "address": {"city": "WARREN", "state": "AR", "street": "108 N MYRTLE ST", "postcode": "71671"}}},
{"geometry": {"type": "Point", "coordinates": [-92.064208979, 33.616198803]}, "type": "Feature", "properties": {"collection_times": [{"days": "Mon-Fri", "time": "4:30pm"}, {"days": "Sat", "time": "3:30pm"}, {"days": "Sun", "time": "Closed"}], "id": "7167100012", "name": "USPS COLLECTION BOX - BLUE BOX", "address": {"city": "WARREN", "state": "AR", "street": "408 N MAIN ST", "postcode": "71671"}}},
{"geometry": {"type": "Point", "coordinates": [-92.064208979, 33.616198803]}, "type": "Feature", "properties": {"collection_times": [{"days": "Mon-Fri", "time": "4:30pm"}, {"days": "Sat", "time": "3:30pm"}, {"days": "Sun", "time": "Closed"}], "id": "7167100013", "name": "USPS COLLECTION BOX - BLUE BOX", "address": {"city": "WARREN", "state": "AR", "street": "408 N MAIN ST", "postcode": "71671"}}},
{"geometry": {"type": "Point", "coordinates": [-92.0643779365, 33.6143375376]}, "type": "Feature", "properties": {"collection_times": [{"days": "Mon-Fri", "time": "3:00pm"}, {"days": "Sat", "time": "1:30pm"}, {"days": "Sun", "time": "Closed"}], "id": "7167100014", "name": "USPS COLLECTION BOX - BLUE BOX", "address": {"city": "WARREN", "state": "AR", "street": "107 W CEDAR ST", "postcode": "71671"}}},
{"geometry": {"type": "Point", "coordinates": [-92.064208979, 33.616198803]}, "type": "Feature", "properties": {"collection_times": [{"days": "Mon-Fri", "time": "4:30pm"}, {"days": "Sat", "time": "3:30pm"}, {"days": "Sun", "time": "Closed"}], "id": "7167100015", "name": "USPS COLLECTION BOX - PO LOBBY", "address": {"city": "WARREN", "state": "AR", "street": "408 N MAIN ST", "postcode": "71671"}}},
{"geometry": {"type": "Point", "coordinates": [-92.064208979, 33.616198803]}, "type": "Feature", "properties": {"collection_times": [{"days": "Mon-Fri", "time": "4:30pm"}, {"days": "Sat", "time": "3:30pm"}, {"days": "Sun", "time": "Closed"}], "id": "7167100018", "name": "USPS COLLECTION BOX - PO LOBBY", "address": {"city": "WARREN", "state": "AR", "street": "408 N MAIN ST", "postcode": "71671"}}},
{"geometry": {"type": "Point", "coordinates": [-92.064208979, 33.616198803]}, "type": "Feature", "properties": {"collection_times": [{"days": "Mon-Fri", "time": "4:30pm"}, {"days": "Sat", "time": "3:30pm"}, {"days": "Sun", "time": "Closed"}], "id": "7167100020", "name": "USPS COLLECTION BOX - PO LOBBY", "address": {"city": "WARREN", "state": "AR", "street": "408 N MAIN ST", "postcode": "71671"}}},
{"geometry": {"type": "Point", "coordinates": [-91.2548505274, 33.8945608082]}, "type": "Feature", "properties": {"collection_times": [{"days": "Mon-Fri", "time": "3:45pm"}, {"days": "Sat", "time": "10:15am"}, {"days": "Sun", "time": "Closed"}], "id": "7167400001", "name": "USPS COLLECTION BOX - BLUE BOX", "address": {"city": "WATSON", "state": "AR", "street": "4121 HIGHWAY 1 N", "postcode": "71674"}}},
{"geometry": {"type": "Point", "coordinates": [-91.2548505274, 33.8945608082]}, "type": "Feature", "properties": {"collection_times": [{"days": "Mon-Fri", "time": "11:30am"}, {"days": "Sat", "time": "10:15am"}, {"days": "Sun", "time": "Closed"}], "id": "7167400003", "name": "USPS COLLECTION BOX - PO LOBBY", "address": {"city": "WATSON", "state": "AR", "street": "4121 HIGHWAY 1 N", "postcode": "71674"}}},
{"geometry": {"type": "Point", "coordinates": [-91.2548505274, 33.8945608082]}, "type": "Feature", "properties": {"collection_times": [{"days": "Mon-Fri", "time": "11:30am"}, {"days": "Sat", "time": "10:15am"}, {"days": "Sun", "time": "Closed"}], "id": "7167400004", "name": "USPS COLLECTION BOX - PO LOBBY", "address": {"city": "WATSON", "state": "AR", "street": "4121 HIGHWAY 1 N", "postcode": "71674"}}},
{"geometry": {"type": "Point", "coordinates": [-91.932778825, 33.6288681779]}, "type": "Feature", "properties": {"collection_times": [{"days": "Mon-Fri", "time": "4:00pm"}, {"days": "Sat", "time": "11:30am"}, {"days": "Sun", "time": "Closed"}], "id": "7167500000", "name": "USPS COLLECTION BOX - BLUE BOX", "address": {"city": "WILMAR", "state": "AR", "street": "2617 HIGHWAY 278 W", "postcode": "71675"}}},
{"geometry": {"type": "Point", "coordinates": [-91.932778825, 33.6288681779]}, "type": "Feature", "properties": {"collection_times": [{"days": "Mon-Fri", "time": "10:30am"}, {"days": "Sat", "time": "11:30am"}, {"days": "Sun", "time": "Closed"}], "id": "7167500001", "name": "USPS COLLECTION BOX - PO LOBBY", "address": {"city": "WILMAR", "state": "AR", "street": "2617 HIGHWAY 278 W", "postcode": "71675"}}},
{"geometry": {"type": "Point", "coordinates": [-91.5739516817, 33.0598872955]}, "type": "Feature", "properties": {"collection_times": [{"days": "Mon-Fri", "time": "3:10pm"}, {"days": "Sat", "time": "10:45am"}, {"days": "Sun", "time": "Closed"}], "id": "7167600001", "name": "USPS COLLECTION BOX - BLUE BOX", "address": {"city": "WILMOT", "state": "AR", "street": "202 MCCOMBS ST", "postcode": "71676"}}},
{"geometry": {"type": "Point", "coordinates": [-91.5739516817, 33.0598872955]}, "type": "Feature", "properties": {"collection_times": [{"days": "Mon-Fri", "time": "11:00am"}, {"days": "Sat", "time": "10:45am"}, {"days": "Sun", "time": "Closed"}], "id": "7167600002", "name": "USPS COLLECTION BOX - PO LOBBY", "address": {"city": "WILMOT", "state": "AR", "street": "202 MCCOMBS ST", "postcode": "71676"}}},
{"geometry": {"type": "Point", "coordinates": [-91.4718759827, 33.7774437698]}, "type": "Feature", "properties": {"collection_times": [{"days": "Mon-Fri", "time": "3:45pm"}, {"days": "Sat", "time": "10:00am"}, {"days": "Sun", "time": "Closed"}], "id": "7167700001", "name": "USPS COLLECTION BOX - BLUE BOX", "address": {"city": "WINCHESTER", "state": "AR", "street": "5260 HIGHWAY 138", "postcode": "71677"}}},
{"geometry": {"type": "Point", "coordinates": [-91.4718759827, 33.7774437698]}, "type": "Feature", "properties": {"collection_times": [{"days": "Mon-Sat", "time": "2:30pm"}, {"days": "Sun", "time": "Closed"}], "id": "7167700002", "name": "USPS COLLECTION BOX - PO LOBBY", "address": {"city": "WINCHESTER", "state": "AR", "street": "5260 HIGHWAY 138", "postcode": "71677"}}},
{"geometry": {"type": "Point", "coordinates": [-91.4718759827, 33.7774437698]}, "type": "Feature", "properties": {"collection_times": [{"days": "Mon-Sat", "time": "2:30pm"}, {"days": "Sun", "time": "Closed"}], "id": "7167700003", "name": "USPS COLLECTION BOX - PO LOBBY", "address": {"city": "WINCHESTER", "state": "AR", "street": "5260 HIGHWAY 138", "postcode": "71677"}}},
{"geometry": {"type": "Point", "coordinates": [-91.7786660904, 34.0290207512]}, "type": "Feature", "properties": {"collection_times": [{"days": "Mon-Fri", "time": "1:35pm"}, {"days": "Sat", "time": "10:35am"}, {"days": "Sun", "time": "Closed"}], "id": "7167800000", "name": "USPS COLLECTION BOX - BLUE BOX", "address": {"city": "YORKTOWN", "state": "AR", "street": "69 ANDERSON TRL", "postcode": "71678"}}},
{"geometry": {"type": "Point", "coordinates": [-91.7786660904, 34.0290207512]}, "type": "Feature", "properties": {"collection_times": [{"days": "Mon-Fri", "time": "9:45am"}, {"days": "Sat", "time": "10:35am"}, {"days": "Sun", "time": "Closed"}], "id": "7167800001", "name": "USPS COLLECTION BOX - PO LOBBY", "address": {"city": "YORKTOWN", "state": "AR", "street": "69 ANDERSON TRL", "postcode": "71678"}}}
]}
