{"type": "FeatureCollection", "features": [
{"geometry": {"type": "Point", "coordinates": [-92.7956185373, 33.6056978567]}, "type": "Feature", "properties": {"collection_times": [{"days": "Mon-Fri", "time": "3:15pm"}, {"days": "Sat", "time": "3:00pm"}, {"days": "Sun", "time": "Closed"}], "id": "7170100003", "name": "USPS COLLECTION BOX - BLUE BOX", "address": {"city": "CAMDEN", "state": "AR", "street": "100 SCOTT ALY SW", "postcode": "71701"}}},
{"geometry": {"type": "Point", "coordinates": [-92.8516548878, 33.5701927298]}, "type": "Feature", "properties": {"collection_times": [{"days": "Mon-Fri", "time": "3:05pm"}, {"days": "Sat", "time": "3:00pm"}, {"days": "Sun", "time": "Closed"}], "id": "7170100007", "name": "USPS COLLECTION BOX - BLUE BOX", "address": {"city": "CAMDEN", "state": "AR", "street": "850 CASH RD SW", "postcode": "71701"}}},
{"geometry": {"type": "Point", "coordinates": [-92.8492480889, 33.5849275532]}, "type": "Feature", "properties": {"collection_times": [{"days": "Mon-Fri", "time": "3:10pm"}, {"days": "Sat", "time": "3:00pm"}, {"days": "Sun", "time": "Closed"}], "id": "7170100008", "name": "USPS COLLECTION BOX - BLUE BOX", "address": {"city": "CAMDEN", "state": "AR", "street": "1137 W WASHINGTON ST", "postcode": "71701"}}},
{"geometry": {"type": "Point", "coordinates": [-92.8335021505, 33.5848189417]}, "type": "Feature", "properties": {"collection_times": [{"days": "Mon-Sat", "time": "5:00pm"}, {"days": "Sun", "time": "Closed"}], "id": "7170100012", "name": "USPS COLLECTION BOX - PO LOBBY", "address": {"city": "CAMDEN", "state": "AR", "street": "351 W WASHINGTON ST", "postcode": "71701"}}},
{"geometry": {"type": "Point", "coordinates": [-92.7402979815, 33.6124515009]}, "type": "Feature", "properties": {"collection_times": [{"days": "Mon-Fri", "time": "4:00pm"}, {"days": "Sat", "time": "2:30pm"}, {"days": "Sun", "time": "Closed"}], "id": "7170100014", "name": "USPS COLLECTION BOX - BLUE BOX", "address": {"city": "CAMDEN", "state": "AR", "street": "510 HIGHWAY 274", "postcode": "71701"}}},
{"geometry": {"type": "Point", "coordinates": [-92.8492480889, 33.5849275532]}, "type": "Feature", "properties": {"collection_times": [{"days": "Mon-Fri", "time": "3:10pm"}, {"days": "Sat", "time": "3:00pm"}, {"days": "Sun", "time": "Closed"}], "id": "7170100019", "name": "USPS COLLECTION BOX - BLUE BOX", "address": {"city": "CAMDEN", "state": "AR", "street": "1137 W WASHINGTON ST", "postcode": "71701"}}},
{"geometry": {"type": "Point", "coordinates": [-92.8368095371, 33.5703243423]}, "type": "Feature", "properties": {"collection_times": [{"days": "Mon-Sat", "time": "12:05pm"}, {"days": "Sun", "time": "Closed"}], "id": "7170100020", "name": "USPS COLLECTION BOX - BLUE BOX", "address": {"city": "CAMDEN", "state": "AR", "street": "401 OUACHITA 88 RD", "postcode": "71701"}}},
{"geometry": {"type": "Point", "coordinates": [-92.8335021505, 33.5848189417]}, "type": "Feature", "properties": {"collection_times": [{"days": "Mon-Sat", "time": "5:00pm"}, {"days": "Sun", "time": "Closed"}], "id": "7170100022", "name": "USPS COLLECTION BOX - BLUE BOX", "address": {"city": "CAMDEN", "state": "AR", "street": "351 W WASHINGTON ST", "postcode": "71701"}}},
{"geometry": {"type": "Point", "coordinates": [-92.8335021505, 33.5848189417]}, "type": "Feature", "properties": {"collection_times": [{"days": "Mon-Sat", "time": "5:00pm"}, {"days": "Sun", "time": "Closed"}], "id": "7170100023", "name": "USPS COLLECTION BOX - BLUE BOX", "address": {"city": "CAMDEN", "state": "AR", "street": "351 W WASHINGTON ST", "postcode": "71701"}}},
{"geometry": {"type": "Point", "coordinates": [-92.8335021505, 33.5848189417]}, "type": "Feature", "properties": {"collection_times": [{"days": "Mon-Sat", "time": "5:00pm"}, {"days": "Sun", "time": "Closed"}], "id": "7170100024", "name": "USPS COLLECTION BOX - BLUE BOX", "address": {"city": "CAMDEN", "state": "AR", "street": "351 W WASHINGTON ST", "postcode": "71701"}}},
{"geometry": {"type": "Point", "coordinates": [-92.7402979815, 33.6124515009]}, "type": "Feature", "properties": {"collection_times": [{"days": "Mon-Fri", "time": "4:00pm"}, {"days": "Sat-Sun", "time": "Closed"}], "id": "7170100025", "name": "USPS COLLECTION BOX - PO LOBBY", "address": {"city": "CAMDEN", "state": "AR", "street": "510 HIGHWAY 274", "postcode": "71701"}}},
{"geometry": {"type": "Point", "coordinates": [-92.7402979815, 33.6124515009]}, "type": "Feature", "properties": {"collection_times": [{"days": "Mon-Fri", "time": "4:00pm"}, {"days": "Sat-Sun", "time": "Closed"}], "id": "7170100030", "name": "USPS COLLECTION BOX - PO LOBBY", "address": {"city": "CAMDEN", "state": "AR", "street": "510 HIGHWAY 274", "postcode": "71701"}}},
{"geometry": {"type": "Point", "coordinates": [-92.7402979815, 33.6124515009]}, "type": "Feature", "properties": {"collection_times": [{"days": "Mon-Fri", "time": "4:00pm"}, {"days": "Sat-Sun", "time": "Closed"}], "id": "7170100031", "name": "USPS COLLECTION BOX - PO LOBBY", "address": {"city": "CAMDEN", "state": "AR", "street": "510 HIGHWAY 274", "postcode": "71701"}}},
{"geometry": {"type": "Point", "coordinates": [-92.7402979815, 33.6124515009]}, "type": "Feature", "properties": {"collection_times": [{"days": "Mon-Fri", "time": "4:00pm"}, {"days": "Sat-Sun", "time": "Closed"}], "id": "7170100032", "name": "USPS COLLECTION BOX - PO LOBBY", "address": {"city": "CAMDEN", "state": "AR", "street": "510 HIGHWAY 274", "postcode": "71701"}}},
{"geometry": {"type": "Point", "coordinates": [-92.8492480889, 33.5849275532]}, "type": "Feature", "properties": {"collection_times": [{"days": "Mon-Fri", "time": "3:10pm"}, {"days": "Sat", "time": "3:00pm"}, {"days": "Sun", "time": "Closed"}], "id": "7170100036", "name": "USPS COLLECTION BOX - BLUE BOX", "address": {"city": "CAMDEN", "state": "AR", "street": "1137 W WASHINGTON ST", "postcode": "71701"}}},
{"geometry": {"type": "Point", "coordinates": [-92.8313511258, 33.5855179044]}, "type": "Feature", "properties": {"collection_times": [{"days": "Mon-Fri", "time": "3:15pm"}, {"days": "Sat", "time": "3:00pm"}, {"days": "Sun", "time": "Closed"}], "id": "7170100037", "name": "USPS COLLECTION BOX - BLUE BOX", "address": {"city": "CAMDEN", "state": "AR", "street": "101 HARRISON AVE NW", "postcode": "71701"}}},
{"geometry": {"type": "Point", "coordinates": [-92.8521129605, 33.5361999448]}, "type": "Feature", "properties": {"collection_times": [{"days": "Mon-Sat", "time": "3:00pm"}, {"days": "Sun", "time": "Closed"}], "id": "7170100038", "name": "USPS COLLECTION BOX - BLUE BOX", "address": {"city": "CAMDEN", "state": "AR", "street": "1105 FAIRVIEW RD SW", "postcode": "71701"}}},
{"geometry": {"type": "Point", "coordinates": [-92.8521129605, 33.5361999448]}, "type": "Feature", "properties": {"collection_times": [{"days": "Mon-Sat", "time": "3:00pm"}, {"days": "Sun", "time": "Closed"}], "id": "7170100039", "name": "USPS COLLECTION BOX - BLUE BOX", "address": {"city": "CAMDEN", "state": "AR", "street": "1105 FAIRVIEW RD SW", "postcode": "71701"}}},
{"geometry": {"type": "Point", "coordinates": [-92.7956185373, 33.6056978567]}, "type": "Feature", "properties": {"collection_times": [{"days": "Mon-Sat", "time": "5:00pm"}, {"days": "Sun", "time": "Closed"}], "id": "7170100042", "name": "USPS COLLECTION BOX - BLUE BOX", "address": {"city": "CAMDEN", "state": "AR", "street": "351 W WASHINGTON ST", "postcode": "71701"}}},
{"geometry": {"type": "Point", "coordinates": [-92.6169737792, 33.7247167474]}, "type": "Feature", "properties": {"collection_times": [{"days": "Mon-Fri", "time": "4:00pm"}, {"days": "Sat", "time": "11:00am"}, {"days": "Sun", "time": "Closed"}], "id": "7172000001", "name": "USPS COLLECTION BOX - PO LOBBY", "address": {"city": "BEARDEN", "state": "AR", "street": "160 N PLUM ST", "postcode": "71720"}}},
{"geometry": {"type": "Point", "coordinates": [-92.6169737792, 33.7247167474]}, "type": "Feature", "properties": {"collection_times": [{"days": "Mon-Fri", "time": "4:00pm"}, {"days": "Sat", "time": "11:00am"}, {"days": "Sun", "time": "Closed"}], "id": "7172000003", "name": "USPS COLLECTION BOX - BLUE BOX", "address": {"city": "BEARDEN", "state": "AR", "street": "160 N PLUM ST", "postcode": "71720"}}},
{"geometry": {"type": "Point", "coordinates": [-92.6169737792, 33.7247167474]}, "type": "Feature", "properties": {"collection_times": [{"days": "Mon-Fri", "time": "4:00pm"}, {"days": "Sat", "time": "11:00am"}, {"days": "Sun", "time": "Closed"}], "id": "7172000005", "name": "USPS COLLECTION BOX - BLUE BOX", "address": {"city": "BEARDEN", "state": "AR", "street": "160 N PLUM ST", "postcode": "71720"}}},
{"geometry": {"type": "Point", "coordinates": [-93.2037205619, 33.8888532058]}, "type": "Feature", "properties": {"collection_times": [{"days": "Mon-Fri", "time": "3:30pm"}, {"days": "Sat", "time": "1:30pm"}, {"days": "Sun", "time": "Closed"}], "id": "7172100003", "name": "USPS COLLECTION BOX - PO LOBBY", "address": {"city": "BEIRNE", "state": "AR", "street": "16462 HIGHWAY 51 S", "postcode": "71721"}}},
{"geometry": {"type": "Point", "coordinates": [-93.20625098, 33.6943065348]}, "type": "Feature", "properties": {"collection_times": [{"days": "Mon-Sat", "time": "9:30am"}, {"days": "Sun", "time": "Closed"}], "id": "7172200002", "name": "USPS COLLECTION BOX - PO LOBBY", "address": {"city": "BLUFF CITY", "state": "AR", "street": "4979 HIGHWAY 24 E", "postcode": "71722"}}},
{"geometry": {"type": "Point", "coordinates": [-92.5428328684, 33.3301054443]}, "type": "Feature", "properties": {"collection_times": [{"days": "Mon-Fri", "time": "3:30pm"}, {"days": "Sat", "time": "10:00am"}, {"days": "Sun", "time": "Closed"}], "id": "7172400001", "name": "USPS COLLECTION BOX - BLUE BOX", "address": {"city": "CALION", "state": "AR", "street": "322 MILL ST", "postcode": "71724"}}},
{"geometry": {"type": "Point", "coordinates": [-92.5428328684, 33.3301054443]}, "type": "Feature", "properties": {"collection_times": [{"days": "Mon-Fri", "time": "11:30am"}, {"days": "Sat", "time": "10:00am"}, {"days": "Sun", "time": "Closed"}], "id": "7172400002", "name": "USPS COLLECTION BOX - PO LOBBY", "address": {"city": "CALION", "state": "AR", "street": "322 MILL ST", "postcode": "71724"}}},
{"geometry": {"type": "Point", "coordinates": [-92.5428328684, 33.3301054443]}, "type": "Feature", "properties": {"collection_times": [{"days": "Mon-Fri", "time": "11:30am"}, {"days": "Sat", "time": "10:00am"}, {"days": "Sun", "time": "Closed"}], "id": "7172400003", "name": "USPS COLLECTION BOX - PO LOBBY", "address": {"city": "CALION", "state": "AR", "street": "322 MILL ST", "postcode": "71724"}}},
{"geometry": {"type": "Point", "coordinates": [-92.5428328684, 33.3301054443]}, "type": "Feature", "properties": {"collection_times": [{"days": "Mon-Fri", "time": "11:30am"}, {"days": "Sat", "time": "10:00am"}, {"days": "Sun", "time": "Closed"}], "id": "7172400004", "name": "USPS COLLECTION BOX - PO LOBBY", "address": {"city": "CALION", "state": "AR", "street": "322 MILL ST", "postcode": "71724"}}},
{"geometry": {"type": "Point", "coordinates": [-92.5556278097, 34.0751062579]}, "type": "Feature", "properties": {"collection_times": [{"days": "Mon-Fri", "time": "3:30pm"}, {"days": "Sat", "time": "10:00am"}, {"days": "Sun", "time": "Closed"}], "id": "7172500001", "name": "USPS COLLECTION BOX - BLUE BOX", "address": {"city": "CARTHAGE", "state": "AR", "street": "112 W OAK ST", "postcode": "71725"}}},
{"geometry": {"type": "Point", "coordinates": [-92.5556278097, 34.0751062579]}, "type": "Feature", "properties": {"collection_times": [{"days": "Mon-Fri", "time": "11:00am"}, {"days": "Sat", "time": "10:00am"}, {"days": "Sun", "time": "Closed"}], "id": "7172500002", "name": "USPS COLLECTION BOX - PO LOBBY", "address": {"city": "CARTHAGE", "state": "AR", "street": "112 W OAK ST", "postcode": "71725"}}},
{"geometry": {"type": "Point", "coordinates": [-93.0213877503, 33.7016937988]}, "type": "Feature", "properties": {"collection_times": [{"days": "Mon-Fri", "time": "11:30am"}, {"days": "Sat", "time": "10:45am"}, {"days": "Sun", "time": "Closed"}], "id": "7172600002", "name": "USPS COLLECTION BOX - PO LOBBY", "address": {"city": "CHIDESTER", "state": "AR", "street": "118 HIGHWAY 57", "postcode": "71726"}}},
{"geometry": {"type": "Point", "coordinates": [-93.0213877503, 33.7016937988]}, "type": "Feature", "properties": {"collection_times": [{"days": "Mon-Fri", "time": "11:30am"}, {"days": "Sat", "time": "10:45am"}, {"days": "Sun", "time": "Closed"}], "id": "7172600003", "name": "USPS COLLECTION BOX - PO LOBBY", "address": {"city": "CHIDESTER", "state": "AR", "street": "118 HIGHWAY 57", "postcode": "71726"}}},
{"geometry": {"type": "Point", "coordinates": [-93.097974375, 33.9975688334]}, "type": "Feature", "properties": {"collection_times": [{"days": "Mon-Sat", "time": "10:30am"}, {"days": "Sun", "time": "Closed"}], "id": "7172800002", "name": "USPS COLLECTION BOX - PO LOBBY", "address": {"city": "CURTIS", "state": "AR", "street": "14 CURTIS RD", "postcode": "71728"}}},
{"geometry": {"type": "Point", "coordinates": [-93.097974375, 33.9975688334]}, "type": "Feature", "properties": {"collection_times": [{"days": "Mon-Sat", "time": "10:30am"}, {"days": "Sun", "time": "Closed"}], "id": "7172800003", "name": "USPS COLLECTION BOX - PO LOBBY", "address": {"city": "CURTIS", "state": "AR", "street": "14 CURTIS RD", "postcode": "71728"}}},
{"geometry": {"type": "Point", "coordinates": [-92.6619231708, 33.2133174412]}, "type": "Feature", "properties": {"collection_times": [{"days": "Mon-Sat", "time": "12:30pm"}, {"days": "Sun", "time": "Closed"}], "id": "7173000002", "name": "USPS COLLECTION BOX - BLUE BOX", "address": {"city": "EL DORADO", "state": "AR", "street": "314 E OAK ST", "postcode": "71730"}}},
{"geometry": {"type": "Point", "coordinates": [-92.6788695392, 33.2075530372]}, "type": "Feature", "properties": {"collection_times": [{"days": "Mon-Fri", "time": "10:30am"}, {"days": "Sat", "time": "12:35pm"}, {"days": "Sun", "time": "Closed"}], "id": "7173000008", "name": "USPS COLLECTION BOX - BLUE BOX", "address": {"city": "EL DORADO", "state": "AR", "street": "1200 W HILLSBORO ST", "postcode": "71730"}}},
{"geometry": {"type": "Point", "coordinates": [-92.6723037192, 33.2184212993]}, "type": "Feature", "properties": {"collection_times": [{"days": "Mon-Sat", "time": "10:30am"}, {"days": "Sun", "time": "Closed"}], "id": "7173000010", "name": "USPS COLLECTION BOX - BLUE BOX", "address": {"city": "EL DORADO", "state": "AR", "street": "700 W GROVE ST", "postcode": "71730"}}},
{"geometry": {"type": "Point", "coordinates": [-92.6636643028, 33.2119726189]}, "type": "Feature", "properties": {"collection_times": [{"days": "Mon-Fri", "time": "1:40pm"}, {"days": "Sat-Sun", "time": "Closed"}], "id": "7173000017", "name": "USPS COLLECTION BOX - BLUE BOX", "address": {"city": "EL DORADO", "state": "AR", "street": "101 N WASHINGTON AVE", "postcode": "71730"}}},
{"geometry": {"type": "Point", "coordinates": [-92.663671393, 33.2127240529]}, "type": "Feature", "properties": {"collection_times": [{"days": "Mon-Sat", "time": "12:00pm"}, {"days": "Sun", "time": "Closed"}], "id": "7173000018", "name": "USPS COLLECTION BOX - BLUE BOX", "address": {"city": "EL DORADO", "state": "AR", "street": "215 N WASHINGTON AVE", "postcode": "71730"}}},
{"geometry": {"type": "Point", "coordinates": [-92.670419817, 33.2183097622]}, "type": "Feature", "properties": {"collection_times": [{"days": "Mon-Sat", "time": "11:00am"}, {"days": "Sun", "time": "Closed"}], "id": "7173000023", "name": "USPS COLLECTION BOX - BLUE BOX", "address": {"city": "EL DORADO", "state": "AR", "street": "615 W GROVE ST", "postcode": "71730"}}},
{"geometry": {"type": "Point", "coordinates": [-92.6638459161, 33.2126909876]}, "type": "Feature", "properties": {"collection_times": [{"days": "Mon-Fri", "time": "2:05pm"}, {"days": "Sat-Sun", "time": "Closed"}], "id": "7173000029", "name": "USPS COLLECTION BOX - BLUE BOX", "address": {"city": "EL DORADO", "state": "AR", "street": "214 N WASHINGTON AVE", "postcode": "71730"}}},
{"geometry": {"type": "Point", "coordinates": [-92.6655994734, 33.2366472936]}, "type": "Feature", "properties": {"collection_times": [{"days": "Mon-Sat", "time": "10:00am"}, {"days": "Sun", "time": "Closed"}], "id": "7173000036", "name": "USPS COLLECTION BOX - BLUE BOX", "address": {"city": "EL DORADO", "state": "AR", "street": "1904 N WEST AVE", "postcode": "71730"}}},
{"geometry": {"type": "Point", "coordinates": [-92.661161778, 33.21181242]}, "type": "Feature", "properties": {"collection_times": [{"days": "Mon-Fri", "time": "4:00pm"}, {"days": "Sat-Sun", "time": "Closed"}], "id": "7173000042", "name": "USPS COLLECTION BOX - PO LOBBY", "address": {"city": "EL DORADO", "state": "AR", "street": "101 S JACKSON AVE", "postcode": "71730"}}},
{"geometry": {"type": "Point", "coordinates": [-92.6656717965, 33.2407619111]}, "type": "Feature", "properties": {"collection_times": [{"days": "Mon-Sat", "time": "1:10pm"}, {"days": "Sun", "time": "Closed"}], "id": "7173000044", "name": "USPS COLLECTION BOX - BLUE BOX", "address": {"city": "EL DORADO", "state": "AR", "street": "2415 N WEST AVE", "postcode": "71730"}}},
{"geometry": {"type": "Point", "coordinates": [-92.6705382405, 33.2147686396]}, "type": "Feature", "properties": {"collection_times": [{"days": "Mon-Fri", "time": "12:30pm"}, {"days": "Sat", "time": "1:20pm"}, {"days": "Sun", "time": "Closed"}], "id": "7173000049", "name": "USPS COLLECTION BOX - BLUE BOX", "address": {"city": "EL DORADO", "state": "AR", "street": "500 W FAULKNER ST", "postcode": "71730"}}},
{"geometry": {"type": "Point", "coordinates": [-92.6611886249, 33.2111780853]}, "type": "Feature", "properties": {"collection_times": [{"days": "Mon-Fri", "time": "4:00pm"}, {"days": "Sat", "time": "1:00pm"}, {"days": "Sun", "time": "Closed"}], "id": "7173000050", "name": "USPS COLLECTION BOX - BLUE BOX", "address": {"city": "EL DORADO", "state": "AR", "street": "400 E CEDAR ST", "postcode": "71730"}}},
{"geometry": {"type": "Point", "coordinates": [-92.6611886249, 33.2111780853]}, "type": "Feature", "properties": {"collection_times": [{"days": "Mon-Fri", "time": "4:00pm"}, {"days": "Sat", "time": "1:00pm"}, {"days": "Sun", "time": "Closed"}], "id": "7173000051", "name": "USPS COLLECTION BOX - BLUE BOX", "address": {"city": "EL DORADO", "state": "AR", "street": "400 E CEDAR ST", "postcode": "71730"}}},
{"geometry": {"type": "Point", "coordinates": [-92.665339019, 33.2432825451]}, "type": "Feature", "properties": {"collection_times": [{"days": "Mon-Sat", "time": "10:00am"}, {"days": "Sun", "time": "Closed"}], "id": "7173000057", "name": "USPS COLLECTION BOX - BLUE BOX", "address": {"city": "EL DORADO", "state": "AR", "street": "2730 N WEST AVE", "postcode": "71730"}}},
{"geometry": {"type": "Point", "coordinates": [-92.6136395451, 33.2098826067]}, "type": "Feature", "properties": {"collection_times": [{"days": "Mon-Sat", "time": "1:00pm"}, {"days": "Sun", "time": "Closed"}], "id": "7173000063", "name": "USPS COLLECTION BOX - BLUE BOX", "address": {"city": "EL DORADO", "state": "AR", "street": "451 INDUSTRIAL RD", "postcode": "71730"}}},
{"geometry": {"type": "Point", "coordinates": [-92.661161778, 33.21181242]}, "type": "Feature", "properties": {"collection_times": [{"days": "Mon-Fri", "time": "4:00pm"}, {"days": "Sat-Sun", "time": "Closed"}], "id": "7173000064", "name": "USPS COLLECTION BOX - PO LOBBY", "address": {"city": "EL DORADO", "state": "AR", "street": "101 S JACKSON AVE", "postcode": "71730"}}},
{"geometry": {"type": "Point", "coordinates": [-92.661161778, 33.21181242]}, "type": "Feature", "properties": {"collection_times": [{"days": "Mon-Fri", "time": "4:00pm"}, {"days": "Sat-Sun", "time": "Closed"}], "id": "7173000065", "name": "USPS COLLECTION BOX - PO LOBBY", "address": {"city": "EL DORADO", "state": "AR", "street": "101 S JACKSON AVE", "postcode": "71730"}}},
{"geometry": {"type": "Point", "coordinates": [-92.6872729853, 33.205883618]}, "type": "Feature", "properties": {"collection_times": [{"days": "Mon-Fri", "time": "5:00pm"}, {"days": "Sat", "time": "4:15pm"}, {"days": "Sun", "time": "Closed"}], "id": "7173000066", "name": "USPS COLLECTION BOX - BLUE BOX", "address": {"city": "EL DORADO", "state": "AR", "street": "550 S TIMBERLANE DR", "postcode": "71730"}}},
{"geometry": {"type": "Point", "coordinates": [-92.6872729853, 33.205883618]}, "type": "Feature", "properties": {"collection_times": [{"days": "Mon-Fri", "time": "5:00pm"}, {"days": "Sat", "time": "4:15pm"}, {"days": "Sun", "time": "Closed"}], "id": "7173000067", "name": "USPS COLLECTION BOX - BLUE BOX", "address": {"city": "EL DORADO", "state": "AR", "street": "550 S TIMBERLANE DR", "postcode": "71730"}}},
{"geometry": {"type": "Point", "coordinates": [-92.6872729853, 33.205883618]}, "type": "Feature", "properties": {"collection_times": [{"days": "Mon-Fri", "time": "5:00pm"}, {"days": "Sat", "time": "4:15pm"}, {"days": "Sun", "time": "Closed"}], "id": "7173000068", "name": "USPS COLLECTION BOX - PO LOBBY", "address": {"city": "EL DORADO", "state": "AR", "street": "550 S TIMBERLANE DR", "postcode": "71730"}}},
{"geometry": {"type": "Point", "coordinates": [-92.6872729853, 33.205883618]}, "type": "Feature", "properties": {"collection_times": [{"days": "Mon-Fri", "time": "5:00pm"}, {"days": "Sat", "time": "4:15pm"}, {"days": "Sun", "time": "Closed"}], "id": "7173000069", "name": "USPS COLLECTION BOX - PO LOBBY", "address": {"city": "EL DORADO", "state": "AR", "street": "550 S TIMBERLANE DR", "postcode": "71730"}}},
{"geometry": {"type": "Point", "coordinates": [-92.6308822332, 33.2104529271]}, "type": "Feature", "properties": {"collection_times": [{"days": "Mon-Fri", "time": "12:45pm"}, {"days": "Sat-Sun", "time": "Closed"}], "id": "7173000072", "name": "USPS COLLECTION BOX - BLUE BOX", "address": {"city": "EL DORADO", "state": "AR", "street": "235 AMERICAN RD", "postcode": "71730"}}},
{"geometry": {"type": "Point", "coordinates": [-92.6638575541, 33.2126284627]}, "type": "Feature", "properties": {"collection_times": [{"days": "Mon-Fri", "time": "3:40pm"}, {"days": "Sat", "time": "1:05pm"}, {"days": "Sun", "time": "Closed"}], "id": "7173000074", "name": "USPS COLLECTION BOX - BLUE BOX", "address": {"city": "EL DORADO", "state": "AR", "street": "106 W ELM ST", "postcode": "71730"}}},
{"geometry": {"type": "Point", "coordinates": [-93.1921686838, 33.0990791258]}, "type": "Feature", "properties": {"collection_times": [{"days": "Mon-Fri", "time": "3:30pm"}, {"days": "Sat", "time": "9:30am"}, {"days": "Sun", "time": "Closed"}], "id": "7174000001", "name": "USPS COLLECTION BOX - BLUE BOX", "address": {"city": "EMERSON", "state": "AR", "street": "204 N ELM ST", "postcode": "71740"}}},
{"geometry": {"type": "Point", "coordinates": [-93.1921686838, 33.0990791258]}, "type": "Feature", "properties": {"collection_times": [{"days": "Mon-Fri", "time": "10:30am"}, {"days": "Sat", "time": "9:30am"}, {"days": "Sun", "time": "Closed"}], "id": "7174000002", "name": "USPS COLLECTION BOX - PO LOBBY", "address": {"city": "EMERSON", "state": "AR", "street": "204 N ELM ST", "postcode": "71740"}}},
{"geometry": {"type": "Point", "coordinates": [-92.4239488612, 33.8088498637]}, "type": "Feature", "properties": {"collection_times": [{"days": "Mon-Sat", "time": "2:00pm"}, {"days": "Sun", "time": "Closed"}], "id": "7174200003", "name": "USPS COLLECTION BOX - BLUE BOX", "address": {"city": "FORDYCE", "state": "AR", "street": "1101 ABERNATHY ST", "postcode": "71742"}}},
{"geometry": {"type": "Point", "coordinates": [-92.4071177034, 33.8218239164]}, "type": "Feature", "properties": {"collection_times": [{"days": "Mon-Sat", "time": "10:30am"}, {"days": "Sun", "time": "Closed"}], "id": "7174200004", "name": "USPS COLLECTION BOX - BLUE BOX", "address": {"city": "FORDYCE", "state": "AR", "street": "100 LEISURE OAKS DR", "postcode": "71742"}}},
{"geometry": {"type": "Point", "coordinates": [-92.4125383486, 33.8129587594]}, "type": "Feature", "properties": {"collection_times": [{"days": "Mon-Sat", "time": "11:00am"}, {"days": "Sun", "time": "Closed"}], "id": "7174200008", "name": "USPS COLLECTION BOX - BLUE BOX", "address": {"city": "FORDYCE", "state": "AR", "street": "313 N MAIN ST", "postcode": "71742"}}},
{"geometry": {"type": "Point", "coordinates": [-92.4251836148, 33.8102078263]}, "type": "Feature", "properties": {"collection_times": [{"days": "Mon-Sat", "time": "9:00am"}, {"days": "Sun", "time": "Closed"}], "id": "7174200009", "name": "USPS COLLECTION BOX - BLUE BOX", "address": {"city": "FORDYCE", "state": "AR", "street": "201 N CLIFTON ST", "postcode": "71742"}}},
{"geometry": {"type": "Point", "coordinates": [-92.4206636311, 33.8123885317]}, "type": "Feature", "properties": {"collection_times": [{"days": "Mon-Fri", "time": "4:15pm"}, {"days": "Sat", "time": "11:00am"}, {"days": "Sun", "time": "Closed"}], "id": "7174200012", "name": "USPS COLLECTION BOX - PO LOBBY", "address": {"city": "FORDYCE", "state": "AR", "street": "801 W 4TH ST", "postcode": "71742"}}},
{"geometry": {"type": "Point", "coordinates": [-92.4206636311, 33.8123885317]}, "type": "Feature", "properties": {"collection_times": [{"days": "Mon-Fri", "time": "4:15pm"}, {"days": "Sat", "time": "11:00am"}, {"days": "Sun", "time": "Closed"}], "id": "7174200013", "name": "USPS COLLECTION BOX - BLUE BOX", "address": {"city": "FORDYCE", "state": "AR", "street": "801 W 4TH ST", "postcode": "71742"}}},
{"geometry": {"type": "Point", "coordinates": [-92.4206636311, 33.8123885317]}, "type": "Feature", "properties": {"collection_times": [{"days": "Mon-Fri", "time": "4:15pm"}, {"days": "Sat", "time": "11:00am"}, {"days": "Sun", "time": "Closed"}], "id": "7174200014", "name": "USPS COLLECTION BOX - BLUE BOX", "address": {"city": "FORDYCE", "state": "AR", "street": "801 W 4TH ST", "postcode": "71742"}}},
{"geometry": {"type": "Point", "coordinates": [-92.4206636311, 33.8123885317]}, "type": "Feature", "properties": {"collection_times": [{"days": "Mon-Fri", "time": "4:15pm"}, {"days": "Sat", "time": "11:00am"}, {"days": "Sun", "time": "Closed"}], "id": "7174200015", "name": "USPS COLLECTION BOX - PO LOBBY", "address": {"city": "FORDYCE", "state": "AR", "street": "801 W 4TH ST", "postcode": "71742"}}},
{"geometry": {"type": "Point", "coordinates": [-93.1469139138, 33.9211206354]}, "type": "Feature", "properties": {"collection_times": [{"days": "Mon-Sat", "time": "2:00pm"}, {"days": "Sun", "time": "Closed"}], "id": "7174300002", "name": "USPS COLLECTION BOX - BLUE BOX", "address": {"city": "GURDON", "state": "AR", "street": "699 E BEECH ST", "postcode": "71743"}}},
{"geometry": {"type": "Point", "coordinates": [-93.142676199, 33.9202407164]}, "type": "Feature", "properties": {"collection_times": [{"days": "Mon-Sat", "time": "2:15pm"}, {"days": "Sun", "time": "Closed"}], "id": "7174300003", "name": "USPS COLLECTION BOX - BLUE BOX", "address": {"city": "GURDON", "state": "AR", "street": "114 N 1ST ST", "postcode": "71743"}}},
{"geometry": {"type": "Point", "coordinates": [-93.1457944672, 33.9191192858]}, "type": "Feature", "properties": {"collection_times": [{"days": "Mon-Sat", "time": "1:00pm"}, {"days": "Sun", "time": "Closed"}], "id": "7174300004", "name": "USPS COLLECTION BOX - BLUE BOX", "address": {"city": "GURDON", "state": "AR", "street": "699 E WALNUT ST", "postcode": "71743"}}},
{"geometry": {"type": "Point", "coordinates": [-93.1534428896, 33.9189292013]}, "type": "Feature", "properties": {"collection_times": [{"days": "Mon-Fri", "time": "3:45pm"}, {"days": "Sat", "time": "3:00pm"}, {"days": "Sun", "time": "Closed"}], "id": "7174300005", "name": "USPS COLLECTION BOX - PO LOBBY", "address": {"city": "GURDON", "state": "AR", "street": "110 E JOSLYN ST", "postcode": "71743"}}},
{"geometry": {"type": "Point", "coordinates": [-93.1534428896, 33.9189292013]}, "type": "Feature", "properties": {"collection_times": [{"days": "Mon-Fri", "time": "3:45pm"}, {"days": "Sat", "time": "3:00pm"}, {"days": "Sun", "time": "Closed"}], "id": "7174300006", "name": "USPS COLLECTION BOX - BLUE BOX", "address": {"city": "GURDON", "state": "AR", "street": "110 E JOSLYN ST", "postcode": "71743"}}},
{"geometry": {"type": "Point", "coordinates": [-93.1534428896, 33.9189292013]}, "type": "Feature", "properties": {"collection_times": [{"days": "Mon-Fri", "time": "3:45pm"}, {"days": "Sat", "time": "3:00pm"}, {"days": "Sun", "time": "Closed"}], "id": "7174300007", "name": "USPS COLLECTION BOX - PO LOBBY", "address": {"city": "GURDON", "state": "AR", "street": "110 E JOSLYN ST", "postcode": "71743"}}},
{"geometry": {"type": "Point", "coordinates": [-92.4714757132, 33.5390921772]}, "type": "Feature", "properties": {"collection_times": [{"days": "Mon-Fri", "time": "2:45pm"}, {"days": "Sat", "time": "8:30am"}, {"days": "Sun", "time": "Closed"}], "id": "7174400003", "name": "USPS COLLECTION BOX - BLUE BOX", "address": {"city": "HAMPTON", "state": "AR", "street": "200 DUNN ST", "postcode": "71744"}}},
{"geometry": {"type": "Point", "coordinates": [-92.4714757132, 33.5390921772]}, "type": "Feature", "properties": {"collection_times": [{"days": "Mon-Fri", "time": "2:45pm"}, {"days": "Sat", "time": "8:30am"}, {"days": "Sun", "time": "Closed"}], "id": "7174400005", "name": "USPS COLLECTION BOX - PO LOBBY", "address": {"city": "HAMPTON", "state": "AR", "street": "200 DUNN ST", "postcode": "71744"}}},
{"geometry": {"type": "Point", "coordinates": [-92.4714757132, 33.5390921772]}, "type": "Feature", "properties": {"collection_times": [{"days": "Mon-Fri", "time": "2:45pm"}, {"days": "Sat", "time": "8:30am"}, {"days": "Sun", "time": "Closed"}], "id": "7174400006", "name": "USPS COLLECTION BOX - PO LOBBY", "address": {"city": "HAMPTON", "state": "AR", "street": "200 DUNN ST", "postcode": "71744"}}},
{"geometry": {"type": "Point", "coordinates": [-92.3797718135, 33.5052710889]}, "type": "Feature", "properties": {"collection_times": [{"days": "Mon-Fri", "time": "11:30am"}, {"days": "Sat", "time": "10:00am"}, {"days": "Sun", "time": "Closed"}], "id": "7174500002", "name": "USPS COLLECTION BOX - PO LOBBY", "address": {"city": "HARRELL", "state": "AR", "street": "118 E CENTRAL ST", "postcode": "71745"}}},
{"geometry": {"type": "Point", "coordinates": [-92.1829123872, 33.0398352589]}, "type": "Feature", "properties": {"collection_times": [{"days": "Mon-Fri", "time": "1:30pm"}, {"days": "Sat", "time": "12:30pm"}, {"days": "Sun", "time": "Closed"}], "id": "7174700001", "name": "USPS COLLECTION BOX - PO LOBBY", "address": {"city": "HUTTIG", "state": "AR", "street": "601 OLIN AVE", "postcode": "71747"}}},
{"geometry": {"type": "Point", "coordinates": [-92.1829123872, 33.0398352589]}, "type": "Feature", "properties": {"collection_times": [{"days": "Mon-Fri", "time": "1:30pm"}, {"days": "Sat", "time": "12:30pm"}, {"days": "Sun", "time": "Closed"}], "id": "7174700003", "name": "USPS COLLECTION BOX - PO LOBBY", "address": {"city": "HUTTIG", "state": "AR", "street": "601 OLIN AVE", "postcode": "71747"}}},
{"geometry": {"type": "Point", "coordinates": [-92.4504899667, 33.9219063483]}, "type": "Feature", "properties": {"collection_times": [{"days": "Mon-Fri", "time": "2:30pm"}, {"days": "Sat", "time": "10:00am"}, {"days": "Sun", "time": "Closed"}], "id": "7174800000", "name": "USPS COLLECTION BOX - PO LOBBY", "address": {"city": "IVAN", "state": "AR", "street": "16 DALLAS 126", "postcode": "71748"}}},
{"geometry": {"type": "Point", "coordinates": [-92.7247513653, 33.0183307612]}, "type": "Feature", "properties": {"collection_times": [{"days": "Mon-Fri", "time": "3:15pm"}, {"days": "Sat", "time": "8:30am"}, {"days": "Sun", "time": "Closed"}], "id": "7174900003", "name": "USPS COLLECTION BOX - BLUE BOX", "address": {"city": "JUNCTION CITY", "state": "AR", "street": "100 E CENTER ST", "postcode": "71749"}}},
{"geometry": {"type": "Point", "coordinates": [-92.7247513653, 33.0183307612]}, "type": "Feature", "properties": {"collection_times": [{"days": "Mon-Fri", "time": "3:15pm"}, {"days": "Sat", "time": "8:30am"}, {"days": "Sun", "time": "Closed"}], "id": "7174900004", "name": "USPS COLLECTION BOX - PO LOBBY", "address": {"city": "JUNCTION CITY", "state": "AR", "street": "100 E CENTER ST", "postcode": "71749"}}},
{"geometry": {"type": "Point", "coordinates": [-92.4825055515, 33.1973977971]}, "type": "Feature", "properties": {"collection_times": [{"days": "Mon-Fri", "time": "8:30am"}, {"days": "Sat", "time": "12:30pm"}, {"days": "Sun", "time": "Closed"}], "id": "7175000001", "name": "USPS COLLECTION BOX - PO LOBBY", "address": {"city": "LAWSON", "state": "AR", "street": "117 MOUNT ZION RD", "postcode": "71750"}}},
{"geometry": {"type": "Point", "coordinates": [-92.7923088399, 33.3912561858]}, "type": "Feature", "properties": {"collection_times": [{"days": "Mon-Fri", "time": "11:00am"}, {"days": "Sat", "time": "10:00am"}, {"days": "Sun", "time": "Closed"}], "id": "7175100000", "name": "USPS COLLECTION BOX - PO LOBBY", "address": {"city": "LOUANN", "state": "AR", "street": "102 N MAIN ST", "postcode": "71751"}}},
{"geometry": {"type": "Point", "coordinates": [-92.7923088399, 33.3912561858]}, "type": "Feature", "properties": {"collection_times": [{"days": "Mon-Fri", "time": "11:00am"}, {"days": "Sat", "time": "10:00am"}, {"days": "Sun", "time": "Closed"}], "id": "7175100002", "name": "USPS COLLECTION BOX - PO LOBBY", "address": {"city": "LOUANN", "state": "AR", "street": "102 N MAIN ST", "postcode": "71751"}}},
{"geometry": {"type": "Point", "coordinates": [-93.209883307, 33.3478539197]}, "type": "Feature", "properties": {"collection_times": [{"days": "Mon-Fri", "time": "3:30pm"}, {"days": "Sat", "time": "10:30am"}, {"days": "Sun", "time": "Closed"}], "id": "7175200001", "name": "USPS COLLECTION BOX - PO LOBBY", "address": {"city": "MCNEIL", "state": "AR", "street": "106 OLIVE ST", "postcode": "71752"}}},
{"geometry": {"type": "Point", "coordinates": [-93.2382535951, 33.2672885521]}, "type": "Feature", "properties": {"collection_times": [{"days": "Mon-Fri", "time": "4:15pm"}, {"days": "Sat", "time": "3:30pm"}, {"days": "Sun", "time": "Closed"}], "id": "7175300001", "name": "USPS COLLECTION BOX - BLUE BOX", "address": {"city": "MAGNOLIA", "state": "AR", "street": "120 N PINE", "postcode": "71753"}}},
{"geometry": {"type": "Point", "coordinates": [-93.2263773397, 33.2667455577]}, "type": "Feature", "properties": {"collection_times": [{"days": "Mon-Sat", "time": "10:00am"}, {"days": "Sun", "time": "Closed"}], "id": "7175300002", "name": "USPS COLLECTION BOX - BLUE BOX", "address": {"city": "MAGNOLIA", "state": "AR", "street": "1114 E MAIN ST", "postcode": "71753"}}},
{"geometry": {"type": "Point", "coordinates": [-93.2352997013, 33.2886555644]}, "type": "Feature", "properties": {"collection_times": [{"days": "Mon-Sat", "time": "11:00am"}, {"days": "Sun", "time": "Closed"}], "id": "7175300003", "name": "USPS COLLECTION BOX - BLUE BOX", "address": {"city": "MAGNOLIA", "state": "AR", "street": "100 E UNIVERSITY", "postcode": "71753"}}},
{"geometry": {"type": "Point", "coordinates": [-93.2394485792, 33.2667501303]}, "type": "Feature", "properties": {"collection_times": [{"days": "Mon-Sat", "time": "9:30am"}, {"days": "Sun", "time": "Closed"}], "id": "7175300010", "name": "USPS COLLECTION BOX - BLUE BOX", "address": {"city": "MAGNOLIA", "state": "AR", "street": "126 S JACKSON", "postcode": "71753"}}},
{"geometry": {"type": "Point", "coordinates": [-93.2192262275, 33.2658442745]}, "type": "Feature", "properties": {"collection_times": [{"days": "Mon-Sat", "time": "9:00am"}, {"days": "Sun", "time": "Closed"}], "id": "7175300012", "name": "USPS COLLECTION BOX - BLUE BOX", "address": {"city": "MAGNOLIA", "state": "AR", "street": "1629 E MAIN ST", "postcode": "71753"}}},
{"geometry": {"type": "Point", "coordinates": [-93.2236289034, 33.2774132081]}, "type": "Feature", "properties": {"collection_times": [{"days": "Mon-Sat", "time": "11:20am"}, {"days": "Sun", "time": "Closed"}], "id": "7175300013", "name": "USPS COLLECTION BOX - BLUE BOX", "address": {"city": "MAGNOLIA", "state": "AR", "street": "1400 HIGH SCHOOL DR", "postcode": "71753"}}},
{"geometry": {"type": "Point", "coordinates": [-93.2382535951, 33.2672885521]}, "type": "Feature", "properties": {"collection_times": [{"days": "Mon-Fri", "time": "4:15pm"}, {"days": "Sat", "time": "3:30pm"}, {"days": "Sun", "time": "Closed"}], "id": "7175300017", "name": "USPS COLLECTION BOX - BLUE BOX", "address": {"city": "MAGNOLIA", "state": "AR", "street": "120 N PINE", "postcode": "71753"}}},
{"geometry": {"type": "Point", "coordinates": [-93.2382535951, 33.2672885521]}, "type": "Feature", "properties": {"collection_times": [{"days": "Mon-Fri", "time": "4:15pm"}, {"days": "Sat", "time": "3:30pm"}, {"days": "Sun", "time": "Closed"}], "id": "7175300018", "name": "USPS COLLECTION BOX - BLUE BOX", "address": {"city": "MAGNOLIA", "state": "AR", "street": "120 N PINE", "postcode": "71753"}}},
{"geometry": {"type": "Point", "coordinates": [-93.2382535951, 33.2672885521]}, "type": "Feature", "properties": {"collection_times": [{"days": "Mon-Fri", "time": "4:15pm"}, {"days": "Sat", "time": "3:30pm"}, {"days": "Sun", "time": "Closed"}], "id": "7175300027", "name": "USPS COLLECTION BOX - PO LOBBY", "address": {"city": "MAGNOLIA", "state": "AR", "street": "120 N PINE", "postcode": "71753"}}},
{"geometry": {"type": "Point", "coordinates": [-93.2382535951, 33.2672885521]}, "type": "Feature", "properties": {"collection_times": [{"days": "Mon-Fri", "time": "4:15pm"}, {"days": "Sat", "time": "3:30pm"}, {"days": "Sun", "time": "Closed"}], "id": "7175300028", "name": "USPS COLLECTION BOX - PO LOBBY", "address": {"city": "MAGNOLIA", "state": "AR", "street": "120 N PINE", "postcode": "71753"}}},
{"geometry": {"type": "Point", "coordinates": [-93.2405453711, 33.2667421806]}, "type": "Feature", "properties": {"collection_times": [{"days": "Mon-Sat", "time": "10:00am"}, {"days": "Sun", "time": "Closed"}], "id": "7175300029", "name": "USPS COLLECTION BOX - BLUE BOX", "address": {"city": "MAGNOLIA", "state": "AR", "street": "110 S COURT SQ", "postcode": "71753"}}},
{"geometry": {"type": "Point", "coordinates": [-93.2149898498, 33.2719734925]}, "type": "Feature", "properties": {"collection_times": [{"days": "Mon-Fri", "time": "9:35am"}, {"days": "Sat", "time": "9:15am"}, {"days": "Sun", "time": "Closed"}], "id": "7175300030", "name": "USPS COLLECTION BOX - BLUE BOX", "address": {"city": "MAGNOLIA", "state": "AR", "street": "60 HIGHWAY 79 N", "postcode": "71753"}}},
{"geometry": {"type": "Point", "coordinates": [-92.9552895938, 33.2820464088]}, "type": "Feature", "properties": {"collection_times": [{"days": "Mon-Fri", "time": "11:55am"}, {"days": "Sat", "time": "10:00am"}, {"days": "Sun", "time": "Closed"}], "id": "7175800001", "name": "USPS COLLECTION BOX - BLUE BOX", "address": {"city": "MOUNT HOLLY", "state": "AR", "street": "2872 STEPHENS HWY", "postcode": "71758"}}},
{"geometry": {"type": "Point", "coordinates": [-92.9552895938, 33.2820464088]}, "type": "Feature", "properties": {"collection_times": [{"days": "Mon-Fri", "time": "11:55am"}, {"days": "Sat", "time": "10:00am"}, {"days": "Sun", "time": "Closed"}], "id": "7175800002", "name": "USPS COLLECTION BOX - PO LOBBY", "address": {"city": "MOUNT HOLLY", "state": "AR", "street": "2872 STEPHENS HWY", "postcode": "71758"}}},
{"geometry": {"type": "Point", "coordinates": [-92.6620454436, 33.3159996667]}, "type": "Feature", "properties": {"collection_times": [{"days": "Mon-Fri", "time": "2:45pm"}, {"days": "Sat", "time": "10:00am"}, {"days": "Sun", "time": "Closed"}], "id": "7175900001", "name": "USPS COLLECTION BOX - BLUE BOX", "address": {"city": "NORPHLET", "state": "AR", "street": "101 S VINEYARD ST", "postcode": "71759"}}},
{"geometry": {"type": "Point", "coordinates": [-92.6620454436, 33.3159996667]}, "type": "Feature", "properties": {"collection_times": [{"days": "Mon-Fri", "time": "2:45pm"}, {"days": "Sat", "time": "10:00am"}, {"days": "Sun", "time": "Closed"}], "id": "7175900002", "name": "USPS COLLECTION BOX - PO LOBBY", "address": {"city": "NORPHLET", "state": "AR", "street": "101 S VINEYARD ST", "postcode": "71759"}}},
{"geometry": {"type": "Point", "coordinates": [-92.7199174378, 33.3591074567]}, "type": "Feature", "properties": {"collection_times": [{"days": "Mon-Sat", "time": "10:15am"}, {"days": "Sun", "time": "Closed"}], "id": "7176200002", "name": "USPS COLLECTION BOX - BLUE BOX", "address": {"city": "SMACKOVER", "state": "AR", "street": "600 E 12TH ST", "postcode": "71762"}}},
{"geometry": {"type": "Point", "coordinates": [-92.7222287265, 33.3585573039]}, "type": "Feature", "properties": {"collection_times": [{"days": "Mon-Sat", "time": "11:15am"}, {"days": "Sun", "time": "Closed"}], "id": "7176200003", "name": "USPS COLLECTION BOX - BLUE BOX", "address": {"city": "SMACKOVER", "state": "AR", "street": "1200 PERSHING HWY", "postcode": "71762"}}},
{"geometry": {"type": "Point", "coordinates": [-92.7261197249, 33.3601144881]}, "type": "Feature", "properties": {"collection_times": [{"days": "Mon-Sat", "time": "1:00pm"}, {"days": "Sun", "time": "Closed"}], "id": "7176200004", "name": "USPS COLLECTION BOX - BLUE BOX", "address": {"city": "SMACKOVER", "state": "AR", "street": "1100 BROADWAY ST", "postcode": "71762"}}},
{"geometry": {"type": "Point", "coordinates": [-92.7255119204, 33.3639179524]}, "type": "Feature", "properties": {"collection_times": [{"days": "Mon-Fri", "time": "4:00pm"}, {"days": "Sat", "time": "10:30am"}, {"days": "Sun", "time": "Closed"}], "id": "7176200005", "name": "USPS COLLECTION BOX - BLUE BOX", "address": {"city": "SMACKOVER", "state": "AR", "street": "102 W 8TH ST", "postcode": "71762"}}},
{"geometry": {"type": "Point", "coordinates": [-92.7272802909, 33.3587459115]}, "type": "Feature", "properties": {"collection_times": [{"days": "Mon-Sat", "time": "12:15pm"}, {"days": "Sun", "time": "Closed"}], "id": "7176200007", "name": "USPS COLLECTION BOX - BLUE BOX", "address": {"city": "SMACKOVER", "state": "AR", "street": "200 W 12TH ST", "postcode": "71762"}}},
{"geometry": {"type": "Point", "coordinates": [-92.7255119204, 33.3639179524]}, "type": "Feature", "properties": {"collection_times": [{"days": "Mon-Fri", "time": "4:00pm"}, {"days": "Sat", "time": "10:30am"}, {"days": "Sun", "time": "Closed"}], "id": "7176200009", "name": "USPS COLLECTION BOX - PO LOBBY", "address": {"city": "SMACKOVER", "state": "AR", "street": "102 W 8TH ST", "postcode": "71762"}}},
{"geometry": {"type": "Point", "coordinates": [-92.7255119204, 33.3639179524]}, "type": "Feature", "properties": {"collection_times": [{"days": "Mon-Fri", "time": "4:00pm"}, {"days": "Sat", "time": "10:30am"}, {"days": "Sun", "time": "Closed"}], "id": "7176200010", "name": "USPS COLLECTION BOX - PO LOBBY", "address": {"city": "SMACKOVER", "state": "AR", "street": "102 W 8TH ST", "postcode": "71762"}}},
{"geometry": {"type": "Point", "coordinates": [-92.7231468188, 33.3629833643]}, "type": "Feature", "properties": {"collection_times": [{"days": "Mon-Sat", "time": "8:45am"}, {"days": "Sun", "time": "Closed"}], "id": "7176200011", "name": "USPS COLLECTION BOX - BLUE BOX", "address": {"city": "SMACKOVER", "state": "AR", "street": "810 PERSHING HWY", "postcode": "71762"}}},
{"geometry": {"type": "Point", "coordinates": [-92.8479827026, 33.917697874]}, "type": "Feature", "properties": {"collection_times": [{"days": "Mon-Fri", "time": "3:45pm"}, {"days": "Sat", "time": "11:30am"}, {"days": "Sun", "time": "Closed"}], "id": "7176300001", "name": "USPS COLLECTION BOX - BLUE BOX", "address": {"city": "SPARKMAN", "state": "AR", "street": "204 N COMMERCE AVE", "postcode": "71763"}}},
{"geometry": {"type": "Point", "coordinates": [-92.8479827026, 33.917697874]}, "type": "Feature", "properties": {"collection_times": [{"days": "Mon-Fri", "time": "10:30am"}, {"days": "Sat", "time": "11:30am"}, {"days": "Sun", "time": "Closed"}], "id": "7176300002", "name": "USPS COLLECTION BOX - PO LOBBY", "address": {"city": "SPARKMAN", "state": "AR", "street": "204 N COMMERCE AVE", "postcode": "71763"}}},
{"geometry": {"type": "Point", "coordinates": [-92.8479827026, 33.917697874]}, "type": "Feature", "properties": {"collection_times": [{"days": "Mon-Fri", "time": "10:30am"}, {"days": "Sat", "time": "11:30am"}, {"days": "Sun", "time": "Closed"}], "id": "7176300003", "name": "USPS COLLECTION BOX - PO LOBBY", "address": {"city": "SPARKMAN", "state": "AR", "street": "204 N COMMERCE AVE", "postcode": "71763"}}},
{"geometry": {"type": "Point", "coordinates": [-93.0708251585, 33.41196211]}, "type": "Feature", "properties": {"collection_times": [{"days": "Mon-Fri", "time": "2:45pm"}, {"days": "Sat", "time": "8:15am"}, {"days": "Sun", "time": "Closed"}], "id": "7176400001", "name": "USPS COLLECTION BOX - BLUE BOX", "address": {"city": "STEPHENS", "state": "AR", "street": "202 W RUBY ST", "postcode": "71764"}}},
{"geometry": {"type": "Point", "coordinates": [-93.0708251585, 33.41196211]}, "type": "Feature", "properties": {"collection_times": [{"days": "Mon-Fri", "time": "2:45pm"}, {"days": "Sat", "time": "8:15am"}, {"days": "Sun", "time": "Closed"}], "id": "7176400002", "name": "USPS COLLECTION BOX - PO LOBBY", "address": {"city": "STEPHENS", "state": "AR", "street": "202 W RUBY ST", "postcode": "71764"}}},
{"geometry": {"type": "Point", "coordinates": [-92.4177186125, 33.1245986525]}, "type": "Feature", "properties": {"collection_times": [{"days": "Mon-Fri", "time": "3:00pm"}, {"days": "Sat", "time": "7:30am"}, {"days": "Sun", "time": "Closed"}], "id": "7176500001", "name": "USPS COLLECTION BOX - BLUE BOX", "address": {"city": "STRONG", "state": "AR", "street": "9559 STRONG HWY", "postcode": "71765"}}},
{"geometry": {"type": "Point", "coordinates": [-92.4177186125, 33.1245986525]}, "type": "Feature", "properties": {"collection_times": [{"days": "Mon-Fri", "time": "3:00pm"}, {"days": "Sat", "time": "7:30am"}, {"days": "Sun", "time": "Closed"}], "id": "7176500002", "name": "USPS COLLECTION BOX - PO LOBBY", "address": {"city": "STRONG", "state": "AR", "street": "9559 STRONG HWY", "postcode": "71765"}}},
{"geometry": {"type": "Point", "coordinates": [-92.4177186125, 33.1245986525]}, "type": "Feature", "properties": {"collection_times": [{"days": "Mon-Fri", "time": "3:00pm"}, {"days": "Sat", "time": "7:30am"}, {"days": "Sun", "time": "Closed"}], "id": "7176500003", "name": "USPS COLLECTION BOX - PO LOBBY", "address": {"city": "STRONG", "state": "AR", "street": "9559 STRONG HWY", "postcode": "71765"}}},
{"geometry": {"type": "Point", "coordinates": [-92.4603175367, 33.7541755737]}, "type": "Feature", "properties": {"collection_times": [{"days": "Mon-Fri", "time": "4:25pm"}, {"days": "Sat", "time": "8:00am"}, {"days": "Sun", "time": "Closed"}], "id": "7176600001", "name": "USPS COLLECTION BOX - BLUE BOX", "address": {"city": "THORNTON", "state": "AR", "street": "917 S 1ST ST", "postcode": "71766"}}},
{"geometry": {"type": "Point", "coordinates": [-92.4603175367, 33.7541755737]}, "type": "Feature", "properties": {"collection_times": [{"days": "Mon-Fri", "time": "11:30am"}, {"days": "Sat", "time": "8:00am"}, {"days": "Sun", "time": "Closed"}], "id": "7176600002", "name": "USPS COLLECTION BOX - PO LOBBY", "address": {"city": "THORNTON", "state": "AR", "street": "917 S 1ST ST", "postcode": "71766"}}},
{"geometry": {"type": "Point", "coordinates": [-92.4603175367, 33.7541755737]}, "type": "Feature", "properties": {"collection_times": [{"days": "Mon-Fri", "time": "11:30am"}, {"days": "Sat", "time": "8:00am"}, {"days": "Sun", "time": "Closed"}], "id": "7176600003", "name": "USPS COLLECTION BOX - PO LOBBY", "address": {"city": "THORNTON", "state": "AR", "street": "917 S 1ST ST", "postcode": "71766"}}},
{"geometry": {"type": "Point", "coordinates": [-92.4603175367, 33.7541755737]}, "type": "Feature", "properties": {"collection_times": [{"days": "Mon-Fri", "time": "11:30am"}, {"days": "Sat", "time": "8:00am"}, {"days": "Sun", "time": "Closed"}], "id": "7176600004", "name": "USPS COLLECTION BOX - PO LOBBY", "address": {"city": "THORNTON", "state": "AR", "street": "917 S 1ST ST", "postcode": "71766"}}},
{"geometry": {"type": "Point", "coordinates": [-93.2936160533, 33.3512851389]}, "type": "Feature", "properties": {"collection_times": [{"days": "Mon-Fri", "time": "4:00pm"}, {"days": "Sat", "time": "11:00am"}, {"days": "Sun", "time": "Closed"}], "id": "7177000001", "name": "USPS COLLECTION BOX - BLUE BOX", "address": {"city": "WALDO", "state": "AR", "street": "306 E MCKISSACK ST", "postcode": "71770"}}},
{"geometry": {"type": "Point", "coordinates": [-93.2936160533, 33.3512851389]}, "type": "Feature", "properties": {"collection_times": [{"days": "Mon-Fri", "time": "1:00pm"}, {"days": "Sat", "time": "11:00am"}, {"days": "Sun", "time": "Closed"}], "id": "7177000002", "name": "USPS COLLECTION BOX - PO LOBBY", "address": {"city": "WALDO", "state": "AR", "street": "306 E MCKISSACK ST", "postcode": "71770"}}},
{"geometry": {"type": "Point", "coordinates": [-93.2936160533, 33.3512851389]}, "type": "Feature", "properties": {"collection_times": [{"days": "Mon-Fri", "time": "1:00pm"}, {"days": "Sat", "time": "11:00am"}, {"days": "Sun", "time": "Closed"}], "id": "7177000003", "name": "USPS COLLECTION BOX - PO LOBBY", "address": {"city": "WALDO", "state": "AR", "street": "306 E MCKISSACK ST", "postcode": "71770"}}},
{"geometry": {"type": "Point", "coordinates": [-93.2936160533, 33.3512851389]}, "type": "Feature", "properties": {"collection_times": [{"days": "Mon-Fri", "time": "1:00pm"}, {"days": "Sat", "time": "11:00am"}, {"days": "Sun", "time": "Closed"}], "id": "7177000004", "name": "USPS COLLECTION BOX - PO LOBBY", "address": {"city": "WALDO", "state": "AR", "street": "306 E MCKISSACK ST", "postcode": "71770"}}},
{"geometry": {"type": "Point", "coordinates": [-93.2936160533, 33.3512851389]}, "type": "Feature", "properties": {"collection_times": [{"days": "Mon-Fri", "time": "1:00pm"}, {"days": "Sat", "time": "11:00am"}, {"days": "Sun", "time": "Closed"}], "id": "7177000005", "name": "USPS COLLECTION BOX - PO LOBBY", "address": {"city": "WALDO", "state": "AR", "street": "306 E MCKISSACK ST", "postcode": "71770"}}},
{"geometry": {"type": "Point", "coordinates": [-93.1263809332, 33.8311230118]}, "type": "Feature", "properties": {"collection_times": [{"days": "Mon-Sat", "time": "11:30am"}, {"days": "Sun", "time": "Closed"}], "id": "7177200000", "name": "USPS COLLECTION BOX - BLUE BOX", "address": {"city": "WHELEN SPRINGS", "state": "AR", "street": "306 E MAIN ST", "postcode": "71772"}}},
{"geometry": {"type": "Point", "coordinates": [-93.1263809332, 33.8311230118]}, "type": "Feature", "properties": {"collection_times": [{"days": "Mon-Fri", "time": "9:30am"}, {"days": "Sat", "time": "11:30am"}, {"days": "Sun", "time": "Closed"}], "id": "7177200001", "name": "USPS COLLECTION BOX - PO LOBBY", "address": {"city": "WHELEN SPRINGS", "state": "AR", "street": "306 E MAIN ST", "postcode": "71772"}}}
]}
