{"type": "FeatureCollection", "features": [
{"geometry": {"type": "Point", "coordinates": [-93.5978473252, 33.6706811799]}, "type": "Feature", "properties": {"collection_times": [{"days": "Mon-Sat", "time": "9:00am"}, {"days": "Sun", "time": "Closed"}], "id": "7180100001", "name": "USPS COLLECTION BOX - BLUE BOX", "address": {"city": "HOPE", "state": "AR", "street": "500 N HERVEY ST", "postcode": "71801"}}},
{"geometry": {"type": "Point", "coordinates": [-93.5916295089, 33.6679740601]}, "type": "Feature", "properties": {"collection_times": [{"days": "Mon-Sat", "time": "3:00pm"}, {"days": "Sun", "time": "Closed"}], "id": "7180100004", "name": "USPS COLLECTION BOX - BLUE BOX", "address": {"city": "HOPE", "state": "AR", "street": "117 E 2ND ST", "postcode": "71801"}}},
{"geometry": {"type": "Point", "coordinates": [-93.5870915553, 33.6505514758]}, "type": "Feature", "properties": {"collection_times": [{"days": "Mon-Sat", "time": "9:30am"}, {"days": "Sun", "time": "Closed"}], "id": "7180100007", "name": "USPS COLLECTION BOX - BLUE BOX", "address": {"city": "HOPE", "state": "AR", "street": "1900 S MAIN ST", "postcode": "71801"}}},
{"geometry": {"type": "Point", "coordinates": [-93.5964409376, 33.6667991199]}, "type": "Feature", "properties": {"collection_times": [{"days": "Mon-Sat", "time": "3:00pm"}, {"days": "Sun", "time": "Closed"}], "id": "7180100008", "name": "USPS COLLECTION BOX - BLUE BOX", "address": {"city": "HOPE", "state": "AR", "street": "201 S HERVEY ST", "postcode": "71801"}}},
{"geometry": {"type": "Point", "coordinates": [-93.5992755078, 33.6594682297]}, "type": "Feature", "properties": {"collection_times": [{"days": "Mon-Sat", "time": "10:00am"}, {"days": "Sun", "time": "Closed"}], "id": "7180100009", "name": "USPS COLLECTION BOX - BLUE BOX", "address": {"city": "HOPE", "state": "AR", "street": "801 MACK ST", "postcode": "71801"}}},
{"geometry": {"type": "Point", "coordinates": [-93.5985470636, 33.6653458117]}, "type": "Feature", "properties": {"collection_times": [{"days": "Mon-Fri", "time": "11:00am"}, {"days": "Sat", "time": "10:00am"}, {"days": "Sun", "time": "Closed"}], "id": "7180100013", "name": "USPS COLLECTION BOX - BLUE BOX", "address": {"city": "HOPE", "state": "AR", "street": "300 S WASHINGTON ST", "postcode": "71801"}}},
{"geometry": {"type": "Point", "coordinates": [-93.5872373368, 33.6545349449]}, "type": "Feature", "properties": {"collection_times": [{"days": "Mon-Sat", "time": "12:00pm"}, {"days": "Sun", "time": "Closed"}], "id": "7180100014", "name": "USPS COLLECTION BOX - BLUE BOX", "address": {"city": "HOPE", "state": "AR", "street": "1523 S MAIN ST", "postcode": "71801"}}},
{"geometry": {"type": "Point", "coordinates": [-93.5886175785, 33.6695777267]}, "type": "Feature", "properties": {"collection_times": [{"days": "Mon-Fri", "time": "5:30pm"}, {"days": "Sat", "time": "3:30pm"}, {"days": "Sun", "time": "Closed"}], "id": "7180100016", "name": "USPS COLLECTION BOX - BLUE BOX", "address": {"city": "HOPE", "state": "AR", "street": "121 S LAUREL ST", "postcode": "71801"}}},
{"geometry": {"type": "Point", "coordinates": [-93.5886175785, 33.6695777267]}, "type": "Feature", "properties": {"collection_times": [{"days": "Mon-Fri", "time": "5:30pm"}, {"days": "Sat", "time": "3:30pm"}, {"days": "Sun", "time": "Closed"}], "id": "7180100019", "name": "USPS COLLECTION BOX - BLUE BOX", "address": {"city": "HOPE", "state": "AR", "street": "121 S LAUREL ST", "postcode": "71801"}}},
{"geometry": {"type": "Point", "coordinates": [-93.5886175785, 33.6695777267]}, "type": "Feature", "properties": {"collection_times": [{"days": "Mon-Fri", "time": "5:30pm"}, {"days": "Sat", "time": "3:30pm"}, {"days": "Sun", "time": "Closed"}], "id": "7180100021", "name": "USPS COLLECTION BOX - BLUE BOX", "address": {"city": "HOPE", "state": "AR", "street": "121 S LAUREL ST", "postcode": "71801"}}},
{"geometry": {"type": "Point", "coordinates": [-93.5920966535, 33.6689256027]}, "type": "Feature", "properties": {"collection_times": [{"days": "Mon-Sat", "time": "3:00pm"}, {"days": "Sun", "time": "Closed"}], "id": "7180100024", "name": "USPS COLLECTION BOX - BLUE BOX", "address": {"city": "HOPE", "state": "AR", "street": "101 S MAIN ST", "postcode": "71801"}}},
{"geometry": {"type": "Point", "coordinates": [-93.5886175785, 33.6695777267]}, "type": "Feature", "properties": {"collection_times": [{"days": "Mon-Fri", "time": "5:30pm"}, {"days": "Sat", "time": "3:30pm"}, {"days": "Sun", "time": "Closed"}], "id": "7180100026", "name": "USPS COLLECTION BOX - PO LOBBY", "address": {"city": "HOPE", "state": "AR", "street": "121 S LAUREL ST", "postcode": "71801"}}},
{"geometry": {"type": "Point", "coordinates": [-93.5886175785, 33.6695777267]}, "type": "Feature", "properties": {"collection_times": [{"days": "Mon-Fri", "time": "5:30pm"}, {"days": "Sat", "time": "3:30pm"}, {"days": "Sun", "time": "Closed"}], "id": "7180100027", "name": "USPS COLLECTION BOX - PO LOBBY", "address": {"city": "HOPE", "state": "AR", "street": "121 S LAUREL ST", "postcode": "71801"}}},
{"geometry": {"type": "Point", "coordinates": [-93.5290653019, 33.7000761037]}, "type": "Feature", "properties": {"collection_times": [{"days": "Mon-Sat", "time": "9:00am"}, {"days": "Sun", "time": "Closed"}], "id": "7180100028", "name": "USPS COLLECTION BOX - BLUE BOX", "address": {"city": "HOPE", "state": "AR", "street": "6911 HIGHWAY 67 E", "postcode": "71801"}}},
{"geometry": {"type": "Point", "coordinates": [-93.5900417862, 33.6465457009]}, "type": "Feature", "properties": {"collection_times": [{"days": "Mon-Sat", "time": "10:00am"}, {"days": "Sun", "time": "Closed"}], "id": "7180100030", "name": "USPS COLLECTION BOX - BLUE BOX", "address": {"city": "HOPE", "state": "AR", "street": "2500 S MAIN ST", "postcode": "71801"}}},
{"geometry": {"type": "Point", "coordinates": [-93.6061493073, 33.6801351547]}, "type": "Feature", "properties": {"collection_times": [{"days": "Mon-Sat", "time": "10:00am"}, {"days": "Sun", "time": "Closed"}], "id": "7180100031", "name": "USPS COLLECTION BOX - BLUE BOX", "address": {"city": "HOPE", "state": "AR", "street": "2400 N HERVEY ST", "postcode": "71801"}}},
{"geometry": {"type": "Point", "coordinates": [-94.2602091933, 33.7704620323]}, "type": "Feature", "properties": {"collection_times": [{"days": "Mon-Fri", "time": "1:30pm"}, {"days": "Sat", "time": "9:15am"}, {"days": "Sun", "time": "Closed"}], "id": "7182000001", "name": "USPS COLLECTION BOX - BLUE BOX", "address": {"city": "ALLEENE", "state": "AR", "street": "1845 ARKANSAS STATE HIGHWAY 234", "postcode": "71820"}}},
{"geometry": {"type": "Point", "coordinates": [-94.2602091933, 33.7704620323]}, "type": "Feature", "properties": {"collection_times": [{"days": "Mon-Fri", "time": "1:30pm"}, {"days": "Sat", "time": "9:15am"}, {"days": "Sun", "time": "Closed"}], "id": "7182000002", "name": "USPS COLLECTION BOX - PO LOBBY", "address": {"city": "ALLEENE", "state": "AR", "street": "1845 ARKANSAS STATE HIGHWAY 234", "postcode": "71820"}}},
{"geometry": {"type": "Point", "coordinates": [-94.2602091933, 33.7704620323]}, "type": "Feature", "properties": {"collection_times": [{"days": "Mon-Fri", "time": "1:30pm"}, {"days": "Sat", "time": "9:15am"}, {"days": "Sun", "time": "Closed"}], "id": "7182000003", "name": "USPS COLLECTION BOX - PO LOBBY", "address": {"city": "ALLEENE", "state": "AR", "street": "1845 ARKANSAS STATE HIGHWAY 234", "postcode": "71820"}}},
{"geometry": {"type": "Point", "coordinates": [-94.1327558721, 33.6728385176]}, "type": "Feature", "properties": {"collection_times": [{"days": "Mon-Sat", "time": "9:15am"}, {"days": "Sun", "time": "Closed"}], "id": "7182200001", "name": "USPS COLLECTION BOX - BLUE BOX", "address": {"city": "ASHDOWN", "state": "AR", "street": "351 N 2ND ST", "postcode": "71822"}}},
{"geometry": {"type": "Point", "coordinates": [-94.1250732574, 33.669251748]}, "type": "Feature", "properties": {"collection_times": [{"days": "Mon-Sat", "time": "3:00pm"}, {"days": "Sun", "time": "Closed"}], "id": "7182200004", "name": "USPS COLLECTION BOX - BLUE BOX", "address": {"city": "ASHDOWN", "state": "AR", "street": "451 E LOCKE ST", "postcode": "71822"}}},
{"geometry": {"type": "Point", "coordinates": [-94.1250732574, 33.669251748]}, "type": "Feature", "properties": {"collection_times": [{"days": "Mon-Fri", "time": "4:45pm"}, {"days": "Sat", "time": "3:45pm"}, {"days": "Sun", "time": "Closed"}], "id": "7182200005", "name": "USPS COLLECTION BOX - PO LOBBY", "address": {"city": "ASHDOWN", "state": "AR", "street": "451 E LOCKE ST", "postcode": "71822"}}},
{"geometry": {"type": "Point", "coordinates": [-94.1250732574, 33.669251748]}, "type": "Feature", "properties": {"collection_times": [{"days": "Mon-Sat", "time": "3:00pm"}, {"days": "Sun", "time": "Closed"}], "id": "7182200006", "name": "USPS COLLECTION BOX - BLUE BOX", "address": {"city": "ASHDOWN", "state": "AR", "street": "451 E LOCKE ST", "postcode": "71822"}}},
{"geometry": {"type": "Point", "coordinates": [-94.1250732574, 33.669251748]}, "type": "Feature", "properties": {"collection_times": [{"days": "Mon-Fri", "time": "4:45pm"}, {"days": "Sat", "time": "3:45pm"}, {"days": "Sun", "time": "Closed"}], "id": "7182200007", "name": "USPS COLLECTION BOX - PO LOBBY", "address": {"city": "ASHDOWN", "state": "AR", "street": "451 E LOCKE ST", "postcode": "71822"}}},
{"geometry": {"type": "Point", "coordinates": [-94.1151997256, 33.8362283673]}, "type": "Feature", "properties": {"collection_times": [{"days": "Mon-Sat", "time": "2:30pm"}, {"days": "Sun", "time": "Closed"}], "id": "7182300001", "name": "USPS COLLECTION BOX - BLUE BOX", "address": {"city": "BEN LOMOND", "state": "AR", "street": "102 S MAIN ST", "postcode": "71823"}}},
{"geometry": {"type": "Point", "coordinates": [-94.1151997256, 33.8362283673]}, "type": "Feature", "properties": {"collection_times": [{"days": "Mon-Sat", "time": "2:30pm"}, {"days": "Sun", "time": "Closed"}], "id": "7182300002", "name": "USPS COLLECTION BOX - PO LOBBY", "address": {"city": "BEN LOMOND", "state": "AR", "street": "102 S MAIN ST", "postcode": "71823"}}},
{"geometry": {"type": "Point", "coordinates": [-93.5785959148, 33.8679505895]}, "type": "Feature", "properties": {"collection_times": [{"days": "Mon-Fri", "time": "3:30pm"}, {"days": "Sat", "time": "8:00am"}, {"days": "Sun", "time": "Closed"}], "id": "7182500001", "name": "USPS COLLECTION BOX - BLUE BOX", "address": {"city": "BLEVINS", "state": "AR", "street": "5911 HIGHWAY 29 N", "postcode": "71825"}}},
{"geometry": {"type": "Point", "coordinates": [-93.5785959148, 33.8679505895]}, "type": "Feature", "properties": {"collection_times": [{"days": "Mon-Fri", "time": "10:30am"}, {"days": "Sat", "time": "8:00am"}, {"days": "Sun", "time": "Closed"}], "id": "7182500002", "name": "USPS COLLECTION BOX - PO LOBBY", "address": {"city": "BLEVINS", "state": "AR", "street": "5911 HIGHWAY 29 N", "postcode": "71825"}}},
{"geometry": {"type": "Point", "coordinates": [-93.5785959148, 33.8679505895]}, "type": "Feature", "properties": {"collection_times": [{"days": "Mon-Fri", "time": "10:30am"}, {"days": "Sat", "time": "8:00am"}, {"days": "Sun", "time": "Closed"}], "id": "7182500003", "name": "USPS COLLECTION BOX - PO LOBBY", "address": {"city": "BLEVINS", "state": "AR", "street": "5911 HIGHWAY 29 N", "postcode": "71825"}}},
{"geometry": {"type": "Point", "coordinates": [-93.6779160845, 33.1093352463]}, "type": "Feature", "properties": {"collection_times": [{"days": "Mon-Fri", "time": "3:45pm"}, {"days": "Sat", "time": "8:15am"}, {"days": "Sun", "time": "Closed"}], "id": "7182600001", "name": "USPS COLLECTION BOX - BLUE BOX", "address": {"city": "BRADLEY", "state": "AR", "street": "305 PULLMAN ST", "postcode": "71826"}}},
{"geometry": {"type": "Point", "coordinates": [-93.6779160845, 33.1093352463]}, "type": "Feature", "properties": {"collection_times": [{"days": "Mon-Fri", "time": "2:45pm"}, {"days": "Sat", "time": "8:15am"}, {"days": "Sun", "time": "Closed"}], "id": "7182600002", "name": "USPS COLLECTION BOX - PO LOBBY", "address": {"city": "BRADLEY", "state": "AR", "street": "305 PULLMAN ST", "postcode": "71826"}}},
{"geometry": {"type": "Point", "coordinates": [-93.6779160845, 33.1093352463]}, "type": "Feature", "properties": {"collection_times": [{"days": "Mon-Fri", "time": "2:45pm"}, {"days": "Sat", "time": "8:15am"}, {"days": "Sun", "time": "Closed"}], "id": "7182600003", "name": "USPS COLLECTION BOX - PO LOBBY", "address": {"city": "BRADLEY", "state": "AR", "street": "305 PULLMAN ST", "postcode": "71826"}}},
{"geometry": {"type": "Point", "coordinates": [-93.4429537631, 33.3692195577]}, "type": "Feature", "properties": {"collection_times": [{"days": "Mon-Fri", "time": "3:30pm"}, {"days": "Sat", "time": "8:30am"}, {"days": "Sun", "time": "Closed"}], "id": "7182700001", "name": "USPS COLLECTION BOX - BLUE BOX", "address": {"city": "BUCKNER", "state": "AR", "street": "119 W MYRTLE ST", "postcode": "71827"}}},
{"geometry": {"type": "Point", "coordinates": [-93.4429537631, 33.3692195577]}, "type": "Feature", "properties": {"collection_times": [{"days": "Mon-Fri", "time": "10:30am"}, {"days": "Sat", "time": "8:30am"}, {"days": "Sun", "time": "Closed"}], "id": "7182700002", "name": "USPS COLLECTION BOX - PO LOBBY", "address": {"city": "BUCKNER", "state": "AR", "street": "119 W MYRTLE ST", "postcode": "71827"}}},
{"geometry": {"type": "Point", "coordinates": [-93.4429537631, 33.3692195577]}, "type": "Feature", "properties": {"collection_times": [{"days": "Mon-Fri", "time": "10:30am"}, {"days": "Sat", "time": "8:30am"}, {"days": "Sun", "time": "Closed"}], "id": "7182700003", "name": "USPS COLLECTION BOX - PO LOBBY", "address": {"city": "BUCKNER", "state": "AR", "street": "119 W MYRTLE ST", "postcode": "71827"}}},
{"geometry": {"type": "Point", "coordinates": [-93.4429537631, 33.3692195577]}, "type": "Feature", "properties": {"collection_times": [{"days": "Mon-Fri", "time": "10:30am"}, {"days": "Sat", "time": "8:30am"}, {"days": "Sun", "time": "Closed"}], "id": "7182700004", "name": "USPS COLLECTION BOX - PO LOBBY", "address": {"city": "BUCKNER", "state": "AR", "street": "119 W MYRTLE ST", "postcode": "71827"}}},
{"geometry": {"type": "Point", "coordinates": [-93.4429537631, 33.3692195577]}, "type": "Feature", "properties": {"collection_times": [{"days": "Mon-Fri", "time": "10:30am"}, {"days": "Sat", "time": "8:30am"}, {"days": "Sun", "time": "Closed"}], "id": "7182700005", "name": "USPS COLLECTION BOX - PO LOBBY", "address": {"city": "BUCKNER", "state": "AR", "street": "119 W MYRTLE ST", "postcode": "71827"}}},
{"geometry": {"type": "Point", "coordinates": [-93.2373071868, 33.6224214951]}, "type": "Feature", "properties": {"collection_times": [{"days": "Mon-Sat", "time": "10:30am"}, {"days": "Sun", "time": "Closed"}], "id": "7182800001", "name": "USPS COLLECTION BOX - PO LOBBY", "address": {"city": "CALE", "state": "AR", "street": "794 WESTMORELAND DR", "postcode": "71828"}}},
{"geometry": {"type": "Point", "coordinates": [-93.8115608855, 33.7761003434]}, "type": "Feature", "properties": {"collection_times": [{"days": "Mon-Sat", "time": "12:15pm"}, {"days": "Sun", "time": "Closed"}], "id": "7183100000", "name": "USPS COLLECTION BOX - PO LOBBY", "address": {"city": "COLUMBUS", "state": "AR", "street": "2803 HIGHWAY 73 W", "postcode": "71831"}}},
{"geometry": {"type": "Point", "coordinates": [-93.8115608855, 33.7761003434]}, "type": "Feature", "properties": {"collection_times": [{"days": "Mon-Sat", "time": "12:15pm"}, {"days": "Sun", "time": "Closed"}], "id": "7183100001", "name": "USPS COLLECTION BOX - PO LOBBY", "address": {"city": "COLUMBUS", "state": "AR", "street": "2803 HIGHWAY 73 W", "postcode": "71831"}}},
{"geometry": {"type": "Point", "coordinates": [-93.8115608855, 33.7761003434]}, "type": "Feature", "properties": {"collection_times": [{"days": "Mon-Sat", "time": "12:15pm"}, {"days": "Sun", "time": "Closed"}], "id": "7183100002", "name": "USPS COLLECTION BOX - BLUE BOX", "address": {"city": "COLUMBUS", "state": "AR", "street": "2803 HIGHWAY 73 W", "postcode": "71831"}}},
{"geometry": {"type": "Point", "coordinates": [-94.3415472158, 34.0367777142]}, "type": "Feature", "properties": {"collection_times": [{"days": "Mon-Fri", "time": "4:00pm"}, {"days": "Sat", "time": "3:00pm"}, {"days": "Sun", "time": "Closed"}], "id": "7183200001", "name": "USPS COLLECTION BOX - BLUE BOX", "address": {"city": "DEQUEEN", "state": "AR", "street": "105 N 4TH ST", "postcode": "71832"}}},
{"geometry": {"type": "Point", "coordinates": [-94.3451269279, 34.0464279837]}, "type": "Feature", "properties": {"collection_times": [{"days": "Mon-Sat", "time": "11:45am"}, {"days": "Sun", "time": "Closed"}], "id": "7183200002", "name": "USPS COLLECTION BOX - BLUE BOX", "address": {"city": "DEQUEEN", "state": "AR", "street": "700 W COLLIN RAYE DR", "postcode": "71832"}}},
{"geometry": {"type": "Point", "coordinates": [-94.3405344302, 34.0456173318]}, "type": "Feature", "properties": {"collection_times": [{"days": "Mon-Sat", "time": "9:30am"}, {"days": "Sun", "time": "Closed"}], "id": "7183200003", "name": "USPS COLLECTION BOX - BLUE BOX", "address": {"city": "DEQUEEN", "state": "AR", "street": "320 W COLLIN RAYE DR", "postcode": "71832"}}},
{"geometry": {"type": "Point", "coordinates": [-94.3519671199, 34.0466949099]}, "type": "Feature", "properties": {"collection_times": [{"days": "Mon-Sat", "time": "10:00am"}, {"days": "Sun", "time": "Closed"}], "id": "7183200004", "name": "USPS COLLECTION BOX - BLUE BOX", "address": {"city": "DEQUEEN", "state": "AR", "street": "1306 W COLLIN RAYE DR", "postcode": "71832"}}},
{"geometry": {"type": "Point", "coordinates": [-94.3415472158, 34.0367777142]}, "type": "Feature", "properties": {"collection_times": [{"days": "Mon-Fri", "time": "4:00pm"}, {"days": "Sat", "time": "3:00pm"}, {"days": "Sun", "time": "Closed"}], "id": "7183200006", "name": "USPS COLLECTION BOX - PO LOBBY", "address": {"city": "DEQUEEN", "state": "AR", "street": "105 N 4TH ST", "postcode": "71832"}}},
{"geometry": {"type": "Point", "coordinates": [-94.3415472158, 34.0367777142]}, "type": "Feature", "properties": {"collection_times": [{"days": "Mon-Fri", "time": "4:00pm"}, {"days": "Sat", "time": "3:00pm"}, {"days": "Sun", "time": "Closed"}], "id": "7183200007", "name": "USPS COLLECTION BOX - BLUE BOX", "address": {"city": "DEQUEEN", "state": "AR", "street": "105 N 4TH ST", "postcode": "71832"}}},
{"geometry": {"type": "Point", "coordinates": [-94.3415472158, 34.0367777142]}, "type": "Feature", "properties": {"collection_times": [{"days": "Mon-Fri", "time": "4:00pm"}, {"days": "Sat", "time": "3:00pm"}, {"days": "Sun", "time": "Closed"}], "id": "7183200008", "name": "USPS COLLECTION BOX - BLUE BOX", "address": {"city": "DEQUEEN", "state": "AR", "street": "105 N 4TH ST", "postcode": "71832"}}},
{"geometry": {"type": "Point", "coordinates": [-94.3415472158, 34.0367777142]}, "type": "Feature", "properties": {"collection_times": [{"days": "Mon-Fri", "time": "4:00pm"}, {"days": "Sat", "time": "3:00pm"}, {"days": "Sun", "time": "Closed"}], "id": "7183200009", "name": "USPS COLLECTION BOX - PO LOBBY", "address": {"city": "DEQUEEN", "state": "AR", "street": "105 N 4TH ST", "postcode": "71832"}}},
{"geometry": {"type": "Point", "coordinates": [-94.3415472158, 34.0367777142]}, "type": "Feature", "properties": {"collection_times": [{"days": "Mon-Fri", "time": "4:00pm"}, {"days": "Sat", "time": "3:00pm"}, {"days": "Sun", "time": "Closed"}], "id": "7183200010", "name": "USPS COLLECTION BOX - PO LOBBY", "address": {"city": "DEQUEEN", "state": "AR", "street": "105 N 4TH ST", "postcode": "71832"}}},
{"geometry": {"type": "Point", "coordinates": [-94.3415472158, 34.0367777142]}, "type": "Feature", "properties": {"collection_times": [{"days": "Mon-Fri", "time": "4:00pm"}, {"days": "Sat", "time": "3:00pm"}, {"days": "Sun", "time": "Closed"}], "id": "7183200011", "name": "USPS COLLECTION BOX - PO LOBBY", "address": {"city": "DEQUEEN", "state": "AR", "street": "105 N 4TH ST", "postcode": "71832"}}},
{"geometry": {"type": "Point", "coordinates": [-94.0170211061, 34.1177183258]}, "type": "Feature", "properties": {"collection_times": [{"days": "Mon-Fri", "time": "3:30pm"}, {"days": "Sat", "time": "11:00am"}, {"days": "Sun", "time": "Closed"}], "id": "7183300001", "name": "USPS COLLECTION BOX - BLUE BOX", "address": {"city": "DIERKS", "state": "AR", "street": "121 MAIN ST", "postcode": "71833"}}},
{"geometry": {"type": "Point", "coordinates": [-94.0170211061, 34.1177183258]}, "type": "Feature", "properties": {"collection_times": [{"days": "Mon-Fri", "time": "4:15pm"}, {"days": "Sat", "time": "11:00am"}, {"days": "Sun", "time": "Closed"}], "id": "7183300002", "name": "USPS COLLECTION BOX - PO LOBBY", "address": {"city": "DIERKS", "state": "AR", "street": "121 MAIN ST", "postcode": "71833"}}},
{"geometry": {"type": "Point", "coordinates": [-94.0170211061, 34.1177183258]}, "type": "Feature", "properties": {"collection_times": [{"days": "Mon-Fri", "time": "4:15pm"}, {"days": "Sat", "time": "11:00am"}, {"days": "Sun", "time": "Closed"}], "id": "7183300003", "name": "USPS COLLECTION BOX - PO LOBBY", "address": {"city": "DIERKS", "state": "AR", "street": "121 MAIN ST", "postcode": "71833"}}},
{"geometry": {"type": "Point", "coordinates": [-93.9579940133, 33.1156648436]}, "type": "Feature", "properties": {"collection_times": [{"days": "Mon-Fri", "time": "3:40pm"}, {"days": "Sat", "time": "8:40am"}, {"days": "Sun", "time": "Closed"}], "id": "7183400001", "name": "USPS COLLECTION BOX - BLUE BOX", "address": {"city": "DODDRIDGE", "state": "AR", "street": "28338 HIGHWAY 71", "postcode": "71834"}}},
{"geometry": {"type": "Point", "coordinates": [-93.9579940133, 33.1156648436]}, "type": "Feature", "properties": {"collection_times": [{"days": "Mon-Fri", "time": "10:30am"}, {"days": "Sat", "time": "8:40am"}, {"days": "Sun", "time": "Closed"}], "id": "7183400002", "name": "USPS COLLECTION BOX - PO LOBBY", "address": {"city": "DODDRIDGE", "state": "AR", "street": "28338 HIGHWAY 71", "postcode": "71834"}}},
{"geometry": {"type": "Point", "coordinates": [-93.4771910029, 33.725888895]}, "type": "Feature", "properties": {"collection_times": [{"days": "Mon-Fri", "time": "3:45pm"}, {"days": "Sat", "time": "7:30am"}, {"days": "Sun", "time": "Closed"}], "id": "7183500001", "name": "USPS COLLECTION BOX - BLUE BOX", "address": {"city": "EMMET", "state": "AR", "street": "101 W 1ST ST", "postcode": "71835"}}},
{"geometry": {"type": "Point", "coordinates": [-93.4771910029, 33.725888895]}, "type": "Feature", "properties": {"collection_times": [{"days": "Mon-Fri", "time": "11:30am"}, {"days": "Sat", "time": "7:30am"}, {"days": "Sun", "time": "Closed"}], "id": "7183500002", "name": "USPS COLLECTION BOX - PO LOBBY", "address": {"city": "EMMET", "state": "AR", "street": "101 W 1ST ST", "postcode": "71835"}}},
{"geometry": {"type": "Point", "coordinates": [-93.4771910029, 33.725888895]}, "type": "Feature", "properties": {"collection_times": [{"days": "Mon-Fri", "time": "11:30am"}, {"days": "Sat", "time": "7:30am"}, {"days": "Sun", "time": "Closed"}], "id": "7183500003", "name": "USPS COLLECTION BOX - PO LOBBY", "address": {"city": "EMMET", "state": "AR", "street": "101 W 1ST ST", "postcode": "71835"}}},
{"geometry": {"type": "Point", "coordinates": [-94.3968152747, 33.7218303648]}, "type": "Feature", "properties": {"collection_times": [{"days": "Mon-Fri", "time": "3:30pm"}, {"days": "Sat", "time": "8:15am"}, {"days": "Sun", "time": "Closed"}], "id": "7183600005", "name": "USPS COLLECTION BOX - BLUE BOX", "address": {"city": "FOREMAN", "state": "AR", "street": "510 TRACY LAWRENCE AVE", "postcode": "71836"}}},
{"geometry": {"type": "Point", "coordinates": [-94.3968152747, 33.7218303648]}, "type": "Feature", "properties": {"collection_times": [{"days": "Mon-Fri", "time": "3:30pm"}, {"days": "Sat", "time": "8:15am"}, {"days": "Sun", "time": "Closed"}], "id": "7183600006", "name": "USPS COLLECTION BOX - PO LOBBY", "address": {"city": "FOREMAN", "state": "AR", "street": "510 TRACY LAWRENCE AVE", "postcode": "71836"}}},
{"geometry": {"type": "Point", "coordinates": [-94.3968152747, 33.7218303648]}, "type": "Feature", "properties": {"collection_times": [{"days": "Mon-Fri", "time": "3:30pm"}, {"days": "Sat", "time": "8:15am"}, {"days": "Sun", "time": "Closed"}], "id": "7183600007", "name": "USPS COLLECTION BOX - PO LOBBY", "address": {"city": "FOREMAN", "state": "AR", "street": "510 TRACY LAWRENCE AVE", "postcode": "71836"}}},
{"geometry": {"type": "Point", "coordinates": [-93.8855084035, 33.2811323077]}, "type": "Feature", "properties": {"collection_times": [{"days": "Mon-Fri", "time": "4:00pm"}, {"days": "Sat", "time": "8:30am"}, {"days": "Sun", "time": "Closed"}], "id": "7183700005", "name": "USPS COLLECTION BOX - PO LOBBY", "address": {"city": "FOUKE", "state": "AR", "street": "206 N MONSTER EXPY", "postcode": "71837"}}},
{"geometry": {"type": "Point", "coordinates": [-93.8855084035, 33.2811323077]}, "type": "Feature", "properties": {"collection_times": [{"days": "Mon-Fri", "time": "4:00pm"}, {"days": "Sat", "time": "8:30am"}, {"days": "Sun", "time": "Closed"}], "id": "7183700006", "name": "USPS COLLECTION BOX - PO LOBBY", "address": {"city": "FOUKE", "state": "AR", "street": "206 N MONSTER EXPY", "postcode": "71837"}}},
{"geometry": {"type": "Point", "coordinates": [-93.8855084035, 33.2811323077]}, "type": "Feature", "properties": {"collection_times": [{"days": "Mon-Fri", "time": "4:00pm"}, {"days": "Sat", "time": "8:30am"}, {"days": "Sun", "time": "Closed"}], "id": "7183700007", "name": "USPS COLLECTION BOX - BLUE BOX", "address": {"city": "FOUKE", "state": "AR", "street": "206 N MONSTER EXPY", "postcode": "71837"}}},
{"geometry": {"type": "Point", "coordinates": [-93.8151961044, 33.6125242978]}, "type": "Feature", "properties": {"collection_times": [{"days": "Mon-Fri", "time": "3:50pm"}, {"days": "Sat", "time": "8:30am"}, {"days": "Sun", "time": "Closed"}], "id": "7183800001", "name": "USPS COLLECTION BOX - BLUE BOX", "address": {"city": "FULTON", "state": "AR", "street": "303 LITTLE RIVER ST", "postcode": "71838"}}},
{"geometry": {"type": "Point", "coordinates": [-93.8151961044, 33.6125242978]}, "type": "Feature", "properties": {"collection_times": [{"days": "Mon-Fri", "time": "11:30am"}, {"days": "Sat", "time": "8:30am"}, {"days": "Sun", "time": "Closed"}], "id": "7183800002", "name": "USPS COLLECTION BOX - PO LOBBY", "address": {"city": "FULTON", "state": "AR", "street": "303 LITTLE RIVER ST", "postcode": "71838"}}},
{"geometry": {"type": "Point", "coordinates": [-93.7105805523, 33.3589682373]}, "type": "Feature", "properties": {"collection_times": [{"days": "Mon-Fri", "time": "3:30pm"}, {"days": "Sat", "time": "11:30am"}, {"days": "Sun", "time": "Closed"}], "id": "7183900001", "name": "USPS COLLECTION BOX - BLUE BOX", "address": {"city": "GARLAND CITY", "state": "AR", "street": "101 6TH ST", "postcode": "71839"}}},
{"geometry": {"type": "Point", "coordinates": [-93.7567170837, 33.3183923947]}, "type": "Feature", "properties": {"collection_times": [{"days": "Mon-Fri", "time": "12:00pm"}, {"days": "Sat", "time": "11:30am"}, {"days": "Sun", "time": "Closed"}], "id": "7183900002", "name": "USPS COLLECTION BOX - PO LOBBY", "address": {"city": "GARLAND CITY", "state": "AR", "street": "101 6TH ST", "postcode": "71839"}}},
{"geometry": {"type": "Point", "coordinates": [-93.9152894777, 33.3834544024]}, "type": "Feature", "properties": {"collection_times": [{"days": "Mon-Fri", "time": "12:00pm"}, {"days": "Sat", "time": "9:00am"}, {"days": "Sun", "time": "Closed"}], "id": "7184000001", "name": "USPS COLLECTION BOX - PO LOBBY", "address": {"city": "GENOA", "state": "AR", "street": "8185 STATE HIGHWAY 196", "postcode": "71840"}}},
{"geometry": {"type": "Point", "coordinates": [-93.9093958696, 33.3836003156]}, "type": "Feature", "properties": {"collection_times": [{"days": "Mon-Fri", "time": "3:30pm"}, {"days": "Sat", "time": "9:00am"}, {"days": "Sun", "time": "Closed"}], "id": "7184000002", "name": "USPS COLLECTION BOX - BLUE BOX", "address": {"city": "GENOA", "state": "AR", "street": "8185 STATE HIGHWAY 196", "postcode": "71840"}}},
{"geometry": {"type": "Point", "coordinates": [-94.3142839951, 34.1703152116]}, "type": "Feature", "properties": {"collection_times": [{"days": "Mon-Fri", "time": "10:30am"}, {"days": "Sat", "time": "9:00am"}, {"days": "Sun", "time": "Closed"}], "id": "7184100002", "name": "USPS COLLECTION BOX - PO LOBBY", "address": {"city": "GILLHAM", "state": "AR", "street": "110 N 2ND ST", "postcode": "71841"}}},
{"geometry": {"type": "Point", "coordinates": [-94.3585879268, 33.9385786502]}, "type": "Feature", "properties": {"collection_times": [{"days": "Mon-Fri", "time": "4:15pm"}, {"days": "Sat", "time": "9:00am"}, {"days": "Sun", "time": "Closed"}], "id": "7184200001", "name": "USPS COLLECTION BOX - BLUE BOX", "address": {"city": "HORATIO", "state": "AR", "street": "110 W MAIN ST", "postcode": "71842"}}},
{"geometry": {"type": "Point", "coordinates": [-94.3585879268, 33.9385786502]}, "type": "Feature", "properties": {"collection_times": [{"days": "Mon-Fri", "time": "3:15pm"}, {"days": "Sat", "time": "9:00am"}, {"days": "Sun", "time": "Closed"}], "id": "7184200002", "name": "USPS COLLECTION BOX - PO LOBBY", "address": {"city": "HORATIO", "state": "AR", "street": "110 W MAIN ST", "postcode": "71842"}}},
{"geometry": {"type": "Point", "coordinates": [-94.3585879268, 33.9385786502]}, "type": "Feature", "properties": {"collection_times": [{"days": "Mon-Fri", "time": "3:15pm"}, {"days": "Sat", "time": "9:00am"}, {"days": "Sun", "time": "Closed"}], "id": "7184200003", "name": "USPS COLLECTION BOX - PO LOBBY", "address": {"city": "HORATIO", "state": "AR", "street": "110 W MAIN ST", "postcode": "71842"}}},
{"geometry": {"type": "Point", "coordinates": [-93.6311623121, 33.3741482609]}, "type": "Feature", "properties": {"collection_times": [{"days": "Mon-Fri", "time": "4:00pm"}, {"days": "Sat", "time": "8:30am"}, {"days": "Sun", "time": "Closed"}], "id": "7184500001", "name": "USPS COLLECTION BOX - PO LOBBY", "address": {"city": "LEWISVILLE", "state": "AR", "street": "310 E FIRST ST", "postcode": "71845"}}},
{"geometry": {"type": "Point", "coordinates": [-93.6311623121, 33.3741482609]}, "type": "Feature", "properties": {"collection_times": [{"days": "Mon-Fri", "time": "4:00pm"}, {"days": "Sat", "time": "8:30am"}, {"days": "Sun", "time": "Closed"}], "id": "7184500002", "name": "USPS COLLECTION BOX - BLUE BOX", "address": {"city": "LEWISVILLE", "state": "AR", "street": "310 E FIRST ST", "postcode": "71845"}}},
{"geometry": {"type": "Point", "coordinates": [-93.6311623121, 33.3741482609]}, "type": "Feature", "properties": {"collection_times": [{"days": "Mon-Fri", "time": "4:00pm"}, {"days": "Sat", "time": "8:30am"}, {"days": "Sun", "time": "Closed"}], "id": "7184500006", "name": "USPS COLLECTION BOX - PO LOBBY", "address": {"city": "LEWISVILLE", "state": "AR", "street": "310 E FIRST ST", "postcode": "71845"}}},
{"geometry": {"type": "Point", "coordinates": [-94.1202093005, 33.930050288]}, "type": "Feature", "properties": {"collection_times": [{"days": "Mon-Fri", "time": "2:15pm"}, {"days": "Sat", "time": "9:30am"}, {"days": "Sun", "time": "Closed"}], "id": "7184600001", "name": "USPS COLLECTION BOX - PO LOBBY", "address": {"city": "LOCKESBURG", "state": "AR", "street": "106 E WALNUT ST", "postcode": "71846"}}},
{"geometry": {"type": "Point", "coordinates": [-94.1202093005, 33.930050288]}, "type": "Feature", "properties": {"collection_times": [{"days": "Mon-Fri", "time": "4:00pm"}, {"days": "Sat", "time": "9:30am"}, {"days": "Sun", "time": "Closed"}], "id": "7184600002", "name": "USPS COLLECTION BOX - BLUE BOX", "address": {"city": "LOCKESBURG", "state": "AR", "street": "106 E WALNUT ST", "postcode": "71846"}}},
{"geometry": {"type": "Point", "coordinates": [-94.1202093005, 33.930050288]}, "type": "Feature", "properties": {"collection_times": [{"days": "Mon-Fri", "time": "2:15pm"}, {"days": "Sat", "time": "9:30am"}, {"days": "Sun", "time": "Closed"}], "id": "7184600003", "name": "USPS COLLECTION BOX - PO LOBBY", "address": {"city": "LOCKESBURG", "state": "AR", "street": "106 E WALNUT ST", "postcode": "71846"}}},
{"geometry": {"type": "Point", "coordinates": [-93.6173767401, 33.9235515644]}, "type": "Feature", "properties": {"collection_times": [{"days": "Mon-Fri", "time": "3:30pm"}, {"days": "Sat", "time": "11:00am"}, {"days": "Sun", "time": "Closed"}], "id": "7184700001", "name": "USPS COLLECTION BOX - BLUE BOX", "address": {"city": "MCCASKILL", "state": "AR", "street": "113 HEMPSTEAD 337", "postcode": "71847"}}},
{"geometry": {"type": "Point", "coordinates": [-93.6173767401, 33.9235515644]}, "type": "Feature", "properties": {"collection_times": [{"days": "Mon-Fri", "time": "10:30am"}, {"days": "Sat", "time": "11:00am"}, {"days": "Sun", "time": "Closed"}], "id": "7184700002", "name": "USPS COLLECTION BOX - PO LOBBY", "address": {"city": "MCCASKILL", "state": "AR", "street": "113 HEMPSTEAD 337", "postcode": "71847"}}},
{"geometry": {"type": "Point", "coordinates": [-93.6173767401, 33.9235515644]}, "type": "Feature", "properties": {"collection_times": [{"days": "Mon-Fri", "time": "10:30am"}, {"days": "Sat", "time": "11:00am"}, {"days": "Sun", "time": "Closed"}], "id": "7184700003", "name": "USPS COLLECTION BOX - PO LOBBY", "address": {"city": "MCCASKILL", "state": "AR", "street": "113 HEMPSTEAD 337", "postcode": "71847"}}},
{"geometry": {"type": "Point", "coordinates": [-93.9087673446, 33.8741980725]}, "type": "Feature", "properties": {"collection_times": [{"days": "Mon-Fri", "time": "4:15pm"}, {"days": "Sat", "time": "9:00am"}, {"days": "Sun", "time": "Closed"}], "id": "7185100001", "name": "USPS COLLECTION BOX - BLUE BOX", "address": {"city": "MINERAL SPRINGS", "state": "AR", "street": "501 E RUNNELS ST", "postcode": "71851"}}},
{"geometry": {"type": "Point", "coordinates": [-93.9087673446, 33.8741980725]}, "type": "Feature", "properties": {"collection_times": [{"days": "Mon-Fri", "time": "4:15pm"}, {"days": "Sat", "time": "9:00am"}, {"days": "Sun", "time": "Closed"}], "id": "7185100003", "name": "USPS COLLECTION BOX - PO LOBBY", "address": {"city": "MINERAL SPRINGS", "state": "AR", "street": "501 E RUNNELS ST", "postcode": "71851"}}},
{"geometry": {"type": "Point", "coordinates": [-93.9087673446, 33.8741980725]}, "type": "Feature", "properties": {"collection_times": [{"days": "Mon-Fri", "time": "4:15pm"}, {"days": "Sat", "time": "9:00am"}, {"days": "Sun", "time": "Closed"}], "id": "7185100004", "name": "USPS COLLECTION BOX - PO LOBBY", "address": {"city": "MINERAL SPRINGS", "state": "AR", "street": "501 E RUNNELS ST", "postcode": "71851"}}},
{"geometry": {"type": "Point", "coordinates": [-93.846256361, 33.9341630844]}, "type": "Feature", "properties": {"collection_times": [{"days": "Mon-Sat", "time": "12:00pm"}, {"days": "Sun", "time": "Closed"}], "id": "7185200004", "name": "USPS COLLECTION BOX - BLUE BOX", "address": {"city": "NASHVILLE", "state": "AR", "street": "1041 S POPE ST", "postcode": "71852"}}},
{"geometry": {"type": "Point", "coordinates": [-93.8471876412, 33.9431749356]}, "type": "Feature", "properties": {"collection_times": [{"days": "Mon-Fri", "time": "2:00pm"}, {"days": "Sat", "time": "12:00pm"}, {"days": "Sun", "time": "Closed"}], "id": "7185200007", "name": "USPS COLLECTION BOX - BLUE BOX", "address": {"city": "NASHVILLE", "state": "AR", "street": "124 S MAIN ST", "postcode": "71852"}}},
{"geometry": {"type": "Point", "coordinates": [-93.8470535787, 33.9433971919]}, "type": "Feature", "properties": {"collection_times": [{"days": "Mon-Fri", "time": "2:00pm"}, {"days": "Sat", "time": "12:00pm"}, {"days": "Sun", "time": "Closed"}], "id": "7185200008", "name": "USPS COLLECTION BOX - BLUE BOX", "address": {"city": "NASHVILLE", "state": "AR", "street": "101 S MAIN ST", "postcode": "71852"}}},
{"geometry": {"type": "Point", "coordinates": [-93.8528895859, 33.9499419501]}, "type": "Feature", "properties": {"collection_times": [{"days": "Mon-Fri", "time": "1:30pm"}, {"days": "Sat", "time": "12:00pm"}, {"days": "Sun", "time": "Closed"}], "id": "7185200014", "name": "USPS COLLECTION BOX - BLUE BOX", "address": {"city": "NASHVILLE", "state": "AR", "street": "400 W SUNSET ST", "postcode": "71852"}}},
{"geometry": {"type": "Point", "coordinates": [-93.8470833136, 33.947560702]}, "type": "Feature", "properties": {"collection_times": [{"days": "Mon-Fri", "time": "2:00pm"}, {"days": "Sat-Sun", "time": "Closed"}], "id": "7185200016", "name": "USPS COLLECTION BOX - BLUE BOX", "address": {"city": "NASHVILLE", "state": "AR", "street": "421 N MAIN ST", "postcode": "71852"}}},
{"geometry": {"type": "Point", "coordinates": [-93.8469773875, 33.9473098898]}, "type": "Feature", "properties": {"collection_times": [{"days": "Mon-Fri", "time": "2:00pm"}, {"days": "Sat", "time": "12:00pm"}, {"days": "Sun", "time": "Closed"}], "id": "7185200017", "name": "USPS COLLECTION BOX - BLUE BOX", "address": {"city": "NASHVILLE", "state": "AR", "street": "426 N MAIN ST", "postcode": "71852"}}},
{"geometry": {"type": "Point", "coordinates": [-93.8470213712, 33.9449422029]}, "type": "Feature", "properties": {"collection_times": [{"days": "Mon-Fri", "time": "4:30pm"}, {"days": "Sat", "time": "3:00pm"}, {"days": "Sun", "time": "Closed"}], "id": "7185200020", "name": "USPS COLLECTION BOX - BLUE BOX", "address": {"city": "NASHVILLE", "state": "AR", "street": "220 N MAIN ST", "postcode": "71852"}}},
{"geometry": {"type": "Point", "coordinates": [-93.8470213712, 33.9449422029]}, "type": "Feature", "properties": {"collection_times": [{"days": "Mon-Fri", "time": "4:30pm"}, {"days": "Sat", "time": "3:00pm"}, {"days": "Sun", "time": "Closed"}], "id": "7185200022", "name": "USPS COLLECTION BOX - PO LOBBY", "address": {"city": "NASHVILLE", "state": "AR", "street": "220 N MAIN ST", "postcode": "71852"}}},
{"geometry": {"type": "Point", "coordinates": [-93.8470213712, 33.9449422029]}, "type": "Feature", "properties": {"collection_times": [{"days": "Mon-Fri", "time": "4:30pm"}, {"days": "Sat", "time": "3:00pm"}, {"days": "Sun", "time": "Closed"}], "id": "7185200023", "name": "USPS COLLECTION BOX - BLUE BOX", "address": {"city": "NASHVILLE", "state": "AR", "street": "220 N MAIN ST", "postcode": "71852"}}},
{"geometry": {"type": "Point", "coordinates": [-93.8470213712, 33.9449422029]}, "type": "Feature", "properties": {"collection_times": [{"days": "Mon-Fri", "time": "4:30pm"}, {"days": "Sat", "time": "3:00pm"}, {"days": "Sun", "time": "Closed"}], "id": "7185200024", "name": "USPS COLLECTION BOX - BLUE BOX", "address": {"city": "NASHVILLE", "state": "AR", "street": "220 N MAIN ST", "postcode": "71852"}}},
{"geometry": {"type": "Point", "coordinates": [-93.8507382955, 33.9615833975]}, "type": "Feature", "properties": {"collection_times": [{"days": "Mon-Sat", "time": "10:00am"}, {"days": "Sun", "time": "Closed"}], "id": "7185200025", "name": "USPS COLLECTION BOX - BLUE BOX", "address": {"city": "NASHVILLE", "state": "AR", "street": "1 SOUTHPARK SHOPPING CTR", "postcode": "71852"}}},
{"geometry": {"type": "Point", "coordinates": [-93.8470213712, 33.9449422029]}, "type": "Feature", "properties": {"collection_times": [{"days": "Mon-Fri", "time": "4:30pm"}, {"days": "Sat", "time": "3:00pm"}, {"days": "Sun", "time": "Closed"}], "id": "7185200026", "name": "USPS COLLECTION BOX - PO LOBBY", "address": {"city": "NASHVILLE", "state": "AR", "street": "220 N MAIN ST", "postcode": "71852"}}},
{"geometry": {"type": "Point", "coordinates": [-93.8470213712, 33.9449422029]}, "type": "Feature", "properties": {"collection_times": [{"days": "Mon-Fri", "time": "4:30pm"}, {"days": "Sat", "time": "3:00pm"}, {"days": "Sun", "time": "Closed"}], "id": "7185200027", "name": "USPS COLLECTION BOX - PO LOBBY", "address": {"city": "NASHVILLE", "state": "AR", "street": "220 N MAIN ST", "postcode": "71852"}}},
{"geometry": {"type": "Point", "coordinates": [-94.0484515376, 33.5841583854]}, "type": "Feature", "properties": {"collection_times": [{"days": "Mon-Fri", "time": "3:30pm"}, {"days": "Sat", "time": "8:45am"}, {"days": "Sun", "time": "Closed"}], "id": "7185300001", "name": "USPS COLLECTION BOX - BLUE BOX", "address": {"city": "OGDEN", "state": "AR", "street": "131 PINE ST", "postcode": "71853"}}},
{"geometry": {"type": "Point", "coordinates": [-94.0484515376, 33.5841583854]}, "type": "Feature", "properties": {"collection_times": [{"days": "Mon-Fri", "time": "12:30pm"}, {"days": "Sat", "time": "8:45am"}, {"days": "Sun", "time": "Closed"}], "id": "7185300002", "name": "USPS COLLECTION BOX - PO LOBBY", "address": {"city": "OGDEN", "state": "AR", "street": "131 PINE ST", "postcode": "71853"}}},
{"geometry": {"type": "Point", "coordinates": [-94.0484515376, 33.5841583854]}, "type": "Feature", "properties": {"collection_times": [{"days": "Mon-Fri", "time": "12:30pm"}, {"days": "Sat", "time": "8:45am"}, {"days": "Sun", "time": "Closed"}], "id": "7185300003", "name": "USPS COLLECTION BOX - PO LOBBY", "address": {"city": "OGDEN", "state": "AR", "street": "131 PINE ST", "postcode": "71853"}}},
{"geometry": {"type": "Point", "coordinates": [-94.0301301241, 33.460837487]}, "type": "Feature", "properties": {"collection_times": [{"days": "Mon-Sat", "time": "3:00pm"}, {"days": "Sun", "time": "Closed"}], "id": "7185400001", "name": "USPS COLLECTION BOX - BLUE BOX", "address": {"city": "TEXARKANA", "state": "AR", "street": "1103 ARKANSAS BLVD", "postcode": "71854"}}},
{"geometry": {"type": "Point", "coordinates": [-94.0169110789, 33.4606244306]}, "type": "Feature", "properties": {"collection_times": [{"days": "Mon-Sat", "time": "10:45am"}, {"days": "Sun", "time": "Closed"}], "id": "7185400002", "name": "USPS COLLECTION BOX - BLUE BOX", "address": {"city": "TEXARKANA", "state": "AR", "street": "2301 ARKANSAS BLVD", "postcode": "71854"}}},
{"geometry": {"type": "Point", "coordinates": [-93.91996244, 33.4713754209]}, "type": "Feature", "properties": {"collection_times": [{"days": "Mon-Sat", "time": "3:00pm"}, {"days": "Sun", "time": "Closed"}], "id": "7185400003", "name": "USPS COLLECTION BOX - BLUE BOX", "address": {"city": "TEXARKANA", "state": "AR", "street": "1 COLLEGE HILL CTR", "postcode": "71854"}}},
{"geometry": {"type": "Point", "coordinates": [-94.0258797664, 33.4117629329]}, "type": "Feature", "properties": {"collection_times": [{"days": "Mon-Sat", "time": "3:00pm"}, {"days": "Sun", "time": "Closed"}], "id": "7185400004", "name": "USPS COLLECTION BOX - BLUE BOX", "address": {"city": "TEXARKANA", "state": "AR", "street": "1000 FERGUSON ST", "postcode": "71854"}}},
{"geometry": {"type": "Point", "coordinates": [-94.0386767514, 33.42580665]}, "type": "Feature", "properties": {"collection_times": [{"days": "Mon-Sat", "time": "3:00pm"}, {"days": "Sun", "time": "Closed"}], "id": "7185400005", "name": "USPS COLLECTION BOX - BLUE BOX", "address": {"city": "TEXARKANA", "state": "AR", "street": "400 LAUREL ST", "postcode": "71854"}}},
{"geometry": {"type": "Point", "coordinates": [-94.0117771316, 33.4598067783]}, "type": "Feature", "properties": {"collection_times": [{"days": "Mon-Sat", "time": "3:00pm"}, {"days": "Sun", "time": "Closed"}], "id": "7185400007", "name": "USPS COLLECTION BOX - BLUE BOX", "address": {"city": "TEXARKANA", "state": "AR", "street": "3902 SANDERSON LN", "postcode": "71854"}}},
{"geometry": {"type": "Point", "coordinates": [-94.0430220955, 33.424341576]}, "type": "Feature", "properties": {"collection_times": [{"days": "Mon-Fri", "time": "5:00pm"}, {"days": "Sat", "time": "3:00pm"}, {"days": "Sun", "time": "Closed"}], "id": "7185400008", "name": "USPS COLLECTION BOX - BLUE BOX", "address": {"city": "TEXARKANA", "state": "AR", "street": "500 N STATE LINE AVE", "postcode": "71854"}}},
{"geometry": {"type": "Point", "coordinates": [-94.0430220955, 33.424341576]}, "type": "Feature", "properties": {"collection_times": [{"days": "Mon-Fri", "time": "5:00pm"}, {"days": "Sat", "time": "3:00pm"}, {"days": "Sun", "time": "Closed"}], "id": "7185400009", "name": "USPS COLLECTION BOX - BLUE BOX", "address": {"city": "TEXARKANA", "state": "AR", "street": "500 N STATE LINE AVE", "postcode": "71854"}}},
{"geometry": {"type": "Point", "coordinates": [-94.0430341779, 33.4586689919]}, "type": "Feature", "properties": {"collection_times": [{"days": "Mon-Sat", "time": "3:00pm"}, {"days": "Sun", "time": "Closed"}], "id": "7185400011", "name": "USPS COLLECTION BOX - BLUE BOX", "address": {"city": "TEXARKANA", "state": "AR", "street": "3710 N STATE LINE AVE", "postcode": "71854"}}},
{"geometry": {"type": "Point", "coordinates": [-94.0131100299, 33.4307577366]}, "type": "Feature", "properties": {"collection_times": [{"days": "Mon-Sat", "time": "3:00pm"}, {"days": "Sun", "time": "Closed"}], "id": "7185400015", "name": "USPS COLLECTION BOX - BLUE BOX", "address": {"city": "TEXARKANA", "state": "AR", "street": "2801 E 9TH ST", "postcode": "71854"}}},
{"geometry": {"type": "Point", "coordinates": [-94.0302626992, 33.4565056307]}, "type": "Feature", "properties": {"collection_times": [{"days": "Mon-Sat", "time": "3:00pm"}, {"days": "Sun", "time": "Closed"}], "id": "7185400016", "name": "USPS COLLECTION BOX - BLUE BOX", "address": {"city": "TEXARKANA", "state": "AR", "street": "1201 E 35TH ST", "postcode": "71854"}}},
{"geometry": {"type": "Point", "coordinates": [-94.0430220955, 33.424341576]}, "type": "Feature", "properties": {"collection_times": [{"days": "Mon-Fri", "time": "4:45pm"}, {"days": "Sat-Sun", "time": "Closed"}], "id": "7185400017", "name": "USPS COLLECTION BOX - PO LOBBY", "address": {"city": "TEXARKANA", "state": "AR", "street": "500 N STATE LINE AVE", "postcode": "71854"}}},
{"geometry": {"type": "Point", "coordinates": [-94.0430220955, 33.424341576]}, "type": "Feature", "properties": {"collection_times": [{"days": "Mon-Fri", "time": "4:45pm"}, {"days": "Sat-Sun", "time": "Closed"}], "id": "7185400018", "name": "USPS COLLECTION BOX - PO LOBBY", "address": {"city": "TEXARKANA", "state": "AR", "street": "500 N STATE LINE AVE", "postcode": "71854"}}},
{"geometry": {"type": "Point", "coordinates": [-94.0383343273, 33.4709819841]}, "type": "Feature", "properties": {"collection_times": [{"days": "Mon-Sat", "time": "3:00pm"}, {"days": "Sun", "time": "Closed"}], "id": "7185400019", "name": "USPS COLLECTION BOX - BLUE BOX", "address": {"city": "TEXARKANA", "state": "AR", "street": "333 LINKS DR", "postcode": "71854"}}},
{"geometry": {"type": "Point", "coordinates": [-93.7243808165, 33.8485491713]}, "type": "Feature", "properties": {"collection_times": [{"days": "Mon-Fri", "time": "4:00pm"}, {"days": "Sat", "time": "9:10am"}, {"days": "Sun", "time": "Closed"}], "id": "7185500001", "name": "USPS COLLECTION BOX - BLUE BOX", "address": {"city": "OZAN", "state": "AR", "street": "6181 HIGHWAY 278 W", "postcode": "71855"}}},
{"geometry": {"type": "Point", "coordinates": [-93.7243808165, 33.8485491713]}, "type": "Feature", "properties": {"collection_times": [{"days": "Mon-Fri", "time": "2:30pm"}, {"days": "Sat", "time": "1:30pm"}, {"days": "Sun", "time": "Closed"}], "id": "7185500002", "name": "USPS COLLECTION BOX - PO LOBBY", "address": {"city": "OZAN", "state": "AR", "street": "6181 HIGHWAY 278 W", "postcode": "71855"}}},
{"geometry": {"type": "Point", "coordinates": [-93.7243808165, 33.8485491713]}, "type": "Feature", "properties": {"collection_times": [{"days": "Mon-Fri", "time": "2:30pm"}, {"days": "Sat", "time": "1:30pm"}, {"days": "Sun", "time": "Closed"}], "id": "7185500003", "name": "USPS COLLECTION BOX - PO LOBBY", "address": {"city": "OZAN", "state": "AR", "street": "6181 HIGHWAY 278 W", "postcode": "71855"}}},
{"geometry": {"type": "Point", "coordinates": [-93.3805597788, 33.8005656945]}, "type": "Feature", "properties": {"collection_times": [{"days": "Mon-Fri", "time": "4:20pm"}, {"days": "Sat", "time": "12:00pm"}, {"days": "Sun", "time": "Closed"}], "id": "7185700001", "name": "USPS COLLECTION BOX - BLUE BOX", "address": {"city": "PRESCOTT", "state": "AR", "street": "207 E ELM ST", "postcode": "71857"}}},
{"geometry": {"type": "Point", "coordinates": [-93.3834113479, 33.7971530164]}, "type": "Feature", "properties": {"collection_times": [{"days": "Mon-Sat", "time": "8:30am"}, {"days": "Sun", "time": "Closed"}], "id": "7185700002", "name": "USPS COLLECTION BOX - BLUE BOX", "address": {"city": "PRESCOTT", "state": "AR", "street": "615 E 3RD ST S", "postcode": "71857"}}},
{"geometry": {"type": "Point", "coordinates": [-93.381885542, 33.8033924112]}, "type": "Feature", "properties": {"collection_times": [{"days": "Mon-Sat", "time": "9:15am"}, {"days": "Sun", "time": "Closed"}], "id": "7185700016", "name": "USPS COLLECTION BOX - BLUE BOX", "address": {"city": "PRESCOTT", "state": "AR", "street": "216 W MAIN ST", "postcode": "71857"}}},
{"geometry": {"type": "Point", "coordinates": [-93.3805597788, 33.8005656945]}, "type": "Feature", "properties": {"collection_times": [{"days": "Mon-Fri", "time": "4:20pm"}, {"days": "Sat", "time": "12:00pm"}, {"days": "Sun", "time": "Closed"}], "id": "7185700022", "name": "USPS COLLECTION BOX - BLUE BOX", "address": {"city": "PRESCOTT", "state": "AR", "street": "207 E ELM ST", "postcode": "71857"}}},
{"geometry": {"type": "Point", "coordinates": [-93.3805597788, 33.8005656945]}, "type": "Feature", "properties": {"collection_times": [{"days": "Mon-Fri", "time": "4:20pm"}, {"days": "Sat", "time": "12:00pm"}, {"days": "Sun", "time": "Closed"}], "id": "7185700023", "name": "USPS COLLECTION BOX - PO LOBBY", "address": {"city": "PRESCOTT", "state": "AR", "street": "207 E ELM ST", "postcode": "71857"}}},
{"geometry": {"type": "Point", "coordinates": [-93.3365881139, 33.8199636029]}, "type": "Feature", "properties": {"collection_times": [{"days": "Mon-Sat", "time": "11:10am"}, {"days": "Sun", "time": "Closed"}], "id": "7185700025", "name": "USPS COLLECTION BOX - BLUE BOX", "address": {"city": "PRESCOTT", "state": "AR", "street": "1806 HIGHWAY 371 W", "postcode": "71857"}}},
{"geometry": {"type": "Point", "coordinates": [-93.4268529911, 33.8105204794]}, "type": "Feature", "properties": {"collection_times": [{"days": "Mon-Sat", "time": "11:15am"}, {"days": "Sun", "time": "Closed"}], "id": "7185700026", "name": "USPS COLLECTION BOX - BLUE BOX", "address": {"city": "PRESCOTT", "state": "AR", "street": "1673 HWY 24 W", "postcode": "71857"}}},
{"geometry": {"type": "Point", "coordinates": [-93.3760008659, 33.8103594089]}, "type": "Feature", "properties": {"collection_times": [{"days": "Mon-Sat", "time": "10:45am"}, {"days": "Sun", "time": "Closed"}], "id": "7185700027", "name": "USPS COLLECTION BOX - BLUE BOX", "address": {"city": "PRESCOTT", "state": "AR", "street": "1420 W 1ST ST N", "postcode": "71857"}}},
{"geometry": {"type": "Point", "coordinates": [-93.3805597788, 33.8005656945]}, "type": "Feature", "properties": {"collection_times": [{"days": "Mon-Fri", "time": "4:20pm"}, {"days": "Sat", "time": "12:00pm"}, {"days": "Sun", "time": "Closed"}], "id": "7185700028", "name": "USPS COLLECTION BOX - PO LOBBY", "address": {"city": "PRESCOTT", "state": "AR", "street": "207 E ELM ST", "postcode": "71857"}}},
{"geometry": {"type": "Point", "coordinates": [-93.3365881139, 33.8199636029]}, "type": "Feature", "properties": {"collection_times": [{"days": "Mon-Sat", "time": "8:15am"}, {"days": "Sun", "time": "Closed"}], "id": "7185700029", "name": "USPS COLLECTION BOX - BLUE BOX", "address": {"city": "PRESCOTT", "state": "AR", "street": "116 RON HARROD RD", "postcode": "71857"}}},
{"geometry": {"type": "Point", "coordinates": [-93.2013847913, 33.6007450002]}, "type": "Feature", "properties": {"collection_times": [{"days": "Mon-Fri", "time": "3:30pm"}, {"days": "Sat", "time": "10:30am"}, {"days": "Sun", "time": "Closed"}], "id": "7185800001", "name": "USPS COLLECTION BOX - BLUE BOX", "address": {"city": "ROSSTON", "state": "AR", "street": "4463 US HIGHWAY 371", "postcode": "71858"}}},
{"geometry": {"type": "Point", "coordinates": [-93.2013847913, 33.6007450002]}, "type": "Feature", "properties": {"collection_times": [{"days": "Mon-Sat", "time": "10:30am"}, {"days": "Sun", "time": "Closed"}], "id": "7185800002", "name": "USPS COLLECTION BOX - PO LOBBY", "address": {"city": "ROSSTON", "state": "AR", "street": "4463 US HIGHWAY 371", "postcode": "71858"}}},
{"geometry": {"type": "Point", "coordinates": [-93.2013847913, 33.6007450002]}, "type": "Feature", "properties": {"collection_times": [{"days": "Mon-Sat", "time": "10:30am"}, {"days": "Sun", "time": "Closed"}], "id": "7185800003", "name": "USPS COLLECTION BOX - PO LOBBY", "address": {"city": "ROSSTON", "state": "AR", "street": "4463 US HIGHWAY 371", "postcode": "71858"}}},
{"geometry": {"type": "Point", "coordinates": [-93.9011897889, 33.7514744824]}, "type": "Feature", "properties": {"collection_times": [{"days": "Mon-Fri", "time": "1:30pm"}, {"days": "Sat", "time": "1:00pm"}, {"days": "Sun", "time": "Closed"}], "id": "7185900001", "name": "USPS COLLECTION BOX - PO LOBBY", "address": {"city": "SARATOGA", "state": "AR", "street": "1948 MAIN ST", "postcode": "71859"}}},
{"geometry": {"type": "Point", "coordinates": [-93.9011897889, 33.7514744824]}, "type": "Feature", "properties": {"collection_times": [{"days": "Mon-Fri", "time": "3:45pm"}, {"days": "Sat", "time": "10:00am"}, {"days": "Sun", "time": "Closed"}], "id": "7185900002", "name": "USPS COLLECTION BOX - BLUE BOX", "address": {"city": "SARATOGA", "state": "AR", "street": "1948 MAIN ST", "postcode": "71859"}}},
{"geometry": {"type": "Point", "coordinates": [-93.9011897889, 33.7514744824]}, "type": "Feature", "properties": {"collection_times": [{"days": "Mon-Fri", "time": "1:30pm"}, {"days": "Sat", "time": "1:00pm"}, {"days": "Sun", "time": "Closed"}], "id": "7185900003", "name": "USPS COLLECTION BOX - PO LOBBY", "address": {"city": "SARATOGA", "state": "AR", "street": "1948 MAIN ST", "postcode": "71859"}}},
{"geometry": {"type": "Point", "coordinates": [-93.4983666208, 33.3595792522]}, "type": "Feature", "properties": {"collection_times": [{"days": "Mon-Fri", "time": "4:00pm"}, {"days": "Sat", "time": "1:00pm"}, {"days": "Sun", "time": "Closed"}], "id": "7186000010", "name": "USPS COLLECTION BOX - PO LOBBY", "address": {"city": "STAMPS", "state": "AR", "street": "110 THOMAS ST", "postcode": "71860"}}},
{"geometry": {"type": "Point", "coordinates": [-93.4983666208, 33.3595792522]}, "type": "Feature", "properties": {"collection_times": [{"days": "Mon-Fri", "time": "4:00pm"}, {"days": "Sat", "time": "1:00pm"}, {"days": "Sun", "time": "Closed"}], "id": "7186000011", "name": "USPS COLLECTION BOX - BLUE BOX", "address": {"city": "STAMPS", "state": "AR", "street": "110 THOMAS ST", "postcode": "71860"}}},
{"geometry": {"type": "Point", "coordinates": [-93.4983666208, 33.3595792522]}, "type": "Feature", "properties": {"collection_times": [{"days": "Mon-Fri", "time": "4:00pm"}, {"days": "Sat", "time": "1:00pm"}, {"days": "Sun", "time": "Closed"}], "id": "7186000013", "name": "USPS COLLECTION BOX - PO LOBBY", "address": {"city": "STAMPS", "state": "AR", "street": "110 THOMAS ST", "postcode": "71860"}}},
{"geometry": {"type": "Point", "coordinates": [-93.4983666208, 33.3595792522]}, "type": "Feature", "properties": {"collection_times": [{"days": "Mon-Fri", "time": "4:00pm"}, {"days": "Sat", "time": "1:00pm"}, {"days": "Sun", "time": "Closed"}], "id": "7186000014", "name": "USPS COLLECTION BOX - PO LOBBY", "address": {"city": "STAMPS", "state": "AR", "street": "110 THOMAS ST", "postcode": "71860"}}},
{"geometry": {"type": "Point", "coordinates": [-93.4983666208, 33.3595792522]}, "type": "Feature", "properties": {"collection_times": [{"days": "Mon-Fri", "time": "4:00pm"}, {"days": "Sat", "time": "1:00pm"}, {"days": "Sun", "time": "Closed"}], "id": "7186000015", "name": "USPS COLLECTION BOX - PO LOBBY", "address": {"city": "STAMPS", "state": "AR", "street": "110 THOMAS ST", "postcode": "71860"}}},
{"geometry": {"type": "Point", "coordinates": [-93.4630461318, 33.1003870637]}, "type": "Feature", "properties": {"collection_times": [{"days": "Mon-Fri", "time": "4:00pm"}, {"days": "Sat", "time": "12:30pm"}, {"days": "Sun", "time": "Closed"}], "id": "7186100001", "name": "USPS COLLECTION BOX - BLUE BOX", "address": {"city": "TAYLOR", "state": "AR", "street": "109 LONG ST", "postcode": "71861"}}},
{"geometry": {"type": "Point", "coordinates": [-93.4630461318, 33.1003870637]}, "type": "Feature", "properties": {"collection_times": [{"days": "Mon-Fri", "time": "1:00pm"}, {"days": "Sat", "time": "9:30am"}, {"days": "Sun", "time": "Closed"}], "id": "7186100002", "name": "USPS COLLECTION BOX - PO LOBBY", "address": {"city": "TAYLOR", "state": "AR", "street": "109 LONG ST", "postcode": "71861"}}},
{"geometry": {"type": "Point", "coordinates": [-93.4630461318, 33.1003870637]}, "type": "Feature", "properties": {"collection_times": [{"days": "Mon-Fri", "time": "1:00pm"}, {"days": "Sat", "time": "9:30am"}, {"days": "Sun", "time": "Closed"}], "id": "7186100003", "name": "USPS COLLECTION BOX - PO LOBBY", "address": {"city": "TAYLOR", "state": "AR", "street": "109 LONG ST", "postcode": "71861"}}},
{"geometry": {"type": "Point", "coordinates": [-93.4630461318, 33.1003870637]}, "type": "Feature", "properties": {"collection_times": [{"days": "Mon-Fri", "time": "1:00pm"}, {"days": "Sat", "time": "9:30am"}, {"days": "Sun", "time": "Closed"}], "id": "7186100004", "name": "USPS COLLECTION BOX - PO LOBBY", "address": {"city": "TAYLOR", "state": "AR", "street": "109 LONG ST", "postcode": "71861"}}},
{"geometry": {"type": "Point", "coordinates": [-93.4630461318, 33.1003870637]}, "type": "Feature", "properties": {"collection_times": [{"days": "Mon-Fri", "time": "1:00pm"}, {"days": "Sat", "time": "9:30am"}, {"days": "Sun", "time": "Closed"}], "id": "7186100005", "name": "USPS COLLECTION BOX - PO LOBBY", "address": {"city": "TAYLOR", "state": "AR", "street": "109 LONG ST", "postcode": "71861"}}},
{"geometry": {"type": "Point", "coordinates": [-93.6821811171, 33.7753673573]}, "type": "Feature", "properties": {"collection_times": [{"days": "Mon-Fri", "time": "4:00pm"}, {"days": "Sat", "time": "9:00am"}, {"days": "Sun", "time": "Closed"}], "id": "7186200001", "name": "USPS COLLECTION BOX - BLUE BOX", "address": {"city": "WASHINGTON", "state": "AR", "street": "211 FRANKLIN ST", "postcode": "71862"}}},
{"geometry": {"type": "Point", "coordinates": [-93.6821811171, 33.7753673573]}, "type": "Feature", "properties": {"collection_times": [{"days": "Mon-Fri", "time": "11:00am"}, {"days": "Sat", "time": "9:00am"}, {"days": "Sun", "time": "Closed"}], "id": "7186200002", "name": "USPS COLLECTION BOX - PO LOBBY", "address": {"city": "WASHINGTON", "state": "AR", "street": "211 FRANKLIN ST", "postcode": "71862"}}},
{"geometry": {"type": "Point", "coordinates": [-93.6821811171, 33.7753673573]}, "type": "Feature", "properties": {"collection_times": [{"days": "Mon-Fri", "time": "11:00am"}, {"days": "Sat", "time": "9:00am"}, {"days": "Sun", "time": "Closed"}], "id": "7186200003", "name": "USPS COLLECTION BOX - PO LOBBY", "address": {"city": "WASHINGTON", "state": "AR", "street": "211 FRANKLIN ST", "postcode": "71862"}}},
{"geometry": {"type": "Point", "coordinates": [-93.2985167587, 33.4801814464]}, "type": "Feature", "properties": {"collection_times": [{"days": "Mon-Sat", "time": "9:00am"}, {"days": "Sun", "time": "Closed"}], "id": "7186400001", "name": "USPS COLLECTION BOX - BLUE BOX", "address": {"city": "WILLISVILLE", "state": "AR", "street": "102 NEVADA 8", "postcode": "71864"}}},
{"geometry": {"type": "Point", "coordinates": [-93.2985167587, 33.4801814464]}, "type": "Feature", "properties": {"collection_times": [{"days": "Mon-Sat", "time": "10:00am"}, {"days": "Sun", "time": "Closed"}], "id": "7186400002", "name": "USPS COLLECTION BOX - PO LOBBY", "address": {"city": "WILLISVILLE", "state": "AR", "street": "102 NEVADA 8", "postcode": "71864"}}},
{"geometry": {"type": "Point", "coordinates": [-93.2985167587, 33.4801814464]}, "type": "Feature", "properties": {"collection_times": [{"days": "Mon-Sat", "time": "10:00am"}, {"days": "Sun", "time": "Closed"}], "id": "7186400003", "name": "USPS COLLECTION BOX - PO LOBBY", "address": {"city": "WILLISVILLE", "state": "AR", "street": "102 NEVADA 8", "postcode": "71864"}}},
{"geometry": {"type": "Point", "coordinates": [-94.1478497716, 33.7413133437]}, "type": "Feature", "properties": {"collection_times": [{"days": "Mon-Fri", "time": "4:30pm"}, {"days": "Sat", "time": "10:00am"}, {"days": "Sun", "time": "Closed"}], "id": "7186500001", "name": "USPS COLLECTION BOX - BLUE BOX", "address": {"city": "WILTON", "state": "AR", "street": "322 E DOUGLAS AVE", "postcode": "71865"}}},
{"geometry": {"type": "Point", "coordinates": [-94.1478497716, 33.7413133437]}, "type": "Feature", "properties": {"collection_times": [{"days": "Mon-Fri", "time": "11:30am"}, {"days": "Sat", "time": "10:00am"}, {"days": "Sun", "time": "Closed"}], "id": "7186500002", "name": "USPS COLLECTION BOX - PO LOBBY", "address": {"city": "WILTON", "state": "AR", "street": "322 E DOUGLAS AVE", "postcode": "71865"}}},
{"geometry": {"type": "Point", "coordinates": [-94.3480798422, 33.831725963]}, "type": "Feature", "properties": {"collection_times": [{"days": "Mon-Fri", "time": "4:30pm"}, {"days": "Sat", "time": "9:30am"}, {"days": "Sun", "time": "Closed"}], "id": "7186600001", "name": "USPS COLLECTION BOX - BLUE BOX", "address": {"city": "WINTHROP", "state": "AR", "street": "612 HIGH ST", "postcode": "71866"}}},
{"geometry": {"type": "Point", "coordinates": [-94.3480798422, 33.831725963]}, "type": "Feature", "properties": {"collection_times": [{"days": "Mon-Fri", "time": "11:15am"}, {"days": "Sat", "time": "9:30am"}, {"days": "Sun", "time": "Closed"}], "id": "7186600002", "name": "USPS COLLECTION BOX - PO LOBBY", "address": {"city": "WINTHROP", "state": "AR", "street": "612 HIGH ST", "postcode": "71866"}}},
{"geometry": {"type": "Point", "coordinates": [-94.3480798422, 33.831725963]}, "type": "Feature", "properties": {"collection_times": [{"days": "Mon-Fri", "time": "11:15am"}, {"days": "Sat", "time": "9:30am"}, {"days": "Sun", "time": "Closed"}], "id": "7186600003", "name": "USPS COLLECTION BOX - PO LOBBY", "address": {"city": "WINTHROP", "state": "AR", "street": "612 HIGH ST", "postcode": "71866"}}},
{"geometry": {"type": "Point", "coordinates": [-94.3480798422, 33.831725963]}, "type": "Feature", "properties": {"collection_times": [{"days": "Mon-Fri", "time": "11:15am"}, {"days": "Sat", "time": "9:30am"}, {"days": "Sun", "time": "Closed"}], "id": "7186600004", "name": "USPS COLLECTION BOX - PO LOBBY", "address": {"city": "WINTHROP", "state": "AR", "street": "612 HIGH ST", "postcode": "71866"}}},
{"geometry": {"type": "Point", "coordinates": [-94.3480798422, 33.831725963]}, "type": "Feature", "properties": {"collection_times": [{"days": "Mon-Fri", "time": "11:15am"}, {"days": "Sat", "time": "9:30am"}, {"days": "Sun", "time": "Closed"}], "id": "7186600005", "name": "USPS COLLECTION BOX - PO LOBBY", "address": {"city": "WINTHROP", "state": "AR", "street": "612 HIGH ST", "postcode": "71866"}}}
]}
