{"type": "FeatureCollection", "features": [
{"geometry": {"type": "Point", "coordinates": [-93.0523477865, 34.5265167719]}, "type": "Feature", "properties": {"collection_times": [{"days": "Mon-Sat", "time": "2:00pm"}, {"days": "Sun", "time": "Closed"}], "id": "7190100005", "name": "USPS COLLECTION BOX - BLUE BOX", "address": {"city": "HOT SPRINGS", "state": "AR", "street": "701 PARK AVE", "postcode": "71901"}}},
{"geometry": {"type": "Point", "coordinates": [-93.0576116678, 34.5042385]}, "type": "Feature", "properties": {"collection_times": [{"days": "Mon-Fri", "time": "2:05pm"}, {"days": "Sat-Sun", "time": "Closed"}], "id": "7190100017", "name": "USPS COLLECTION BOX - BLUE BOX", "address": {"city": "HOT SPRINGS", "state": "AR", "street": "200 WOODBINE ST", "postcode": "71901"}}},
{"geometry": {"type": "Point", "coordinates": [-93.0607753034, 34.5161843532]}, "type": "Feature", "properties": {"collection_times": [{"days": "Mon-Sat", "time": "1:00pm"}, {"days": "Sun", "time": "Closed"}], "id": "7190100020", "name": "USPS COLLECTION BOX - BLUE BOX", "address": {"city": "HOT SPRINGS", "state": "AR", "street": "341 WHITTINGTON AVE", "postcode": "71901"}}},
{"geometry": {"type": "Point", "coordinates": [-92.9697086955, 34.4638448596]}, "type": "Feature", "properties": {"collection_times": [{"days": "Mon-Sat", "time": "9:00am"}, {"days": "Sun", "time": "Closed"}], "id": "7190100038", "name": "USPS COLLECTION BOX - BLUE BOX", "address": {"city": "HOT SPRINGS", "state": "AR", "street": "3674 MALVERN RD", "postcode": "71901"}}},
{"geometry": {"type": "Point", "coordinates": [-93.032892731, 34.4851408666]}, "type": "Feature", "properties": {"collection_times": [{"days": "Mon-Fri", "time": "4:30pm"}, {"days": "Sat", "time": "9:00am"}, {"days": "Sun", "time": "Closed"}], "id": "7190100048", "name": "USPS COLLECTION BOX - BLUE BOX", "address": {"city": "HOT SPRINGS", "state": "AR", "street": "1900 MALVERN AVE", "postcode": "71901"}}},
{"geometry": {"type": "Point", "coordinates": [-93.032892731, 34.4851408666]}, "type": "Feature", "properties": {"collection_times": [{"days": "Mon-Fri", "time": "4:30pm"}, {"days": "Sat", "time": "9:00am"}, {"days": "Sun", "time": "Closed"}], "id": "7190100051", "name": "USPS COLLECTION BOX - BLUE BOX", "address": {"city": "HOT SPRINGS", "state": "AR", "street": "1900 MALVERN AVE", "postcode": "71901"}}},
{"geometry": {"type": "Point", "coordinates": [-93.0509322395, 34.5099505786]}, "type": "Feature", "properties": {"collection_times": [{"days": "Mon-Fri", "time": "4:35pm"}, {"days": "Sat-Sun", "time": "Closed"}], "id": "7190100054", "name": "USPS COLLECTION BOX - BLUE BOX", "address": {"city": "HOT SPRINGS", "state": "AR", "street": "133 CONVENTION BLVD", "postcode": "71901"}}},
{"geometry": {"type": "Point", "coordinates": [-93.0406707351, 34.4583036508]}, "type": "Feature", "properties": {"collection_times": [{"days": "Mon-Sat", "time": "10:00am"}, {"days": "Sun", "time": "Closed"}], "id": "7190100063", "name": "USPS COLLECTION BOX - BLUE BOX", "address": {"city": "HOT SPRINGS", "state": "AR", "street": "240 MATTHEWS DR", "postcode": "71901"}}},
{"geometry": {"type": "Point", "coordinates": [-93.0238552012, 34.4743293473]}, "type": "Feature", "properties": {"collection_times": [{"days": "Mon-Fri", "time": "1:30pm"}, {"days": "Sat", "time": "1:00pm"}, {"days": "Sun", "time": "Closed"}], "id": "7190100066", "name": "USPS COLLECTION BOX - BLUE BOX", "address": {"city": "HOT SPRINGS", "state": "AR", "street": "2224 MALVERN AVE", "postcode": "71901"}}},
{"geometry": {"type": "Point", "coordinates": [-93.0522884523, 34.5084399335]}, "type": "Feature", "properties": {"collection_times": [{"days": "Mon-Fri", "time": "1:50pm"}, {"days": "Sat-Sun", "time": "Closed"}], "id": "7190100067", "name": "USPS COLLECTION BOX - BLUE BOX", "address": {"city": "HOT SPRINGS", "state": "AR", "street": "348 MALVERN AVE", "postcode": "71901"}}},
{"geometry": {"type": "Point", "coordinates": [-93.0556968858, 34.5029138183]}, "type": "Feature", "properties": {"collection_times": [{"days": "Mon-Fri", "time": "2:15pm"}, {"days": "Sat", "time": "2:30pm"}, {"days": "Sun", "time": "Closed"}], "id": "7190100072", "name": "USPS COLLECTION BOX - BLUE BOX", "address": {"city": "HOT SPRINGS", "state": "AR", "street": "1234 CENTRAL AVE", "postcode": "71901"}}},
{"geometry": {"type": "Point", "coordinates": [-93.0398600656, 34.4977438179]}, "type": "Feature", "properties": {"collection_times": [{"days": "Mon-Fri", "time": "1:40pm"}, {"days": "Sat-Sun", "time": "Closed"}], "id": "7190100078", "name": "USPS COLLECTION BOX - BLUE BOX", "address": {"city": "HOT SPRINGS", "state": "AR", "street": "1427 MALVERN AVE", "postcode": "71901"}}},
{"geometry": {"type": "Point", "coordinates": [-93.0575998482, 34.5061784206]}, "type": "Feature", "properties": {"collection_times": [{"days": "Mon-Fri", "time": "2:00pm"}, {"days": "Sat", "time": "12:00pm"}, {"days": "Sun", "time": "Closed"}], "id": "7190100080", "name": "USPS COLLECTION BOX - BLUE BOX", "address": {"city": "HOT SPRINGS", "state": "AR", "street": "400 OUACHITA AVE", "postcode": "71901"}}},
{"geometry": {"type": "Point", "coordinates": [-93.0262083268, 34.5021802918]}, "type": "Feature", "properties": {"collection_times": [{"days": "Mon-Fri", "time": "4:40pm"}, {"days": "Sat-Sun", "time": "Closed"}], "id": "7190100081", "name": "USPS COLLECTION BOX - BLUE BOX", "address": {"city": "HOT SPRINGS", "state": "AR", "street": "503 OUACHITA AVE", "postcode": "71901"}}},
{"geometry": {"type": "Point", "coordinates": [-93.0576461764, 34.4951874947]}, "type": "Feature", "properties": {"collection_times": [{"days": "Mon-Fri", "time": "2:15pm"}, {"days": "Sat", "time": "2:30pm"}, {"days": "Sun", "time": "Closed"}], "id": "7190100083", "name": "USPS COLLECTION BOX - BLUE BOX", "address": {"city": "HOT SPRINGS", "state": "AR", "street": "1822 CENTRAL AVE", "postcode": "71901"}}},
{"geometry": {"type": "Point", "coordinates": [-93.071787004, 34.4649452885]}, "type": "Feature", "properties": {"collection_times": [{"days": "Mon-Sat", "time": "5:30pm"}, {"days": "Sun", "time": "Closed"}], "id": "7190100088", "name": "USPS COLLECTION BOX - BLUE BOX", "address": {"city": "HOT SPRINGS", "state": "AR", "street": "335 SECTION LINE RD", "postcode": "71901"}}},
{"geometry": {"type": "Point", "coordinates": [-93.071787004, 34.4649452885]}, "type": "Feature", "properties": {"collection_times": [{"days": "Mon-Sat", "time": "5:30pm"}, {"days": "Sun", "time": "Closed"}], "id": "7190100089", "name": "USPS COLLECTION BOX - BLUE BOX", "address": {"city": "HOT SPRINGS", "state": "AR", "street": "335 SECTION LINE RD", "postcode": "71901"}}},
{"geometry": {"type": "Point", "coordinates": [-93.071787004, 34.4649452885]}, "type": "Feature", "properties": {"collection_times": [{"days": "Mon-Fri", "time": "5:35pm"}, {"days": "Sat", "time": "3:15pm"}, {"days": "Sun", "time": "Closed"}], "id": "7190100090", "name": "USPS COLLECTION BOX - PO LOBBY", "address": {"city": "HOT SPRINGS", "state": "AR", "street": "335 SECTION LINE RD", "postcode": "71901"}}},
{"geometry": {"type": "Point", "coordinates": [-93.0538926619, 34.5113311428]}, "type": "Feature", "properties": {"collection_times": [{"days": "Mon-Fri", "time": "1:55pm"}, {"days": "Sat", "time": "10:00am"}, {"days": "Sun", "time": "Closed"}], "id": "7190100091", "name": "USPS COLLECTION BOX - BLUE BOX", "address": {"city": "HOT SPRINGS", "state": "AR", "street": "627 CENTRAL AVE", "postcode": "71901"}}},
{"geometry": {"type": "Point", "coordinates": [-93.0384481267, 34.4962673149]}, "type": "Feature", "properties": {"collection_times": [{"days": "Mon-Fri", "time": "1:40pm"}, {"days": "Sat", "time": "9:00am"}, {"days": "Sun", "time": "Closed"}], "id": "7190100095", "name": "USPS COLLECTION BOX - BLUE BOX", "address": {"city": "HOT SPRINGS", "state": "AR", "street": "1534 MALVERN AVE", "postcode": "71901"}}},
{"geometry": {"type": "Point", "coordinates": [-93.071787004, 34.4649452885]}, "type": "Feature", "properties": {"collection_times": [{"days": "Mon-Fri", "time": "5:35pm"}, {"days": "Sat", "time": "3:15pm"}, {"days": "Sun", "time": "Closed"}], "id": "7190100097", "name": "USPS COLLECTION BOX - PO LOBBY", "address": {"city": "HOT SPRINGS", "state": "AR", "street": "335 SECTION LINE RD", "postcode": "71901"}}},
{"geometry": {"type": "Point", "coordinates": [-93.071787004, 34.4649452885]}, "type": "Feature", "properties": {"collection_times": [{"days": "Mon-Fri", "time": "5:35pm"}, {"days": "Sat", "time": "3:15pm"}, {"days": "Sun", "time": "Closed"}], "id": "7190100100", "name": "USPS COLLECTION BOX - PO LOBBY", "address": {"city": "HOT SPRINGS", "state": "AR", "street": "335 SECTION LINE RD", "postcode": "71901"}}},
{"geometry": {"type": "Point", "coordinates": [-93.071787004, 34.4649452885]}, "type": "Feature", "properties": {"collection_times": [{"days": "Mon-Fri", "time": "5:35pm"}, {"days": "Sat", "time": "3:15pm"}, {"days": "Sun", "time": "Closed"}], "id": "7190100101", "name": "USPS COLLECTION BOX - PO LOBBY", "address": {"city": "HOT SPRINGS", "state": "AR", "street": "335 SECTION LINE RD", "postcode": "71901"}}},
{"geometry": {"type": "Point", "coordinates": [-93.0541317569, 34.5114193224]}, "type": "Feature", "properties": {"collection_times": [{"days": "Mon-Fri", "time": "4:30pm"}, {"days": "Sat", "time": "11:55am"}, {"days": "Sun", "time": "Closed"}], "id": "7190100106", "name": "USPS COLLECTION BOX - PO LOBBY", "address": {"city": "HOT SPRINGS", "state": "AR", "street": "620 CENTRAL AVE STE 1A", "postcode": "71901"}}},
{"geometry": {"type": "Point", "coordinates": [-93.0541317569, 34.5114193224]}, "type": "Feature", "properties": {"collection_times": [{"days": "Mon-Fri", "time": "4:30pm"}, {"days": "Sat", "time": "11:55am"}, {"days": "Sun", "time": "Closed"}], "id": "7190100107", "name": "USPS COLLECTION BOX - PO LOBBY", "address": {"city": "HOT SPRINGS", "state": "AR", "street": "620 CENTRAL AVE STE 1A", "postcode": "71901"}}},
{"geometry": {"type": "Point", "coordinates": [-93.0541317569, 34.5114193224]}, "type": "Feature", "properties": {"collection_times": [{"days": "Mon-Fri", "time": "4:30pm"}, {"days": "Sat", "time": "11:55am"}, {"days": "Sun", "time": "Closed"}], "id": "7190100108", "name": "USPS COLLECTION BOX - PO LOBBY", "address": {"city": "HOT SPRINGS", "state": "AR", "street": "620 CENTRAL AVE STE 1A", "postcode": "71901"}}},
{"geometry": {"type": "Point", "coordinates": [-93.0541317569, 34.5114193224]}, "type": "Feature", "properties": {"collection_times": [{"days": "Mon-Fri", "time": "4:30pm"}, {"days": "Sat", "time": "11:55am"}, {"days": "Sun", "time": "Closed"}], "id": "7190100109", "name": "USPS COLLECTION BOX - PO LOBBY", "address": {"city": "HOT SPRINGS", "state": "AR", "street": "620 CENTRAL AVE STE 1A", "postcode": "71901"}}},
{"geometry": {"type": "Point", "coordinates": [-93.0262083268, 34.5021802918]}, "type": "Feature", "properties": {"collection_times": [{"days": "Mon-Fri", "time": "5:10pm"}, {"days": "Sat", "time": "9:00am"}, {"days": "Sun", "time": "Closed"}], "id": "7190100110", "name": "USPS COLLECTION BOX - BLUE BOX", "address": {"city": "HOT SPRINGS", "state": "AR", "street": "300 CORNERSTONE BLVD", "postcode": "71901"}}},
{"geometry": {"type": "Point", "coordinates": [-93.071787004, 34.4649452885]}, "type": "Feature", "properties": {"collection_times": [{"days": "Mon-Fri", "time": "5:35pm"}, {"days": "Sat", "time": "3:15pm"}, {"days": "Sun", "time": "Closed"}], "id": "7190100111", "name": "USPS COLLECTION BOX - APC", "address": {"city": "HOT SPRINGS", "state": "AR", "street": "335 SECTION LINE RD", "postcode": "71901"}}},
{"geometry": {"type": "Point", "coordinates": [-92.9914631238, 34.5668379882]}, "type": "Feature", "properties": {"collection_times": [{"days": "Mon-Sat", "time": "10:00am"}, {"days": "Sun", "time": "Closed"}], "id": "7190100113", "name": "USPS COLLECTION BOX - BLUE BOX", "address": {"city": "HOT SPRINGS", "state": "AR", "street": "3970 PARK AVE", "postcode": "71901"}}},
{"geometry": {"type": "Point", "coordinates": [-93.0211627615, 34.4644613493]}, "type": "Feature", "properties": {"collection_times": [{"days": "Mon-Fri", "time": "12:00pm"}, {"days": "Sat", "time": "9:00am"}, {"days": "Sun", "time": "Closed"}], "id": "7190100115", "name": "USPS COLLECTION BOX - BLUE BOX", "address": {"city": "HOT SPRINGS", "state": "AR", "street": "307 CARPENTER DAM RD", "postcode": "71901"}}},
{"geometry": {"type": "Point", "coordinates": [-92.9656329308, 34.6716404159]}, "type": "Feature", "properties": {"collection_times": [{"days": "Mon-Sat", "time": "1:00pm"}, {"days": "Sun", "time": "Closed"}], "id": "7190900005", "name": "USPS COLLECTION BOX - BLUE BOX", "address": {"city": "HOT SPRINGS", "state": "AR", "street": "895 DESOTO BLVD", "postcode": "71909"}}},
{"geometry": {"type": "Point", "coordinates": [-93.0324360359, 34.6717774233]}, "type": "Feature", "properties": {"collection_times": [{"days": "Mon-Sat", "time": "12:30pm"}, {"days": "Sun", "time": "Closed"}], "id": "7190900006", "name": "USPS COLLECTION BOX - BLUE BOX", "address": {"city": "HOT SPRINGS", "state": "AR", "street": "101 CALELLA RD", "postcode": "71909"}}},
{"geometry": {"type": "Point", "coordinates": [-92.9656329308, 34.6716404159]}, "type": "Feature", "properties": {"collection_times": [{"days": "Mon-Sat", "time": "1:00pm"}, {"days": "Sun", "time": "Closed"}], "id": "7190900007", "name": "USPS COLLECTION BOX - BLUE BOX", "address": {"city": "HOT SPRINGS", "state": "AR", "street": "895 DESOTO BLVD", "postcode": "71909"}}},
{"geometry": {"type": "Point", "coordinates": [-92.8971429179, 34.6231908255]}, "type": "Feature", "properties": {"collection_times": [{"days": "Mon-Sat", "time": "12:00pm"}, {"days": "Sun", "time": "Closed"}], "id": "7190900010", "name": "USPS COLLECTION BOX - BLUE BOX", "address": {"city": "HOT SPRINGS", "state": "AR", "street": "480 PONCE DE LEON DR", "postcode": "71909"}}},
{"geometry": {"type": "Point", "coordinates": [-92.9852794171, 34.6440541126]}, "type": "Feature", "properties": {"collection_times": [{"days": "Mon-Sat", "time": "11:00am"}, {"days": "Sun", "time": "Closed"}], "id": "7190900014", "name": "USPS COLLECTION BOX - BLUE BOX", "address": {"city": "HOT SPRINGS", "state": "AR", "street": "301 BALEARIC RD", "postcode": "71909"}}},
{"geometry": {"type": "Point", "coordinates": [-93.0578555069, 34.6564605544]}, "type": "Feature", "properties": {"collection_times": [{"days": "Mon-Fri", "time": "4:30pm"}, {"days": "Sat", "time": "3:30pm"}, {"days": "Sun", "time": "Closed"}], "id": "7190900018", "name": "USPS COLLECTION BOX - BLUE BOX", "address": {"city": "HOT SPRINGS", "state": "AR", "street": "4656 N HIGHWAY 7 STE P", "postcode": "71909"}}},
{"geometry": {"type": "Point", "coordinates": [-93.0578555069, 34.6564605544]}, "type": "Feature", "properties": {"collection_times": [{"days": "Mon-Fri", "time": "4:30pm"}, {"days": "Sat", "time": "3:30pm"}, {"days": "Sun", "time": "Closed"}], "id": "7190900019", "name": "USPS COLLECTION BOX - BLUE BOX", "address": {"city": "HOT SPRINGS", "state": "AR", "street": "4656 N HIGHWAY 7 STE P", "postcode": "71909"}}},
{"geometry": {"type": "Point", "coordinates": [-93.0578555069, 34.6564605544]}, "type": "Feature", "properties": {"collection_times": [{"days": "Mon-Fri", "time": "4:30pm"}, {"days": "Sat", "time": "3:30pm"}, {"days": "Sun", "time": "Closed"}], "id": "7190900020", "name": "USPS COLLECTION BOX - PO LOBBY", "address": {"city": "HOT SPRINGS", "state": "AR", "street": "4656 N HIGHWAY 7 STE P", "postcode": "71909"}}},
{"geometry": {"type": "Point", "coordinates": [-93.0578555069, 34.6564605544]}, "type": "Feature", "properties": {"collection_times": [{"days": "Mon-Fri", "time": "4:30pm"}, {"days": "Sat", "time": "3:30pm"}, {"days": "Sun", "time": "Closed"}], "id": "7190900021", "name": "USPS COLLECTION BOX - PO LOBBY", "address": {"city": "HOT SPRINGS", "state": "AR", "street": "4656 N HIGHWAY 7 STE P", "postcode": "71909"}}},
{"geometry": {"type": "Point", "coordinates": [-93.0930827651, 34.4939023469]}, "type": "Feature", "properties": {"collection_times": [{"days": "Mon-Sat", "time": "5:00pm"}, {"days": "Sun", "time": "Closed"}], "id": "7191300006", "name": "USPS COLLECTION BOX - BLUE BOX", "address": {"city": "HOT SPRINGS", "state": "AR", "street": "101 HAMMOND DR", "postcode": "71913"}}},
{"geometry": {"type": "Point", "coordinates": [-93.1212633434, 34.4748415093]}, "type": "Feature", "properties": {"collection_times": [{"days": "Mon-Sat", "time": "9:00am"}, {"days": "Sun", "time": "Closed"}], "id": "7191300007", "name": "USPS COLLECTION BOX - BLUE BOX", "address": {"city": "HOT SPRINGS", "state": "AR", "street": "1212 AIRPORT RD", "postcode": "71913"}}},
{"geometry": {"type": "Point", "coordinates": [-93.1383729979, 34.4687060843]}, "type": "Feature", "properties": {"collection_times": [{"days": "Mon-Sat", "time": "9:00am"}, {"days": "Sun", "time": "Closed"}], "id": "7191300008", "name": "USPS COLLECTION BOX - BLUE BOX", "address": {"city": "HOT SPRINGS", "state": "AR", "street": "1558 AIRPORT RD", "postcode": "71913"}}},
{"geometry": {"type": "Point", "coordinates": [-93.0754327011, 34.4891059853]}, "type": "Feature", "properties": {"collection_times": [{"days": "Mon-Sat", "time": "1:00pm"}, {"days": "Sun", "time": "Closed"}], "id": "7191300010", "name": "USPS COLLECTION BOX - BLUE BOX", "address": {"city": "HOT SPRINGS", "state": "AR", "street": "600 MAIN ST", "postcode": "71913"}}},
{"geometry": {"type": "Point", "coordinates": [-93.0723840831, 34.496750034]}, "type": "Feature", "properties": {"collection_times": [{"days": "Mon-Sat", "time": "9:00am"}, {"days": "Sun", "time": "Closed"}], "id": "7191300011", "name": "USPS COLLECTION BOX - BLUE BOX", "address": {"city": "HOT SPRINGS", "state": "AR", "street": "627 ALBERT PIKE RD", "postcode": "71913"}}},
{"geometry": {"type": "Point", "coordinates": [-93.0598428347, 34.4974366027]}, "type": "Feature", "properties": {"collection_times": [{"days": "Mon-Sat", "time": "12:00pm"}, {"days": "Sun", "time": "Closed"}], "id": "7191300014", "name": "USPS COLLECTION BOX - BLUE BOX", "address": {"city": "HOT SPRINGS", "state": "AR", "street": "251 HOBSON AVE", "postcode": "71913"}}},
{"geometry": {"type": "Point", "coordinates": [-93.0807335193, 34.4498164582]}, "type": "Feature", "properties": {"collection_times": [{"days": "Mon-Fri", "time": "5:15pm"}, {"days": "Sat", "time": "9:00am"}, {"days": "Sun", "time": "Closed"}], "id": "7191300018", "name": "USPS COLLECTION BOX - BLUE BOX", "address": {"city": "HOT SPRINGS", "state": "AR", "street": "4501 CENTRAL AVE", "postcode": "71913"}}},
{"geometry": {"type": "Point", "coordinates": [-93.0617157618, 34.4584297895]}, "type": "Feature", "properties": {"collection_times": [{"days": "Mon-Sat", "time": "9:00am"}, {"days": "Sun", "time": "Closed"}], "id": "7191300020", "name": "USPS COLLECTION BOX - BLUE BOX", "address": {"city": "HOT SPRINGS", "state": "AR", "street": "3921 CENTRAL AVE", "postcode": "71913"}}},
{"geometry": {"type": "Point", "coordinates": [-93.0592570621, 34.471654673]}, "type": "Feature", "properties": {"collection_times": [{"days": "Mon-Sat", "time": "9:15am"}, {"days": "Sun", "time": "Closed"}], "id": "7191300022", "name": "USPS COLLECTION BOX - BLUE BOX", "address": {"city": "HOT SPRINGS", "state": "AR", "street": "125 CARL DR", "postcode": "71913"}}},
{"geometry": {"type": "Point", "coordinates": [-92.9533268522, 34.412318444]}, "type": "Feature", "properties": {"collection_times": [{"days": "Mon-Sat", "time": "10:30am"}, {"days": "Sun", "time": "Closed"}], "id": "7191300024", "name": "USPS COLLECTION BOX - BLUE BOX", "address": {"city": "HOT SPRINGS", "state": "AR", "street": "440 CATHERINE PARK RD", "postcode": "71913"}}},
{"geometry": {"type": "Point", "coordinates": [-93.0733310796, 34.4667088463]}, "type": "Feature", "properties": {"collection_times": [{"days": "Mon-Fri", "time": "1:05pm"}, {"days": "Sat-Sun", "time": "Closed"}], "id": "7191300026", "name": "USPS COLLECTION BOX - BLUE BOX", "address": {"city": "HOT SPRINGS", "state": "AR", "street": "197 MCAULEY CT", "postcode": "71913"}}},
{"geometry": {"type": "Point", "coordinates": [-93.1441997836, 34.4651638566]}, "type": "Feature", "properties": {"collection_times": [{"days": "Mon-Sat", "time": "10:00am"}, {"days": "Sun", "time": "Closed"}], "id": "7191300027", "name": "USPS COLLECTION BOX - BLUE BOX", "address": {"city": "HOT SPRINGS", "state": "AR", "street": "1739 AIRPORT RD", "postcode": "71913"}}},
{"geometry": {"type": "Point", "coordinates": [-93.069243291, 34.468169306]}, "type": "Feature", "properties": {"collection_times": [{"days": "Mon-Fri", "time": "5:00pm"}, {"days": "Sat", "time": "9:00am"}, {"days": "Sun", "time": "Closed"}], "id": "7191300034", "name": "USPS COLLECTION BOX - BLUE BOX", "address": {"city": "HOT SPRINGS", "state": "AR", "street": "1 MERCY LN", "postcode": "71913"}}},
{"geometry": {"type": "Point", "coordinates": [-93.069243291, 34.468169306]}, "type": "Feature", "properties": {"collection_times": [{"days": "Mon-Fri", "time": "5:00pm"}, {"days": "Sat", "time": "9:30am"}, {"days": "Sun", "time": "Closed"}], "id": "7191300035", "name": "USPS COLLECTION BOX - BLUE BOX", "address": {"city": "HOT SPRINGS", "state": "AR", "street": "1 MERCY LN", "postcode": "71913"}}},
{"geometry": {"type": "Point", "coordinates": [-93.0641040956, 34.5017115157]}, "type": "Feature", "properties": {"collection_times": [{"days": "Mon-Fri", "time": "4:45pm"}, {"days": "Sat", "time": "9:00am"}, {"days": "Sun", "time": "Closed"}], "id": "7191300036", "name": "USPS COLLECTION BOX - BLUE BOX", "address": {"city": "HOT SPRINGS", "state": "AR", "street": "715 W GRAND AVE", "postcode": "71913"}}},
{"geometry": {"type": "Point", "coordinates": [-93.0641040956, 34.5017115157]}, "type": "Feature", "properties": {"collection_times": [{"days": "Mon-Fri", "time": "4:45pm"}, {"days": "Sat", "time": "9:00am"}, {"days": "Sun", "time": "Closed"}], "id": "7191300037", "name": "USPS COLLECTION BOX - BLUE BOX", "address": {"city": "HOT SPRINGS", "state": "AR", "street": "715 W GRAND AVE", "postcode": "71913"}}},
{"geometry": {"type": "Point", "coordinates": [-93.0678321518, 34.4980886836]}, "type": "Feature", "properties": {"collection_times": [{"days": "Mon-Fri", "time": "2:20pm"}, {"days": "Sat", "time": "9:00am"}, {"days": "Sun", "time": "Closed"}], "id": "7191300039", "name": "USPS COLLECTION BOX - BLUE BOX", "address": {"city": "HOT SPRINGS", "state": "AR", "street": "818 HOBSON AVE", "postcode": "71913"}}},
{"geometry": {"type": "Point", "coordinates": [-93.09200465, 34.4098885518]}, "type": "Feature", "properties": {"collection_times": [{"days": "Mon-Sat", "time": "10:00am"}, {"days": "Sun", "time": "Closed"}], "id": "7191300040", "name": "USPS COLLECTION BOX - BLUE BOX", "address": {"city": "HOT SPRINGS", "state": "AR", "street": "126 AMY DR", "postcode": "71913"}}},
{"geometry": {"type": "Point", "coordinates": [-93.0973256733, 34.4940236122]}, "type": "Feature", "properties": {"collection_times": [{"days": "Mon-Sat", "time": "12:00pm"}, {"days": "Sun", "time": "Closed"}], "id": "7191300041", "name": "USPS COLLECTION BOX - BLUE BOX", "address": {"city": "HOT SPRINGS", "state": "AR", "street": "1902 ALBERT PIKE RD", "postcode": "71913"}}},
{"geometry": {"type": "Point", "coordinates": [-93.0597950307, 34.4787979084]}, "type": "Feature", "properties": {"collection_times": [{"days": "Mon-Fri", "time": "1:25pm"}, {"days": "Sat", "time": "9:00am"}, {"days": "Sun", "time": "Closed"}], "id": "7191300049", "name": "USPS COLLECTION BOX - BLUE BOX", "address": {"city": "HOT SPRINGS", "state": "AR", "street": "100 BARKLEY PL", "postcode": "71913"}}},
{"geometry": {"type": "Point", "coordinates": [-93.0930827651, 34.4939023469]}, "type": "Feature", "properties": {"collection_times": [{"days": "Mon-Sat", "time": "5:00pm"}, {"days": "Sun", "time": "Closed"}], "id": "7191300057", "name": "USPS COLLECTION BOX - BLUE BOX", "address": {"city": "HOT SPRINGS", "state": "AR", "street": "101 HAMMOND DR", "postcode": "71913"}}},
{"geometry": {"type": "Point", "coordinates": [-93.0930827651, 34.4939023469]}, "type": "Feature", "properties": {"collection_times": [{"days": "Mon-Sat", "time": "5:00pm"}, {"days": "Sun", "time": "Closed"}], "id": "7191300058", "name": "USPS COLLECTION BOX - PO LOBBY", "address": {"city": "HOT SPRINGS", "state": "AR", "street": "101 HAMMOND DR", "postcode": "71913"}}},
{"geometry": {"type": "Point", "coordinates": [-93.059998725, 34.4766590772]}, "type": "Feature", "properties": {"collection_times": [{"days": "Mon-Fri", "time": "4:50pm"}, {"days": "Sat", "time": "9:00am"}, {"days": "Sun", "time": "Closed"}], "id": "7191300063", "name": "USPS COLLECTION BOX - BLUE BOX", "address": {"city": "HOT SPRINGS", "state": "AR", "street": "107 CRAWFORD ST", "postcode": "71913"}}},
{"geometry": {"type": "Point", "coordinates": [-93.1255187099, 34.5030293322]}, "type": "Feature", "properties": {"collection_times": [{"days": "Mon-Sat", "time": "9:00am"}, {"days": "Sun", "time": "Closed"}], "id": "7191300079", "name": "USPS COLLECTION BOX - BLUE BOX", "address": {"city": "HOT SPRINGS", "state": "AR", "street": "3060 ALBERT PIKE RD", "postcode": "71913"}}},
{"geometry": {"type": "Point", "coordinates": [-93.1210741366, 34.5132930248]}, "type": "Feature", "properties": {"collection_times": [{"days": "Mon-Sat", "time": "9:30am"}, {"days": "Sun", "time": "Closed"}], "id": "7191300081", "name": "USPS COLLECTION BOX - BLUE BOX", "address": {"city": "HOT SPRINGS", "state": "AR", "street": "300 MID AMERICA BLVD", "postcode": "71913"}}},
{"geometry": {"type": "Point", "coordinates": [-93.1114999744, 34.4787523808]}, "type": "Feature", "properties": {"collection_times": [{"days": "Mon-Sat", "time": "9:00am"}, {"days": "Sun", "time": "Closed"}], "id": "7191300082", "name": "USPS COLLECTION BOX - BLUE BOX", "address": {"city": "HOT SPRINGS", "state": "AR", "street": "1018 AIRPORT RD", "postcode": "71913"}}},
{"geometry": {"type": "Point", "coordinates": [-93.0872715631, 34.4898887703]}, "type": "Feature", "properties": {"collection_times": [{"days": "Mon-Fri", "time": "2:25pm"}, {"days": "Sat", "time": "9:00am"}, {"days": "Sun", "time": "Closed"}], "id": "7191300083", "name": "USPS COLLECTION BOX - BLUE BOX", "address": {"city": "HOT SPRINGS", "state": "AR", "street": "215 AIRPORT RD", "postcode": "71913"}}},
{"geometry": {"type": "Point", "coordinates": [-93.0595156648, 34.4679770036]}, "type": "Feature", "properties": {"collection_times": [{"days": "Mon-Sat", "time": "10:00am"}, {"days": "Sun", "time": "Closed"}], "id": "7191300084", "name": "USPS COLLECTION BOX - BLUE BOX", "address": {"city": "HOT SPRINGS", "state": "AR", "street": "3632 CENTRAL AVE", "postcode": "71913"}}},
{"geometry": {"type": "Point", "coordinates": [-93.0587033416, 34.5022798907]}, "type": "Feature", "properties": {"collection_times": [{"days": "Mon-Sat", "time": "12:00pm"}, {"days": "Sun", "time": "Closed"}], "id": "7191300085", "name": "USPS COLLECTION BOX - BLUE BOX", "address": {"city": "HOT SPRINGS", "state": "AR", "street": "109 BARRY ST", "postcode": "71913"}}},
{"geometry": {"type": "Point", "coordinates": [-93.1287171127, 34.4711679938]}, "type": "Feature", "properties": {"collection_times": [{"days": "Mon-Sat", "time": "12:00pm"}, {"days": "Sun", "time": "Closed"}], "id": "7191300090", "name": "USPS COLLECTION BOX - BLUE BOX", "address": {"city": "HOT SPRINGS", "state": "AR", "street": "1335 AIRPORT RD", "postcode": "71913"}}},
{"geometry": {"type": "Point", "coordinates": [-93.0946630806, 34.4249093238]}, "type": "Feature", "properties": {"collection_times": [{"days": "Mon-Sat", "time": "9:30am"}, {"days": "Sun", "time": "Closed"}], "id": "7191300092", "name": "USPS COLLECTION BOX - BLUE BOX", "address": {"city": "HOT SPRINGS", "state": "AR", "street": "5462 CENTRAL AVE", "postcode": "71913"}}},
{"geometry": {"type": "Point", "coordinates": [-93.0617276227, 34.4623593305]}, "type": "Feature", "properties": {"collection_times": [{"days": "Mon-Sat", "time": "9:00am"}, {"days": "Sun", "time": "Closed"}], "id": "7191300094", "name": "USPS COLLECTION BOX - BLUE BOX", "address": {"city": "HOT SPRINGS", "state": "AR", "street": "3812 CENTRAL AVE", "postcode": "71913"}}},
{"geometry": {"type": "Point", "coordinates": [-93.104020451, 34.492058451]}, "type": "Feature", "properties": {"collection_times": [{"days": "Mon-Fri", "time": "10:00am"}, {"days": "Sat", "time": "9:00am"}, {"days": "Sun", "time": "Closed"}], "id": "7191300096", "name": "USPS COLLECTION BOX - BLUE BOX", "address": {"city": "HOT SPRINGS", "state": "AR", "street": "2228 ALBERT PIKE RD", "postcode": "71913"}}},
{"geometry": {"type": "Point", "coordinates": [-93.09734435, 34.484910314]}, "type": "Feature", "properties": {"collection_times": [{"days": "Mon-Fri", "time": "9:00am"}, {"days": "Sat", "time": "10:00am"}, {"days": "Sun", "time": "Closed"}], "id": "7191300097", "name": "USPS COLLECTION BOX - BLUE BOX", "address": {"city": "HOT SPRINGS", "state": "AR", "street": "115 STOVER ST", "postcode": "71913"}}},
{"geometry": {"type": "Point", "coordinates": [-93.4619714591, 34.2647402509]}, "type": "Feature", "properties": {"collection_times": [{"days": "Mon-Fri", "time": "4:00pm"}, {"days": "Sat", "time": "11:00am"}, {"days": "Sun", "time": "Closed"}], "id": "7192100002", "name": "USPS COLLECTION BOX - PO LOBBY", "address": {"city": "AMITY", "state": "AR", "street": "136 W THOMPSON ST", "postcode": "71921"}}},
{"geometry": {"type": "Point", "coordinates": [-93.4231236243, 34.0340859689]}, "type": "Feature", "properties": {"collection_times": [{"days": "Mon-Fri", "time": "3:45pm"}, {"days": "Sat", "time": "9:45am"}, {"days": "Sun", "time": "Closed"}], "id": "7192200001", "name": "USPS COLLECTION BOX - BLUE BOX", "address": {"city": "ANTOINE", "state": "AR", "street": "40 E MAIN ST", "postcode": "71922"}}},
{"geometry": {"type": "Point", "coordinates": [-93.4231236243, 34.0340859689]}, "type": "Feature", "properties": {"collection_times": [{"days": "Mon-Fri", "time": "11:30am"}, {"days": "Sat", "time": "9:45am"}, {"days": "Sun", "time": "Closed"}], "id": "7192200002", "name": "USPS COLLECTION BOX - PO LOBBY", "address": {"city": "ANTOINE", "state": "AR", "street": "40 E MAIN ST", "postcode": "71922"}}},
{"geometry": {"type": "Point", "coordinates": [-93.0713696424, 34.1737592284]}, "type": "Feature", "properties": {"collection_times": [{"days": "Mon-Sat", "time": "9:00am"}, {"days": "Sun", "time": "Closed"}], "id": "7192300002", "name": "USPS COLLECTION BOX - BLUE BOX", "address": {"city": "ARKADELPHIA", "state": "AR", "street": "171 VALLEY ST", "postcode": "71923"}}},
{"geometry": {"type": "Point", "coordinates": [-93.0642050732, 34.1230349795]}, "type": "Feature", "properties": {"collection_times": [{"days": "Mon-Fri", "time": "2:30pm"}, {"days": "Sat", "time": "9:00am"}, {"days": "Sun", "time": "Closed"}], "id": "7192300006", "name": "USPS COLLECTION BOX - BLUE BOX", "address": {"city": "ARKADELPHIA", "state": "AR", "street": "1420 PINE ST", "postcode": "71923"}}},
{"geometry": {"type": "Point", "coordinates": [-93.0828303629, 34.1222956899]}, "type": "Feature", "properties": {"collection_times": [{"days": "Mon-Fri", "time": "11:30am"}, {"days": "Sat", "time": "9:00am"}, {"days": "Sun", "time": "Closed"}], "id": "7192300007", "name": "USPS COLLECTION BOX - BLUE BOX", "address": {"city": "ARKADELPHIA", "state": "AR", "street": "2750 PINE ST", "postcode": "71923"}}},
{"geometry": {"type": "Point", "coordinates": [-93.0536900784, 34.1196301391]}, "type": "Feature", "properties": {"collection_times": [{"days": "Mon-Fri", "time": "11:00am"}, {"days": "Sat", "time": "9:00am"}, {"days": "Sun", "time": "Closed"}], "id": "7192300008", "name": "USPS COLLECTION BOX - BLUE BOX", "address": {"city": "ARKADELPHIA", "state": "AR", "street": "608 MAIN ST", "postcode": "71923"}}},
{"geometry": {"type": "Point", "coordinates": [-93.0537238615, 34.1203452513]}, "type": "Feature", "properties": {"collection_times": [{"days": "Mon-Fri", "time": "11:00am"}, {"days": "Sat", "time": "9:00am"}, {"days": "Sun", "time": "Closed"}], "id": "7192300009", "name": "USPS COLLECTION BOX - BLUE BOX", "address": {"city": "ARKADELPHIA", "state": "AR", "street": "612 CLINTON ST", "postcode": "71923"}}},
{"geometry": {"type": "Point", "coordinates": [-93.0513857583, 34.1181401027]}, "type": "Feature", "properties": {"collection_times": [{"days": "Mon-Fri", "time": "3:30pm"}, {"days": "Sat", "time": "9:00am"}, {"days": "Sun", "time": "Closed"}], "id": "7192300012", "name": "USPS COLLECTION BOX - BLUE BOX", "address": {"city": "ARKADELPHIA", "state": "AR", "street": "400 CRITTENDEN ST", "postcode": "71923"}}},
{"geometry": {"type": "Point", "coordinates": [-93.0515321226, 34.1195996082]}, "type": "Feature", "properties": {"collection_times": [{"days": "Mon-Fri", "time": "11:00am"}, {"days": "Sat", "time": "9:00am"}, {"days": "Sun", "time": "Closed"}], "id": "7192300018", "name": "USPS COLLECTION BOX - BLUE BOX", "address": {"city": "ARKADELPHIA", "state": "AR", "street": "416 MAIN ST", "postcode": "71923"}}},
{"geometry": {"type": "Point", "coordinates": [-93.0538063375, 34.1180700592]}, "type": "Feature", "properties": {"collection_times": [{"days": "Mon-Fri", "time": "4:45pm"}, {"days": "Sat", "time": "4:00pm"}, {"days": "Sun", "time": "Closed"}], "id": "7192300020", "name": "USPS COLLECTION BOX - PO LOBBY", "address": {"city": "ARKADELPHIA", "state": "AR", "street": "615 CRITTENDEN ST", "postcode": "71923"}}},
{"geometry": {"type": "Point", "coordinates": [-93.0538063375, 34.1180700592]}, "type": "Feature", "properties": {"collection_times": [{"days": "Mon-Fri", "time": "4:45pm"}, {"days": "Sat", "time": "4:00pm"}, {"days": "Sun", "time": "Closed"}], "id": "7192300021", "name": "USPS COLLECTION BOX - PO LOBBY", "address": {"city": "ARKADELPHIA", "state": "AR", "street": "615 CRITTENDEN ST", "postcode": "71923"}}},
{"geometry": {"type": "Point", "coordinates": [-93.0538063375, 34.1180700592]}, "type": "Feature", "properties": {"collection_times": [{"days": "Mon-Fri", "time": "4:45pm"}, {"days": "Sat", "time": "4:00pm"}, {"days": "Sun", "time": "Closed"}], "id": "7192300022", "name": "USPS COLLECTION BOX - BLUE BOX", "address": {"city": "ARKADELPHIA", "state": "AR", "street": "615 CRITTENDEN ST", "postcode": "71923"}}},
{"geometry": {"type": "Point", "coordinates": [-93.0538063375, 34.1180700592]}, "type": "Feature", "properties": {"collection_times": [{"days": "Mon-Fri", "time": "4:45pm"}, {"days": "Sat", "time": "4:00pm"}, {"days": "Sun", "time": "Closed"}], "id": "7192300023", "name": "USPS COLLECTION BOX - BLUE BOX", "address": {"city": "ARKADELPHIA", "state": "AR", "street": "615 CRITTENDEN ST", "postcode": "71923"}}},
{"geometry": {"type": "Point", "coordinates": [-93.0538063375, 34.1180700592]}, "type": "Feature", "properties": {"collection_times": [{"days": "Mon-Fri", "time": "4:45pm"}, {"days": "Sat", "time": "4:00pm"}, {"days": "Sun", "time": "Closed"}], "id": "7192300024", "name": "USPS COLLECTION BOX - BLUE BOX", "address": {"city": "ARKADELPHIA", "state": "AR", "street": "615 CRITTENDEN ST", "postcode": "71923"}}},
{"geometry": {"type": "Point", "coordinates": [-93.1758518639, 34.3116191526]}, "type": "Feature", "properties": {"collection_times": [{"days": "Mon-Fri", "time": "11:00am"}, {"days": "Sat-Sun", "time": "Closed"}], "id": "7192900004", "name": "USPS COLLECTION BOX - BLUE BOX", "address": {"city": "BISMARCK", "state": "AR", "street": "107 HIGHWAY 347", "postcode": "71929"}}},
{"geometry": {"type": "Point", "coordinates": [-93.1706352179, 34.315760872]}, "type": "Feature", "properties": {"collection_times": [{"days": "Mon-Fri", "time": "4:15pm"}, {"days": "Sat", "time": "12:00pm"}, {"days": "Sun", "time": "Closed"}], "id": "7192900006", "name": "USPS COLLECTION BOX - BLUE BOX", "address": {"city": "BISMARCK", "state": "AR", "street": "101 MILLENNIUM PARK DR", "postcode": "71929"}}},
{"geometry": {"type": "Point", "coordinates": [-93.1706352179, 34.315760872]}, "type": "Feature", "properties": {"collection_times": [{"days": "Mon-Fri", "time": "4:15pm"}, {"days": "Sat", "time": "12:00pm"}, {"days": "Sun", "time": "Closed"}], "id": "7192900007", "name": "USPS COLLECTION BOX - PO LOBBY", "address": {"city": "BISMARCK", "state": "AR", "street": "101 MILLENNIUM PARK DR", "postcode": "71929"}}},
{"geometry": {"type": "Point", "coordinates": [-93.1706352179, 34.315760872]}, "type": "Feature", "properties": {"collection_times": [{"days": "Mon-Fri", "time": "4:15pm"}, {"days": "Sat", "time": "12:00pm"}, {"days": "Sun", "time": "Closed"}], "id": "7192900008", "name": "USPS COLLECTION BOX - PO LOBBY", "address": {"city": "BISMARCK", "state": "AR", "street": "101 MILLENNIUM PARK DR", "postcode": "71929"}}},
{"geometry": {"type": "Point", "coordinates": [-93.1217584831, 34.2515914329]}, "type": "Feature", "properties": {"collection_times": [{"days": "Mon-Fri", "time": "10:00am"}, {"days": "Sat-Sun", "time": "Closed"}], "id": "7192900009", "name": "USPS COLLECTION BOX - BLUE BOX", "address": {"city": "BISMARCK", "state": "AR", "street": "1398 HIGHWAY 7", "postcode": "71929"}}},
{"geometry": {"type": "Point", "coordinates": [-94.1030064356, 34.5369030865]}, "type": "Feature", "properties": {"collection_times": [{"days": "Mon-Sat", "time": "1:30pm"}, {"days": "Sun", "time": "Closed"}], "id": "7193200000", "name": "USPS COLLECTION BOX - BLUE BOX", "address": {"city": "BOARD CAMP", "state": "AR", "street": "4199 HIGHWAY 8 E", "postcode": "71932"}}},
{"geometry": {"type": "Point", "coordinates": [-94.1030064356, 34.5369030865]}, "type": "Feature", "properties": {"collection_times": [{"days": "Mon-Fri", "time": "11:30am"}, {"days": "Sat", "time": "1:30pm"}, {"days": "Sun", "time": "Closed"}], "id": "7193200001", "name": "USPS COLLECTION BOX - PO LOBBY", "address": {"city": "BOARD CAMP", "state": "AR", "street": "4199 HIGHWAY 8 E", "postcode": "71932"}}},
{"geometry": {"type": "Point", "coordinates": [-93.37810313, 34.3861068255]}, "type": "Feature", "properties": {"collection_times": [{"days": "Mon-Fri", "time": "11:30am"}, {"days": "Sat", "time": "10:00am"}, {"days": "Sun", "time": "Closed"}], "id": "7193300002", "name": "USPS COLLECTION BOX - PO LOBBY", "address": {"city": "BONNERDALE", "state": "AR", "street": "1980 HIGHWAY 70", "postcode": "71933"}}},
{"geometry": {"type": "Point", "coordinates": [-93.37810313, 34.3861068255]}, "type": "Feature", "properties": {"collection_times": [{"days": "Mon-Fri", "time": "11:30am"}, {"days": "Sat", "time": "10:00am"}, {"days": "Sun", "time": "Closed"}], "id": "7193300003", "name": "USPS COLLECTION BOX - PO LOBBY", "address": {"city": "BONNERDALE", "state": "AR", "street": "1980 HIGHWAY 70", "postcode": "71933"}}},
{"geometry": {"type": "Point", "coordinates": [-93.37810313, 34.3861068255]}, "type": "Feature", "properties": {"collection_times": [{"days": "Mon-Fri", "time": "4:00pm"}, {"days": "Sat", "time": "10:00am"}, {"days": "Sun", "time": "Closed"}], "id": "7193300004", "name": "USPS COLLECTION BOX - BLUE BOX", "address": {"city": "BONNERDALE", "state": "AR", "street": "1980 HIGHWAY 70", "postcode": "71933"}}},
{"geometry": {"type": "Point", "coordinates": [-93.620885735, 34.4017623032]}, "type": "Feature", "properties": {"collection_times": [{"days": "Mon-Fri", "time": "4:15pm"}, {"days": "Sat", "time": "9:40am"}, {"days": "Sun", "time": "Closed"}], "id": "7193500001", "name": "USPS COLLECTION BOX - BLUE BOX", "address": {"city": "CADDO GAP", "state": "AR", "street": "57 6TH ST", "postcode": "71935"}}},
{"geometry": {"type": "Point", "coordinates": [-93.620885735, 34.4017623032]}, "type": "Feature", "properties": {"collection_times": [{"days": "Mon-Fri", "time": "11:30am"}, {"days": "Sat", "time": "9:40am"}, {"days": "Sun", "time": "Closed"}], "id": "7193500002", "name": "USPS COLLECTION BOX - PO LOBBY", "address": {"city": "CADDO GAP", "state": "AR", "street": "57 6TH ST", "postcode": "71935"}}},
{"geometry": {"type": "Point", "coordinates": [-93.620885735, 34.4017623032]}, "type": "Feature", "properties": {"collection_times": [{"days": "Mon-Fri", "time": "11:30am"}, {"days": "Sat", "time": "9:40am"}, {"days": "Sun", "time": "Closed"}], "id": "7193500003", "name": "USPS COLLECTION BOX - PO LOBBY", "address": {"city": "CADDO GAP", "state": "AR", "street": "57 6TH ST", "postcode": "71935"}}},
{"geometry": {"type": "Point", "coordinates": [-94.388928057, 34.3900314006]}, "type": "Feature", "properties": {"collection_times": [{"days": "Mon-Fri", "time": "4:00pm"}, {"days": "Sat", "time": "10:00am"}, {"days": "Sun", "time": "Closed"}], "id": "7193700001", "name": "USPS COLLECTION BOX - BLUE BOX", "address": {"city": "COVE", "state": "AR", "street": "120 E BARTON AVE", "postcode": "71937"}}},
{"geometry": {"type": "Point", "coordinates": [-94.4104641504, 34.4353689508]}, "type": "Feature", "properties": {"collection_times": [{"days": "Mon-Fri", "time": "2:45pm"}, {"days": "Sat", "time": "10:00am"}, {"days": "Sun", "time": "Closed"}], "id": "7193700002", "name": "USPS COLLECTION BOX - PO LOBBY", "address": {"city": "COVE", "state": "AR", "street": "120 E BARTON AVE", "postcode": "71937"}}},
{"geometry": {"type": "Point", "coordinates": [-94.4104641504, 34.4353689508]}, "type": "Feature", "properties": {"collection_times": [{"days": "Mon-Fri", "time": "2:45pm"}, {"days": "Sat", "time": "10:00am"}, {"days": "Sun", "time": "Closed"}], "id": "7193700003", "name": "USPS COLLECTION BOX - PO LOBBY", "address": {"city": "COVE", "state": "AR", "street": "120 E BARTON AVE", "postcode": "71937"}}},
{"geometry": {"type": "Point", "coordinates": [-93.5068413193, 34.0315877661]}, "type": "Feature", "properties": {"collection_times": [{"days": "Mon-Fri", "time": "3:30pm"}, {"days": "Sat", "time": "10:15am"}, {"days": "Sun", "time": "Closed"}], "id": "7194000001", "name": "USPS COLLECTION BOX - BLUE BOX", "address": {"city": "DELIGHT", "state": "AR", "street": "126 E ANTIOCH ST", "postcode": "71940"}}},
{"geometry": {"type": "Point", "coordinates": [-93.5068413193, 34.0315877661]}, "type": "Feature", "properties": {"collection_times": [{"days": "Mon-Fri", "time": "1:00pm"}, {"days": "Sat", "time": "10:15am"}, {"days": "Sun", "time": "Closed"}], "id": "7194000002", "name": "USPS COLLECTION BOX - PO LOBBY", "address": {"city": "DELIGHT", "state": "AR", "street": "126 E ANTIOCH ST", "postcode": "71940"}}},
{"geometry": {"type": "Point", "coordinates": [-93.5068413193, 34.0315877661]}, "type": "Feature", "properties": {"collection_times": [{"days": "Mon-Fri", "time": "1:00pm"}, {"days": "Sat", "time": "10:15am"}, {"days": "Sun", "time": "Closed"}], "id": "7194000003", "name": "USPS COLLECTION BOX - PO LOBBY", "address": {"city": "DELIGHT", "state": "AR", "street": "126 E ANTIOCH ST", "postcode": "71940"}}},
{"geometry": {"type": "Point", "coordinates": [-92.9199451497, 34.2347182719]}, "type": "Feature", "properties": {"collection_times": [{"days": "Mon-Fri", "time": "3:30pm"}, {"days": "Sat", "time": "10:00am"}, {"days": "Sun", "time": "Closed"}], "id": "7194100001", "name": "USPS COLLECTION BOX - BLUE BOX", "address": {"city": "DONALDSON", "state": "AR", "street": "501 BRYANT DR", "postcode": "71941"}}},
{"geometry": {"type": "Point", "coordinates": [-92.9199451497, 34.2347182719]}, "type": "Feature", "properties": {"collection_times": [{"days": "Mon-Fri", "time": "10:30am"}, {"days": "Sat", "time": "10:00am"}, {"days": "Sun", "time": "Closed"}], "id": "7194100002", "name": "USPS COLLECTION BOX - PO LOBBY", "address": {"city": "DONALDSON", "state": "AR", "street": "501 BRYANT DR", "postcode": "71941"}}},
{"geometry": {"type": "Point", "coordinates": [-92.9199451497, 34.2347182719]}, "type": "Feature", "properties": {"collection_times": [{"days": "Mon-Fri", "time": "10:30am"}, {"days": "Sat", "time": "10:00am"}, {"days": "Sun", "time": "Closed"}], "id": "7194100003", "name": "USPS COLLECTION BOX - PO LOBBY", "address": {"city": "DONALDSON", "state": "AR", "street": "501 BRYANT DR", "postcode": "71941"}}},
{"geometry": {"type": "Point", "coordinates": [-92.9199451497, 34.2347182719]}, "type": "Feature", "properties": {"collection_times": [{"days": "Mon-Fri", "time": "10:30am"}, {"days": "Sat", "time": "10:00am"}, {"days": "Sun", "time": "Closed"}], "id": "7194100004", "name": "USPS COLLECTION BOX - PO LOBBY", "address": {"city": "DONALDSON", "state": "AR", "street": "501 BRYANT DR", "postcode": "71941"}}},
{"geometry": {"type": "Point", "coordinates": [-92.9199451497, 34.2347182719]}, "type": "Feature", "properties": {"collection_times": [{"days": "Mon-Fri", "time": "10:30am"}, {"days": "Sat", "time": "10:00am"}, {"days": "Sun", "time": "Closed"}], "id": "7194100005", "name": "USPS COLLECTION BOX - PO LOBBY", "address": {"city": "DONALDSON", "state": "AR", "street": "501 BRYANT DR", "postcode": "71941"}}},
{"geometry": {"type": "Point", "coordinates": [-92.9986395094, 34.2250149855]}, "type": "Feature", "properties": {"collection_times": [{"days": "Mon-Fri", "time": "10:00am"}, {"days": "Sat", "time": "9:30am"}, {"days": "Sun", "time": "Closed"}], "id": "7194200001", "name": "USPS COLLECTION BOX - PO LOBBY", "address": {"city": "FRIENDSHIP", "state": "AR", "street": "2595 MALVERN RD", "postcode": "71942"}}},
{"geometry": {"type": "Point", "coordinates": [-92.9986395094, 34.2250149855]}, "type": "Feature", "properties": {"collection_times": [{"days": "Mon-Fri", "time": "4:15pm"}, {"days": "Sat", "time": "9:30am"}, {"days": "Sun", "time": "Closed"}], "id": "7194200002", "name": "USPS COLLECTION BOX - BLUE BOX", "address": {"city": "FRIENDSHIP", "state": "AR", "street": "2595 MALVERN RD", "postcode": "71942"}}},
{"geometry": {"type": "Point", "coordinates": [-93.5751450214, 34.31235654]}, "type": "Feature", "properties": {"collection_times": [{"days": "Mon-Sat", "time": "1:00pm"}, {"days": "Sun", "time": "Closed"}], "id": "7194300001", "name": "USPS COLLECTION BOX - BLUE BOX", "address": {"city": "GLENWOOD", "state": "AR", "street": "201 LAKE ST", "postcode": "71943"}}},
{"geometry": {"type": "Point", "coordinates": [-93.5375543193, 34.3275232829]}, "type": "Feature", "properties": {"collection_times": [{"days": "Mon-Fri", "time": "4:30pm"}, {"days": "Sat", "time": "1:00pm"}, {"days": "Sun", "time": "Closed"}], "id": "7194300002", "name": "USPS COLLECTION BOX - PO LOBBY", "address": {"city": "GLENWOOD", "state": "AR", "street": "916 BROADWAY", "postcode": "71943"}}},
{"geometry": {"type": "Point", "coordinates": [-93.5495770398, 34.321744338]}, "type": "Feature", "properties": {"collection_times": [{"days": "Mon-Sat", "time": "1:00pm"}, {"days": "Sun", "time": "Closed"}], "id": "7194300003", "name": "USPS COLLECTION BOX - BLUE BOX", "address": {"city": "GLENWOOD", "state": "AR", "street": "200 HIGHWAY 70 E", "postcode": "71943"}}},
{"geometry": {"type": "Point", "coordinates": [-93.551281844, 34.325981]}, "type": "Feature", "properties": {"collection_times": [{"days": "Mon-Sat", "time": "1:00pm"}, {"days": "Sun", "time": "Closed"}], "id": "7194300004", "name": "USPS COLLECTION BOX - BLUE BOX", "address": {"city": "GLENWOOD", "state": "AR", "street": "102 W BROADWAY", "postcode": "71943"}}},
{"geometry": {"type": "Point", "coordinates": [-93.5375543193, 34.3275232829]}, "type": "Feature", "properties": {"collection_times": [{"days": "Mon-Fri", "time": "4:30pm"}, {"days": "Sat", "time": "1:00pm"}, {"days": "Sun", "time": "Closed"}], "id": "7194300006", "name": "USPS COLLECTION BOX - BLUE BOX", "address": {"city": "GLENWOOD", "state": "AR", "street": "916 BROADWAY", "postcode": "71943"}}},
{"geometry": {"type": "Point", "coordinates": [-93.5375543193, 34.3275232829]}, "type": "Feature", "properties": {"collection_times": [{"days": "Mon-Fri", "time": "4:30pm"}, {"days": "Sat", "time": "1:00pm"}, {"days": "Sun", "time": "Closed"}], "id": "7194300007", "name": "USPS COLLECTION BOX - PO LOBBY", "address": {"city": "GLENWOOD", "state": "AR", "street": "916 BROADWAY", "postcode": "71943"}}},
{"geometry": {"type": "Point", "coordinates": [-94.3372459249, 34.2742747377]}, "type": "Feature", "properties": {"collection_times": [{"days": "Mon-Fri", "time": "3:30pm"}, {"days": "Sat", "time": "10:15am"}, {"days": "Sun", "time": "Closed"}], "id": "7194400001", "name": "USPS COLLECTION BOX - BLUE BOX", "address": {"city": "GRANNIS", "state": "AR", "street": "8580 HIGHWAY 71 S", "postcode": "71944"}}},
{"geometry": {"type": "Point", "coordinates": [-94.3372459249, 34.2742747377]}, "type": "Feature", "properties": {"collection_times": [{"days": "Mon-Sat", "time": "2:30pm"}, {"days": "Sun", "time": "Closed"}], "id": "7194400002", "name": "USPS COLLECTION BOX - PO LOBBY", "address": {"city": "GRANNIS", "state": "AR", "street": "8580 HIGHWAY 71 S", "postcode": "71944"}}},
{"geometry": {"type": "Point", "coordinates": [-94.3372459249, 34.2742747377]}, "type": "Feature", "properties": {"collection_times": [{"days": "Mon-Sat", "time": "2:30pm"}, {"days": "Sun", "time": "Closed"}], "id": "7194400003", "name": "USPS COLLECTION BOX - PO LOBBY", "address": {"city": "GRANNIS", "state": "AR", "street": "8580 HIGHWAY 71 S", "postcode": "71944"}}},
{"geometry": {"type": "Point", "coordinates": [-94.3758278652, 34.5176311314]}, "type": "Feature", "properties": {"collection_times": [{"days": "Mon-Fri", "time": "4:15pm"}, {"days": "Sat", "time": "10:00am"}, {"days": "Sun", "time": "Closed"}], "id": "7194500001", "name": "USPS COLLECTION BOX - BLUE BOX", "address": {"city": "HATFIELD", "state": "AR", "street": "100 E HORNBECK RD", "postcode": "71945"}}},
{"geometry": {"type": "Point", "coordinates": [-94.3758278652, 34.5176311314]}, "type": "Feature", "properties": {"collection_times": [{"days": "Mon-Fri", "time": "2:15pm"}, {"days": "Sat", "time": "10:00am"}, {"days": "Sun", "time": "Closed"}], "id": "7194500002", "name": "USPS COLLECTION BOX - PO LOBBY", "address": {"city": "HATFIELD", "state": "AR", "street": "100 E HORNBECK RD", "postcode": "71945"}}},
{"geometry": {"type": "Point", "coordinates": [-94.3758278652, 34.5176311314]}, "type": "Feature", "properties": {"collection_times": [{"days": "Mon-Fri", "time": "2:15pm"}, {"days": "Sat", "time": "10:00am"}, {"days": "Sun", "time": "Closed"}], "id": "7194500004", "name": "USPS COLLECTION BOX - PO LOBBY", "address": {"city": "HATFIELD", "state": "AR", "street": "100 E HORNBECK RD", "postcode": "71945"}}},
{"geometry": {"type": "Point", "coordinates": [-93.0613331947, 34.7097187635]}, "type": "Feature", "properties": {"collection_times": [{"days": "Mon-Fri", "time": "1:00pm"}, {"days": "Sat", "time": "10:00am"}, {"days": "Sun", "time": "Closed"}], "id": "7194900002", "name": "USPS COLLECTION BOX - PO LOBBY", "address": {"city": "JESSIEVILLE", "state": "AR", "street": "7919 N HIGHWAY 7", "postcode": "71949"}}},
{"geometry": {"type": "Point", "coordinates": [-93.5408941571, 34.2178928069]}, "type": "Feature", "properties": {"collection_times": [{"days": "Mon-Fri", "time": "11:30am"}, {"days": "Sat", "time": "9:30am"}, {"days": "Sun", "time": "Closed"}], "id": "7195000002", "name": "USPS COLLECTION BOX - PO LOBBY", "address": {"city": "KIRBY", "state": "AR", "street": "2633 HIGHWAY 27 N", "postcode": "71950"}}},
{"geometry": {"type": "Point", "coordinates": [-93.7340167268, 34.31174465]}, "type": "Feature", "properties": {"collection_times": [{"days": "Mon-Fri", "time": "2:15pm"}, {"days": "Sat", "time": "11:30am"}, {"days": "Sun", "time": "Closed"}], "id": "7195200001", "name": "USPS COLLECTION BOX - BLUE BOX", "address": {"city": "LANGLEY", "state": "AR", "street": "2579 HIGHWAY 84 W", "postcode": "71952"}}},
{"geometry": {"type": "Point", "coordinates": [-93.7340167268, 34.31174465]}, "type": "Feature", "properties": {"collection_times": [{"days": "Mon-Sat", "time": "2:15pm"}, {"days": "Sun", "time": "Closed"}], "id": "7195200002", "name": "USPS COLLECTION BOX - PO LOBBY", "address": {"city": "LANGLEY", "state": "AR", "street": "2579 HIGHWAY 84 W", "postcode": "71952"}}},
{"geometry": {"type": "Point", "coordinates": [-94.2344942259, 34.5820889674]}, "type": "Feature", "properties": {"collection_times": [{"days": "Mon-Sat", "time": "2:45pm"}, {"days": "Sun", "time": "Closed"}], "id": "7195300002", "name": "USPS COLLECTION BOX - BLUE BOX", "address": {"city": "MENA", "state": "AR", "street": "822 MENA ST", "postcode": "71953"}}},
{"geometry": {"type": "Point", "coordinates": [-94.2382200758, 34.5866672784]}, "type": "Feature", "properties": {"collection_times": [{"days": "Mon-Sat", "time": "2:45pm"}, {"days": "Sun", "time": "Closed"}], "id": "7195300003", "name": "USPS COLLECTION BOX - BLUE BOX", "address": {"city": "MENA", "state": "AR", "street": "507 CHURCH AVE", "postcode": "71953"}}},
{"geometry": {"type": "Point", "coordinates": [-94.2047204393, 34.5943865111]}, "type": "Feature", "properties": {"collection_times": [{"days": "Mon-Sat", "time": "2:45pm"}, {"days": "Sun", "time": "Closed"}], "id": "7195300004", "name": "USPS COLLECTION BOX - BLUE BOX", "address": {"city": "MENA", "state": "AR", "street": "600 HIGHWAY 71 N", "postcode": "71953"}}},
{"geometry": {"type": "Point", "coordinates": [-94.2041951487, 34.6241416305]}, "type": "Feature", "properties": {"collection_times": [{"days": "Mon-Sat", "time": "2:45pm"}, {"days": "Sun", "time": "Closed"}], "id": "7195300008", "name": "USPS COLLECTION BOX - BLUE BOX", "address": {"city": "MENA", "state": "AR", "street": "1200 HIGHWAY 71 N", "postcode": "71953"}}},
{"geometry": {"type": "Point", "coordinates": [-94.2048536159, 34.5943884196]}, "type": "Feature", "properties": {"collection_times": [{"days": "Mon-Sat", "time": "2:45pm"}, {"days": "Sun", "time": "Closed"}], "id": "7195300010", "name": "USPS COLLECTION BOX - BLUE BOX", "address": {"city": "MENA", "state": "AR", "street": "601 HIGHWAY 71 N", "postcode": "71953"}}},
{"geometry": {"type": "Point", "coordinates": [-94.2224872109, 34.583897232]}, "type": "Feature", "properties": {"collection_times": [{"days": "Mon-Fri", "time": "4:30pm"}, {"days": "Sat", "time": "3:00pm"}, {"days": "Sun", "time": "Closed"}], "id": "7195300011", "name": "USPS COLLECTION BOX - BLUE BOX", "address": {"city": "MENA", "state": "AR", "street": "400 MORROW ST S", "postcode": "71953"}}},
{"geometry": {"type": "Point", "coordinates": [-94.2224872109, 34.583897232]}, "type": "Feature", "properties": {"collection_times": [{"days": "Mon-Fri", "time": "4:30pm"}, {"days": "Sat", "time": "3:00pm"}, {"days": "Sun", "time": "Closed"}], "id": "7195300012", "name": "USPS COLLECTION BOX - PO LOBBY", "address": {"city": "MENA", "state": "AR", "street": "400 MORROW ST S", "postcode": "71953"}}},
{"geometry": {"type": "Point", "coordinates": [-94.2224872109, 34.583897232]}, "type": "Feature", "properties": {"collection_times": [{"days": "Mon-Fri", "time": "4:30pm"}, {"days": "Sat", "time": "3:00pm"}, {"days": "Sun", "time": "Closed"}], "id": "7195300013", "name": "USPS COLLECTION BOX - PO LOBBY", "address": {"city": "MENA", "state": "AR", "street": "400 MORROW ST S", "postcode": "71953"}}},
{"geometry": {"type": "Point", "coordinates": [-94.2224872109, 34.583897232]}, "type": "Feature", "properties": {"collection_times": [{"days": "Mon-Fri", "time": "4:30pm"}, {"days": "Sat", "time": "3:00pm"}, {"days": "Sun", "time": "Closed"}], "id": "7195300014", "name": "USPS COLLECTION BOX - PO LOBBY", "address": {"city": "MENA", "state": "AR", "street": "400 MORROW ST S", "postcode": "71953"}}},
{"geometry": {"type": "Point", "coordinates": [-94.2224872109, 34.583897232]}, "type": "Feature", "properties": {"collection_times": [{"days": "Mon-Fri", "time": "4:30pm"}, {"days": "Sat", "time": "3:00pm"}, {"days": "Sun", "time": "Closed"}], "id": "7195300015", "name": "USPS COLLECTION BOX - PO LOBBY", "address": {"city": "MENA", "state": "AR", "street": "400 MORROW ST S", "postcode": "71953"}}},
{"geometry": {"type": "Point", "coordinates": [-94.2224872109, 34.583897232]}, "type": "Feature", "properties": {"collection_times": [{"days": "Mon-Fri", "time": "4:30pm"}, {"days": "Sat", "time": "3:00pm"}, {"days": "Sun", "time": "Closed"}], "id": "7195300016", "name": "USPS COLLECTION BOX - BLUE BOX", "address": {"city": "MENA", "state": "AR", "street": "400 MORROW ST S", "postcode": "71953"}}},
{"geometry": {"type": "Point", "coordinates": [-94.2224872109, 34.583897232]}, "type": "Feature", "properties": {"collection_times": [{"days": "Mon-Fri", "time": "4:30pm"}, {"days": "Sat", "time": "3:00pm"}, {"days": "Sun", "time": "Closed"}], "id": "7195300017", "name": "USPS COLLECTION BOX - BLUE BOX", "address": {"city": "MENA", "state": "AR", "street": "400 MORROW ST S", "postcode": "71953"}}},
{"geometry": {"type": "Point", "coordinates": [-93.17330686, 34.5734085155]}, "type": "Feature", "properties": {"collection_times": [{"days": "Mon-Fri", "time": "4:00pm"}, {"days": "Sat", "time": "12:00pm"}, {"days": "Sun", "time": "Closed"}], "id": "7195600001", "name": "USPS COLLECTION BOX - BLUE BOX", "address": {"city": "MOUNTAIN PINE", "state": "AR", "street": "240 MAIN ST", "postcode": "71956"}}},
{"geometry": {"type": "Point", "coordinates": [-93.17330686, 34.5734085155]}, "type": "Feature", "properties": {"collection_times": [{"days": "Mon-Fri", "time": "4:00pm"}, {"days": "Sat", "time": "12:00pm"}, {"days": "Sun", "time": "Closed"}], "id": "7195600002", "name": "USPS COLLECTION BOX - PO LOBBY", "address": {"city": "MOUNTAIN PINE", "state": "AR", "street": "240 MAIN ST", "postcode": "71956"}}},
{"geometry": {"type": "Point", "coordinates": [-93.6360012384, 34.5602946484]}, "type": "Feature", "properties": {"collection_times": [{"days": "Mon-Fri", "time": "4:10pm"}, {"days": "Sat", "time": "11:30am"}, {"days": "Sun", "time": "Closed"}], "id": "7195700001", "name": "USPS COLLECTION BOX - BLUE BOX", "address": {"city": "MOUNT IDA", "state": "AR", "street": "140 HIGHWAY 270 W", "postcode": "71957"}}},
{"geometry": {"type": "Point", "coordinates": [-93.6360012384, 34.5602946484]}, "type": "Feature", "properties": {"collection_times": [{"days": "Mon-Fri", "time": "4:15pm"}, {"days": "Sat", "time": "11:30am"}, {"days": "Sun", "time": "Closed"}], "id": "7195700008", "name": "USPS COLLECTION BOX - PO LOBBY", "address": {"city": "MOUNT IDA", "state": "AR", "street": "140 HIGHWAY 270 W", "postcode": "71957"}}},
{"geometry": {"type": "Point", "coordinates": [-93.6360012384, 34.5602946484]}, "type": "Feature", "properties": {"collection_times": [{"days": "Mon-Fri", "time": "4:15pm"}, {"days": "Sat", "time": "11:30am"}, {"days": "Sun", "time": "Closed"}], "id": "7195700009", "name": "USPS COLLECTION BOX - PO LOBBY", "address": {"city": "MOUNT IDA", "state": "AR", "street": "140 HIGHWAY 270 W", "postcode": "71957"}}},
{"geometry": {"type": "Point", "coordinates": [-93.6905573009, 34.0622873314]}, "type": "Feature", "properties": {"collection_times": [{"days": "Mon-Fri", "time": "4:15pm"}, {"days": "Sat", "time": "7:00am"}, {"days": "Sun", "time": "Closed"}], "id": "7195800002", "name": "USPS COLLECTION BOX - PO LOBBY", "address": {"city": "MURFREESBORO", "state": "AR", "street": "201 E MAIN", "postcode": "71958"}}},
{"geometry": {"type": "Point", "coordinates": [-93.6905573009, 34.0622873314]}, "type": "Feature", "properties": {"collection_times": [{"days": "Mon-Fri", "time": "4:15pm"}, {"days": "Sat", "time": "7:00am"}, {"days": "Sun", "time": "Closed"}], "id": "7195800003", "name": "USPS COLLECTION BOX - BLUE BOX", "address": {"city": "MURFREESBORO", "state": "AR", "street": "201 E MAIN", "postcode": "71958"}}},
{"geometry": {"type": "Point", "coordinates": [-93.8816197149, 34.222028712]}, "type": "Feature", "properties": {"collection_times": [{"days": "Mon-Fri", "time": "3:15pm"}, {"days": "Sat", "time": "9:45am"}, {"days": "Sun", "time": "Closed"}], "id": "7195900001", "name": "USPS COLLECTION BOX - BLUE BOX", "address": {"city": "NEWHOPE", "state": "AR", "street": "5638 HIGHWAY 70 W", "postcode": "71959"}}},
{"geometry": {"type": "Point", "coordinates": [-93.8816197149, 34.222028712]}, "type": "Feature", "properties": {"collection_times": [{"days": "Mon-Fri", "time": "11:00am"}, {"days": "Sat", "time": "9:45am"}, {"days": "Sun", "time": "Closed"}], "id": "7195900002", "name": "USPS COLLECTION BOX - PO LOBBY", "address": {"city": "NEWHOPE", "state": "AR", "street": "5638 HIGHWAY 70 W", "postcode": "71959"}}},
{"geometry": {"type": "Point", "coordinates": [-93.8816197149, 34.222028712]}, "type": "Feature", "properties": {"collection_times": [{"days": "Mon-Fri", "time": "11:00am"}, {"days": "Sat", "time": "9:45am"}, {"days": "Sun", "time": "Closed"}], "id": "7195900003", "name": "USPS COLLECTION BOX - PO LOBBY", "address": {"city": "NEWHOPE", "state": "AR", "street": "5638 HIGHWAY 70 W", "postcode": "71959"}}},
{"geometry": {"type": "Point", "coordinates": [-93.6791375877, 34.4539972371]}, "type": "Feature", "properties": {"collection_times": [{"days": "Mon-Fri", "time": "3:45pm"}, {"days": "Sat", "time": "10:45am"}, {"days": "Sun", "time": "Closed"}], "id": "7196000001", "name": "USPS COLLECTION BOX - BLUE BOX", "address": {"city": "NORMAN", "state": "AR", "street": "340 E MAIN ST", "postcode": "71960"}}},
{"geometry": {"type": "Point", "coordinates": [-93.6791375877, 34.4539972371]}, "type": "Feature", "properties": {"collection_times": [{"days": "Mon-Fri", "time": "2:30pm"}, {"days": "Sat", "time": "10:45am"}, {"days": "Sun", "time": "Closed"}], "id": "7196000002", "name": "USPS COLLECTION BOX - PO LOBBY", "address": {"city": "NORMAN", "state": "AR", "street": "340 E MAIN ST", "postcode": "71960"}}},
{"geometry": {"type": "Point", "coordinates": [-93.6791375877, 34.4539972371]}, "type": "Feature", "properties": {"collection_times": [{"days": "Mon-Fri", "time": "2:30pm"}, {"days": "Sat", "time": "10:45am"}, {"days": "Sun", "time": "Closed"}], "id": "7196000004", "name": "USPS COLLECTION BOX - PO LOBBY", "address": {"city": "NORMAN", "state": "AR", "street": "340 E MAIN ST", "postcode": "71960"}}},
{"geometry": {"type": "Point", "coordinates": [-93.7631153891, 34.6186267161]}, "type": "Feature", "properties": {"collection_times": [{"days": "Mon-Fri", "time": "4:15pm"}, {"days": "Sat", "time": "11:45am"}, {"days": "Sun", "time": "Closed"}], "id": "7196100007", "name": "USPS COLLECTION BOX - BLUE BOX", "address": {"city": "ODEN", "state": "AR", "street": "1093 W HIGHWAY 88", "postcode": "71961"}}},
{"geometry": {"type": "Point", "coordinates": [-93.7631153891, 34.6186267161]}, "type": "Feature", "properties": {"collection_times": [{"days": "Mon-Fri", "time": "11:30am"}, {"days": "Sat", "time": "11:45am"}, {"days": "Sun", "time": "Closed"}], "id": "7196100008", "name": "USPS COLLECTION BOX - PO LOBBY", "address": {"city": "ODEN", "state": "AR", "street": "1093 W HIGHWAY 88", "postcode": "71961"}}},
{"geometry": {"type": "Point", "coordinates": [-93.7631153891, 34.6186267161]}, "type": "Feature", "properties": {"collection_times": [{"days": "Mon-Fri", "time": "11:30am"}, {"days": "Sat", "time": "11:45am"}, {"days": "Sun", "time": "Closed"}], "id": "7196100009", "name": "USPS COLLECTION BOX - PO LOBBY", "address": {"city": "ODEN", "state": "AR", "street": "1093 W HIGHWAY 88", "postcode": "71961"}}},
{"geometry": {"type": "Point", "coordinates": [-93.3377033473, 34.0019944518]}, "type": "Feature", "properties": {"collection_times": [{"days": "Mon-Fri", "time": "11:00am"}, {"days": "Sat", "time": "9:30am"}, {"days": "Sun", "time": "Closed"}], "id": "7196200001", "name": "USPS COLLECTION BOX - PO LOBBY", "address": {"city": "OKOLONA", "state": "AR", "street": "316 S MAIN ST", "postcode": "71962"}}},
{"geometry": {"type": "Point", "coordinates": [-93.2590673879, 34.4352982354]}, "type": "Feature", "properties": {"collection_times": [{"days": "Mon-Fri", "time": "4:00pm"}, {"days": "Sat", "time": "10:00am"}, {"days": "Sun", "time": "Closed"}], "id": "7196400001", "name": "USPS COLLECTION BOX - BLUE BOX", "address": {"city": "PEARCY", "state": "AR", "street": "5106 AIRPORT RD", "postcode": "71964"}}},
{"geometry": {"type": "Point", "coordinates": [-93.2590673879, 34.4352982354]}, "type": "Feature", "properties": {"collection_times": [{"days": "Mon-Fri", "time": "1:00pm"}, {"days": "Sat", "time": "10:00am"}, {"days": "Sun", "time": "Closed"}], "id": "7196400002", "name": "USPS COLLECTION BOX - PO LOBBY", "address": {"city": "PEARCY", "state": "AR", "street": "5106 AIRPORT RD", "postcode": "71964"}}},
{"geometry": {"type": "Point", "coordinates": [-93.2590673879, 34.4352982354]}, "type": "Feature", "properties": {"collection_times": [{"days": "Mon-Fri", "time": "1:00pm"}, {"days": "Sat", "time": "10:00am"}, {"days": "Sun", "time": "Closed"}], "id": "7196400003", "name": "USPS COLLECTION BOX - PO LOBBY", "address": {"city": "PEARCY", "state": "AR", "street": "5106 AIRPORT RD", "postcode": "71964"}}},
{"geometry": {"type": "Point", "coordinates": [-93.7372338588, 34.6570915531]}, "type": "Feature", "properties": {"collection_times": [{"days": "Mon-Fri", "time": "4:00pm"}, {"days": "Sat", "time": "11:00am"}, {"days": "Sun", "time": "Closed"}], "id": "7196500000", "name": "USPS COLLECTION BOX - BLUE BOX", "address": {"city": "PENCIL BLUFF", "state": "AR", "street": "3672 W HIGHWAY 270", "postcode": "71965"}}},
{"geometry": {"type": "Point", "coordinates": [-93.7372338588, 34.6570915531]}, "type": "Feature", "properties": {"collection_times": [{"days": "Mon-Fri", "time": "11:30am"}, {"days": "Sat", "time": "11:00am"}, {"days": "Sun", "time": "Closed"}], "id": "7196500001", "name": "USPS COLLECTION BOX - PO LOBBY", "address": {"city": "PENCIL BLUFF", "state": "AR", "street": "3672 W HIGHWAY 270", "postcode": "71965"}}},
{"geometry": {"type": "Point", "coordinates": [-93.7372338588, 34.6570915531]}, "type": "Feature", "properties": {"collection_times": [{"days": "Mon-Fri", "time": "11:30am"}, {"days": "Sat", "time": "11:00am"}, {"days": "Sun", "time": "Closed"}], "id": "7196500002", "name": "USPS COLLECTION BOX - PO LOBBY", "address": {"city": "PENCIL BLUFF", "state": "AR", "street": "3672 W HIGHWAY 270", "postcode": "71965"}}},
{"geometry": {"type": "Point", "coordinates": [-93.2552969407, 34.5088450932]}, "type": "Feature", "properties": {"collection_times": [{"days": "Mon-Fri", "time": "3:30pm"}, {"days": "Sat", "time": "9:30am"}, {"days": "Sun", "time": "Closed"}], "id": "7196800001", "name": "USPS COLLECTION BOX - PO LOBBY", "address": {"city": "ROYAL", "state": "AR", "street": "6951 ALBERT PIKE RD", "postcode": "71968"}}},
{"geometry": {"type": "Point", "coordinates": [-93.2552969407, 34.5088450932]}, "type": "Feature", "properties": {"collection_times": [{"days": "Mon-Fri", "time": "3:30pm"}, {"days": "Sat", "time": "9:30am"}, {"days": "Sun", "time": "Closed"}], "id": "7196800002", "name": "USPS COLLECTION BOX - BLUE BOX", "address": {"city": "ROYAL", "state": "AR", "street": "6951 ALBERT PIKE RD", "postcode": "71968"}}},
{"geometry": {"type": "Point", "coordinates": [-93.6942957879, 34.6382712335]}, "type": "Feature", "properties": {"collection_times": [{"days": "Mon-Fri", "time": "3:00pm"}, {"days": "Sat", "time": "11:00am"}, {"days": "Sun", "time": "Closed"}], "id": "7196900001", "name": "USPS COLLECTION BOX - BLUE BOX", "address": {"city": "SIMS", "state": "AR", "street": "1465 HIGHWAY 298 W", "postcode": "71969"}}},
{"geometry": {"type": "Point", "coordinates": [-93.6549419909, 34.6686055948]}, "type": "Feature", "properties": {"collection_times": [{"days": "Mon-Fri", "time": "3:00pm"}, {"days": "Sat", "time": "11:00am"}, {"days": "Sun", "time": "Closed"}], "id": "7196900002", "name": "USPS COLLECTION BOX - PO LOBBY", "address": {"city": "SIMS", "state": "AR", "street": "1465 HIGHWAY 298 W", "postcode": "71969"}}},
{"geometry": {"type": "Point", "coordinates": [-93.5080665052, 34.7222345744]}, "type": "Feature", "properties": {"collection_times": [{"days": "Mon-Fri", "time": "3:35pm"}, {"days": "Sat", "time": "12:00pm"}, {"days": "Sun", "time": "Closed"}], "id": "7197000000", "name": "USPS COLLECTION BOX - BLUE BOX", "address": {"city": "STORY", "state": "AR", "street": "5311 HIGHWAY 27 N", "postcode": "71970"}}},
{"geometry": {"type": "Point", "coordinates": [-93.5080665052, 34.7222345744]}, "type": "Feature", "properties": {"collection_times": [{"days": "Mon-Fri", "time": "11:30am"}, {"days": "Sat", "time": "12:00pm"}, {"days": "Sun", "time": "Closed"}], "id": "7197000001", "name": "USPS COLLECTION BOX - PO LOBBY", "address": {"city": "STORY", "state": "AR", "street": "5311 HIGHWAY 27 N", "postcode": "71970"}}},
{"geometry": {"type": "Point", "coordinates": [-93.5080665052, 34.7222345744]}, "type": "Feature", "properties": {"collection_times": [{"days": "Mon-Fri", "time": "11:30am"}, {"days": "Sat", "time": "12:00pm"}, {"days": "Sun", "time": "Closed"}], "id": "7197000002", "name": "USPS COLLECTION BOX - PO LOBBY", "address": {"city": "STORY", "state": "AR", "street": "5311 HIGHWAY 27 N", "postcode": "71970"}}},
{"geometry": {"type": "Point", "coordinates": [-94.0472052981, 34.2811952065]}, "type": "Feature", "properties": {"collection_times": [{"days": "Mon-Sat", "time": "1:30pm"}, {"days": "Sun", "time": "Closed"}], "id": "7197100001", "name": "USPS COLLECTION BOX - PO LOBBY", "address": {"city": "UMPIRE", "state": "AR", "street": "142 HIGHWAY 84 E", "postcode": "71971"}}},
{"geometry": {"type": "Point", "coordinates": [-94.0472052981, 34.2811952065]}, "type": "Feature", "properties": {"collection_times": [{"days": "Mon-Fri", "time": "3:00pm"}, {"days": "Sat", "time": "1:30pm"}, {"days": "Sun", "time": "Closed"}], "id": "7197100002", "name": "USPS COLLECTION BOX - BLUE BOX", "address": {"city": "UMPIRE", "state": "AR", "street": "142 HIGHWAY 84 E", "postcode": "71971"}}},
{"geometry": {"type": "Point", "coordinates": [-94.3651795641, 34.380811681]}, "type": "Feature", "properties": {"collection_times": [{"days": "Mon-Fri", "time": "11:30am"}, {"days": "Sat", "time": "10:45am"}, {"days": "Sun", "time": "Closed"}], "id": "7197200002", "name": "USPS COLLECTION BOX - PO LOBBY", "address": {"city": "VANDERVOORT", "state": "AR", "street": "107 N HORNBECK AVE", "postcode": "71972"}}},
{"geometry": {"type": "Point", "coordinates": [-94.3651795641, 34.380811681]}, "type": "Feature", "properties": {"collection_times": [{"days": "Mon-Fri", "time": "11:30am"}, {"days": "Sat", "time": "10:45am"}, {"days": "Sun", "time": "Closed"}], "id": "7197200003", "name": "USPS COLLECTION BOX - PO LOBBY", "address": {"city": "VANDERVOORT", "state": "AR", "street": "107 N HORNBECK AVE", "postcode": "71972"}}},
{"geometry": {"type": "Point", "coordinates": [-94.3593608279, 34.3178146307]}, "type": "Feature", "properties": {"collection_times": [{"days": "Mon-Fri", "time": "3:30pm"}, {"days": "Sat", "time": "11:30am"}, {"days": "Sun", "time": "Closed"}], "id": "7197300001", "name": "USPS COLLECTION BOX - BLUE BOX", "address": {"city": "WICKES", "state": "AR", "street": "7631 HIGHWAY 71 S", "postcode": "71973"}}},
{"geometry": {"type": "Point", "coordinates": [-94.3593608279, 34.3178146307]}, "type": "Feature", "properties": {"collection_times": [{"days": "Mon-Fri", "time": "2:30pm"}, {"days": "Sat", "time": "11:30am"}, {"days": "Sun", "time": "Closed"}], "id": "7197300002", "name": "USPS COLLECTION BOX - PO LOBBY", "address": {"city": "WICKES", "state": "AR", "street": "7631 HIGHWAY 71 S", "postcode": "71973"}}},
{"geometry": {"type": "Point", "coordinates": [-94.3593608279, 34.3178146307]}, "type": "Feature", "properties": {"collection_times": [{"days": "Mon-Fri", "time": "2:30pm"}, {"days": "Sat", "time": "11:30am"}, {"days": "Sun", "time": "Closed"}], "id": "7197300003", "name": "USPS COLLECTION BOX - PO LOBBY", "address": {"city": "WICKES", "state": "AR", "street": "7631 HIGHWAY 71 S", "postcode": "71973"}}}
]}
