{"type": "FeatureCollection", "features": [
{"geometry": {"type": "Point", "coordinates": [-92.8978704274, 35.0381182374]}, "type": "Feature", "properties": {"collection_times": [{"days": "Mon-Fri", "time": "3:45pm"}, {"days": "Sat", "time": "2:30pm"}, {"days": "Sun", "time": "Closed"}], "id": "7200100001", "name": "USPS COLLECTION BOX - PO LOBBY", "address": {"city": "ADONA", "state": "AR", "street": "1892 HIGHWAY 10 W", "postcode": "72001"}}},
{"geometry": {"type": "Point", "coordinates": [-92.4434052076, 34.6315503645]}, "type": "Feature", "properties": {"collection_times": [{"days": "Mon-Fri", "time": "4:45pm"}, {"days": "Sat", "time": "11:45am"}, {"days": "Sun", "time": "Closed"}], "id": "7200200001", "name": "USPS COLLECTION BOX - BLUE BOX", "address": {"city": "ALEXANDER", "state": "AR", "street": "15604 ALEXANDER RD", "postcode": "72002"}}},
{"geometry": {"type": "Point", "coordinates": [-92.4434052076, 34.6315503645]}, "type": "Feature", "properties": {"collection_times": [{"days": "Mon-Fri", "time": "4:45pm"}, {"days": "Sat", "time": "11:45am"}, {"days": "Sun", "time": "Closed"}], "id": "7200200007", "name": "USPS COLLECTION BOX - PO LOBBY", "address": {"city": "ALEXANDER", "state": "AR", "street": "15604 ALEXANDER RD", "postcode": "72002"}}},
{"geometry": {"type": "Point", "coordinates": [-92.4434052076, 34.6315503645]}, "type": "Feature", "properties": {"collection_times": [{"days": "Mon-Fri", "time": "4:45pm"}, {"days": "Sat", "time": "11:45am"}, {"days": "Sun", "time": "Closed"}], "id": "7200200008", "name": "USPS COLLECTION BOX - PO LOBBY", "address": {"city": "ALEXANDER", "state": "AR", "street": "15604 ALEXANDER RD", "postcode": "72002"}}},
{"geometry": {"type": "Point", "coordinates": [-91.4099864611, 34.4064228907]}, "type": "Feature", "properties": {"collection_times": [{"days": "Mon-Fri", "time": "3:45pm"}, {"days": "Sat", "time": "2:00pm"}, {"days": "Sun", "time": "Closed"}], "id": "7200300001", "name": "USPS COLLECTION BOX - BLUE BOX", "address": {"city": "ALMYRA", "state": "AR", "street": "101 E MAIN ST", "postcode": "72003"}}},
{"geometry": {"type": "Point", "coordinates": [-91.4099864611, 34.4064228907]}, "type": "Feature", "properties": {"collection_times": [{"days": "Mon-Fri", "time": "10:45am"}, {"days": "Sat", "time": "2:00pm"}, {"days": "Sun", "time": "Closed"}], "id": "7200300002", "name": "USPS COLLECTION BOX - PO LOBBY", "address": {"city": "ALMYRA", "state": "AR", "street": "101 E MAIN ST", "postcode": "72003"}}},
{"geometry": {"type": "Point", "coordinates": [-91.847244303, 34.3190756957]}, "type": "Feature", "properties": {"collection_times": [{"days": "Mon-Fri", "time": "3:30pm"}, {"days": "Sat", "time": "8:30am"}, {"days": "Sun", "time": "Closed"}], "id": "7200400001", "name": "USPS COLLECTION BOX - BLUE BOX", "address": {"city": "ALTHEIMER", "state": "AR", "street": "204 W FRONT ST", "postcode": "72004"}}},
{"geometry": {"type": "Point", "coordinates": [-91.847244303, 34.3190756957]}, "type": "Feature", "properties": {"collection_times": [{"days": "Mon-Fri", "time": "3:30pm"}, {"days": "Sat", "time": "8:30am"}, {"days": "Sun", "time": "Closed"}], "id": "7200400002", "name": "USPS COLLECTION BOX - PO LOBBY", "address": {"city": "ALTHEIMER", "state": "AR", "street": "204 W FRONT ST", "postcode": "72004"}}},
{"geometry": {"type": "Point", "coordinates": [-91.847244303, 34.3190756957]}, "type": "Feature", "properties": {"collection_times": [{"days": "Mon-Fri", "time": "3:30pm"}, {"days": "Sat", "time": "8:30am"}, {"days": "Sun", "time": "Closed"}], "id": "7200400003", "name": "USPS COLLECTION BOX - PO LOBBY", "address": {"city": "ALTHEIMER", "state": "AR", "street": "204 W FRONT ST", "postcode": "72004"}}},
{"geometry": {"type": "Point", "coordinates": [-91.1095279134, 35.5617422986]}, "type": "Feature", "properties": {"collection_times": [{"days": "Mon-Fri", "time": "4:00pm"}, {"days": "Sat", "time": "11:15am"}, {"days": "Sun", "time": "Closed"}], "id": "7200500001", "name": "USPS COLLECTION BOX - BLUE BOX", "address": {"city": "AMAGON", "state": "AR", "street": "300 AMAGON AVE", "postcode": "72005"}}},
{"geometry": {"type": "Point", "coordinates": [-91.1095279134, 35.5617422986]}, "type": "Feature", "properties": {"collection_times": [{"days": "Mon-Fri", "time": "10:30am"}, {"days": "Sat", "time": "11:15am"}, {"days": "Sun", "time": "Closed"}], "id": "7200500002", "name": "USPS COLLECTION BOX - PO LOBBY", "address": {"city": "AMAGON", "state": "AR", "street": "300 AMAGON AVE", "postcode": "72005"}}},
{"geometry": {"type": "Point", "coordinates": [-91.3672538435, 35.282571275]}, "type": "Feature", "properties": {"collection_times": [{"days": "Mon-Fri", "time": "4:50pm"}, {"days": "Sat", "time": "11:00am"}, {"days": "Sun", "time": "Closed"}], "id": "7200600001", "name": "USPS COLLECTION BOX - BLUE BOX", "address": {"city": "AUGUSTA", "state": "AR", "street": "120 MAIN ST", "postcode": "72006"}}},
{"geometry": {"type": "Point", "coordinates": [-91.3672538435, 35.282571275]}, "type": "Feature", "properties": {"collection_times": [{"days": "Mon-Fri", "time": "4:50pm"}, {"days": "Sat", "time": "11:00am"}, {"days": "Sun", "time": "Closed"}], "id": "7200600002", "name": "USPS COLLECTION BOX - PO LOBBY", "address": {"city": "AUGUSTA", "state": "AR", "street": "120 MAIN ST", "postcode": "72006"}}},
{"geometry": {"type": "Point", "coordinates": [-91.355840819, 35.291463284]}, "type": "Feature", "properties": {"collection_times": [{"days": "Mon-Fri", "time": "2:30pm"}, {"days": "Sat-Sun", "time": "Closed"}], "id": "7200600003", "name": "USPS COLLECTION BOX - BLUE BOX", "address": {"city": "AUGUSTA", "state": "AR", "street": "919 HIGHWAY 64 E", "postcode": "72006"}}},
{"geometry": {"type": "Point", "coordinates": [-91.9789495914, 35.0023538068]}, "type": "Feature", "properties": {"collection_times": [{"days": "Mon-Fri", "time": "3:45pm"}, {"days": "Sat", "time": "10:00am"}, {"days": "Sun", "time": "Closed"}], "id": "7200700001", "name": "USPS COLLECTION BOX - BLUE BOX", "address": {"city": "AUSTIN", "state": "AR", "street": "3385 HIGHWAY 367 N", "postcode": "72007"}}},
{"geometry": {"type": "Point", "coordinates": [-91.9789495914, 35.0023538068]}, "type": "Feature", "properties": {"collection_times": [{"days": "Mon-Fri", "time": "3:45pm"}, {"days": "Sat", "time": "10:00am"}, {"days": "Sun", "time": "Closed"}], "id": "7200700002", "name": "USPS COLLECTION BOX - PO LOBBY", "address": {"city": "AUSTIN", "state": "AR", "street": "3385 HIGHWAY 367 N", "postcode": "72007"}}},
{"geometry": {"type": "Point", "coordinates": [-91.5674930563, 35.3110799686]}, "type": "Feature", "properties": {"collection_times": [{"days": "Mon-Fri", "time": "5:00pm"}, {"days": "Sat", "time": "3:00pm"}, {"days": "Sun", "time": "Closed"}], "id": "7201000001", "name": "USPS COLLECTION BOX - BLUE BOX", "address": {"city": "BALD KNOB", "state": "AR", "street": "100 N MAIN ST", "postcode": "72010"}}},
{"geometry": {"type": "Point", "coordinates": [-91.5674930563, 35.3110799686]}, "type": "Feature", "properties": {"collection_times": [{"days": "Mon-Fri", "time": "5:00pm"}, {"days": "Sat", "time": "3:00pm"}, {"days": "Sun", "time": "Closed"}], "id": "7201000002", "name": "USPS COLLECTION BOX - PO LOBBY", "address": {"city": "BALD KNOB", "state": "AR", "street": "100 N MAIN ST", "postcode": "72010"}}},
{"geometry": {"type": "Point", "coordinates": [-92.5303870604, 34.5182485598]}, "type": "Feature", "properties": {"collection_times": [{"days": "Mon-Fri", "time": "3:30pm"}, {"days": "Sat", "time": "10:00am"}, {"days": "Sun", "time": "Closed"}], "id": "7201100001", "name": "USPS COLLECTION BOX - BLUE BOX", "address": {"city": "BAUXITE", "state": "AR", "street": "301 BAUXITE CUTOFF RD", "postcode": "72011"}}},
{"geometry": {"type": "Point", "coordinates": [-92.5303870604, 34.5182485598]}, "type": "Feature", "properties": {"collection_times": [{"days": "Mon-Fri", "time": "3:30pm"}, {"days": "Sat", "time": "10:00am"}, {"days": "Sun", "time": "Closed"}], "id": "7201100002", "name": "USPS COLLECTION BOX - PO LOBBY", "address": {"city": "BAUXITE", "state": "AR", "street": "301 BAUXITE CUTOFF RD", "postcode": "72011"}}},
{"geometry": {"type": "Point", "coordinates": [-91.8781898311, 35.0717214009]}, "type": "Feature", "properties": {"collection_times": [{"days": "Mon-Fri", "time": "4:30pm"}, {"days": "Sat", "time": "3:00pm"}, {"days": "Sun", "time": "Closed"}], "id": "7201200001", "name": "USPS COLLECTION BOX - BLUE BOX", "address": {"city": "BEEBE", "state": "AR", "street": "201 E CENTER ST", "postcode": "72012"}}},
{"geometry": {"type": "Point", "coordinates": [-91.8781898311, 35.0717214009]}, "type": "Feature", "properties": {"collection_times": [{"days": "Mon-Fri", "time": "4:30pm"}, {"days": "Sat", "time": "3:00pm"}, {"days": "Sun", "time": "Closed"}], "id": "7201200003", "name": "USPS COLLECTION BOX - PO LOBBY", "address": {"city": "BEEBE", "state": "AR", "street": "201 E CENTER ST", "postcode": "72012"}}},
{"geometry": {"type": "Point", "coordinates": [-91.8781898311, 35.0717214009]}, "type": "Feature", "properties": {"collection_times": [{"days": "Mon-Fri", "time": "4:30pm"}, {"days": "Sat", "time": "3:00pm"}, {"days": "Sun", "time": "Closed"}], "id": "7201200004", "name": "USPS COLLECTION BOX - PO LOBBY", "address": {"city": "BEEBE", "state": "AR", "street": "201 E CENTER ST", "postcode": "72012"}}},
{"geometry": {"type": "Point", "coordinates": [-91.8781898311, 35.0717214009]}, "type": "Feature", "properties": {"collection_times": [{"days": "Mon-Fri", "time": "4:30pm"}, {"days": "Sat", "time": "3:00pm"}, {"days": "Sun", "time": "Closed"}], "id": "7201200005", "name": "USPS COLLECTION BOX - PO LOBBY", "address": {"city": "BEEBE", "state": "AR", "street": "201 E CENTER ST", "postcode": "72012"}}},
{"geometry": {"type": "Point", "coordinates": [-91.8781898311, 35.0717214009]}, "type": "Feature", "properties": {"collection_times": [{"days": "Mon-Fri", "time": "4:30pm"}, {"days": "Sat", "time": "3:00pm"}, {"days": "Sun", "time": "Closed"}], "id": "7201200006", "name": "USPS COLLECTION BOX - PO LOBBY", "address": {"city": "BEEBE", "state": "AR", "street": "201 E CENTER ST", "postcode": "72012"}}},
{"geometry": {"type": "Point", "coordinates": [-92.413016762, 35.4232427671]}, "type": "Feature", "properties": {"collection_times": [{"days": "Mon-Fri", "time": "3:45pm"}, {"days": "Sat", "time": "9:45am"}, {"days": "Sun", "time": "Closed"}], "id": "7201300001", "name": "USPS COLLECTION BOX - BLUE BOX", "address": {"city": "BEE BRANCH", "state": "AR", "street": "148 HIGHWAY 92 E", "postcode": "72013"}}},
{"geometry": {"type": "Point", "coordinates": [-92.413016762, 35.4232427671]}, "type": "Feature", "properties": {"collection_times": [{"days": "Mon-Fri", "time": "1:00pm"}, {"days": "Sat", "time": "9:45am"}, {"days": "Sun", "time": "Closed"}], "id": "7201300002", "name": "USPS COLLECTION BOX - PO LOBBY", "address": {"city": "BEE BRANCH", "state": "AR", "street": "148 HIGHWAY 92 E", "postcode": "72013"}}},
{"geometry": {"type": "Point", "coordinates": [-91.1126276507, 35.4251309904]}, "type": "Feature", "properties": {"collection_times": [{"days": "Mon-Fri", "time": "4:00pm"}, {"days": "Sat", "time": "11:00am"}, {"days": "Sun", "time": "Closed"}], "id": "7201400001", "name": "USPS COLLECTION BOX - BLUE BOX", "address": {"city": "BEEDEVILLE", "state": "AR", "street": "9907 HIGHWAY 37 S", "postcode": "72014"}}},
{"geometry": {"type": "Point", "coordinates": [-91.1126276507, 35.4251309904]}, "type": "Feature", "properties": {"collection_times": [{"days": "Mon-Fri", "time": "2:00pm"}, {"days": "Sat", "time": "3:00pm"}, {"days": "Sun", "time": "Closed"}], "id": "7201400002", "name": "USPS COLLECTION BOX - PO LOBBY", "address": {"city": "BEEDEVILLE", "state": "AR", "street": "9907 HIGHWAY 37 S", "postcode": "72014"}}},
{"geometry": {"type": "Point", "coordinates": [-92.5762922295, 34.5774352929]}, "type": "Feature", "properties": {"collection_times": [{"days": "Mon-Sat", "time": "4:30pm"}, {"days": "Sun", "time": "Closed"}], "id": "7201500001", "name": "USPS COLLECTION BOX - BLUE BOX", "address": {"city": "BENTON", "state": "AR", "street": "1425 MILITARY RD", "postcode": "72015"}}},
{"geometry": {"type": "Point", "coordinates": [-92.5844734957, 34.5735262097]}, "type": "Feature", "properties": {"collection_times": [{"days": "Mon-Fri", "time": "12:00pm"}, {"days": "Sat", "time": "10:30am"}, {"days": "Sun", "time": "Closed"}], "id": "7201500015", "name": "USPS COLLECTION BOX - BLUE BOX", "address": {"city": "BENTON", "state": "AR", "street": "1 MEDICAL PARK DR", "postcode": "72015"}}},
{"geometry": {"type": "Point", "coordinates": [-92.56965949, 34.5570866848]}, "type": "Feature", "properties": {"collection_times": [{"days": "Mon-Fri", "time": "10:00am"}, {"days": "Sat", "time": "9:00am"}, {"days": "Sun", "time": "Closed"}], "id": "7201500016", "name": "USPS COLLECTION BOX - BLUE BOX", "address": {"city": "BENTON", "state": "AR", "street": "1603 EDISON AVE", "postcode": "72015"}}},
{"geometry": {"type": "Point", "coordinates": [-92.6551306035, 34.5248814805]}, "type": "Feature", "properties": {"collection_times": [{"days": "Mon-Fri", "time": "3:15pm"}, {"days": "Sat-Sun", "time": "Closed"}], "id": "7201500021", "name": "USPS COLLECTION BOX - BLUE BOX", "address": {"city": "BENTON", "state": "AR", "street": "6701 HIGHWAY 67", "postcode": "72015"}}},
{"geometry": {"type": "Point", "coordinates": [-92.5762922295, 34.5774352929]}, "type": "Feature", "properties": {"collection_times": [{"days": "Mon-Sat", "time": "4:30pm"}, {"days": "Sun", "time": "Closed"}], "id": "7201500024", "name": "USPS COLLECTION BOX - PO LOBBY", "address": {"city": "BENTON", "state": "AR", "street": "1425 MILITARY RD", "postcode": "72015"}}},
{"geometry": {"type": "Point", "coordinates": [-92.5762922295, 34.5774352929]}, "type": "Feature", "properties": {"collection_times": [{"days": "Mon-Sat", "time": "4:30pm"}, {"days": "Sun", "time": "Closed"}], "id": "7201500035", "name": "USPS COLLECTION BOX - PO LOBBY", "address": {"city": "BENTON", "state": "AR", "street": "1425 MILITARY RD", "postcode": "72015"}}},
{"geometry": {"type": "Point", "coordinates": [-92.5762922295, 34.5774352929]}, "type": "Feature", "properties": {"collection_times": [{"days": "Mon-Sat", "time": "4:30pm"}, {"days": "Sun", "time": "Closed"}], "id": "7201500037", "name": "USPS COLLECTION BOX - PO LOBBY", "address": {"city": "BENTON", "state": "AR", "street": "1425 MILITARY RD", "postcode": "72015"}}},
{"geometry": {"type": "Point", "coordinates": [-92.5762922295, 34.5774352929]}, "type": "Feature", "properties": {"collection_times": [{"days": "Mon-Sat", "time": "4:30pm"}, {"days": "Sun", "time": "Closed"}], "id": "7201500041", "name": "USPS COLLECTION BOX - APC", "address": {"city": "BENTON", "state": "AR", "street": "1425 MILITARY RD", "postcode": "72015"}}},
{"geometry": {"type": "Point", "coordinates": [-92.5869313628, 34.5637775892]}, "type": "Feature", "properties": {"collection_times": [{"days": "Mon-Fri", "time": "12:00pm"}, {"days": "Sat", "time": "10:00am"}, {"days": "Sun", "time": "Closed"}], "id": "7201500042", "name": "USPS COLLECTION BOX - BLUE BOX", "address": {"city": "BENTON", "state": "AR", "street": "129 N MAIN ST", "postcode": "72015"}}},
{"geometry": {"type": "Point", "coordinates": [-92.5762922295, 34.5774352929]}, "type": "Feature", "properties": {"collection_times": [{"days": "Mon-Sat", "time": "4:30pm"}, {"days": "Sun", "time": "Closed"}], "id": "7201500044", "name": "USPS COLLECTION BOX - BLUE BOX", "address": {"city": "BENTON", "state": "AR", "street": "1425 MILITARY RD", "postcode": "72015"}}},
{"geometry": {"type": "Point", "coordinates": [-92.6252772893, 34.9742434144]}, "type": "Feature", "properties": {"collection_times": [{"days": "Mon-Fri", "time": "12:30pm"}, {"days": "Sat", "time": "12:00pm"}, {"days": "Sun", "time": "Closed"}], "id": "7201600004", "name": "USPS COLLECTION BOX - BLUE BOX", "address": {"city": "BIGELOW", "state": "AR", "street": "360 HIGHWAY 113 S", "postcode": "72016"}}},
{"geometry": {"type": "Point", "coordinates": [-91.4076205257, 34.8179886351]}, "type": "Feature", "properties": {"collection_times": [{"days": "Mon-Fri", "time": "4:00pm"}, {"days": "Sat", "time": "10:15am"}, {"days": "Sun", "time": "Closed"}], "id": "7201700001", "name": "USPS COLLECTION BOX - BLUE BOX", "address": {"city": "BISCOE", "state": "AR", "street": "506 W SPORTSMAN DR", "postcode": "72017"}}},
{"geometry": {"type": "Point", "coordinates": [-91.5316924525, 34.8386621945]}, "type": "Feature", "properties": {"collection_times": [{"days": "Mon-Fri", "time": "11:30am"}, {"days": "Sat", "time": "10:15am"}, {"days": "Sun", "time": "Closed"}], "id": "7201700002", "name": "USPS COLLECTION BOX - PO LOBBY", "address": {"city": "BISCOE", "state": "AR", "street": "506 W SPORTSMAN DR", "postcode": "72017"}}},
{"geometry": {"type": "Point", "coordinates": [-91.4578024917, 35.4224513172]}, "type": "Feature", "properties": {"collection_times": [{"days": "Mon-Fri", "time": "4:15pm"}, {"days": "Sat", "time": "11:00am"}, {"days": "Sun", "time": "Closed"}], "id": "7202000001", "name": "USPS COLLECTION BOX - BLUE BOX", "address": {"city": "BRADFORD", "state": "AR", "street": "200 SW 3RD ST", "postcode": "72020"}}},
{"geometry": {"type": "Point", "coordinates": [-91.4578024917, 35.4224513172]}, "type": "Feature", "properties": {"collection_times": [{"days": "Mon-Fri", "time": "4:15pm"}, {"days": "Sat", "time": "11:00am"}, {"days": "Sun", "time": "Closed"}], "id": "7202000002", "name": "USPS COLLECTION BOX - PO LOBBY", "address": {"city": "BRADFORD", "state": "AR", "street": "200 SW 3RD ST", "postcode": "72020"}}},
{"geometry": {"type": "Point", "coordinates": [-91.4556578701, 35.4280991715]}, "type": "Feature", "properties": {"collection_times": [{"days": "Mon-Sat", "time": "1:30pm"}, {"days": "Sun", "time": "Closed"}], "id": "7202000003", "name": "USPS COLLECTION BOX - BLUE BOX", "address": {"city": "BRADFORD", "state": "AR", "street": "411 DENSON ST", "postcode": "72020"}}},
{"geometry": {"type": "Point", "coordinates": [-91.4578024917, 35.4224513172]}, "type": "Feature", "properties": {"collection_times": [{"days": "Mon-Fri", "time": "4:15pm"}, {"days": "Sat", "time": "11:00am"}, {"days": "Sun", "time": "Closed"}], "id": "7202000004", "name": "USPS COLLECTION BOX - PO LOBBY", "address": {"city": "BRADFORD", "state": "AR", "street": "200 SW 3RD ST", "postcode": "72020"}}},
{"geometry": {"type": "Point", "coordinates": [-91.1946377716, 34.8880888518]}, "type": "Feature", "properties": {"collection_times": [{"days": "Mon-Sat", "time": "4:30pm"}, {"days": "Sun", "time": "Closed"}], "id": "7202100001", "name": "USPS COLLECTION BOX - PO LOBBY", "address": {"city": "BRINKLEY", "state": "AR", "street": "201 N MAIN ST", "postcode": "72021"}}},
{"geometry": {"type": "Point", "coordinates": [-91.1946377716, 34.8880888518]}, "type": "Feature", "properties": {"collection_times": [{"days": "Mon-Sat", "time": "4:30pm"}, {"days": "Sun", "time": "Closed"}], "id": "7202100011", "name": "USPS COLLECTION BOX - BLUE BOX", "address": {"city": "BRINKLEY", "state": "AR", "street": "201 N MAIN ST", "postcode": "72021"}}},
{"geometry": {"type": "Point", "coordinates": [-91.1946377716, 34.8880888518]}, "type": "Feature", "properties": {"collection_times": [{"days": "Mon-Sat", "time": "4:30pm"}, {"days": "Sun", "time": "Closed"}], "id": "7202100012", "name": "USPS COLLECTION BOX - BLUE BOX", "address": {"city": "BRINKLEY", "state": "AR", "street": "201 N MAIN ST", "postcode": "72021"}}},
{"geometry": {"type": "Point", "coordinates": [-91.1946377716, 34.8880888518]}, "type": "Feature", "properties": {"collection_times": [{"days": "Mon-Sat", "time": "4:30pm"}, {"days": "Sun", "time": "Closed"}], "id": "7202100017", "name": "USPS COLLECTION BOX - PO LOBBY", "address": {"city": "BRINKLEY", "state": "AR", "street": "201 N MAIN ST", "postcode": "72021"}}},
{"geometry": {"type": "Point", "coordinates": [-92.0291709751, 34.9781191154]}, "type": "Feature", "properties": {"collection_times": [{"days": "Mon-Sat", "time": "11:00am"}, {"days": "Sun", "time": "Closed"}], "id": "7202300001", "name": "USPS COLLECTION BOX - BLUE BOX", "address": {"city": "CABOT", "state": "AR", "street": "1295 W MAIN ST", "postcode": "72023"}}},
{"geometry": {"type": "Point", "coordinates": [-92.0536621555, 34.9515339786]}, "type": "Feature", "properties": {"collection_times": [{"days": "Mon-Sat", "time": "12:00pm"}, {"days": "Sun", "time": "Closed"}], "id": "7202300002", "name": "USPS COLLECTION BOX - BLUE BOX", "address": {"city": "CABOT", "state": "AR", "street": "3166 HIGHWAY 367 S", "postcode": "72023"}}},
{"geometry": {"type": "Point", "coordinates": [-92.0157397321, 34.9732226196]}, "type": "Feature", "properties": {"collection_times": [{"days": "Mon-Fri", "time": "5:00pm"}, {"days": "Sat", "time": "3:45pm"}, {"days": "Sun", "time": "Closed"}], "id": "7202300004", "name": "USPS COLLECTION BOX - BLUE BOX", "address": {"city": "CABOT", "state": "AR", "street": "200 E MAIN ST", "postcode": "72023"}}},
{"geometry": {"type": "Point", "coordinates": [-92.0157397321, 34.9732226196]}, "type": "Feature", "properties": {"collection_times": [{"days": "Mon-Fri", "time": "5:00pm"}, {"days": "Sat", "time": "3:45pm"}, {"days": "Sun", "time": "Closed"}], "id": "7202300005", "name": "USPS COLLECTION BOX - PO LOBBY", "address": {"city": "CABOT", "state": "AR", "street": "200 E MAIN ST", "postcode": "72023"}}},
{"geometry": {"type": "Point", "coordinates": [-92.0733197296, 34.9830913301]}, "type": "Feature", "properties": {"collection_times": [{"days": "Mon-Sat", "time": "11:00am"}, {"days": "Sun", "time": "Closed"}], "id": "7202300007", "name": "USPS COLLECTION BOX - BLUE BOX", "address": {"city": "CABOT", "state": "AR", "street": "3001 HIGHWAY 89 S", "postcode": "72023"}}},
{"geometry": {"type": "Point", "coordinates": [-92.0157397321, 34.9732226196]}, "type": "Feature", "properties": {"collection_times": [{"days": "Mon-Fri", "time": "5:00pm"}, {"days": "Sat", "time": "3:45pm"}, {"days": "Sun", "time": "Closed"}], "id": "7202300008", "name": "USPS COLLECTION BOX - PO LOBBY", "address": {"city": "CABOT", "state": "AR", "street": "200 E MAIN ST", "postcode": "72023"}}},
{"geometry": {"type": "Point", "coordinates": [-92.0434482789, 34.9828898071]}, "type": "Feature", "properties": {"collection_times": [{"days": "Mon-Sat", "time": "2:00pm"}, {"days": "Sun", "time": "Closed"}], "id": "7202300009", "name": "USPS COLLECTION BOX - BLUE BOX", "address": {"city": "CABOT", "state": "AR", "street": "2171 W MAIN ST", "postcode": "72023"}}},
{"geometry": {"type": "Point", "coordinates": [-92.0157397321, 34.9732226196]}, "type": "Feature", "properties": {"collection_times": [{"days": "Mon-Fri", "time": "5:00pm"}, {"days": "Sat", "time": "3:45pm"}, {"days": "Sun", "time": "Closed"}], "id": "7202300010", "name": "USPS COLLECTION BOX - PO LOBBY", "address": {"city": "CABOT", "state": "AR", "street": "200 E MAIN ST", "postcode": "72023"}}},
{"geometry": {"type": "Point", "coordinates": [-92.0157397321, 34.9732226196]}, "type": "Feature", "properties": {"collection_times": [{"days": "Mon-Fri", "time": "5:00pm"}, {"days": "Sat", "time": "3:45pm"}, {"days": "Sun", "time": "Closed"}], "id": "7202300011", "name": "USPS COLLECTION BOX - PO LOBBY", "address": {"city": "CABOT", "state": "AR", "street": "200 E MAIN ST", "postcode": "72023"}}},
{"geometry": {"type": "Point", "coordinates": [-92.071841419, 35.020375897]}, "type": "Feature", "properties": {"collection_times": [{"days": "Mon-Sat", "time": "1:00pm"}, {"days": "Sun", "time": "Closed"}], "id": "7202300012", "name": "USPS COLLECTION BOX - BLUE BOX", "address": {"city": "CABOT", "state": "AR", "street": "15361 HIGHWAY 5", "postcode": "72023"}}},
{"geometry": {"type": "Point", "coordinates": [-91.7465081206, 34.7838044338]}, "type": "Feature", "properties": {"collection_times": [{"days": "Mon-Fri", "time": "4:00pm"}, {"days": "Sat", "time": "11:00am"}, {"days": "Sun", "time": "Closed"}], "id": "7202400001", "name": "USPS COLLECTION BOX - BLUE BOX", "address": {"city": "CARLISLE", "state": "AR", "street": "206 N COURT ST", "postcode": "72024"}}},
{"geometry": {"type": "Point", "coordinates": [-91.7465081206, 34.7838044338]}, "type": "Feature", "properties": {"collection_times": [{"days": "Mon-Fri", "time": "4:00pm"}, {"days": "Sat", "time": "11:00am"}, {"days": "Sun", "time": "Closed"}], "id": "7202400002", "name": "USPS COLLECTION BOX - PO LOBBY", "address": {"city": "CARLISLE", "state": "AR", "street": "206 N COURT ST", "postcode": "72024"}}},
{"geometry": {"type": "Point", "coordinates": [-91.7465081206, 34.7838044338]}, "type": "Feature", "properties": {"collection_times": [{"days": "Mon-Fri", "time": "4:00pm"}, {"days": "Sat", "time": "11:00am"}, {"days": "Sun", "time": "Closed"}], "id": "7202400004", "name": "USPS COLLECTION BOX - PO LOBBY", "address": {"city": "CARLISLE", "state": "AR", "street": "206 N COURT ST", "postcode": "72024"}}},
{"geometry": {"type": "Point", "coordinates": [-93.0432699956, 35.0225786601]}, "type": "Feature", "properties": {"collection_times": [{"days": "Mon-Fri", "time": "3:30pm"}, {"days": "Sat", "time": "10:00am"}, {"days": "Sun", "time": "Closed"}], "id": "7202500001", "name": "USPS COLLECTION BOX - BLUE BOX", "address": {"city": "CASA", "state": "AR", "street": "3684 HIGHWAY 10 3RD ST", "postcode": "72025"}}},
{"geometry": {"type": "Point", "coordinates": [-93.0432699956, 35.0225786601]}, "type": "Feature", "properties": {"collection_times": [{"days": "Mon-Fri", "time": "11:00am"}, {"days": "Sat", "time": "10:00am"}, {"days": "Sun", "time": "Closed"}], "id": "7202500002", "name": "USPS COLLECTION BOX - PO LOBBY", "address": {"city": "CASA", "state": "AR", "street": "3684 HIGHWAY 10 3RD ST", "postcode": "72025"}}},
{"geometry": {"type": "Point", "coordinates": [-93.0432699956, 35.0225786601]}, "type": "Feature", "properties": {"collection_times": [{"days": "Mon-Fri", "time": "11:00am"}, {"days": "Sat", "time": "10:00am"}, {"days": "Sun", "time": "Closed"}], "id": "7202500003", "name": "USPS COLLECTION BOX - PO LOBBY", "address": {"city": "CASA", "state": "AR", "street": "3684 HIGHWAY 10 3RD ST", "postcode": "72025"}}},
{"geometry": {"type": "Point", "coordinates": [-91.3258644969, 34.5265861077]}, "type": "Feature", "properties": {"collection_times": [{"days": "Mon-Fri", "time": "1:45pm"}, {"days": "Sat", "time": "11:45am"}, {"days": "Sun", "time": "Closed"}], "id": "7202600001", "name": "USPS COLLECTION BOX - PO LOBBY", "address": {"city": "CASSCOE", "state": "AR", "street": "1040 HIGHWAY 33", "postcode": "72026"}}},
{"geometry": {"type": "Point", "coordinates": [-92.5589027711, 35.383360819]}, "type": "Feature", "properties": {"collection_times": [{"days": "Mon-Fri", "time": "4:00pm"}, {"days": "Sat", "time": "10:30am"}, {"days": "Sun", "time": "Closed"}], "id": "7202700001", "name": "USPS COLLECTION BOX - BLUE BOX", "address": {"city": "CENTER RIDGE", "state": "AR", "street": "5744 HIGHWAY 9", "postcode": "72027"}}},
{"geometry": {"type": "Point", "coordinates": [-92.5589027711, 35.383360819]}, "type": "Feature", "properties": {"collection_times": [{"days": "Mon-Fri", "time": "11:30am"}, {"days": "Sat", "time": "10:30am"}, {"days": "Sun", "time": "Closed"}], "id": "7202700002", "name": "USPS COLLECTION BOX - PO LOBBY", "address": {"city": "CENTER RIDGE", "state": "AR", "street": "5744 HIGHWAY 9", "postcode": "72027"}}},
{"geometry": {"type": "Point", "coordinates": [-92.5589027711, 35.383360819]}, "type": "Feature", "properties": {"collection_times": [{"days": "Mon-Fri", "time": "11:30am"}, {"days": "Sat", "time": "10:30am"}, {"days": "Sun", "time": "Closed"}], "id": "7202700003", "name": "USPS COLLECTION BOX - PO LOBBY", "address": {"city": "CENTER RIDGE", "state": "AR", "street": "5744 HIGHWAY 9", "postcode": "72027"}}},
{"geometry": {"type": "Point", "coordinates": [-92.4441887852, 35.4945889073]}, "type": "Feature", "properties": {"collection_times": [{"days": "Mon-Fri", "time": "11:30am"}, {"days": "Sat", "time": "9:45am"}, {"days": "Sun", "time": "Closed"}], "id": "7202800001", "name": "USPS COLLECTION BOX - PO LOBBY", "address": {"city": "CHOCTAW", "state": "AR", "street": "173 HIGHWAY 330 E", "postcode": "72028"}}},
{"geometry": {"type": "Point", "coordinates": [-92.4441887852, 35.4945889073]}, "type": "Feature", "properties": {"collection_times": [{"days": "Mon-Fri", "time": "4:15pm"}, {"days": "Sat", "time": "9:45am"}, {"days": "Sun", "time": "Closed"}], "id": "7202800002", "name": "USPS COLLECTION BOX - BLUE BOX", "address": {"city": "CHOCTAW", "state": "AR", "street": "173 HIGHWAY 330 E", "postcode": "72028"}}},
{"geometry": {"type": "Point", "coordinates": [-91.3115126355, 34.6928180759]}, "type": "Feature", "properties": {"collection_times": [{"days": "Mon-Fri", "time": "4:15pm"}, {"days": "Sat", "time": "10:30am"}, {"days": "Sun", "time": "Closed"}], "id": "7202900001", "name": "USPS COLLECTION BOX - BLUE BOX", "address": {"city": "CLARENDON", "state": "AR", "street": "303 MADISON ST", "postcode": "72029"}}},
{"geometry": {"type": "Point", "coordinates": [-91.3115126355, 34.6928180759]}, "type": "Feature", "properties": {"collection_times": [{"days": "Mon-Fri", "time": "4:15pm"}, {"days": "Sat", "time": "10:30am"}, {"days": "Sun", "time": "Closed"}], "id": "7202900005", "name": "USPS COLLECTION BOX - PO LOBBY", "address": {"city": "CLARENDON", "state": "AR", "street": "303 MADISON ST", "postcode": "72029"}}},
{"geometry": {"type": "Point", "coordinates": [-91.3115126355, 34.6928180759]}, "type": "Feature", "properties": {"collection_times": [{"days": "Mon-Fri", "time": "4:15pm"}, {"days": "Sat", "time": "10:30am"}, {"days": "Sun", "time": "Closed"}], "id": "7202900006", "name": "USPS COLLECTION BOX - PO LOBBY", "address": {"city": "CLARENDON", "state": "AR", "street": "303 MADISON ST", "postcode": "72029"}}},
{"geometry": {"type": "Point", "coordinates": [-92.7089718507, 35.4345101874]}, "type": "Feature", "properties": {"collection_times": [{"days": "Mon-Fri", "time": "3:30pm"}, {"days": "Sat", "time": "10:15am"}, {"days": "Sun", "time": "Closed"}], "id": "7203000001", "name": "USPS COLLECTION BOX - BLUE BOX", "address": {"city": "CLEVELAND", "state": "AR", "street": "3954 HIGHWAY 95", "postcode": "72030"}}},
{"geometry": {"type": "Point", "coordinates": [-92.7089718507, 35.4345101874]}, "type": "Feature", "properties": {"collection_times": [{"days": "Mon-Fri", "time": "11:00am"}, {"days": "Sat", "time": "10:15am"}, {"days": "Sun", "time": "Closed"}], "id": "7203000002", "name": "USPS COLLECTION BOX - PO LOBBY", "address": {"city": "CLEVELAND", "state": "AR", "street": "3954 HIGHWAY 95", "postcode": "72030"}}},
{"geometry": {"type": "Point", "coordinates": [-92.7089718507, 35.4345101874]}, "type": "Feature", "properties": {"collection_times": [{"days": "Mon-Fri", "time": "11:00am"}, {"days": "Sat", "time": "10:15am"}, {"days": "Sun", "time": "Closed"}], "id": "7203000003", "name": "USPS COLLECTION BOX - PO LOBBY", "address": {"city": "CLEVELAND", "state": "AR", "street": "3954 HIGHWAY 95", "postcode": "72030"}}},
{"geometry": {"type": "Point", "coordinates": [-92.4564556119, 35.5674582571]}, "type": "Feature", "properties": {"collection_times": [{"days": "Mon-Fri", "time": "4:30pm"}, {"days": "Sat", "time": "12:00pm"}, {"days": "Sun", "time": "Closed"}], "id": "7203100014", "name": "USPS COLLECTION BOX - BLUE BOX", "address": {"city": "CLINTON", "state": "AR", "street": "145 VOLUNTEER PKWY", "postcode": "72031"}}},
{"geometry": {"type": "Point", "coordinates": [-92.4564556119, 35.5674582571]}, "type": "Feature", "properties": {"collection_times": [{"days": "Mon-Fri", "time": "4:30pm"}, {"days": "Sat", "time": "12:00pm"}, {"days": "Sun", "time": "Closed"}], "id": "7203100016", "name": "USPS COLLECTION BOX - PO LOBBY", "address": {"city": "CLINTON", "state": "AR", "street": "145 VOLUNTEER PKWY", "postcode": "72031"}}},
{"geometry": {"type": "Point", "coordinates": [-92.4613882081, 35.5977265355]}, "type": "Feature", "properties": {"collection_times": [{"days": "Mon-Fri", "time": "3:30pm"}, {"days": "Sat-Sun", "time": "Closed"}], "id": "7203100017", "name": "USPS COLLECTION BOX - BLUE BOX", "address": {"city": "CLINTON", "state": "AR", "street": "131 BONE ST", "postcode": "72031"}}},
{"geometry": {"type": "Point", "coordinates": [-92.4648828701, 35.5931869493]}, "type": "Feature", "properties": {"collection_times": [{"days": "Mon-Fri", "time": "3:30pm"}, {"days": "Sat-Sun", "time": "Closed"}], "id": "7203100018", "name": "USPS COLLECTION BOX - BLUE BOX", "address": {"city": "CLINTON", "state": "AR", "street": "275 MAIN ST", "postcode": "72031"}}},
{"geometry": {"type": "Point", "coordinates": [-92.4564556119, 35.5674582571]}, "type": "Feature", "properties": {"collection_times": [{"days": "Mon-Fri", "time": "4:30pm"}, {"days": "Sat", "time": "12:00pm"}, {"days": "Sun", "time": "Closed"}], "id": "7203100019", "name": "USPS COLLECTION BOX - PO LOBBY", "address": {"city": "CLINTON", "state": "AR", "street": "145 VOLUNTEER PKWY", "postcode": "72031"}}},
{"geometry": {"type": "Point", "coordinates": [-92.4396145413, 35.0895976636]}, "type": "Feature", "properties": {"collection_times": [{"days": "Mon-Fri", "time": "5:00pm"}, {"days": "Sat", "time": "1:00pm"}, {"days": "Sun", "time": "Closed"}], "id": "7203200001", "name": "USPS COLLECTION BOX - PO LOBBY", "address": {"city": "CONWAY", "state": "AR", "street": "1111 MAIN ST", "postcode": "72032"}}},
{"geometry": {"type": "Point", "coordinates": [-92.439598316, 35.0882906079]}, "type": "Feature", "properties": {"collection_times": [{"days": "Mon-Fri", "time": "5:00pm"}, {"days": "Sat", "time": "1:30pm"}, {"days": "Sun", "time": "Closed"}], "id": "7203200006", "name": "USPS COLLECTION BOX - BLUE BOX", "address": {"city": "CONWAY", "state": "AR", "street": "700 FRONT ST", "postcode": "72032"}}},
{"geometry": {"type": "Point", "coordinates": [-92.4318348158, 35.1121631769]}, "type": "Feature", "properties": {"collection_times": [{"days": "Mon-Sat", "time": "2:00pm"}, {"days": "Sun", "time": "Closed"}], "id": "7203200018", "name": "USPS COLLECTION BOX - BLUE BOX", "address": {"city": "CONWAY", "state": "AR", "street": "201 SKYLINE DR", "postcode": "72032"}}},
{"geometry": {"type": "Point", "coordinates": [-92.421178479, 35.0690432873]}, "type": "Feature", "properties": {"collection_times": [{"days": "Mon-Fri", "time": "10:45am"}, {"days": "Sat", "time": "9:00am"}, {"days": "Sun", "time": "Closed"}], "id": "7203200019", "name": "USPS COLLECTION BOX - BLUE BOX", "address": {"city": "CONWAY", "state": "AR", "street": "700 EXCHANGE AVE", "postcode": "72032"}}},
{"geometry": {"type": "Point", "coordinates": [-92.4277243166, 35.0915681161]}, "type": "Feature", "properties": {"collection_times": [{"days": "Mon-Sat", "time": "12:30pm"}, {"days": "Sun", "time": "Closed"}], "id": "7203200029", "name": "USPS COLLECTION BOX - BLUE BOX", "address": {"city": "CONWAY", "state": "AR", "street": "101 OAK ST", "postcode": "72032"}}},
{"geometry": {"type": "Point", "coordinates": [-92.4977148647, 35.0945699859]}, "type": "Feature", "properties": {"collection_times": [{"days": "Mon-Fri", "time": "5:00pm"}, {"days": "Sat", "time": "4:30pm"}, {"days": "Sun", "time": "Closed"}], "id": "7203400000", "name": "USPS COLLECTION BOX - PO LOBBY", "address": {"city": "CONWAY", "state": "AR", "street": "1060 HOGAN LN", "postcode": "72034"}}},
{"geometry": {"type": "Point", "coordinates": [-92.4977148647, 35.0945699859]}, "type": "Feature", "properties": {"collection_times": [{"days": "Mon-Fri", "time": "5:00pm"}, {"days": "Sat", "time": "4:30pm"}, {"days": "Sun", "time": "Closed"}], "id": "7203400001", "name": "USPS COLLECTION BOX - PO LOBBY", "address": {"city": "CONWAY", "state": "AR", "street": "1060 HOGAN LN", "postcode": "72034"}}},
{"geometry": {"type": "Point", "coordinates": [-92.4977148647, 35.0945699859]}, "type": "Feature", "properties": {"collection_times": [{"days": "Mon-Fri", "time": "5:00pm"}, {"days": "Sat", "time": "4:30pm"}, {"days": "Sun", "time": "Closed"}], "id": "7203400002", "name": "USPS COLLECTION BOX - PO LOBBY", "address": {"city": "CONWAY", "state": "AR", "street": "1060 HOGAN LN", "postcode": "72034"}}},
{"geometry": {"type": "Point", "coordinates": [-92.4977148647, 35.0945699859]}, "type": "Feature", "properties": {"collection_times": [{"days": "Mon-Fri", "time": "5:00pm"}, {"days": "Sat", "time": "4:30pm"}, {"days": "Sun", "time": "Closed"}], "id": "7203400003", "name": "USPS COLLECTION BOX - PO LOBBY", "address": {"city": "CONWAY", "state": "AR", "street": "1060 HOGAN LN", "postcode": "72034"}}},
{"geometry": {"type": "Point", "coordinates": [-92.49773711, 35.0944394676]}, "type": "Feature", "properties": {"collection_times": [{"days": "Mon-Fri", "time": "5:00pm"}, {"days": "Sat", "time": "4:30pm"}, {"days": "Sun", "time": "Closed"}], "id": "7203400004", "name": "USPS COLLECTION BOX - BLUE BOX", "address": {"city": "CONWAY", "state": "AR", "street": "1060 HOGAN LN", "postcode": "72034"}}},
{"geometry": {"type": "Point", "coordinates": [-92.4532798923, 35.1013050036]}, "type": "Feature", "properties": {"collection_times": [{"days": "Mon-Fri", "time": "1:30pm"}, {"days": "Sat", "time": "12:30pm"}, {"days": "Sun", "time": "Closed"}], "id": "7203400007", "name": "USPS COLLECTION BOX - BLUE BOX", "address": {"city": "CONWAY", "state": "AR", "street": "1632 DONAGHEY AVE", "postcode": "72034"}}},
{"geometry": {"type": "Point", "coordinates": [-92.4543395764, 35.0848083158]}, "type": "Feature", "properties": {"collection_times": [{"days": "Mon-Fri", "time": "11:00am"}, {"days": "Sat", "time": "12:30pm"}, {"days": "Sun", "time": "Closed"}], "id": "7203400010", "name": "USPS COLLECTION BOX - BLUE BOX", "address": {"city": "CONWAY", "state": "AR", "street": "2102 COLLEGE AVE", "postcode": "72034"}}},
{"geometry": {"type": "Point", "coordinates": [-92.4628087287, 35.0704196386]}, "type": "Feature", "properties": {"collection_times": [{"days": "Mon-Sat", "time": "10:30am"}, {"days": "Sun", "time": "Closed"}], "id": "7203400016", "name": "USPS COLLECTION BOX - BLUE BOX", "address": {"city": "CONWAY", "state": "AR", "street": "2890 DAVE WARD DR", "postcode": "72034"}}},
{"geometry": {"type": "Point", "coordinates": [-92.4714588198, 35.091708558]}, "type": "Feature", "properties": {"collection_times": [{"days": "Mon-Fri", "time": "2:00pm"}, {"days": "Sat", "time": "9:45am"}, {"days": "Sun", "time": "Closed"}], "id": "7203400019", "name": "USPS COLLECTION BOX - BLUE BOX", "address": {"city": "CONWAY", "state": "AR", "street": "945 SALEM RD", "postcode": "72034"}}},
{"geometry": {"type": "Point", "coordinates": [-91.2458253342, 35.00454128]}, "type": "Feature", "properties": {"collection_times": [{"days": "Mon-Fri", "time": "4:15pm"}, {"days": "Sat", "time": "11:30am"}, {"days": "Sun", "time": "Closed"}], "id": "7203600001", "name": "USPS COLLECTION BOX - BLUE BOX", "address": {"city": "COTTON PLANT", "state": "AR", "street": "279 W MAIN ST", "postcode": "72036"}}},
{"geometry": {"type": "Point", "coordinates": [-91.2458253342, 35.00454128]}, "type": "Feature", "properties": {"collection_times": [{"days": "Mon-Sat", "time": "11:30am"}, {"days": "Sun", "time": "Closed"}], "id": "7203600005", "name": "USPS COLLECTION BOX - PO LOBBY", "address": {"city": "COTTON PLANT", "state": "AR", "street": "279 W MAIN ST", "postcode": "72036"}}},
{"geometry": {"type": "Point", "coordinates": [-91.874019235, 34.5382485699]}, "type": "Feature", "properties": {"collection_times": [{"days": "Mon-Fri", "time": "2:30pm"}, {"days": "Sat", "time": "12:30pm"}, {"days": "Sun", "time": "Closed"}], "id": "7203700001", "name": "USPS COLLECTION BOX - BLUE BOX", "address": {"city": "COY", "state": "AR", "street": "561 MAIN ST", "postcode": "72037"}}},
{"geometry": {"type": "Point", "coordinates": [-91.874019235, 34.5382485699]}, "type": "Feature", "properties": {"collection_times": [{"days": "Mon-Fri", "time": "2:30pm"}, {"days": "Sat", "time": "12:30pm"}, {"days": "Sun", "time": "Closed"}], "id": "7203700002", "name": "USPS COLLECTION BOX - PO LOBBY", "address": {"city": "COY", "state": "AR", "street": "561 MAIN ST", "postcode": "72037"}}},
{"geometry": {"type": "Point", "coordinates": [-91.2258227203, 34.4432042395]}, "type": "Feature", "properties": {"collection_times": [{"days": "Mon-Fri", "time": "1:00pm"}, {"days": "Sat", "time": "12:50pm"}, {"days": "Sun", "time": "Closed"}], "id": "7203800002", "name": "USPS COLLECTION BOX - PO LOBBY", "address": {"city": "CROCKETTS BLUFF", "state": "AR", "street": "2908 HIGHWAY 153", "postcode": "72038"}}},
{"geometry": {"type": "Point", "coordinates": [-92.4179909304, 35.3377399251]}, "type": "Feature", "properties": {"collection_times": [{"days": "Mon-Fri", "time": "3:45pm"}, {"days": "Sat", "time": "9:45am"}, {"days": "Sun", "time": "Closed"}], "id": "7203900001", "name": "USPS COLLECTION BOX - BLUE BOX", "address": {"city": "DAMASCUS", "state": "AR", "street": "17465 HIGHWAY 65 S", "postcode": "72039"}}},
{"geometry": {"type": "Point", "coordinates": [-92.4179909304, 35.3377399251]}, "type": "Feature", "properties": {"collection_times": [{"days": "Mon-Fri", "time": "1:30pm"}, {"days": "Sat", "time": "9:45am"}, {"days": "Sun", "time": "Closed"}], "id": "7203900002", "name": "USPS COLLECTION BOX - PO LOBBY", "address": {"city": "DAMASCUS", "state": "AR", "street": "17465 HIGHWAY 65 S", "postcode": "72039"}}},
{"geometry": {"type": "Point", "coordinates": [-92.4179909304, 35.3377399251]}, "type": "Feature", "properties": {"collection_times": [{"days": "Mon-Fri", "time": "1:30pm"}, {"days": "Sat", "time": "9:45am"}, {"days": "Sun", "time": "Closed"}], "id": "7203900003", "name": "USPS COLLECTION BOX - PO LOBBY", "address": {"city": "DAMASCUS", "state": "AR", "street": "17465 HIGHWAY 65 S", "postcode": "72039"}}},
{"geometry": {"type": "Point", "coordinates": [-91.4963483167, 34.9760314616]}, "type": "Feature", "properties": {"collection_times": [{"days": "Mon-Fri", "time": "4:00pm"}, {"days": "Sat", "time": "12:00pm"}, {"days": "Sun", "time": "Closed"}], "id": "7204000001", "name": "USPS COLLECTION BOX - BLUE BOX", "address": {"city": "DES ARC", "state": "AR", "street": "109 S 4TH ST", "postcode": "72040"}}},
{"geometry": {"type": "Point", "coordinates": [-91.4963483167, 34.9760314616]}, "type": "Feature", "properties": {"collection_times": [{"days": "Mon-Fri", "time": "4:00pm"}, {"days": "Sat", "time": "12:00pm"}, {"days": "Sun", "time": "Closed"}], "id": "7204000002", "name": "USPS COLLECTION BOX - PO LOBBY", "address": {"city": "DES ARC", "state": "AR", "street": "109 S 4TH ST", "postcode": "72040"}}},
{"geometry": {"type": "Point", "coordinates": [-91.5360073766, 34.6849503056]}, "type": "Feature", "properties": {"collection_times": [{"days": "Mon-Fri", "time": "3:00pm"}, {"days": "Sat", "time": "11:00am"}, {"days": "Sun", "time": "Closed"}], "id": "7204100003", "name": "USPS COLLECTION BOX - PO LOBBY", "address": {"city": "DE VALLS BLUFF", "state": "AR", "street": "1 NEWT PARK DR", "postcode": "72041"}}},
{"geometry": {"type": "Point", "coordinates": [-91.5360073766, 34.6849503056]}, "type": "Feature", "properties": {"collection_times": [{"days": "Mon-Fri", "time": "3:00pm"}, {"days": "Sat", "time": "11:00am"}, {"days": "Sun", "time": "Closed"}], "id": "7204100004", "name": "USPS COLLECTION BOX - PO LOBBY", "address": {"city": "DE VALLS BLUFF", "state": "AR", "street": "1 NEWT PARK DR", "postcode": "72041"}}},
{"geometry": {"type": "Point", "coordinates": [-91.5360073766, 34.6849503056]}, "type": "Feature", "properties": {"collection_times": [{"days": "Mon-Fri", "time": "3:45pm"}, {"days": "Sat", "time": "11:00am"}, {"days": "Sun", "time": "Closed"}], "id": "7204100005", "name": "USPS COLLECTION BOX - BLUE BOX", "address": {"city": "DE VALLS BLUFF", "state": "AR", "street": "1 NEWT PARK DR", "postcode": "72041"}}},
{"geometry": {"type": "Point", "coordinates": [-91.3366712698, 34.2952318715]}, "type": "Feature", "properties": {"collection_times": [{"days": "Mon-Sat", "time": "4:45pm"}, {"days": "Sun", "time": "Closed"}], "id": "7204200001", "name": "USPS COLLECTION BOX - BLUE BOX", "address": {"city": "DE WITT", "state": "AR", "street": "221 W CROSS ST", "postcode": "72042"}}},
{"geometry": {"type": "Point", "coordinates": [-91.3366712698, 34.2952318715]}, "type": "Feature", "properties": {"collection_times": [{"days": "Mon-Sat", "time": "4:45pm"}, {"days": "Sun", "time": "Closed"}], "id": "7204200021", "name": "USPS COLLECTION BOX - PO LOBBY", "address": {"city": "DE WITT", "state": "AR", "street": "221 W CROSS ST", "postcode": "72042"}}},
{"geometry": {"type": "Point", "coordinates": [-91.3366712698, 34.2952318715]}, "type": "Feature", "properties": {"collection_times": [{"days": "Mon-Sat", "time": "4:45pm"}, {"days": "Sun", "time": "Closed"}], "id": "7204200022", "name": "USPS COLLECTION BOX - BLUE BOX", "address": {"city": "DE WITT", "state": "AR", "street": "221 W CROSS ST", "postcode": "72042"}}},
{"geometry": {"type": "Point", "coordinates": [-91.3366712698, 34.2952318715]}, "type": "Feature", "properties": {"collection_times": [{"days": "Mon-Sat", "time": "4:45pm"}, {"days": "Sun", "time": "Closed"}], "id": "7204200023", "name": "USPS COLLECTION BOX - PO LOBBY", "address": {"city": "DE WITT", "state": "AR", "street": "221 W CROSS ST", "postcode": "72042"}}},
{"geometry": {"type": "Point", "coordinates": [-91.3366712698, 34.2952318715]}, "type": "Feature", "properties": {"collection_times": [{"days": "Mon-Sat", "time": "4:45pm"}, {"days": "Sun", "time": "Closed"}], "id": "7204200024", "name": "USPS COLLECTION BOX - PO LOBBY", "address": {"city": "DE WITT", "state": "AR", "street": "221 W CROSS ST", "postcode": "72042"}}},
{"geometry": {"type": "Point", "coordinates": [-91.3366712698, 34.2952318715]}, "type": "Feature", "properties": {"collection_times": [{"days": "Mon-Sat", "time": "4:45pm"}, {"days": "Sun", "time": "Closed"}], "id": "7204200025", "name": "USPS COLLECTION BOX - PO LOBBY", "address": {"city": "DE WITT", "state": "AR", "street": "221 W CROSS ST", "postcode": "72042"}}},
{"geometry": {"type": "Point", "coordinates": [-91.2650706287, 35.6407420418]}, "type": "Feature", "properties": {"collection_times": [{"days": "Mon-Fri", "time": "4:15pm"}, {"days": "Sat", "time": "11:00am"}, {"days": "Sun", "time": "Closed"}], "id": "7204300001", "name": "USPS COLLECTION BOX - BLUE BOX", "address": {"city": "DIAZ", "state": "AR", "street": "3400 S MAIN ST", "postcode": "72043"}}},
{"geometry": {"type": "Point", "coordinates": [-91.2650706287, 35.6407420418]}, "type": "Feature", "properties": {"collection_times": [{"days": "Mon-Fri", "time": "11:30am"}, {"days": "Sat", "time": "11:00am"}, {"days": "Sun", "time": "Closed"}], "id": "7204300004", "name": "USPS COLLECTION BOX - PO LOBBY", "address": {"city": "DIAZ", "state": "AR", "street": "3400 S MAIN ST", "postcode": "72043"}}},
{"geometry": {"type": "Point", "coordinates": [-92.1851376624, 35.6026217494]}, "type": "Feature", "properties": {"collection_times": [{"days": "Mon-Fri", "time": "4:00pm"}, {"days": "Sat", "time": "11:00am"}, {"days": "Sun", "time": "Closed"}], "id": "7204400001", "name": "USPS COLLECTION BOX - BLUE BOX", "address": {"city": "EDGEMONT", "state": "AR", "street": "10239 EDGEMONT RD", "postcode": "72044"}}},
{"geometry": {"type": "Point", "coordinates": [-92.1851376624, 35.6026217494]}, "type": "Feature", "properties": {"collection_times": [{"days": "Mon-Sat", "time": "11:00am"}, {"days": "Sun", "time": "Closed"}], "id": "7204400002", "name": "USPS COLLECTION BOX - PO LOBBY", "address": {"city": "EDGEMONT", "state": "AR", "street": "10239 EDGEMONT RD", "postcode": "72044"}}},
{"geometry": {"type": "Point", "coordinates": [-92.0924952207, 35.119455052]}, "type": "Feature", "properties": {"collection_times": [{"days": "Mon-Fri", "time": "3:30pm"}, {"days": "Sat", "time": "10:00am"}, {"days": "Sun", "time": "Closed"}], "id": "7204500001", "name": "USPS COLLECTION BOX - BLUE BOX", "address": {"city": "EL PASO", "state": "AR", "street": "3092 HIGHWAY 5", "postcode": "72045"}}},
{"geometry": {"type": "Point", "coordinates": [-92.0924952207, 35.119455052]}, "type": "Feature", "properties": {"collection_times": [{"days": "Mon-Fri", "time": "3:30pm"}, {"days": "Sat", "time": "10:00am"}, {"days": "Sun", "time": "Closed"}], "id": "7204500002", "name": "USPS COLLECTION BOX - PO LOBBY", "address": {"city": "EL PASO", "state": "AR", "street": "3092 HIGHWAY 5", "postcode": "72045"}}},
{"geometry": {"type": "Point", "coordinates": [-91.969743249, 34.5450638507]}, "type": "Feature", "properties": {"collection_times": [{"days": "Mon-Fri", "time": "4:15pm"}, {"days": "Sat", "time": "11:00am"}, {"days": "Sun", "time": "Closed"}], "id": "7204600004", "name": "USPS COLLECTION BOX - BLUE BOX", "address": {"city": "ENGLAND", "state": "AR", "street": "111 N MAIN ST", "postcode": "72046"}}},
{"geometry": {"type": "Point", "coordinates": [-91.969743249, 34.5450638507]}, "type": "Feature", "properties": {"collection_times": [{"days": "Mon-Fri", "time": "4:15pm"}, {"days": "Sat", "time": "11:00am"}, {"days": "Sun", "time": "Closed"}], "id": "7204600005", "name": "USPS COLLECTION BOX - PO LOBBY", "address": {"city": "ENGLAND", "state": "AR", "street": "111 N MAIN ST", "postcode": "72046"}}},
{"geometry": {"type": "Point", "coordinates": [-91.969743249, 34.5450638507]}, "type": "Feature", "properties": {"collection_times": [{"days": "Mon-Fri", "time": "4:15pm"}, {"days": "Sat", "time": "11:00am"}, {"days": "Sun", "time": "Closed"}], "id": "7204600006", "name": "USPS COLLECTION BOX - PO LOBBY", "address": {"city": "ENGLAND", "state": "AR", "street": "111 N MAIN ST", "postcode": "72046"}}},
{"geometry": {"type": "Point", "coordinates": [-92.2083432635, 35.1869224107]}, "type": "Feature", "properties": {"collection_times": [{"days": "Mon-Fri", "time": "4:00pm"}, {"days": "Sat", "time": "10:15am"}, {"days": "Sun", "time": "Closed"}], "id": "7204700001", "name": "USPS COLLECTION BOX - BLUE BOX", "address": {"city": "ENOLA", "state": "AR", "street": "232 HIGHWAY 107 N", "postcode": "72047"}}},
{"geometry": {"type": "Point", "coordinates": [-92.2083432635, 35.1869224107]}, "type": "Feature", "properties": {"collection_times": [{"days": "Mon-Fri", "time": "11:30am"}, {"days": "Sat", "time": "10:15am"}, {"days": "Sun", "time": "Closed"}], "id": "7204700002", "name": "USPS COLLECTION BOX - PO LOBBY", "address": {"city": "ENOLA", "state": "AR", "street": "232 HIGHWAY 107 N", "postcode": "72047"}}},
{"geometry": {"type": "Point", "coordinates": [-91.1633555136, 34.2866626559]}, "type": "Feature", "properties": {"collection_times": [{"days": "Mon-Sat", "time": "9:45am"}, {"days": "Sun", "time": "Closed"}], "id": "7204800002", "name": "USPS COLLECTION BOX - PO LOBBY", "address": {"city": "ETHEL", "state": "AR", "street": "2 ETHEL RD", "postcode": "72048"}}},
{"geometry": {"type": "Point", "coordinates": [-92.3000905029, 35.7936977259]}, "type": "Feature", "properties": {"collection_times": [{"days": "Mon-Fri", "time": "2:00pm"}, {"days": "Sat", "time": "12:30pm"}, {"days": "Sun", "time": "Closed"}], "id": "7205100001", "name": "USPS COLLECTION BOX - PO LOBBY", "address": {"city": "FOX", "state": "AR", "street": "15949 HIGHWAY 263", "postcode": "72051"}}},
{"geometry": {"type": "Point", "coordinates": [-91.7848421307, 35.1426140275]}, "type": "Feature", "properties": {"collection_times": [{"days": "Mon-Fri", "time": "10:00am"}, {"days": "Sat", "time": "9:30am"}, {"days": "Sun", "time": "Closed"}], "id": "7205200002", "name": "USPS COLLECTION BOX - PO LOBBY", "address": {"city": "GARNER", "state": "AR", "street": "4392 HWY 367 N", "postcode": "72052"}}},
{"geometry": {"type": "Point", "coordinates": [-92.22403624, 34.7077223226]}, "type": "Feature", "properties": {"collection_times": [{"days": "Mon-Fri", "time": "4:15pm"}, {"days": "Sat", "time": "10:45am"}, {"days": "Sun", "time": "Closed"}], "id": "7205300001", "name": "USPS COLLECTION BOX - BLUE BOX", "address": {"city": "COLLEGE STATION", "state": "AR", "street": "4000 GRAY ST", "postcode": "72053"}}},
{"geometry": {"type": "Point", "coordinates": [-92.22403624, 34.7077223226]}, "type": "Feature", "properties": {"collection_times": [{"days": "Mon-Fri", "time": "11:30am"}, {"days": "Sat", "time": "10:45am"}, {"days": "Sun", "time": "Closed"}], "id": "7205300002", "name": "USPS COLLECTION BOX - PO LOBBY", "address": {"city": "COLLEGE STATION", "state": "AR", "street": "4000 GRAY ST", "postcode": "72053"}}},
{"geometry": {"type": "Point", "coordinates": [-91.3763256199, 34.1175364772]}, "type": "Feature", "properties": {"collection_times": [{"days": "Mon-Fri", "time": "4:00pm"}, {"days": "Sat", "time": "11:30am"}, {"days": "Sun", "time": "Closed"}], "id": "7205500001", "name": "USPS COLLECTION BOX - BLUE BOX", "address": {"city": "GILLETT", "state": "AR", "street": "14 W MAIN ST", "postcode": "72055"}}},
{"geometry": {"type": "Point", "coordinates": [-91.3763256199, 34.1175364772]}, "type": "Feature", "properties": {"collection_times": [{"days": "Mon-Fri", "time": "3:45pm"}, {"days": "Sat", "time": "11:30am"}, {"days": "Sun", "time": "Closed"}], "id": "7205500002", "name": "USPS COLLECTION BOX - PO LOBBY", "address": {"city": "GILLETT", "state": "AR", "street": "14 W MAIN ST", "postcode": "72055"}}},
{"geometry": {"type": "Point", "coordinates": [-91.3763256199, 34.1175364772]}, "type": "Feature", "properties": {"collection_times": [{"days": "Mon-Fri", "time": "3:45pm"}, {"days": "Sat", "time": "11:30am"}, {"days": "Sun", "time": "Closed"}], "id": "7205500003", "name": "USPS COLLECTION BOX - PO LOBBY", "address": {"city": "GILLETT", "state": "AR", "street": "14 W MAIN ST", "postcode": "72055"}}},
{"geometry": {"type": "Point", "coordinates": [-92.3123811388, 34.1427531707]}, "type": "Feature", "properties": {"collection_times": [{"days": "Mon-Fri", "time": "4:00pm"}, {"days": "Sat", "time": "9:30am"}, {"days": "Sun", "time": "Closed"}], "id": "7205700001", "name": "USPS COLLECTION BOX - BLUE BOX", "address": {"city": "GRAPEVINE", "state": "AR", "street": "151 GRANT COUNTY 18", "postcode": "72057"}}},
{"geometry": {"type": "Point", "coordinates": [-92.3123811388, 34.1427531707]}, "type": "Feature", "properties": {"collection_times": [{"days": "Mon-Fri", "time": "11:30am"}, {"days": "Sat", "time": "9:30am"}, {"days": "Sun", "time": "Closed"}], "id": "7205700002", "name": "USPS COLLECTION BOX - PO LOBBY", "address": {"city": "GRAPEVINE", "state": "AR", "street": "151 GRANT COUNTY 18", "postcode": "72057"}}},
{"geometry": {"type": "Point", "coordinates": [-92.3883713572, 35.2198100787]}, "type": "Feature", "properties": {"collection_times": [{"days": "Mon-Fri", "time": "4:45pm"}, {"days": "Sat", "time": "12:00pm"}, {"days": "Sun", "time": "Closed"}], "id": "7205800001", "name": "USPS COLLECTION BOX - BLUE BOX", "address": {"city": "GREENBRIER", "state": "AR", "street": "88 S BROADVIEW ST", "postcode": "72058"}}},
{"geometry": {"type": "Point", "coordinates": [-92.3883713572, 35.2198100787]}, "type": "Feature", "properties": {"collection_times": [{"days": "Mon-Fri", "time": "4:45pm"}, {"days": "Sat", "time": "12:00pm"}, {"days": "Sun", "time": "Closed"}], "id": "7205800002", "name": "USPS COLLECTION BOX - PO LOBBY", "address": {"city": "GREENBRIER", "state": "AR", "street": "88 S BROADVIEW ST", "postcode": "72058"}}},
{"geometry": {"type": "Point", "coordinates": [-91.3432480531, 35.1535422521]}, "type": "Feature", "properties": {"collection_times": [{"days": "Mon-Sat", "time": "11:30am"}, {"days": "Sun", "time": "Closed"}], "id": "7205900001", "name": "USPS COLLECTION BOX - BLUE BOX", "address": {"city": "GREGORY", "state": "AR", "street": "20087 HIGHWAY 33 S", "postcode": "72059"}}},
{"geometry": {"type": "Point", "coordinates": [-91.3432480531, 35.1535422521]}, "type": "Feature", "properties": {"collection_times": [{"days": "Mon-Sat", "time": "11:30am"}, {"days": "Sun", "time": "Closed"}], "id": "7205900002", "name": "USPS COLLECTION BOX - PO LOBBY", "address": {"city": "GREGORY", "state": "AR", "street": "20087 HIGHWAY 33 S", "postcode": "72059"}}},
{"geometry": {"type": "Point", "coordinates": [-91.6232435763, 35.0953284278]}, "type": "Feature", "properties": {"collection_times": [{"days": "Mon-Fri", "time": "4:00pm"}, {"days": "Sat", "time": "11:00am"}, {"days": "Sun", "time": "Closed"}], "id": "7206000001", "name": "USPS COLLECTION BOX - BLUE BOX", "address": {"city": "GRIFFITHVILLE", "state": "AR", "street": "311 MAIN ST", "postcode": "72060"}}},
{"geometry": {"type": "Point", "coordinates": [-91.6232435763, 35.0953284278]}, "type": "Feature", "properties": {"collection_times": [{"days": "Mon-Fri", "time": "1:00pm"}, {"days": "Sat", "time": "11:00am"}, {"days": "Sun", "time": "Closed"}], "id": "7206000002", "name": "USPS COLLECTION BOX - PO LOBBY", "address": {"city": "GRIFFITHVILLE", "state": "AR", "street": "311 MAIN ST", "postcode": "72060"}}},
{"geometry": {"type": "Point", "coordinates": [-92.3444352649, 35.3165622809]}, "type": "Feature", "properties": {"collection_times": [{"days": "Mon-Fri", "time": "3:45pm"}, {"days": "Sat", "time": "9:45am"}, {"days": "Sun", "time": "Closed"}], "id": "7206100002", "name": "USPS COLLECTION BOX - BLUE BOX", "address": {"city": "GUY", "state": "AR", "street": "4 SUNSET LN", "postcode": "72061"}}},
{"geometry": {"type": "Point", "coordinates": [-92.3444352649, 35.3165622809]}, "type": "Feature", "properties": {"collection_times": [{"days": "Mon-Fri", "time": "11:30am"}, {"days": "Sat", "time": "9:45am"}, {"days": "Sun", "time": "Closed"}], "id": "7206100003", "name": "USPS COLLECTION BOX - PO LOBBY", "address": {"city": "GUY", "state": "AR", "street": "4 SUNSET LN", "postcode": "72061"}}},
{"geometry": {"type": "Point", "coordinates": [-92.3444352649, 35.3165622809]}, "type": "Feature", "properties": {"collection_times": [{"days": "Mon-Fri", "time": "11:30am"}, {"days": "Sat", "time": "9:45am"}, {"days": "Sun", "time": "Closed"}], "id": "7206100004", "name": "USPS COLLECTION BOX - PO LOBBY", "address": {"city": "GUY", "state": "AR", "street": "4 SUNSET LN", "postcode": "72061"}}},
{"geometry": {"type": "Point", "coordinates": [-92.7804610939, 35.2853785725]}, "type": "Feature", "properties": {"collection_times": [{"days": "Mon-Fri", "time": "4:00pm"}, {"days": "Sat", "time": "10:00am"}, {"days": "Sun", "time": "Closed"}], "id": "7206300001", "name": "USPS COLLECTION BOX - BLUE BOX", "address": {"city": "HATTIEVILLE", "state": "AR", "street": "670 HIGHWAY 213", "postcode": "72063"}}},
{"geometry": {"type": "Point", "coordinates": [-92.7804610939, 35.2853785725]}, "type": "Feature", "properties": {"collection_times": [{"days": "Mon-Fri", "time": "11:00am"}, {"days": "Sat", "time": "10:00am"}, {"days": "Sun", "time": "Closed"}], "id": "7206300002", "name": "USPS COLLECTION BOX - PO LOBBY", "address": {"city": "HATTIEVILLE", "state": "AR", "street": "670 HIGHWAY 213", "postcode": "72063"}}},
{"geometry": {"type": "Point", "coordinates": [-91.5835075996, 34.7804659701]}, "type": "Feature", "properties": {"collection_times": [{"days": "Mon-Fri", "time": "4:00pm"}, {"days": "Sat", "time": "12:00pm"}, {"days": "Sun", "time": "Closed"}], "id": "7206400002", "name": "USPS COLLECTION BOX - PO LOBBY", "address": {"city": "HAZEN", "state": "AR", "street": "109 N CHESTER ST", "postcode": "72064"}}},
{"geometry": {"type": "Point", "coordinates": [-91.5835075996, 34.7804659701]}, "type": "Feature", "properties": {"collection_times": [{"days": "Mon-Fri", "time": "4:00pm"}, {"days": "Sat", "time": "12:00pm"}, {"days": "Sun", "time": "Closed"}], "id": "7206400004", "name": "USPS COLLECTION BOX - PO LOBBY", "address": {"city": "HAZEN", "state": "AR", "street": "109 N CHESTER ST", "postcode": "72064"}}},
{"geometry": {"type": "Point", "coordinates": [-91.5835075996, 34.7804659701]}, "type": "Feature", "properties": {"collection_times": [{"days": "Mon-Fri", "time": "4:00pm"}, {"days": "Sat", "time": "12:00pm"}, {"days": "Sun", "time": "Closed"}], "id": "7206400005", "name": "USPS COLLECTION BOX - BLUE BOX", "address": {"city": "HAZEN", "state": "AR", "street": "109 N CHESTER ST", "postcode": "72064"}}},
{"geometry": {"type": "Point", "coordinates": [-92.2055191192, 34.5036482324]}, "type": "Feature", "properties": {"collection_times": [{"days": "Mon-Fri", "time": "3:45pm"}, {"days": "Sat", "time": "2:00pm"}, {"days": "Sun", "time": "Closed"}], "id": "7206500001", "name": "USPS COLLECTION BOX - BLUE BOX", "address": {"city": "HENSLEY", "state": "AR", "street": "27001 HIGHWAY 365", "postcode": "72065"}}},
{"geometry": {"type": "Point", "coordinates": [-92.2055191192, 34.5036482324]}, "type": "Feature", "properties": {"collection_times": [{"days": "Mon-Sat", "time": "2:00pm"}, {"days": "Sun", "time": "Closed"}], "id": "7206500003", "name": "USPS COLLECTION BOX - PO LOBBY", "address": {"city": "HENSLEY", "state": "AR", "street": "27001 HIGHWAY 365", "postcode": "72065"}}},
{"geometry": {"type": "Point", "coordinates": [-92.3365577332, 34.5594899006]}, "type": "Feature", "properties": {"collection_times": [{"days": "Mon-Sat", "time": "1:30pm"}, {"days": "Sun", "time": "Closed"}], "id": "7206500005", "name": "USPS COLLECTION BOX - BLUE BOX", "address": {"city": "HENSLEY", "state": "AR", "street": "20800 ARCH STREET PIKE", "postcode": "72065"}}},
{"geometry": {"type": "Point", "coordinates": [-91.7410138668, 34.9955353301]}, "type": "Feature", "properties": {"collection_times": [{"days": "Mon-Sat", "time": "12:30pm"}, {"days": "Sun", "time": "Closed"}], "id": "7206600000", "name": "USPS COLLECTION BOX - PO LOBBY", "address": {"city": "HICKORY PLAINS", "state": "AR", "street": "9992 HIGHWAY 38 W", "postcode": "72066"}}},
{"geometry": {"type": "Point", "coordinates": [-92.2028347773, 35.5606457761]}, "type": "Feature", "properties": {"collection_times": [{"days": "Mon-Fri", "time": "4:00pm"}, {"days": "Sat", "time": "10:15am"}, {"days": "Sun", "time": "Closed"}], "id": "7206700001", "name": "USPS COLLECTION BOX - BLUE BOX", "address": {"city": "HIGDEN", "state": "AR", "street": "7545 EDGEMONT RD", "postcode": "72067"}}},
{"geometry": {"type": "Point", "coordinates": [-92.1987897891, 35.5621870047]}, "type": "Feature", "properties": {"collection_times": [{"days": "Mon-Fri", "time": "4:00pm"}, {"days": "Sat", "time": "10:15am"}, {"days": "Sun", "time": "Closed"}], "id": "7206700003", "name": "USPS COLLECTION BOX - PO LOBBY", "address": {"city": "HIGDEN", "state": "AR", "street": "7545 EDGEMONT RD", "postcode": "72067"}}},
{"geometry": {"type": "Point", "coordinates": [-92.1987897891, 35.5621870047]}, "type": "Feature", "properties": {"collection_times": [{"days": "Mon-Fri", "time": "4:00pm"}, {"days": "Sat", "time": "10:15am"}, {"days": "Sun", "time": "Closed"}], "id": "7206700004", "name": "USPS COLLECTION BOX - PO LOBBY", "address": {"city": "HIGDEN", "state": "AR", "street": "7545 EDGEMONT RD", "postcode": "72067"}}},
{"geometry": {"type": "Point", "coordinates": [-91.7134463806, 35.1972289244]}, "type": "Feature", "properties": {"collection_times": [{"days": "Mon-Fri", "time": "4:00pm"}, {"days": "Sat", "time": "10:30am"}, {"days": "Sun", "time": "Closed"}], "id": "7206800003", "name": "USPS COLLECTION BOX - BLUE BOX", "address": {"city": "HIGGINSON", "state": "AR", "street": "105 WALKER RD", "postcode": "72068"}}},
{"geometry": {"type": "Point", "coordinates": [-91.7134463806, 35.1972289244]}, "type": "Feature", "properties": {"collection_times": [{"days": "Mon-Fri", "time": "11:45am"}, {"days": "Sat", "time": "10:30am"}, {"days": "Sun", "time": "Closed"}], "id": "7206800004", "name": "USPS COLLECTION BOX - PO LOBBY", "address": {"city": "HIGGINSON", "state": "AR", "street": "105 WALKER RD", "postcode": "72068"}}},
{"geometry": {"type": "Point", "coordinates": [-91.1597380401, 34.6040209705]}, "type": "Feature", "properties": {"collection_times": [{"days": "Mon-Fri", "time": "3:30pm"}, {"days": "Sat", "time": "11:30am"}, {"days": "Sun", "time": "Closed"}], "id": "7206900001", "name": "USPS COLLECTION BOX - PO LOBBY", "address": {"city": "HOLLY GROVE", "state": "AR", "street": "169 E RALPH ABRAMSON ST", "postcode": "72069"}}},
{"geometry": {"type": "Point", "coordinates": [-91.1597380401, 34.6040209705]}, "type": "Feature", "properties": {"collection_times": [{"days": "Mon-Fri", "time": "3:30pm"}, {"days": "Sat", "time": "11:30am"}, {"days": "Sun", "time": "Closed"}], "id": "7206900002", "name": "USPS COLLECTION BOX - BLUE BOX", "address": {"city": "HOLLY GROVE", "state": "AR", "street": "169 E RALPH ABRAMSON ST", "postcode": "72069"}}},
{"geometry": {"type": "Point", "coordinates": [-91.1597380401, 34.6040209705]}, "type": "Feature", "properties": {"collection_times": [{"days": "Mon-Fri", "time": "3:30pm"}, {"days": "Sat", "time": "11:30am"}, {"days": "Sun", "time": "Closed"}], "id": "7206900003", "name": "USPS COLLECTION BOX - PO LOBBY", "address": {"city": "HOLLY GROVE", "state": "AR", "street": "169 E RALPH ABRAMSON ST", "postcode": "72069"}}},
{"geometry": {"type": "Point", "coordinates": [-92.730915332, 35.0286323888]}, "type": "Feature", "properties": {"collection_times": [{"days": "Mon-Fri", "time": "11:30am"}, {"days": "Sat", "time": "10:00am"}, {"days": "Sun", "time": "Closed"}], "id": "7207000002", "name": "USPS COLLECTION BOX - PO LOBBY", "address": {"city": "HOUSTON", "state": "AR", "street": "2087 HIGHWAY 60 E STE A", "postcode": "72070"}}},
{"geometry": {"type": "Point", "coordinates": [-92.730915332, 35.0286323888]}, "type": "Feature", "properties": {"collection_times": [{"days": "Mon-Fri", "time": "3:30pm"}, {"days": "Sat", "time": "10:00am"}, {"days": "Sun", "time": "Closed"}], "id": "7207000003", "name": "USPS COLLECTION BOX - BLUE BOX", "address": {"city": "HOUSTON", "state": "AR", "street": "2087 HIGHWAY 60 E STE A", "postcode": "72070"}}},
{"geometry": {"type": "Point", "coordinates": [-92.730915332, 35.0286323888]}, "type": "Feature", "properties": {"collection_times": [{"days": "Mon-Fri", "time": "11:30am"}, {"days": "Sat", "time": "10:00am"}, {"days": "Sun", "time": "Closed"}], "id": "7207000004", "name": "USPS COLLECTION BOX - PO LOBBY", "address": {"city": "HOUSTON", "state": "AR", "street": "2087 HIGHWAY 60 E STE A", "postcode": "72070"}}},
{"geometry": {"type": "Point", "coordinates": [-91.7542328592, 34.5414251361]}, "type": "Feature", "properties": {"collection_times": [{"days": "Mon-Fri", "time": "3:30pm"}, {"days": "Sat", "time": "10:00am"}, {"days": "Sun", "time": "Closed"}], "id": "7207200001", "name": "USPS COLLECTION BOX - BLUE BOX", "address": {"city": "HUMNOKE", "state": "AR", "street": "12221 US HIGHWAY 165 E", "postcode": "72072"}}},
{"geometry": {"type": "Point", "coordinates": [-91.7542328592, 34.5414251361]}, "type": "Feature", "properties": {"collection_times": [{"days": "Mon-Fri", "time": "11:30am"}, {"days": "Sat", "time": "10:00am"}, {"days": "Sun", "time": "Closed"}], "id": "7207200002", "name": "USPS COLLECTION BOX - PO LOBBY", "address": {"city": "HUMNOKE", "state": "AR", "street": "12221 US HIGHWAY 165 E", "postcode": "72072"}}},
{"geometry": {"type": "Point", "coordinates": [-91.7079391309, 34.4208669271]}, "type": "Feature", "properties": {"collection_times": [{"days": "Mon-Fri", "time": "3:30pm"}, {"days": "Sat", "time": "11:00am"}, {"days": "Sun", "time": "Closed"}], "id": "7207300001", "name": "USPS COLLECTION BOX - BLUE BOX", "address": {"city": "HUMPHREY", "state": "AR", "street": "100 N MULBERRY ST", "postcode": "72073"}}},
{"geometry": {"type": "Point", "coordinates": [-91.7079391309, 34.4208669271]}, "type": "Feature", "properties": {"collection_times": [{"days": "Mon-Fri", "time": "3:30pm"}, {"days": "Sat", "time": "11:00am"}, {"days": "Sun", "time": "Closed"}], "id": "7207300002", "name": "USPS COLLECTION BOX - PO LOBBY", "address": {"city": "HUMPHREY", "state": "AR", "street": "100 N MULBERRY ST", "postcode": "72073"}}},
{"geometry": {"type": "Point", "coordinates": [-91.1259034659, 35.0535914473]}, "type": "Feature", "properties": {"collection_times": [{"days": "Mon-Fri", "time": "4:00pm"}, {"days": "Sat", "time": "11:00am"}, {"days": "Sun", "time": "Closed"}], "id": "7207400001", "name": "USPS COLLECTION BOX - BLUE BOX", "address": {"city": "HUNTER", "state": "AR", "street": "245 SW MAIN ST", "postcode": "72074"}}},
{"geometry": {"type": "Point", "coordinates": [-91.1259034659, 35.0535914473]}, "type": "Feature", "properties": {"collection_times": [{"days": "Mon-Fri", "time": "11:30am"}, {"days": "Sat", "time": "11:00am"}, {"days": "Sun", "time": "Closed"}], "id": "7207400002", "name": "USPS COLLECTION BOX - PO LOBBY", "address": {"city": "HUNTER", "state": "AR", "street": "245 SW MAIN ST", "postcode": "72074"}}},
{"geometry": {"type": "Point", "coordinates": [-91.3098109019, 35.6432367693]}, "type": "Feature", "properties": {"collection_times": [{"days": "Mon-Fri", "time": "1:00pm"}, {"days": "Sat", "time": "10:30am"}, {"days": "Sun", "time": "Closed"}], "id": "7207500001", "name": "USPS COLLECTION BOX - BLUE BOX", "address": {"city": "JACKSONPORT", "state": "AR", "street": "401 REDMAN ST", "postcode": "72075"}}},
{"geometry": {"type": "Point", "coordinates": [-91.3098109019, 35.6432367693]}, "type": "Feature", "properties": {"collection_times": [{"days": "Mon-Fri", "time": "1:00pm"}, {"days": "Sat", "time": "10:30am"}, {"days": "Sun", "time": "Closed"}], "id": "7207500002", "name": "USPS COLLECTION BOX - PO LOBBY", "address": {"city": "JACKSONPORT", "state": "AR", "street": "401 REDMAN ST", "postcode": "72075"}}},
{"geometry": {"type": "Point", "coordinates": [-92.1225811685, 34.8666084445]}, "type": "Feature", "properties": {"collection_times": [{"days": "Mon-Fri", "time": "5:00pm"}, {"days": "Sat", "time": "3:30pm"}, {"days": "Sun", "time": "Closed"}], "id": "7207600001", "name": "USPS COLLECTION BOX - BLUE BOX", "address": {"city": "JACKSONVILLE", "state": "AR", "street": "1205 W MAIN ST", "postcode": "72076"}}},
{"geometry": {"type": "Point", "coordinates": [-92.1257541838, 34.8724540779]}, "type": "Feature", "properties": {"collection_times": [{"days": "Mon-Sat", "time": "11:00am"}, {"days": "Sun", "time": "Closed"}], "id": "7207600003", "name": "USPS COLLECTION BOX - BLUE BOX", "address": {"city": "JACKSONVILLE", "state": "AR", "street": "1400 BRADEN ST", "postcode": "72076"}}},
{"geometry": {"type": "Point", "coordinates": [-92.1094477191, 34.8727593316]}, "type": "Feature", "properties": {"collection_times": [{"days": "Mon-Sat", "time": "3:00pm"}, {"days": "Sun", "time": "Closed"}], "id": "7207600009", "name": "USPS COLLECTION BOX - BLUE BOX", "address": {"city": "JACKSONVILLE", "state": "AR", "street": "601 N 1ST ST", "postcode": "72076"}}},
{"geometry": {"type": "Point", "coordinates": [-92.1070389771, 34.88521834]}, "type": "Feature", "properties": {"collection_times": [{"days": "Mon-Sat", "time": "3:00pm"}, {"days": "Sun", "time": "Closed"}], "id": "7207600013", "name": "USPS COLLECTION BOX - BLUE BOX", "address": {"city": "JACKSONVILLE", "state": "AR", "street": "2126 N 1ST ST", "postcode": "72076"}}},
{"geometry": {"type": "Point", "coordinates": [-92.1157173458, 34.8672179539]}, "type": "Feature", "properties": {"collection_times": [{"days": "Mon-Sat", "time": "1:15pm"}, {"days": "Sun", "time": "Closed"}], "id": "7207600018", "name": "USPS COLLECTION BOX - BLUE BOX", "address": {"city": "JACKSONVILLE", "state": "AR", "street": "600 W MAIN ST", "postcode": "72076"}}},
{"geometry": {"type": "Point", "coordinates": [-92.1231625068, 34.8680691162]}, "type": "Feature", "properties": {"collection_times": [{"days": "Mon-Sat", "time": "11:30am"}, {"days": "Sun", "time": "Closed"}], "id": "7207600019", "name": "USPS COLLECTION BOX - BLUE BOX", "address": {"city": "JACKSONVILLE", "state": "AR", "street": "1300 W MAIN ST", "postcode": "72076"}}},
{"geometry": {"type": "Point", "coordinates": [-92.1225811685, 34.8666084445]}, "type": "Feature", "properties": {"collection_times": [{"days": "Mon-Fri", "time": "5:00pm"}, {"days": "Sat", "time": "3:30pm"}, {"days": "Sun", "time": "Closed"}], "id": "7207600020", "name": "USPS COLLECTION BOX - PO LOBBY", "address": {"city": "JACKSONVILLE", "state": "AR", "street": "1205 W MAIN ST", "postcode": "72076"}}},
{"geometry": {"type": "Point", "coordinates": [-92.122251242, 34.866612727]}, "type": "Feature", "properties": {"collection_times": [{"days": "Mon-Fri", "time": "5:00pm"}, {"days": "Sat", "time": "3:30pm"}, {"days": "Sun", "time": "Closed"}], "id": "7207600033", "name": "USPS COLLECTION BOX - BLUE BOX", "address": {"city": "JACKSONVILLE", "state": "AR", "street": "1205 W MAIN ST", "postcode": "72076"}}},
{"geometry": {"type": "Point", "coordinates": [-92.1225811685, 34.8666084445]}, "type": "Feature", "properties": {"collection_times": [{"days": "Mon-Fri", "time": "5:00pm"}, {"days": "Sat", "time": "3:30pm"}, {"days": "Sun", "time": "Closed"}], "id": "7207600034", "name": "USPS COLLECTION BOX - BLUE BOX", "address": {"city": "JACKSONVILLE", "state": "AR", "street": "1205 W MAIN ST", "postcode": "72076"}}},
{"geometry": {"type": "Point", "coordinates": [-92.1255274505, 34.8833822458]}, "type": "Feature", "properties": {"collection_times": [{"days": "Mon-Sat", "time": "1:05pm"}, {"days": "Sun", "time": "Closed"}], "id": "7207600035", "name": "USPS COLLECTION BOX - BLUE BOX", "address": {"city": "JACKSONVILLE", "state": "AR", "street": "1900 MARSHALL RD", "postcode": "72076"}}},
{"geometry": {"type": "Point", "coordinates": [-92.1249130488, 34.8866688681]}, "type": "Feature", "properties": {"collection_times": [{"days": "Mon-Sat", "time": "1:05pm"}, {"days": "Sun", "time": "Closed"}], "id": "7207600037", "name": "USPS COLLECTION BOX - BLUE BOX", "address": {"city": "JACKSONVILLE", "state": "AR", "street": "2414 MARSHALL RD", "postcode": "72076"}}},
{"geometry": {"type": "Point", "coordinates": [-92.1265240057, 34.8398379951]}, "type": "Feature", "properties": {"collection_times": [{"days": "Mon-Fri", "time": "3:30pm"}, {"days": "Sat", "time": "9:00am"}, {"days": "Sun", "time": "Closed"}], "id": "7207600039", "name": "USPS COLLECTION BOX - PO LOBBY", "address": {"city": "JACKSONVILLE", "state": "AR", "street": "7907 JACKSONVILLE CATO RD", "postcode": "72076"}}},
{"geometry": {"type": "Point", "coordinates": [-92.1225811685, 34.8666084445]}, "type": "Feature", "properties": {"collection_times": [{"days": "Mon-Fri", "time": "5:00pm"}, {"days": "Sat", "time": "3:30pm"}, {"days": "Sun", "time": "Closed"}], "id": "7207600040", "name": "USPS COLLECTION BOX - PO LOBBY", "address": {"city": "JACKSONVILLE", "state": "AR", "street": "1205 W MAIN ST", "postcode": "72076"}}},
{"geometry": {"type": "Point", "coordinates": [-92.1265240057, 34.8398379951]}, "type": "Feature", "properties": {"collection_times": [{"days": "Mon-Fri", "time": "3:30pm"}, {"days": "Sat", "time": "9:00am"}, {"days": "Sun", "time": "Closed"}], "id": "7207600042", "name": "USPS COLLECTION BOX - PO LOBBY", "address": {"city": "JACKSONVILLE", "state": "AR", "street": "7907 JACKSONVILLE CATO RD", "postcode": "72076"}}},
{"geometry": {"type": "Point", "coordinates": [-92.1159461529, 34.8524654584]}, "type": "Feature", "properties": {"collection_times": [{"days": "Mon-Sat", "time": "1:00pm"}, {"days": "Sun", "time": "Closed"}], "id": "7207600045", "name": "USPS COLLECTION BOX - BLUE BOX", "address": {"city": "JACKSONVILLE", "state": "AR", "street": "1700 S HIGHWAY 161", "postcode": "72076"}}},
{"geometry": {"type": "Point", "coordinates": [-92.108913659, 34.8630962424]}, "type": "Feature", "properties": {"collection_times": [{"days": "Mon-Sat", "time": "10:00am"}, {"days": "Sun", "time": "Closed"}], "id": "7207600046", "name": "USPS COLLECTION BOX - BLUE BOX", "address": {"city": "JACKSONVILLE", "state": "AR", "street": "100 VICTORY CIR", "postcode": "72076"}}},
{"geometry": {"type": "Point", "coordinates": [-92.1265240057, 34.8398379951]}, "type": "Feature", "properties": {"collection_times": [{"days": "Mon-Fri", "time": "3:30pm"}, {"days": "Sat", "time": "1:00pm"}, {"days": "Sun", "time": "Closed"}], "id": "7207600047", "name": "USPS COLLECTION BOX - BLUE BOX", "address": {"city": "JACKSONVILLE", "state": "AR", "street": "7907 JACKSONVILLE CATO RD", "postcode": "72076"}}},
{"geometry": {"type": "Point", "coordinates": [-92.1265240057, 34.8398379951]}, "type": "Feature", "properties": {"collection_times": [{"days": "Mon-Fri", "time": "3:30pm"}, {"days": "Sat", "time": "1:00pm"}, {"days": "Sun", "time": "Closed"}], "id": "7207600048", "name": "USPS COLLECTION BOX - BLUE BOX", "address": {"city": "JACKSONVILLE", "state": "AR", "street": "7907 JACKSONVILLE CATO RD", "postcode": "72076"}}},
{"geometry": {"type": "Point", "coordinates": [-92.1152602075, 34.8671484227]}, "type": "Feature", "properties": {"collection_times": [{"days": "Mon-Sat", "time": "1:15pm"}, {"days": "Sun", "time": "Closed"}], "id": "7207600050", "name": "USPS COLLECTION BOX - BLUE BOX", "address": {"city": "JACKSONVILLE", "state": "AR", "street": "600 W MAIN ST", "postcode": "72076"}}},
{"geometry": {"type": "Point", "coordinates": [-92.0905852321, 34.3529711003]}, "type": "Feature", "properties": {"collection_times": [{"days": "Mon-Fri", "time": "4:45pm"}, {"days": "Sat", "time": "11:45am"}, {"days": "Sun", "time": "Closed"}], "id": "7207900001", "name": "USPS COLLECTION BOX - BLUE BOX", "address": {"city": "JEFFERSON", "state": "AR", "street": "4112 S HIGHWAY 365", "postcode": "72079"}}},
{"geometry": {"type": "Point", "coordinates": [-92.0905852321, 34.3529711003]}, "type": "Feature", "properties": {"collection_times": [{"days": "Mon-Fri", "time": "2:30pm"}, {"days": "Sat", "time": "11:45am"}, {"days": "Sun", "time": "Closed"}], "id": "7207900002", "name": "USPS COLLECTION BOX - PO LOBBY", "address": {"city": "JEFFERSON", "state": "AR", "street": "4112 S HIGHWAY 365", "postcode": "72079"}}},
{"geometry": {"type": "Point", "coordinates": [-92.0905852321, 34.3529711003]}, "type": "Feature", "properties": {"collection_times": [{"days": "Mon-Fri", "time": "2:30pm"}, {"days": "Sat", "time": "11:45am"}, {"days": "Sun", "time": "Closed"}], "id": "7207900003", "name": "USPS COLLECTION BOX - PO LOBBY", "address": {"city": "JEFFERSON", "state": "AR", "street": "4112 S HIGHWAY 365", "postcode": "72079"}}},
{"geometry": {"type": "Point", "coordinates": [-92.8225620664, 35.4049739049]}, "type": "Feature", "properties": {"collection_times": [{"days": "Mon-Fri", "time": "12:30pm"}, {"days": "Sat", "time": "12:45pm"}, {"days": "Sun", "time": "Closed"}], "id": "7208000001", "name": "USPS COLLECTION BOX - PO LOBBY", "address": {"city": "JERUSALEM", "state": "AR", "street": "421 HIGHWAY 124", "postcode": "72080"}}},
{"geometry": {"type": "Point", "coordinates": [-92.8225620664, 35.4049739049]}, "type": "Feature", "properties": {"collection_times": [{"days": "Mon-Fri", "time": "3:45pm"}, {"days": "Sat", "time": "12:45pm"}, {"days": "Sun", "time": "Closed"}], "id": "7208000003", "name": "USPS COLLECTION BOX - BLUE BOX", "address": {"city": "JERUSALEM", "state": "AR", "street": "421 HIGHWAY 124", "postcode": "72080"}}},
{"geometry": {"type": "Point", "coordinates": [-92.8225620664, 35.4049739049]}, "type": "Feature", "properties": {"collection_times": [{"days": "Mon-Fri", "time": "12:30pm"}, {"days": "Sat", "time": "12:45pm"}, {"days": "Sun", "time": "Closed"}], "id": "7208000004", "name": "USPS COLLECTION BOX - PO LOBBY", "address": {"city": "JERUSALEM", "state": "AR", "street": "421 HIGHWAY 124", "postcode": "72080"}}},
{"geometry": {"type": "Point", "coordinates": [-91.6397216936, 35.2693392091]}, "type": "Feature", "properties": {"collection_times": [{"days": "Mon-Fri", "time": "4:30pm"}, {"days": "Sat", "time": "3:30pm"}, {"days": "Sun", "time": "Closed"}], "id": "7208100003", "name": "USPS COLLECTION BOX - BLUE BOX", "address": {"city": "JUDSONIA", "state": "AR", "street": "100 W WASHINGTON ST", "postcode": "72081"}}},
{"geometry": {"type": "Point", "coordinates": [-91.6397216936, 35.2693392091]}, "type": "Feature", "properties": {"collection_times": [{"days": "Mon-Fri", "time": "4:30pm"}, {"days": "Sat", "time": "3:30pm"}, {"days": "Sun", "time": "Closed"}], "id": "7208100004", "name": "USPS COLLECTION BOX - PO LOBBY", "address": {"city": "JUDSONIA", "state": "AR", "street": "100 W WASHINGTON ST", "postcode": "72081"}}},
{"geometry": {"type": "Point", "coordinates": [-91.6397216936, 35.2693392091]}, "type": "Feature", "properties": {"collection_times": [{"days": "Mon-Fri", "time": "4:30pm"}, {"days": "Sat", "time": "3:30pm"}, {"days": "Sun", "time": "Closed"}], "id": "7208100005", "name": "USPS COLLECTION BOX - PO LOBBY", "address": {"city": "JUDSONIA", "state": "AR", "street": "100 W WASHINGTON ST", "postcode": "72081"}}},
{"geometry": {"type": "Point", "coordinates": [-91.6397216936, 35.2693392091]}, "type": "Feature", "properties": {"collection_times": [{"days": "Mon-Fri", "time": "4:30pm"}, {"days": "Sat", "time": "3:30pm"}, {"days": "Sun", "time": "Closed"}], "id": "7208100006", "name": "USPS COLLECTION BOX - PO LOBBY", "address": {"city": "JUDSONIA", "state": "AR", "street": "100 W WASHINGTON ST", "postcode": "72081"}}},
{"geometry": {"type": "Point", "coordinates": [-91.6397216936, 35.2693392091]}, "type": "Feature", "properties": {"collection_times": [{"days": "Mon-Fri", "time": "4:30pm"}, {"days": "Sat", "time": "3:30pm"}, {"days": "Sun", "time": "Closed"}], "id": "7208100007", "name": "USPS COLLECTION BOX - PO LOBBY", "address": {"city": "JUDSONIA", "state": "AR", "street": "100 W WASHINGTON ST", "postcode": "72081"}}},
{"geometry": {"type": "Point", "coordinates": [-91.6680501777, 35.2315116259]}, "type": "Feature", "properties": {"collection_times": [{"days": "Mon-Fri", "time": "3:45pm"}, {"days": "Sat", "time": "11:30am"}, {"days": "Sun", "time": "Closed"}], "id": "7208200005", "name": "USPS COLLECTION BOX - BLUE BOX", "address": {"city": "KENSETT", "state": "AR", "street": "112 E SEARCY ST", "postcode": "72082"}}},
{"geometry": {"type": "Point", "coordinates": [-91.6680501777, 35.2315116259]}, "type": "Feature", "properties": {"collection_times": [{"days": "Mon-Fri", "time": "3:45pm"}, {"days": "Sat", "time": "11:30am"}, {"days": "Sun", "time": "Closed"}], "id": "7208200006", "name": "USPS COLLECTION BOX - PO LOBBY", "address": {"city": "KENSETT", "state": "AR", "street": "112 E SEARCY ST", "postcode": "72082"}}},
{"geometry": {"type": "Point", "coordinates": [-92.0106895366, 34.602826688]}, "type": "Feature", "properties": {"collection_times": [{"days": "Mon-Fri", "time": "4:15pm"}, {"days": "Sat", "time": "10:15am"}, {"days": "Sun", "time": "Closed"}], "id": "7208300001", "name": "USPS COLLECTION BOX - BLUE BOX", "address": {"city": "KEO", "state": "AR", "street": "202 MAIN ST", "postcode": "72083"}}},
{"geometry": {"type": "Point", "coordinates": [-92.0106895366, 34.602826688]}, "type": "Feature", "properties": {"collection_times": [{"days": "Mon-Fri", "time": "11:30am"}, {"days": "Sat", "time": "10:15am"}, {"days": "Sun", "time": "Closed"}], "id": "7208300002", "name": "USPS COLLECTION BOX - PO LOBBY", "address": {"city": "KEO", "state": "AR", "street": "202 MAIN ST", "postcode": "72083"}}},
{"geometry": {"type": "Point", "coordinates": [-92.5912506699, 34.1722982944]}, "type": "Feature", "properties": {"collection_times": [{"days": "Mon-Fri", "time": "11:30am"}, {"days": "Sat", "time": "10:00am"}, {"days": "Sun", "time": "Closed"}], "id": "7208400002", "name": "USPS COLLECTION BOX - PO LOBBY", "address": {"city": "LEOLA", "state": "AR", "street": "609 MAIN ST", "postcode": "72084"}}},
{"geometry": {"type": "Point", "coordinates": [-92.5912506699, 34.1722982944]}, "type": "Feature", "properties": {"collection_times": [{"days": "Mon-Fri", "time": "11:30am"}, {"days": "Sat", "time": "10:00am"}, {"days": "Sun", "time": "Closed"}], "id": "7208400003", "name": "USPS COLLECTION BOX - PO LOBBY", "address": {"city": "LEOLA", "state": "AR", "street": "609 MAIN ST", "postcode": "72084"}}},
{"geometry": {"type": "Point", "coordinates": [-91.8267366736, 35.3610293232]}, "type": "Feature", "properties": {"collection_times": [{"days": "Mon-Fri", "time": "4:00pm"}, {"days": "Sat", "time": "9:30am"}, {"days": "Sun", "time": "Closed"}], "id": "7208500001", "name": "USPS COLLECTION BOX - BLUE BOX", "address": {"city": "LETONA", "state": "AR", "street": "206 E MAIN ST", "postcode": "72085"}}},
{"geometry": {"type": "Point", "coordinates": [-91.8267366736, 35.3610293232]}, "type": "Feature", "properties": {"collection_times": [{"days": "Mon-Fri", "time": "11:45am"}, {"days": "Sat", "time": "9:30am"}, {"days": "Sun", "time": "Closed"}], "id": "7208500003", "name": "USPS COLLECTION BOX - PO LOBBY", "address": {"city": "LETONA", "state": "AR", "street": "206 E MAIN ST", "postcode": "72085"}}},
{"geometry": {"type": "Point", "coordinates": [-91.8928307678, 34.7838201199]}, "type": "Feature", "properties": {"collection_times": [{"days": "Mon-Fri", "time": "4:30pm"}, {"days": "Sat", "time": "10:30am"}, {"days": "Sun", "time": "Closed"}], "id": "7208600001", "name": "USPS COLLECTION BOX - PO LOBBY", "address": {"city": "LONOKE", "state": "AR", "street": "705 E FRONT ST", "postcode": "72086"}}},
{"geometry": {"type": "Point", "coordinates": [-91.89645656, 34.7946836654]}, "type": "Feature", "properties": {"collection_times": [{"days": "Mon-Fri", "time": "2:30pm"}, {"days": "Sat-Sun", "time": "Closed"}], "id": "7208600008", "name": "USPS COLLECTION BOX - BLUE BOX", "address": {"city": "LONOKE", "state": "AR", "street": "1300 N CENTER ST", "postcode": "72086"}}},
{"geometry": {"type": "Point", "coordinates": [-91.8928307678, 34.7838201199]}, "type": "Feature", "properties": {"collection_times": [{"days": "Mon-Fri", "time": "4:30pm"}, {"days": "Sat", "time": "10:30am"}, {"days": "Sun", "time": "Closed"}], "id": "7208600009", "name": "USPS COLLECTION BOX - BLUE BOX", "address": {"city": "LONOKE", "state": "AR", "street": "705 E FRONT ST", "postcode": "72086"}}},
{"geometry": {"type": "Point", "coordinates": [-91.8928307678, 34.7838201199]}, "type": "Feature", "properties": {"collection_times": [{"days": "Mon-Fri", "time": "4:30pm"}, {"days": "Sat", "time": "10:30am"}, {"days": "Sun", "time": "Closed"}], "id": "7208600011", "name": "USPS COLLECTION BOX - BLUE BOX", "address": {"city": "LONOKE", "state": "AR", "street": "705 E FRONT ST", "postcode": "72086"}}},
{"geometry": {"type": "Point", "coordinates": [-91.9000007001, 34.7839097966]}, "type": "Feature", "properties": {"collection_times": [{"days": "Mon-Fri", "time": "2:00pm"}, {"days": "Sat-Sun", "time": "Closed"}], "id": "7208600014", "name": "USPS COLLECTION BOX - BLUE BOX", "address": {"city": "LONOKE", "state": "AR", "street": "101 S CENTER ST", "postcode": "72086"}}},
{"geometry": {"type": "Point", "coordinates": [-91.8991296623, 34.7852987033]}, "type": "Feature", "properties": {"collection_times": [{"days": "Mon-Fri", "time": "2:30pm"}, {"days": "Sat-Sun", "time": "Closed"}], "id": "7208600015", "name": "USPS COLLECTION BOX - BLUE BOX", "address": {"city": "LONOKE", "state": "AR", "street": "202 COURT ST", "postcode": "72086"}}},
{"geometry": {"type": "Point", "coordinates": [-91.8928307678, 34.7838201199]}, "type": "Feature", "properties": {"collection_times": [{"days": "Mon-Fri", "time": "4:30pm"}, {"days": "Sat", "time": "10:30am"}, {"days": "Sun", "time": "Closed"}], "id": "7208600016", "name": "USPS COLLECTION BOX - PO LOBBY", "address": {"city": "LONOKE", "state": "AR", "street": "705 E FRONT ST", "postcode": "72086"}}},
{"geometry": {"type": "Point", "coordinates": [-92.8081025164, 34.5431700462]}, "type": "Feature", "properties": {"collection_times": [{"days": "Mon-Fri", "time": "3:00pm"}, {"days": "Sat", "time": "11:00am"}, {"days": "Sun", "time": "Closed"}], "id": "7208700001", "name": "USPS COLLECTION BOX - BLUE BOX", "address": {"city": "LONSDALE", "state": "AR", "street": "205 PLEASANT RUN RD", "postcode": "72087"}}},
{"geometry": {"type": "Point", "coordinates": [-92.8081025164, 34.5431700462]}, "type": "Feature", "properties": {"collection_times": [{"days": "Mon-Fri", "time": "11:30am"}, {"days": "Sat", "time": "11:00am"}, {"days": "Sun", "time": "Closed"}], "id": "7208700002", "name": "USPS COLLECTION BOX - PO LOBBY", "address": {"city": "LONSDALE", "state": "AR", "street": "205 PLEASANT RUN RD", "postcode": "72087"}}},
{"geometry": {"type": "Point", "coordinates": [-92.4977408506, 34.6132349142]}, "type": "Feature", "properties": {"collection_times": [{"days": "Mon-Fri", "time": "4:30pm"}, {"days": "Sat", "time": "12:00pm"}, {"days": "Sun", "time": "Closed"}], "id": "7208900001", "name": "USPS COLLECTION BOX - BLUE BOX", "address": {"city": "BRYANT", "state": "AR", "street": "2103 N REYNOLDS RD", "postcode": "72089"}}},
{"geometry": {"type": "Point", "coordinates": [-92.4977408506, 34.6132349142]}, "type": "Feature", "properties": {"collection_times": [{"days": "Mon-Fri", "time": "4:30pm"}, {"days": "Sat", "time": "12:00pm"}, {"days": "Sun", "time": "Closed"}], "id": "7208900002", "name": "USPS COLLECTION BOX - PO LOBBY", "address": {"city": "BRYANT", "state": "AR", "street": "2103 N REYNOLDS RD", "postcode": "72089"}}},
{"geometry": {"type": "Point", "coordinates": [-92.4977408506, 34.6132349142]}, "type": "Feature", "properties": {"collection_times": [{"days": "Mon-Fri", "time": "4:30pm"}, {"days": "Sat", "time": "12:00pm"}, {"days": "Sun", "time": "Closed"}], "id": "7208900003", "name": "USPS COLLECTION BOX - PO LOBBY", "address": {"city": "BRYANT", "state": "AR", "street": "2103 N REYNOLDS RD", "postcode": "72089"}}},
{"geometry": {"type": "Point", "coordinates": [-92.1379286303, 34.9100154386]}, "type": "Feature", "properties": {"collection_times": [{"days": "Mon-Sat", "time": "2:00pm"}, {"days": "Sun", "time": "Closed"}], "id": "7209900007", "name": "USPS COLLECTION BOX - BLUE BOX", "address": {"city": "LRAFB", "state": "AR", "street": "834 6TH ST", "postcode": "72099"}}},
{"geometry": {"type": "Point", "coordinates": [-92.1443083222, 34.8954559312]}, "type": "Feature", "properties": {"collection_times": [{"days": "Mon-Sat", "time": "2:00pm"}, {"days": "Sun", "time": "Closed"}], "id": "7209900009", "name": "USPS COLLECTION BOX - BLUE BOX", "address": {"city": "LRAFB", "state": "AR", "street": "988 CANNON DR", "postcode": "72099"}}},
{"geometry": {"type": "Point", "coordinates": [-92.1443083222, 34.8954559312]}, "type": "Feature", "properties": {"collection_times": [{"days": "Mon-Fri", "time": "2:00pm"}, {"days": "Sat-Sun", "time": "Closed"}], "id": "7209900011", "name": "USPS COLLECTION BOX - PO LOBBY", "address": {"city": "LRAFB", "state": "AR", "street": "988 CANNON DR", "postcode": "72099"}}}
]}
