{"type": "FeatureCollection", "features": [
{"geometry": {"type": "Point", "coordinates": [-91.1998323878, 35.2574825747]}, "type": "Feature", "properties": {"collection_times": [{"days": "Mon-Fri", "time": "4:30pm"}, {"days": "Sat", "time": "12:30pm"}, {"days": "Sun", "time": "Closed"}], "id": "7210100001", "name": "USPS COLLECTION BOX - BLUE BOX", "address": {"city": "MCCRORY", "state": "AR", "street": "203 N EDMONDS AVE", "postcode": "72101"}}},
{"geometry": {"type": "Point", "coordinates": [-91.1998323878, 35.2574825747]}, "type": "Feature", "properties": {"collection_times": [{"days": "Mon-Fri", "time": "4:30pm"}, {"days": "Sat", "time": "12:30pm"}, {"days": "Sun", "time": "Closed"}], "id": "7210100002", "name": "USPS COLLECTION BOX - PO LOBBY", "address": {"city": "MCCRORY", "state": "AR", "street": "203 N EDMONDS AVE", "postcode": "72101"}}},
{"geometry": {"type": "Point", "coordinates": [-91.1998323878, 35.2574825747]}, "type": "Feature", "properties": {"collection_times": [{"days": "Mon-Fri", "time": "4:30pm"}, {"days": "Sat", "time": "12:30pm"}, {"days": "Sun", "time": "Closed"}], "id": "7210100003", "name": "USPS COLLECTION BOX - PO LOBBY", "address": {"city": "MCCRORY", "state": "AR", "street": "203 N EDMONDS AVE", "postcode": "72101"}}},
{"geometry": {"type": "Point", "coordinates": [-91.1998323878, 35.2574825747]}, "type": "Feature", "properties": {"collection_times": [{"days": "Mon-Fri", "time": "4:30pm"}, {"days": "Sat", "time": "12:30pm"}, {"days": "Sun", "time": "Closed"}], "id": "7210100004", "name": "USPS COLLECTION BOX - PO LOBBY", "address": {"city": "MCCRORY", "state": "AR", "street": "203 N EDMONDS AVE", "postcode": "72101"}}},
{"geometry": {"type": "Point", "coordinates": [-91.1998323878, 35.2574825747]}, "type": "Feature", "properties": {"collection_times": [{"days": "Mon-Fri", "time": "4:30pm"}, {"days": "Sat", "time": "12:30pm"}, {"days": "Sun", "time": "Closed"}], "id": "7210100005", "name": "USPS COLLECTION BOX - PO LOBBY", "address": {"city": "MCCRORY", "state": "AR", "street": "203 N EDMONDS AVE", "postcode": "72101"}}},
{"geometry": {"type": "Point", "coordinates": [-91.8223620541, 35.1135372601]}, "type": "Feature", "properties": {"collection_times": [{"days": "Mon-Fri", "time": "3:30pm"}, {"days": "Sat", "time": "9:00am"}, {"days": "Sun", "time": "Closed"}], "id": "7210200002", "name": "USPS COLLECTION BOX - BLUE BOX", "address": {"city": "MCRAE", "state": "AR", "street": "105 1ST ST", "postcode": "72102"}}},
{"geometry": {"type": "Point", "coordinates": [-91.8303897688, 35.1435697621]}, "type": "Feature", "properties": {"collection_times": [{"days": "Mon-Fri", "time": "3:30pm"}, {"days": "Sat", "time": "9:00am"}, {"days": "Sun", "time": "Closed"}], "id": "7210200003", "name": "USPS COLLECTION BOX - PO LOBBY", "address": {"city": "MCRAE", "state": "AR", "street": "105 1ST ST", "postcode": "72102"}}},
{"geometry": {"type": "Point", "coordinates": [-91.8303897688, 35.1435697621]}, "type": "Feature", "properties": {"collection_times": [{"days": "Mon-Fri", "time": "3:30pm"}, {"days": "Sat", "time": "9:00am"}, {"days": "Sun", "time": "Closed"}], "id": "7210200004", "name": "USPS COLLECTION BOX - PO LOBBY", "address": {"city": "MCRAE", "state": "AR", "street": "105 1ST ST", "postcode": "72102"}}},
{"geometry": {"type": "Point", "coordinates": [-92.3964904768, 34.6555288875]}, "type": "Feature", "properties": {"collection_times": [{"days": "Mon-Fri", "time": "4:30pm"}, {"days": "Sat", "time": "2:00pm"}, {"days": "Sun", "time": "Closed"}], "id": "7210300001", "name": "USPS COLLECTION BOX - PO LOBBY", "address": {"city": "MABELVALE", "state": "AR", "street": "10715 MABELVALE WEST RD", "postcode": "72103"}}},
{"geometry": {"type": "Point", "coordinates": [-92.3964904768, 34.6555288875]}, "type": "Feature", "properties": {"collection_times": [{"days": "Mon-Fri", "time": "4:30pm"}, {"days": "Sat", "time": "2:00pm"}, {"days": "Sun", "time": "Closed"}], "id": "7210300005", "name": "USPS COLLECTION BOX - PO LOBBY", "address": {"city": "MABELVALE", "state": "AR", "street": "10715 MABELVALE WEST RD", "postcode": "72103"}}},
{"geometry": {"type": "Point", "coordinates": [-92.3818396661, 34.5986611389]}, "type": "Feature", "properties": {"collection_times": [{"days": "Mon-Fri", "time": "4:30pm"}, {"days": "Sat", "time": "2:00pm"}, {"days": "Sun", "time": "Closed"}], "id": "7210300006", "name": "USPS COLLECTION BOX - BLUE BOX", "address": {"city": "MABELVALE", "state": "AR", "street": "10715 MABELVALE WEST RD", "postcode": "72103"}}},
{"geometry": {"type": "Point", "coordinates": [-92.8141817849, 34.3624669684]}, "type": "Feature", "properties": {"collection_times": [{"days": "Mon-Sat", "time": "11:00am"}, {"days": "Sun", "time": "Closed"}], "id": "7210400004", "name": "USPS COLLECTION BOX - BLUE BOX", "address": {"city": "MALVERN", "state": "AR", "street": "213 W 3RD ST", "postcode": "72104"}}},
{"geometry": {"type": "Point", "coordinates": [-92.7857926204, 34.3595590296]}, "type": "Feature", "properties": {"collection_times": [{"days": "Mon-Sat", "time": "11:30am"}, {"days": "Sun", "time": "Closed"}], "id": "7210400005", "name": "USPS COLLECTION BOX - BLUE BOX", "address": {"city": "MALVERN", "state": "AR", "street": "1001 SCHNEIDER DR", "postcode": "72104"}}},
{"geometry": {"type": "Point", "coordinates": [-92.8121777009, 34.3725731228]}, "type": "Feature", "properties": {"collection_times": [{"days": "Mon-Sat", "time": "4:45pm"}, {"days": "Sun", "time": "Closed"}], "id": "7210400023", "name": "USPS COLLECTION BOX - PO LOBBY", "address": {"city": "MALVERN", "state": "AR", "street": "715 MARTIN LUTHER KING BLVD", "postcode": "72104"}}},
{"geometry": {"type": "Point", "coordinates": [-92.8121777009, 34.3725731228]}, "type": "Feature", "properties": {"collection_times": [{"days": "Mon-Sat", "time": "4:45pm"}, {"days": "Sun", "time": "Closed"}], "id": "7210400024", "name": "USPS COLLECTION BOX - BLUE BOX", "address": {"city": "MALVERN", "state": "AR", "street": "715 MARTIN LUTHER KING BLVD", "postcode": "72104"}}},
{"geometry": {"type": "Point", "coordinates": [-92.8121777009, 34.3725731228]}, "type": "Feature", "properties": {"collection_times": [{"days": "Mon-Sat", "time": "4:45pm"}, {"days": "Sun", "time": "Closed"}], "id": "7210400027", "name": "USPS COLLECTION BOX - PO LOBBY", "address": {"city": "MALVERN", "state": "AR", "street": "715 MARTIN LUTHER KING BLVD", "postcode": "72104"}}},
{"geometry": {"type": "Point", "coordinates": [-92.8121777009, 34.3725731228]}, "type": "Feature", "properties": {"collection_times": [{"days": "Mon-Sat", "time": "4:45pm"}, {"days": "Sun", "time": "Closed"}], "id": "7210400028", "name": "USPS COLLECTION BOX - PO LOBBY", "address": {"city": "MALVERN", "state": "AR", "street": "715 MARTIN LUTHER KING BLVD", "postcode": "72104"}}},
{"geometry": {"type": "Point", "coordinates": [-92.8121777009, 34.3725731228]}, "type": "Feature", "properties": {"collection_times": [{"days": "Mon-Sat", "time": "4:45pm"}, {"days": "Sun", "time": "Closed"}], "id": "7210400030", "name": "USPS COLLECTION BOX - BLUE BOX", "address": {"city": "MALVERN", "state": "AR", "street": "715 MARTIN LUTHER KING BLVD", "postcode": "72104"}}},
{"geometry": {"type": "Point", "coordinates": [-92.4245754265, 34.9603132395]}, "type": "Feature", "properties": {"collection_times": [{"days": "Mon-Fri", "time": "4:00pm"}, {"days": "Sat", "time": "11:00am"}, {"days": "Sun", "time": "Closed"}], "id": "7210600001", "name": "USPS COLLECTION BOX - BLUE BOX", "address": {"city": "MAYFLOWER", "state": "AR", "street": "8 ASHMORE DR", "postcode": "72106"}}},
{"geometry": {"type": "Point", "coordinates": [-92.4245754265, 34.9603132395]}, "type": "Feature", "properties": {"collection_times": [{"days": "Mon-Fri", "time": "4:00pm"}, {"days": "Sat", "time": "11:00am"}, {"days": "Sun", "time": "Closed"}], "id": "7210600005", "name": "USPS COLLECTION BOX - PO LOBBY", "address": {"city": "MAYFLOWER", "state": "AR", "street": "8 ASHMORE DR", "postcode": "72106"}}},
{"geometry": {"type": "Point", "coordinates": [-92.4245754265, 34.9603132395]}, "type": "Feature", "properties": {"collection_times": [{"days": "Mon-Fri", "time": "4:00pm"}, {"days": "Sat", "time": "11:00am"}, {"days": "Sun", "time": "Closed"}], "id": "7210600006", "name": "USPS COLLECTION BOX - PO LOBBY", "address": {"city": "MAYFLOWER", "state": "AR", "street": "8 ASHMORE DR", "postcode": "72106"}}},
{"geometry": {"type": "Point", "coordinates": [-92.5456257312, 35.1446722913]}, "type": "Feature", "properties": {"collection_times": [{"days": "Mon-Fri", "time": "4:30pm"}, {"days": "Sat", "time": "10:00am"}, {"days": "Sun", "time": "Closed"}], "id": "7210700001", "name": "USPS COLLECTION BOX - BLUE BOX", "address": {"city": "MENIFEE", "state": "AR", "street": "3919 HIGHWAY 64", "postcode": "72107"}}},
{"geometry": {"type": "Point", "coordinates": [-92.5456257312, 35.1446722913]}, "type": "Feature", "properties": {"collection_times": [{"days": "Mon-Fri", "time": "4:30pm"}, {"days": "Sat", "time": "10:00am"}, {"days": "Sun", "time": "Closed"}], "id": "7210700002", "name": "USPS COLLECTION BOX - PO LOBBY", "address": {"city": "MENIFEE", "state": "AR", "street": "3919 HIGHWAY 64", "postcode": "72107"}}},
{"geometry": {"type": "Point", "coordinates": [-92.5456257312, 35.1446722913]}, "type": "Feature", "properties": {"collection_times": [{"days": "Mon-Fri", "time": "4:30pm"}, {"days": "Sat", "time": "10:00am"}, {"days": "Sun", "time": "Closed"}], "id": "7210700003", "name": "USPS COLLECTION BOX - PO LOBBY", "address": {"city": "MENIFEE", "state": "AR", "street": "3919 HIGHWAY 64", "postcode": "72107"}}},
{"geometry": {"type": "Point", "coordinates": [-91.1043993591, 34.7347032612]}, "type": "Feature", "properties": {"collection_times": [{"days": "Mon-Sat", "time": "11:00am"}, {"days": "Sun", "time": "Closed"}], "id": "7210800004", "name": "USPS COLLECTION BOX - PO LOBBY", "address": {"city": "MONROE", "state": "AR", "street": "18439 HIGHWAY 39 S", "postcode": "72108"}}},
{"geometry": {"type": "Point", "coordinates": [-92.7439025206, 35.1525756826]}, "type": "Feature", "properties": {"collection_times": [{"days": "Mon-Sat", "time": "2:45pm"}, {"days": "Sun", "time": "Closed"}], "id": "7211000003", "name": "USPS COLLECTION BOX - BLUE BOX", "address": {"city": "MORRILTON", "state": "AR", "street": "117 S MOOSE ST", "postcode": "72110"}}},
{"geometry": {"type": "Point", "coordinates": [-92.7253235165, 35.1660243119]}, "type": "Feature", "properties": {"collection_times": [{"days": "Mon-Sat", "time": "11:30am"}, {"days": "Sun", "time": "Closed"}], "id": "7211000026", "name": "USPS COLLECTION BOX - BLUE BOX", "address": {"city": "MORRILTON", "state": "AR", "street": "1621 E HARDING ST", "postcode": "72110"}}},
{"geometry": {"type": "Point", "coordinates": [-92.7429400905, 35.1566236234]}, "type": "Feature", "properties": {"collection_times": [{"days": "Mon-Fri", "time": "5:00pm"}, {"days": "Sat", "time": "3:00pm"}, {"days": "Sun", "time": "Closed"}], "id": "7211000027", "name": "USPS COLLECTION BOX - PO LOBBY", "address": {"city": "MORRILTON", "state": "AR", "street": "500 N MOOSE ST", "postcode": "72110"}}},
{"geometry": {"type": "Point", "coordinates": [-92.7429400905, 35.1566236234]}, "type": "Feature", "properties": {"collection_times": [{"days": "Mon-Fri", "time": "5:00pm"}, {"days": "Sat", "time": "3:00pm"}, {"days": "Sun", "time": "Closed"}], "id": "7211000028", "name": "USPS COLLECTION BOX - PO LOBBY", "address": {"city": "MORRILTON", "state": "AR", "street": "500 N MOOSE ST", "postcode": "72110"}}},
{"geometry": {"type": "Point", "coordinates": [-92.7429400905, 35.1566236234]}, "type": "Feature", "properties": {"collection_times": [{"days": "Mon-Fri", "time": "5:00pm"}, {"days": "Sat", "time": "3:00pm"}, {"days": "Sun", "time": "Closed"}], "id": "7211000030", "name": "USPS COLLECTION BOX - BLUE BOX", "address": {"city": "MORRILTON", "state": "AR", "street": "500 N MOOSE ST", "postcode": "72110"}}},
{"geometry": {"type": "Point", "coordinates": [-92.7429400905, 35.1566236234]}, "type": "Feature", "properties": {"collection_times": [{"days": "Mon-Fri", "time": "5:00pm"}, {"days": "Sat", "time": "3:00pm"}, {"days": "Sun", "time": "Closed"}], "id": "7211000032", "name": "USPS COLLECTION BOX - BLUE BOX", "address": {"city": "MORRILTON", "state": "AR", "street": "500 N MOOSE ST", "postcode": "72110"}}},
{"geometry": {"type": "Point", "coordinates": [-92.1319746294, 35.21867138]}, "type": "Feature", "properties": {"collection_times": [{"days": "Mon-Fri", "time": "3:45pm"}, {"days": "Sat", "time": "9:45am"}, {"days": "Sun", "time": "Closed"}], "id": "7211100001", "name": "USPS COLLECTION BOX - BLUE BOX", "address": {"city": "MOUNT VERNON", "state": "AR", "street": "1375 HIGHWAY 36", "postcode": "72111"}}},
{"geometry": {"type": "Point", "coordinates": [-92.1319746294, 35.21867138]}, "type": "Feature", "properties": {"collection_times": [{"days": "Mon-Fri", "time": "11:30am"}, {"days": "Sat", "time": "9:45am"}, {"days": "Sun", "time": "Closed"}], "id": "7211100002", "name": "USPS COLLECTION BOX - PO LOBBY", "address": {"city": "MOUNT VERNON", "state": "AR", "street": "1375 HIGHWAY 36", "postcode": "72111"}}},
{"geometry": {"type": "Point", "coordinates": [-91.2558378235, 35.6055327571]}, "type": "Feature", "properties": {"collection_times": [{"days": "Mon-Sat", "time": "12:00pm"}, {"days": "Sun", "time": "Closed"}], "id": "7211200003", "name": "USPS COLLECTION BOX - BLUE BOX", "address": {"city": "NEWPORT", "state": "AR", "street": "2101 MALCOLM AVE", "postcode": "72112"}}},
{"geometry": {"type": "Point", "coordinates": [-91.2518451759, 35.6072162983]}, "type": "Feature", "properties": {"collection_times": [{"days": "Mon-Sat", "time": "12:00pm"}, {"days": "Sun", "time": "Closed"}], "id": "7211200004", "name": "USPS COLLECTION BOX - BLUE BOX", "address": {"city": "NEWPORT", "state": "AR", "street": "2525 MALCOLM AVE", "postcode": "72112"}}},
{"geometry": {"type": "Point", "coordinates": [-91.2813250131, 35.6073310901]}, "type": "Feature", "properties": {"collection_times": [{"days": "Mon-Fri", "time": "5:00pm"}, {"days": "Sat", "time": "3:15pm"}, {"days": "Sun", "time": "Closed"}], "id": "7211200005", "name": "USPS COLLECTION BOX - BLUE BOX", "address": {"city": "NEWPORT", "state": "AR", "street": "110 LAUREL ST", "postcode": "72112"}}},
{"geometry": {"type": "Point", "coordinates": [-91.2836714429, 35.604837561]}, "type": "Feature", "properties": {"collection_times": [{"days": "Mon-Sat", "time": "12:00pm"}, {"days": "Sun", "time": "Closed"}], "id": "7211200006", "name": "USPS COLLECTION BOX - BLUE BOX", "address": {"city": "NEWPORT", "state": "AR", "street": "200 MAIN ST", "postcode": "72112"}}},
{"geometry": {"type": "Point", "coordinates": [-91.2651231828, 35.6080397624]}, "type": "Feature", "properties": {"collection_times": [{"days": "Mon-Sat", "time": "12:00pm"}, {"days": "Sun", "time": "Closed"}], "id": "7211200010", "name": "USPS COLLECTION BOX - BLUE BOX", "address": {"city": "NEWPORT", "state": "AR", "street": "1300 MCLAIN ST", "postcode": "72112"}}},
{"geometry": {"type": "Point", "coordinates": [-91.2813250131, 35.6073310901]}, "type": "Feature", "properties": {"collection_times": [{"days": "Mon-Fri", "time": "5:00pm"}, {"days": "Sat", "time": "3:15pm"}, {"days": "Sun", "time": "Closed"}], "id": "7211200016", "name": "USPS COLLECTION BOX - BLUE BOX", "address": {"city": "NEWPORT", "state": "AR", "street": "110 LAUREL ST", "postcode": "72112"}}},
{"geometry": {"type": "Point", "coordinates": [-91.2813250131, 35.6073310901]}, "type": "Feature", "properties": {"collection_times": [{"days": "Mon-Fri", "time": "5:00pm"}, {"days": "Sat", "time": "3:15pm"}, {"days": "Sun", "time": "Closed"}], "id": "7211200018", "name": "USPS COLLECTION BOX - PO LOBBY", "address": {"city": "NEWPORT", "state": "AR", "street": "110 LAUREL ST", "postcode": "72112"}}},
{"geometry": {"type": "Point", "coordinates": [-91.2813250131, 35.6073310901]}, "type": "Feature", "properties": {"collection_times": [{"days": "Mon-Fri", "time": "5:00pm"}, {"days": "Sat", "time": "3:15pm"}, {"days": "Sun", "time": "Closed"}], "id": "7211200024", "name": "USPS COLLECTION BOX - PO LOBBY", "address": {"city": "NEWPORT", "state": "AR", "street": "110 LAUREL ST", "postcode": "72112"}}},
{"geometry": {"type": "Point", "coordinates": [-92.4047899488, 34.850655508]}, "type": "Feature", "properties": {"collection_times": [{"days": "Mon-Sat", "time": "12:00pm"}, {"days": "Sun", "time": "Closed"}], "id": "7211300000", "name": "USPS COLLECTION BOX - BLUE BOX", "address": {"city": "N LITTLE ROCK", "state": "AR", "street": "101 COMMONS DR", "postcode": "72113"}}},
{"geometry": {"type": "Point", "coordinates": [-92.3972441309, 34.8574807748]}, "type": "Feature", "properties": {"collection_times": [{"days": "Mon-Fri", "time": "5:00pm"}, {"days": "Sat", "time": "1:30pm"}, {"days": "Sun", "time": "Closed"}], "id": "7211300004", "name": "USPS COLLECTION BOX - PO LOBBY", "address": {"city": "N LITTLE ROCK", "state": "AR", "street": "501 COMMERCE DR", "postcode": "72113"}}},
{"geometry": {"type": "Point", "coordinates": [-92.4056870536, 34.8628208519]}, "type": "Feature", "properties": {"collection_times": [{"days": "Mon-Sat", "time": "12:00pm"}, {"days": "Sun", "time": "Closed"}], "id": "7211300005", "name": "USPS COLLECTION BOX - BLUE BOX", "address": {"city": "N LITTLE ROCK", "state": "AR", "street": "550 EDGEWOOD DR", "postcode": "72113"}}},
{"geometry": {"type": "Point", "coordinates": [-92.3819002661, 34.8844090931]}, "type": "Feature", "properties": {"collection_times": [{"days": "Mon-Sat", "time": "10:30am"}, {"days": "Sun", "time": "Closed"}], "id": "7211300007", "name": "USPS COLLECTION BOX - BLUE BOX", "address": {"city": "N LITTLE ROCK", "state": "AR", "street": "20515 HIGHWAY 365 N", "postcode": "72113"}}},
{"geometry": {"type": "Point", "coordinates": [-92.4059162348, 34.8642538705]}, "type": "Feature", "properties": {"collection_times": [{"days": "Mon-Sat", "time": "12:00pm"}, {"days": "Sun", "time": "Closed"}], "id": "7211300008", "name": "USPS COLLECTION BOX - BLUE BOX", "address": {"city": "N LITTLE ROCK", "state": "AR", "street": "760 EDGEWOOD DR", "postcode": "72113"}}},
{"geometry": {"type": "Point", "coordinates": [-92.4388840948, 34.8999269099]}, "type": "Feature", "properties": {"collection_times": [{"days": "Mon-Sat", "time": "12:00pm"}, {"days": "Sun", "time": "Closed"}], "id": "7211300009", "name": "USPS COLLECTION BOX - BLUE BOX", "address": {"city": "N LITTLE ROCK", "state": "AR", "street": "8801 MAUMELLE BLVD", "postcode": "72113"}}},
{"geometry": {"type": "Point", "coordinates": [-92.3972441309, 34.8574807748]}, "type": "Feature", "properties": {"collection_times": [{"days": "Mon-Fri", "time": "5:00pm"}, {"days": "Sat", "time": "1:30pm"}, {"days": "Sun", "time": "Closed"}], "id": "7211300010", "name": "USPS COLLECTION BOX - PO LOBBY", "address": {"city": "N LITTLE ROCK", "state": "AR", "street": "501 COMMERCE DR", "postcode": "72113"}}},
{"geometry": {"type": "Point", "coordinates": [-92.3972441309, 34.8574807748]}, "type": "Feature", "properties": {"collection_times": [{"days": "Mon-Fri", "time": "5:00pm"}, {"days": "Sat", "time": "1:30pm"}, {"days": "Sun", "time": "Closed"}], "id": "7211300011", "name": "USPS COLLECTION BOX - BLUE BOX", "address": {"city": "N LITTLE ROCK", "state": "AR", "street": "501 COMMERCE DR", "postcode": "72113"}}},
{"geometry": {"type": "Point", "coordinates": [-92.2694665518, 34.7791471119]}, "type": "Feature", "properties": {"collection_times": [{"days": "Mon-Fri", "time": "5:00pm"}, {"days": "Sat", "time": "3:30pm"}, {"days": "Sun", "time": "Closed"}], "id": "7211400000", "name": "USPS COLLECTION BOX - BLUE BOX", "address": {"city": "LITTLE ROCK", "state": "AR", "street": "300 W PERSHING BLVD", "postcode": "72114"}}},
{"geometry": {"type": "Point", "coordinates": [-92.2694665518, 34.7791471119]}, "type": "Feature", "properties": {"collection_times": [{"days": "Mon-Fri", "time": "5:15pm"}, {"days": "Sat", "time": "3:30pm"}, {"days": "Sun", "time": "Closed"}], "id": "7211400004", "name": "USPS COLLECTION BOX - PO LOBBY", "address": {"city": "LITTLE ROCK", "state": "AR", "street": "300 W PERSHING BLVD", "postcode": "72114"}}},
{"geometry": {"type": "Point", "coordinates": [-92.268218313, 34.7713596944]}, "type": "Feature", "properties": {"collection_times": [{"days": "Mon-Sat", "time": "1:00pm"}, {"days": "Sun", "time": "Closed"}], "id": "7211400021", "name": "USPS COLLECTION BOX - BLUE BOX", "address": {"city": "LITTLE ROCK", "state": "AR", "street": "1800 S MAPLE ST", "postcode": "72114"}}},
{"geometry": {"type": "Point", "coordinates": [-92.268957732, 34.755077938]}, "type": "Feature", "properties": {"collection_times": [{"days": "Mon-Fri", "time": "3:00pm"}, {"days": "Sat", "time": "1:00pm"}, {"days": "Sun", "time": "Closed"}], "id": "7211400028", "name": "USPS COLLECTION BOX - BLUE BOX", "address": {"city": "LITTLE ROCK", "state": "AR", "street": "1 RIVERFRONT PL", "postcode": "72114"}}},
{"geometry": {"type": "Point", "coordinates": [-92.2694665518, 34.7791471119]}, "type": "Feature", "properties": {"collection_times": [{"days": "Mon-Fri", "time": "5:15pm"}, {"days": "Sat", "time": "3:30pm"}, {"days": "Sun", "time": "Closed"}], "id": "7211400033", "name": "USPS COLLECTION BOX - PO LOBBY", "address": {"city": "LITTLE ROCK", "state": "AR", "street": "300 W PERSHING BLVD", "postcode": "72114"}}},
{"geometry": {"type": "Point", "coordinates": [-92.2700312437, 34.7791636406]}, "type": "Feature", "properties": {"collection_times": [{"days": "Mon-Fri", "time": "5:00pm"}, {"days": "Sat", "time": "3:30pm"}, {"days": "Sun", "time": "Closed"}], "id": "7211400035", "name": "USPS COLLECTION BOX - BLUE BOX", "address": {"city": "LITTLE ROCK", "state": "AR", "street": "300 W PERSHING BLVD", "postcode": "72114"}}},
{"geometry": {"type": "Point", "coordinates": [-92.2694665518, 34.7791471119]}, "type": "Feature", "properties": {"collection_times": [{"days": "Mon-Fri", "time": "5:00pm"}, {"days": "Sat", "time": "3:30pm"}, {"days": "Sun", "time": "Closed"}], "id": "7211400044", "name": "USPS COLLECTION BOX - BLUE BOX", "address": {"city": "LITTLE ROCK", "state": "AR", "street": "300 W PERSHING BLVD", "postcode": "72114"}}},
{"geometry": {"type": "Point", "coordinates": [-92.2677725367, 34.7547523819]}, "type": "Feature", "properties": {"collection_times": [{"days": "Mon-Fri", "time": "3:00pm"}, {"days": "Sat", "time": "1:00pm"}, {"days": "Sun", "time": "Closed"}], "id": "7211400050", "name": "USPS COLLECTION BOX - BLUE BOX", "address": {"city": "LITTLE ROCK", "state": "AR", "street": "120 MAIN ST", "postcode": "72114"}}},
{"geometry": {"type": "Point", "coordinates": [-92.2556829635, 34.7982293797]}, "type": "Feature", "properties": {"collection_times": [{"days": "Mon-Fri", "time": "5:00pm"}, {"days": "Sat", "time": "4:00pm"}, {"days": "Sun", "time": "Closed"}], "id": "7211600001", "name": "USPS COLLECTION BOX - BLUE BOX", "address": {"city": "N LITTLE ROCK", "state": "AR", "street": "4601 JOHN F KENNEDY BLVD", "postcode": "72116"}}},
{"geometry": {"type": "Point", "coordinates": [-92.2556829635, 34.7982293797]}, "type": "Feature", "properties": {"collection_times": [{"days": "Mon-Fri", "time": "5:00pm"}, {"days": "Sat", "time": "4:00pm"}, {"days": "Sun", "time": "Closed"}], "id": "7211600002", "name": "USPS COLLECTION BOX - PO LOBBY", "address": {"city": "N LITTLE ROCK", "state": "AR", "street": "4601 JOHN F KENNEDY BLVD", "postcode": "72116"}}},
{"geometry": {"type": "Point", "coordinates": [-92.2584321875, 34.7926968653]}, "type": "Feature", "properties": {"collection_times": [{"days": "Mon-Sat", "time": "1:00pm"}, {"days": "Sun", "time": "Closed"}], "id": "7211600004", "name": "USPS COLLECTION BOX - BLUE BOX", "address": {"city": "N LITTLE ROCK", "state": "AR", "street": "4140 JOHN F KENNEDY BLVD", "postcode": "72116"}}},
{"geometry": {"type": "Point", "coordinates": [-92.2518955836, 34.8059940382]}, "type": "Feature", "properties": {"collection_times": [{"days": "Mon-Sat", "time": "1:00pm"}, {"days": "Sun", "time": "Closed"}], "id": "7211600011", "name": "USPS COLLECTION BOX - BLUE BOX", "address": {"city": "N LITTLE ROCK", "state": "AR", "street": "5519 JOHN F KENNEDY BLVD", "postcode": "72116"}}},
{"geometry": {"type": "Point", "coordinates": [-92.2305345428, 34.7925857769]}, "type": "Feature", "properties": {"collection_times": [{"days": "Mon-Sat", "time": "12:00pm"}, {"days": "Sun", "time": "Closed"}], "id": "7211600014", "name": "USPS COLLECTION BOX - BLUE BOX", "address": {"city": "N LITTLE ROCK", "state": "AR", "street": "3629 MCCAIN BLVD", "postcode": "72116"}}},
{"geometry": {"type": "Point", "coordinates": [-92.2375395383, 34.8003281986]}, "type": "Feature", "properties": {"collection_times": [{"days": "Mon-Sat", "time": "8:30am"}, {"days": "Sun", "time": "Closed"}], "id": "7211600042", "name": "USPS COLLECTION BOX - BLUE BOX", "address": {"city": "N LITTLE ROCK", "state": "AR", "street": "2501 CRESTWOOD RD", "postcode": "72116"}}},
{"geometry": {"type": "Point", "coordinates": [-92.2281972298, 34.7906282811]}, "type": "Feature", "properties": {"collection_times": [{"days": "Mon-Sat", "time": "1:00pm"}, {"days": "Sun", "time": "Closed"}], "id": "7211600046", "name": "USPS COLLECTION BOX - BLUE BOX", "address": {"city": "N LITTLE ROCK", "state": "AR", "street": "4000 MCCAIN BLVD", "postcode": "72116"}}},
{"geometry": {"type": "Point", "coordinates": [-92.2314461371, 34.7951534659]}, "type": "Feature", "properties": {"collection_times": [{"days": "Mon-Sat", "time": "1:00pm"}, {"days": "Sun", "time": "Closed"}], "id": "7211600047", "name": "USPS COLLECTION BOX - BLUE BOX", "address": {"city": "N LITTLE ROCK", "state": "AR", "street": "2907 LAKEWOOD VILLAGE DR", "postcode": "72116"}}},
{"geometry": {"type": "Point", "coordinates": [-92.2556829635, 34.7982293797]}, "type": "Feature", "properties": {"collection_times": [{"days": "Mon-Fri", "time": "5:00pm"}, {"days": "Sat", "time": "4:00pm"}, {"days": "Sun", "time": "Closed"}], "id": "7211600059", "name": "USPS COLLECTION BOX - PO LOBBY", "address": {"city": "N LITTLE ROCK", "state": "AR", "street": "4601 JOHN F KENNEDY BLVD", "postcode": "72116"}}},
{"geometry": {"type": "Point", "coordinates": [-92.2556829635, 34.7982293797]}, "type": "Feature", "properties": {"collection_times": [{"days": "Mon-Fri", "time": "5:00pm"}, {"days": "Sat", "time": "4:00pm"}, {"days": "Sun", "time": "Closed"}], "id": "7211600060", "name": "USPS COLLECTION BOX - APC", "address": {"city": "N LITTLE ROCK", "state": "AR", "street": "4601 JOHN F KENNEDY BLVD", "postcode": "72116"}}},
{"geometry": {"type": "Point", "coordinates": [-92.208047981, 34.7624707848]}, "type": "Feature", "properties": {"collection_times": [{"days": "Mon-Fri", "time": "5:00pm"}, {"days": "Sat", "time": "3:00pm"}, {"days": "Sun", "time": "Closed"}], "id": "7211700007", "name": "USPS COLLECTION BOX - PO LOBBY", "address": {"city": "N LITTLE ROCK", "state": "AR", "street": "4903 E BROADWAY ST", "postcode": "72117"}}},
{"geometry": {"type": "Point", "coordinates": [-92.2179691336, 34.756030052]}, "type": "Feature", "properties": {"collection_times": [{"days": "Mon-Fri", "time": "12:00pm"}, {"days": "Sat", "time": "1:00pm"}, {"days": "Sun", "time": "Closed"}], "id": "7211700008", "name": "USPS COLLECTION BOX - BLUE BOX", "address": {"city": "N LITTLE ROCK", "state": "AR", "street": "4201 E BROADWAY ST", "postcode": "72117"}}},
{"geometry": {"type": "Point", "coordinates": [-92.208047981, 34.7624707848]}, "type": "Feature", "properties": {"collection_times": [{"days": "Mon-Fri", "time": "5:00pm"}, {"days": "Sat", "time": "3:00pm"}, {"days": "Sun", "time": "Closed"}], "id": "7211700023", "name": "USPS COLLECTION BOX - PO LOBBY", "address": {"city": "N LITTLE ROCK", "state": "AR", "street": "4903 E BROADWAY ST", "postcode": "72117"}}},
{"geometry": {"type": "Point", "coordinates": [-92.208047981, 34.7624707848]}, "type": "Feature", "properties": {"collection_times": [{"days": "Mon-Fri", "time": "5:00pm"}, {"days": "Sat", "time": "3:00pm"}, {"days": "Sun", "time": "Closed"}], "id": "7211700025", "name": "USPS COLLECTION BOX - BLUE BOX", "address": {"city": "N LITTLE ROCK", "state": "AR", "street": "4903 E BROADWAY ST", "postcode": "72117"}}},
{"geometry": {"type": "Point", "coordinates": [-92.291983994, 34.8057858251]}, "type": "Feature", "properties": {"collection_times": [{"days": "Mon-Sat", "time": "10:00am"}, {"days": "Sun", "time": "Closed"}], "id": "7211800006", "name": "USPS COLLECTION BOX - BLUE BOX", "address": {"city": "N LITTLE ROCK", "state": "AR", "street": "5501 MAC ARTHUR DR", "postcode": "72118"}}},
{"geometry": {"type": "Point", "coordinates": [-92.2848206109, 34.7908656635]}, "type": "Feature", "properties": {"collection_times": [{"days": "Mon-Sat", "time": "9:30am"}, {"days": "Sun", "time": "Closed"}], "id": "7211800012", "name": "USPS COLLECTION BOX - BLUE BOX", "address": {"city": "N LITTLE ROCK", "state": "AR", "street": "3815 MAC ARTHUR DR", "postcode": "72118"}}},
{"geometry": {"type": "Point", "coordinates": [-92.2890722, 34.8288738381]}, "type": "Feature", "properties": {"collection_times": [{"days": "Mon-Fri", "time": "9:15am"}, {"days": "Sat-Sun", "time": "Closed"}], "id": "7211800018", "name": "USPS COLLECTION BOX - BLUE BOX", "address": {"city": "N LITTLE ROCK", "state": "AR", "street": "5302 3RD ST", "postcode": "72118"}}},
{"geometry": {"type": "Point", "coordinates": [-92.2087337104, 34.8326815996]}, "type": "Feature", "properties": {"collection_times": [{"days": "Mon-Fri", "time": "1:30pm"}, {"days": "Sat", "time": "1:00pm"}, {"days": "Sun", "time": "Closed"}], "id": "7212000002", "name": "USPS COLLECTION BOX - BLUE BOX", "address": {"city": "N LITTLE ROCK", "state": "AR", "street": "2201 E KIEHL AVE", "postcode": "72120"}}},
{"geometry": {"type": "Point", "coordinates": [-92.1870272549, 34.8319743911]}, "type": "Feature", "properties": {"collection_times": [{"days": "Mon-Fri", "time": "1:30pm"}, {"days": "Sat", "time": "1:00pm"}, {"days": "Sun", "time": "Closed"}], "id": "7212000007", "name": "USPS COLLECTION BOX - BLUE BOX", "address": {"city": "N LITTLE ROCK", "state": "AR", "street": "4200 E KIEHL AVE", "postcode": "72120"}}},
{"geometry": {"type": "Point", "coordinates": [-92.2067759753, 34.8144269853]}, "type": "Feature", "properties": {"collection_times": [{"days": "Mon-Fri", "time": "5:00pm"}, {"days": "Sat", "time": "4:30pm"}, {"days": "Sun", "time": "Closed"}], "id": "7212000016", "name": "USPS COLLECTION BOX - PO LOBBY", "address": {"city": "N LITTLE ROCK", "state": "AR", "street": "2300 WILDWOOD AVE", "postcode": "72120"}}},
{"geometry": {"type": "Point", "coordinates": [-92.2329687122, 34.8184618569]}, "type": "Feature", "properties": {"collection_times": [{"days": "Mon-Sat", "time": "1:00pm"}, {"days": "Sun", "time": "Closed"}], "id": "7212000027", "name": "USPS COLLECTION BOX - BLUE BOX", "address": {"city": "N LITTLE ROCK", "state": "AR", "street": "119 COUNTRY CLUB RD", "postcode": "72120"}}},
{"geometry": {"type": "Point", "coordinates": [-92.2067759753, 34.8144269853]}, "type": "Feature", "properties": {"collection_times": [{"days": "Mon-Fri", "time": "5:00pm"}, {"days": "Sat", "time": "4:30pm"}, {"days": "Sun", "time": "Closed"}], "id": "7212000035", "name": "USPS COLLECTION BOX - PO LOBBY", "address": {"city": "N LITTLE ROCK", "state": "AR", "street": "2300 WILDWOOD AVE", "postcode": "72120"}}},
{"geometry": {"type": "Point", "coordinates": [-92.2067759753, 34.8144269853]}, "type": "Feature", "properties": {"collection_times": [{"days": "Mon-Fri", "time": "5:00pm"}, {"days": "Sat", "time": "4:30pm"}, {"days": "Sun", "time": "Closed"}], "id": "7212000036", "name": "USPS COLLECTION BOX - BLUE BOX", "address": {"city": "N LITTLE ROCK", "state": "AR", "street": "2300 WILDWOOD AVE", "postcode": "72120"}}},
{"geometry": {"type": "Point", "coordinates": [-91.8408442308, 35.4246786927]}, "type": "Feature", "properties": {"collection_times": [{"days": "Mon-Fri", "time": "4:00pm"}, {"days": "Sat", "time": "10:00am"}, {"days": "Sun", "time": "Closed"}], "id": "7212100001", "name": "USPS COLLECTION BOX - BLUE BOX", "address": {"city": "PANGBURN", "state": "AR", "street": "608 MAIN ST", "postcode": "72121"}}},
{"geometry": {"type": "Point", "coordinates": [-91.8408442308, 35.4246786927]}, "type": "Feature", "properties": {"collection_times": [{"days": "Mon-Fri", "time": "3:00pm"}, {"days": "Sat", "time": "10:00am"}, {"days": "Sun", "time": "Closed"}], "id": "7212100002", "name": "USPS COLLECTION BOX - PO LOBBY", "address": {"city": "PANGBURN", "state": "AR", "street": "608 MAIN ST", "postcode": "72121"}}},
{"geometry": {"type": "Point", "coordinates": [-91.8408442308, 35.4246786927]}, "type": "Feature", "properties": {"collection_times": [{"days": "Mon-Fri", "time": "3:00pm"}, {"days": "Sat", "time": "10:00am"}, {"days": "Sun", "time": "Closed"}], "id": "7212100003", "name": "USPS COLLECTION BOX - PO LOBBY", "address": {"city": "PANGBURN", "state": "AR", "street": "608 MAIN ST", "postcode": "72121"}}},
{"geometry": {"type": "Point", "coordinates": [-92.7612490699, 34.748619093]}, "type": "Feature", "properties": {"collection_times": [{"days": "Mon-Fri", "time": "3:15pm"}, {"days": "Sat", "time": "10:15am"}, {"days": "Sun", "time": "Closed"}], "id": "7212200001", "name": "USPS COLLECTION BOX - BLUE BOX", "address": {"city": "PARON", "state": "AR", "street": "22560 HIGHWAY 9", "postcode": "72122"}}},
{"geometry": {"type": "Point", "coordinates": [-92.7612490699, 34.748619093]}, "type": "Feature", "properties": {"collection_times": [{"days": "Mon-Fri", "time": "11:30am"}, {"days": "Sat", "time": "10:15am"}, {"days": "Sun", "time": "Closed"}], "id": "7212200002", "name": "USPS COLLECTION BOX - PO LOBBY", "address": {"city": "PARON", "state": "AR", "street": "22560 HIGHWAY 9", "postcode": "72122"}}},
{"geometry": {"type": "Point", "coordinates": [-91.2348637863, 35.2578899586]}, "type": "Feature", "properties": {"collection_times": [{"days": "Mon-Fri", "time": "4:15pm"}, {"days": "Sat", "time": "11:30am"}, {"days": "Sun", "time": "Closed"}], "id": "7212300001", "name": "USPS COLLECTION BOX - BLUE BOX", "address": {"city": "PATTERSON", "state": "AR", "street": "111 S MAIN ST", "postcode": "72123"}}},
{"geometry": {"type": "Point", "coordinates": [-91.2348637863, 35.2578899586]}, "type": "Feature", "properties": {"collection_times": [{"days": "Mon-Sat", "time": "11:30am"}, {"days": "Sun", "time": "Closed"}], "id": "7212300002", "name": "USPS COLLECTION BOX - PO LOBBY", "address": {"city": "PATTERSON", "state": "AR", "street": "111 S MAIN ST", "postcode": "72123"}}},
{"geometry": {"type": "Point", "coordinates": [-92.7928612553, 35.0476633347]}, "type": "Feature", "properties": {"collection_times": [{"days": "Mon-Fri", "time": "3:30pm"}, {"days": "Sat", "time": "10:45am"}, {"days": "Sun", "time": "Closed"}], "id": "7212500003", "name": "USPS COLLECTION BOX - BLUE BOX", "address": {"city": "PERRY", "state": "AR", "street": "100 E 2ND AVE", "postcode": "72125"}}},
{"geometry": {"type": "Point", "coordinates": [-92.8012846279, 35.0472746371]}, "type": "Feature", "properties": {"collection_times": [{"days": "Mon-Fri", "time": "11:15am"}, {"days": "Sat", "time": "10:45am"}, {"days": "Sun", "time": "Closed"}], "id": "7212500005", "name": "USPS COLLECTION BOX - PO LOBBY", "address": {"city": "PERRY", "state": "AR", "street": "3376 MAIN ST", "postcode": "72125"}}},
{"geometry": {"type": "Point", "coordinates": [-92.8012846279, 35.0472746371]}, "type": "Feature", "properties": {"collection_times": [{"days": "Mon-Fri", "time": "11:15am"}, {"days": "Sat", "time": "10:45am"}, {"days": "Sun", "time": "Closed"}], "id": "7212500007", "name": "USPS COLLECTION BOX - PO LOBBY", "address": {"city": "PERRY", "state": "AR", "street": "3376 MAIN ST", "postcode": "72125"}}},
{"geometry": {"type": "Point", "coordinates": [-92.9915462113, 34.9314437182]}, "type": "Feature", "properties": {"collection_times": [{"days": "Mon-Fri", "time": "4:30pm"}, {"days": "Sat", "time": "11:00am"}, {"days": "Sun", "time": "Closed"}], "id": "7212600004", "name": "USPS COLLECTION BOX - BLUE BOX", "address": {"city": "PERRYVILLE", "state": "AR", "street": "201 B ST", "postcode": "72126"}}},
{"geometry": {"type": "Point", "coordinates": [-92.9915462113, 34.9314437182]}, "type": "Feature", "properties": {"collection_times": [{"days": "Mon-Fri", "time": "4:30pm"}, {"days": "Sat", "time": "11:00am"}, {"days": "Sun", "time": "Closed"}], "id": "7212600006", "name": "USPS COLLECTION BOX - PO LOBBY", "address": {"city": "PERRYVILLE", "state": "AR", "street": "201 B ST", "postcode": "72126"}}},
{"geometry": {"type": "Point", "coordinates": [-92.9915462113, 34.9314437182]}, "type": "Feature", "properties": {"collection_times": [{"days": "Mon-Fri", "time": "4:30pm"}, {"days": "Sat", "time": "11:00am"}, {"days": "Sun", "time": "Closed"}], "id": "7212600007", "name": "USPS COLLECTION BOX - PO LOBBY", "address": {"city": "PERRYVILLE", "state": "AR", "street": "201 B ST", "postcode": "72126"}}},
{"geometry": {"type": "Point", "coordinates": [-92.6410556515, 35.166294161]}, "type": "Feature", "properties": {"collection_times": [{"days": "Mon-Fri", "time": "4:30pm"}, {"days": "Sat", "time": "9:30am"}, {"days": "Sun", "time": "Closed"}], "id": "7212700001", "name": "USPS COLLECTION BOX - BLUE BOX", "address": {"city": "PLUMERVILLE", "state": "AR", "street": "300 N SPRINGFIELD ST", "postcode": "72127"}}},
{"geometry": {"type": "Point", "coordinates": [-92.6410556515, 35.166294161]}, "type": "Feature", "properties": {"collection_times": [{"days": "Mon-Fri", "time": "4:30pm"}, {"days": "Sat", "time": "9:30am"}, {"days": "Sun", "time": "Closed"}], "id": "7212700002", "name": "USPS COLLECTION BOX - PO LOBBY", "address": {"city": "PLUMERVILLE", "state": "AR", "street": "300 N SPRINGFIELD ST", "postcode": "72127"}}},
{"geometry": {"type": "Point", "coordinates": [-92.6410556515, 35.166294161]}, "type": "Feature", "properties": {"collection_times": [{"days": "Mon-Fri", "time": "4:30pm"}, {"days": "Sat", "time": "9:30am"}, {"days": "Sun", "time": "Closed"}], "id": "7212700003", "name": "USPS COLLECTION BOX - PO LOBBY", "address": {"city": "PLUMERVILLE", "state": "AR", "street": "300 N SPRINGFIELD ST", "postcode": "72127"}}},
{"geometry": {"type": "Point", "coordinates": [-92.6534420018, 34.3244786777]}, "type": "Feature", "properties": {"collection_times": [{"days": "Mon-Fri", "time": "3:30pm"}, {"days": "Sat", "time": "10:30am"}, {"days": "Sun", "time": "Closed"}], "id": "7212800001", "name": "USPS COLLECTION BOX - BLUE BOX", "address": {"city": "POYEN", "state": "AR", "street": "210 E FOURTH ST", "postcode": "72128"}}},
{"geometry": {"type": "Point", "coordinates": [-92.6534420018, 34.3244786777]}, "type": "Feature", "properties": {"collection_times": [{"days": "Mon-Fri", "time": "11:30am"}, {"days": "Sat", "time": "10:30am"}, {"days": "Sun", "time": "Closed"}], "id": "7212800002", "name": "USPS COLLECTION BOX - PO LOBBY", "address": {"city": "POYEN", "state": "AR", "street": "210 E FOURTH ST", "postcode": "72128"}}},
{"geometry": {"type": "Point", "coordinates": [-92.5519907738, 34.3147105486]}, "type": "Feature", "properties": {"collection_times": [{"days": "Mon-Fri", "time": "3:00pm"}, {"days": "Sat", "time": "9:30am"}, {"days": "Sun", "time": "Closed"}], "id": "7212900001", "name": "USPS COLLECTION BOX - BLUE BOX", "address": {"city": "PRATTSVILLE", "state": "AR", "street": "9113 HIGHWAY 270 W", "postcode": "72129"}}},
{"geometry": {"type": "Point", "coordinates": [-92.5519907738, 34.3147105486]}, "type": "Feature", "properties": {"collection_times": [{"days": "Mon-Fri", "time": "11:15am"}, {"days": "Sat", "time": "9:30am"}, {"days": "Sun", "time": "Closed"}], "id": "7212900002", "name": "USPS COLLECTION BOX - PO LOBBY", "address": {"city": "PRATTSVILLE", "state": "AR", "street": "9113 HIGHWAY 270 W", "postcode": "72129"}}},
{"geometry": {"type": "Point", "coordinates": [-92.5519907738, 34.3147105486]}, "type": "Feature", "properties": {"collection_times": [{"days": "Mon-Fri", "time": "11:15am"}, {"days": "Sat", "time": "9:30am"}, {"days": "Sun", "time": "Closed"}], "id": "7212900003", "name": "USPS COLLECTION BOX - PO LOBBY", "address": {"city": "PRATTSVILLE", "state": "AR", "street": "9113 HIGHWAY 270 W", "postcode": "72129"}}},
{"geometry": {"type": "Point", "coordinates": [-92.1068200304, 35.684781162]}, "type": "Feature", "properties": {"collection_times": [{"days": "Mon-Fri", "time": "3:00pm"}, {"days": "Sat", "time": "10:50am"}, {"days": "Sun", "time": "Closed"}], "id": "7213000001", "name": "USPS COLLECTION BOX - PO LOBBY", "address": {"city": "PRIM", "state": "AR", "street": "4224 PRIM RD", "postcode": "72130"}}},
{"geometry": {"type": "Point", "coordinates": [-92.2053607934, 35.3874883493]}, "type": "Feature", "properties": {"collection_times": [{"days": "Mon-Fri", "time": "3:45pm"}, {"days": "Sat", "time": "10:00am"}, {"days": "Sun", "time": "Closed"}], "id": "7213100001", "name": "USPS COLLECTION BOX - PO LOBBY", "address": {"city": "QUITMAN", "state": "AR", "street": "5770 HEBER SPRINGS RD W", "postcode": "72131"}}},
{"geometry": {"type": "Point", "coordinates": [-92.2053607934, 35.3874883493]}, "type": "Feature", "properties": {"collection_times": [{"days": "Mon-Fri", "time": "3:45pm"}, {"days": "Sat", "time": "10:00am"}, {"days": "Sun", "time": "Closed"}], "id": "7213100002", "name": "USPS COLLECTION BOX - PO LOBBY", "address": {"city": "QUITMAN", "state": "AR", "street": "5770 HEBER SPRINGS RD W", "postcode": "72131"}}},
{"geometry": {"type": "Point", "coordinates": [-92.2053607934, 35.3874883493]}, "type": "Feature", "properties": {"collection_times": [{"days": "Mon-Fri", "time": "3:45pm"}, {"days": "Sat", "time": "10:00am"}, {"days": "Sun", "time": "Closed"}], "id": "7213100003", "name": "USPS COLLECTION BOX - BLUE BOX", "address": {"city": "QUITMAN", "state": "AR", "street": "5770 HEBER SPRINGS RD W", "postcode": "72131"}}},
{"geometry": {"type": "Point", "coordinates": [-92.1844160981, 34.4460801953]}, "type": "Feature", "properties": {"collection_times": [{"days": "Mon-Fri", "time": "3:45pm"}, {"days": "Sat", "time": "11:00am"}, {"days": "Sun", "time": "Closed"}], "id": "7213200001", "name": "USPS COLLECTION BOX - BLUE BOX", "address": {"city": "REDFIELD", "state": "AR", "street": "201 NE RAILROAD ST", "postcode": "72132"}}},
{"geometry": {"type": "Point", "coordinates": [-92.1844160981, 34.4460801953]}, "type": "Feature", "properties": {"collection_times": [{"days": "Mon-Fri", "time": "3:45pm"}, {"days": "Sat", "time": "11:00am"}, {"days": "Sun", "time": "Closed"}], "id": "7213200002", "name": "USPS COLLECTION BOX - PO LOBBY", "address": {"city": "REDFIELD", "state": "AR", "street": "201 NE RAILROAD ST", "postcode": "72132"}}},
{"geometry": {"type": "Point", "coordinates": [-91.4762207432, 34.0935726975]}, "type": "Feature", "properties": {"collection_times": [{"days": "Mon-Sat", "time": "10:30am"}, {"days": "Sun", "time": "Closed"}], "id": "7213300001", "name": "USPS COLLECTION BOX - BLUE BOX", "address": {"city": "REYDELL", "state": "AR", "street": "21900 S HIGHWAY 88", "postcode": "72133"}}},
{"geometry": {"type": "Point", "coordinates": [-91.4762207432, 34.0935726975]}, "type": "Feature", "properties": {"collection_times": [{"days": "Mon-Sat", "time": "10:30am"}, {"days": "Sun", "time": "Closed"}], "id": "7213300003", "name": "USPS COLLECTION BOX - PO LOBBY", "address": {"city": "REYDELL", "state": "AR", "street": "21900 S HIGHWAY 88", "postcode": "72133"}}},
{"geometry": {"type": "Point", "coordinates": [-91.385617052, 34.6306536523]}, "type": "Feature", "properties": {"collection_times": [{"days": "Mon-Fri", "time": "11:00am"}, {"days": "Sat", "time": "10:30am"}, {"days": "Sun", "time": "Closed"}], "id": "7213400003", "name": "USPS COLLECTION BOX - PO LOBBY", "address": {"city": "ROE", "state": "AR", "street": "180 MAIN ST", "postcode": "72134"}}},
{"geometry": {"type": "Point", "coordinates": [-92.5004818024, 34.9015572758]}, "type": "Feature", "properties": {"collection_times": [{"days": "Mon-Fri", "time": "2:30pm"}, {"days": "Sat", "time": "11:30am"}, {"days": "Sun", "time": "Closed"}], "id": "7213500002", "name": "USPS COLLECTION BOX - PO LOBBY", "address": {"city": "ROLAND", "state": "AR", "street": "21111 CRIBBS ST", "postcode": "72135"}}},
{"geometry": {"type": "Point", "coordinates": [-92.0400017301, 35.2350719123]}, "type": "Feature", "properties": {"collection_times": [{"days": "Mon-Fri", "time": "3:00pm"}, {"days": "Sat", "time": "10:30am"}, {"days": "Sun", "time": "Closed"}], "id": "7213600001", "name": "USPS COLLECTION BOX - BLUE BOX", "address": {"city": "ROMANCE", "state": "AR", "street": "292 HIGHWAY 31", "postcode": "72136"}}},
{"geometry": {"type": "Point", "coordinates": [-92.0400017301, 35.2350719123]}, "type": "Feature", "properties": {"collection_times": [{"days": "Mon-Fri", "time": "11:30am"}, {"days": "Sat", "time": "10:30am"}, {"days": "Sun", "time": "Closed"}], "id": "7213600002", "name": "USPS COLLECTION BOX - PO LOBBY", "address": {"city": "ROMANCE", "state": "AR", "street": "292 HIGHWAY 31", "postcode": "72136"}}},
{"geometry": {"type": "Point", "coordinates": [-92.0400017301, 35.2350719123]}, "type": "Feature", "properties": {"collection_times": [{"days": "Mon-Fri", "time": "11:30am"}, {"days": "Sat", "time": "10:30am"}, {"days": "Sun", "time": "Closed"}], "id": "7213600003", "name": "USPS COLLECTION BOX - PO LOBBY", "address": {"city": "ROMANCE", "state": "AR", "street": "292 HIGHWAY 31", "postcode": "72136"}}},
{"geometry": {"type": "Point", "coordinates": [-92.0918034741, 35.3335364597]}, "type": "Feature", "properties": {"collection_times": [{"days": "Mon-Fri", "time": "3:45pm"}, {"days": "Sat", "time": "10:15am"}, {"days": "Sun", "time": "Closed"}], "id": "7213700004", "name": "USPS COLLECTION BOX - BLUE BOX", "address": {"city": "ROSE BUD", "state": "AR", "street": "6083 HIGHWAY 36 W", "postcode": "72137"}}},
{"geometry": {"type": "Point", "coordinates": [-92.0918034741, 35.3335364597]}, "type": "Feature", "properties": {"collection_times": [{"days": "Mon-Fri", "time": "3:45pm"}, {"days": "Sat", "time": "10:15am"}, {"days": "Sun", "time": "Closed"}], "id": "7213700005", "name": "USPS COLLECTION BOX - PO LOBBY", "address": {"city": "ROSE BUD", "state": "AR", "street": "6083 HIGHWAY 36 W", "postcode": "72137"}}},
{"geometry": {"type": "Point", "coordinates": [-92.0918034741, 35.3335364597]}, "type": "Feature", "properties": {"collection_times": [{"days": "Mon-Fri", "time": "3:45pm"}, {"days": "Sat", "time": "10:15am"}, {"days": "Sun", "time": "Closed"}], "id": "7213700006", "name": "USPS COLLECTION BOX - PO LOBBY", "address": {"city": "ROSE BUD", "state": "AR", "street": "6083 HIGHWAY 36 W", "postcode": "72137"}}},
{"geometry": {"type": "Point", "coordinates": [-91.5088050267, 35.363018532]}, "type": "Feature", "properties": {"collection_times": [{"days": "Mon-Fri", "time": "4:00pm"}, {"days": "Sat", "time": "10:15am"}, {"days": "Sun", "time": "Closed"}], "id": "7213900001", "name": "USPS COLLECTION BOX - BLUE BOX", "address": {"city": "RUSSELL", "state": "AR", "street": "4409 HIGHWAY AVE", "postcode": "72139"}}},
{"geometry": {"type": "Point", "coordinates": [-91.5088050267, 35.363018532]}, "type": "Feature", "properties": {"collection_times": [{"days": "Mon-Fri", "time": "11:30am"}, {"days": "Sat", "time": "10:15am"}, {"days": "Sun", "time": "Closed"}], "id": "7213900002", "name": "USPS COLLECTION BOX - PO LOBBY", "address": {"city": "RUSSELL", "state": "AR", "street": "4409 HIGHWAY AVE", "postcode": "72139"}}},
{"geometry": {"type": "Point", "coordinates": [-91.1316768528, 34.378232425]}, "type": "Feature", "properties": {"collection_times": [{"days": "Mon-Sat", "time": "11:30am"}, {"days": "Sun", "time": "Closed"}], "id": "7214000002", "name": "USPS COLLECTION BOX - PO LOBBY", "address": {"city": "ST CHARLES", "state": "AR", "street": "212 BROADWAY AVE", "postcode": "72140"}}},
{"geometry": {"type": "Point", "coordinates": [-91.1316768528, 34.378232425]}, "type": "Feature", "properties": {"collection_times": [{"days": "Mon-Sat", "time": "11:30am"}, {"days": "Sun", "time": "Closed"}], "id": "7214000003", "name": "USPS COLLECTION BOX - PO LOBBY", "address": {"city": "ST CHARLES", "state": "AR", "street": "212 BROADWAY AVE", "postcode": "72140"}}},
{"geometry": {"type": "Point", "coordinates": [-92.5456956805, 35.5652302603]}, "type": "Feature", "properties": {"collection_times": [{"days": "Mon-Sat", "time": "1:15pm"}, {"days": "Sun", "time": "Closed"}], "id": "7214100000", "name": "USPS COLLECTION BOX - BLUE BOX", "address": {"city": "SCOTLAND", "state": "AR", "street": "11420 HIGHWAY 95 W", "postcode": "72141"}}},
{"geometry": {"type": "Point", "coordinates": [-92.5456956805, 35.5652302603]}, "type": "Feature", "properties": {"collection_times": [{"days": "Mon-Sat", "time": "1:15pm"}, {"days": "Sun", "time": "Closed"}], "id": "7214100001", "name": "USPS COLLECTION BOX - PO LOBBY", "address": {"city": "SCOTLAND", "state": "AR", "street": "11420 HIGHWAY 95 W", "postcode": "72141"}}},
{"geometry": {"type": "Point", "coordinates": [-92.1021853964, 34.702219754]}, "type": "Feature", "properties": {"collection_times": [{"days": "Mon-Fri", "time": "4:00pm"}, {"days": "Sat", "time": "10:30am"}, {"days": "Sun", "time": "Closed"}], "id": "7214200001", "name": "USPS COLLECTION BOX - BLUE BOX", "address": {"city": "SCOTT", "state": "AR", "street": "14918 ALEXANDER RD", "postcode": "72142"}}},
{"geometry": {"type": "Point", "coordinates": [-92.1021853964, 34.702219754]}, "type": "Feature", "properties": {"collection_times": [{"days": "Mon-Fri", "time": "2:15pm"}, {"days": "Sat", "time": "10:30am"}, {"days": "Sun", "time": "Closed"}], "id": "7214200002", "name": "USPS COLLECTION BOX - PO LOBBY", "address": {"city": "SCOTT", "state": "AR", "street": "14918 ALEXANDER RD", "postcode": "72142"}}},
{"geometry": {"type": "Point", "coordinates": [-92.1021853964, 34.702219754]}, "type": "Feature", "properties": {"collection_times": [{"days": "Mon-Fri", "time": "2:15pm"}, {"days": "Sat", "time": "10:30am"}, {"days": "Sun", "time": "Closed"}], "id": "7214200003", "name": "USPS COLLECTION BOX - PO LOBBY", "address": {"city": "SCOTT", "state": "AR", "street": "14918 ALEXANDER RD", "postcode": "72142"}}},
{"geometry": {"type": "Point", "coordinates": [-91.7429704833, 35.2526161786]}, "type": "Feature", "properties": {"collection_times": [{"days": "Mon-Fri", "time": "5:00pm"}, {"days": "Sat", "time": "2:55pm"}, {"days": "Sun", "time": "Closed"}], "id": "7214300001", "name": "USPS COLLECTION BOX - BLUE BOX", "address": {"city": "SEARCY", "state": "AR", "street": "600 W ACADEMY AVE", "postcode": "72143"}}},
{"geometry": {"type": "Point", "coordinates": [-91.7386340318, 35.2509080158]}, "type": "Feature", "properties": {"collection_times": [{"days": "Mon-Sat", "time": "11:00am"}, {"days": "Sun", "time": "Closed"}], "id": "7214300002", "name": "USPS COLLECTION BOX - BLUE BOX", "address": {"city": "SEARCY", "state": "AR", "street": "411 N SPRUCE ST", "postcode": "72143"}}},
{"geometry": {"type": "Point", "coordinates": [-91.7334692825, 35.236306973]}, "type": "Feature", "properties": {"collection_times": [{"days": "Mon-Sat", "time": "11:00am"}, {"days": "Sun", "time": "Closed"}], "id": "7214300003", "name": "USPS COLLECTION BOX - BLUE BOX", "address": {"city": "SEARCY", "state": "AR", "street": "1118 S MAIN ST", "postcode": "72143"}}},
{"geometry": {"type": "Point", "coordinates": [-91.7620271168, 35.2471974358]}, "type": "Feature", "properties": {"collection_times": [{"days": "Mon-Sat", "time": "1:00pm"}, {"days": "Sun", "time": "Closed"}], "id": "7214300005", "name": "USPS COLLECTION BOX - BLUE BOX", "address": {"city": "SEARCY", "state": "AR", "street": "2005 W BEEBE CAPPS EXPY", "postcode": "72143"}}},
{"geometry": {"type": "Point", "coordinates": [-91.7385029726, 35.250099483]}, "type": "Feature", "properties": {"collection_times": [{"days": "Mon-Fri", "time": "11:00am"}, {"days": "Sat", "time": "10:30am"}, {"days": "Sun", "time": "Closed"}], "id": "7214300010", "name": "USPS COLLECTION BOX - BLUE BOX", "address": {"city": "SEARCY", "state": "AR", "street": "300 N SPRUCE ST", "postcode": "72143"}}},
{"geometry": {"type": "Point", "coordinates": [-91.7374641089, 35.2487327444]}, "type": "Feature", "properties": {"collection_times": [{"days": "Mon-Sat", "time": "11:00am"}, {"days": "Sun", "time": "Closed"}], "id": "7214300011", "name": "USPS COLLECTION BOX - BLUE BOX", "address": {"city": "SEARCY", "state": "AR", "street": "105 E CENTER AVE", "postcode": "72143"}}},
{"geometry": {"type": "Point", "coordinates": [-91.7703997721, 35.247418784]}, "type": "Feature", "properties": {"collection_times": [{"days": "Mon-Sat", "time": "1:00pm"}, {"days": "Sun", "time": "Closed"}], "id": "7214300014", "name": "USPS COLLECTION BOX - BLUE BOX", "address": {"city": "SEARCY", "state": "AR", "street": "2307 W BEEBE CAPPS EXPY", "postcode": "72143"}}},
{"geometry": {"type": "Point", "coordinates": [-91.7043011947, 35.251543335]}, "type": "Feature", "properties": {"collection_times": [{"days": "Mon-Sat", "time": "11:00am"}, {"days": "Sun", "time": "Closed"}], "id": "7214300015", "name": "USPS COLLECTION BOX - BLUE BOX", "address": {"city": "SEARCY", "state": "AR", "street": "2900 HAWKINS DR", "postcode": "72143"}}},
{"geometry": {"type": "Point", "coordinates": [-91.7341445439, 35.2398956159]}, "type": "Feature", "properties": {"collection_times": [{"days": "Mon-Fri", "time": "11:00am"}, {"days": "Sat-Sun", "time": "Closed"}], "id": "7214300021", "name": "USPS COLLECTION BOX - BLUE BOX", "address": {"city": "SEARCY", "state": "AR", "street": "400 E LINCOLN AVE", "postcode": "72143"}}},
{"geometry": {"type": "Point", "coordinates": [-91.7197937165, 35.2507078412]}, "type": "Feature", "properties": {"collection_times": [{"days": "Mon-Sat", "time": "11:00am"}, {"days": "Sun", "time": "Closed"}], "id": "7214300029", "name": "USPS COLLECTION BOX - BLUE BOX", "address": {"city": "SEARCY", "state": "AR", "street": "1601 E RACE AVE", "postcode": "72143"}}},
{"geometry": {"type": "Point", "coordinates": [-91.7429704833, 35.2526161786]}, "type": "Feature", "properties": {"collection_times": [{"days": "Mon-Fri", "time": "5:00pm"}, {"days": "Sat", "time": "2:55pm"}, {"days": "Sun", "time": "Closed"}], "id": "7214300031", "name": "USPS COLLECTION BOX - BLUE BOX", "address": {"city": "SEARCY", "state": "AR", "street": "600 W ACADEMY AVE", "postcode": "72143"}}},
{"geometry": {"type": "Point", "coordinates": [-91.7208882178, 35.2507118213]}, "type": "Feature", "properties": {"collection_times": [{"days": "Mon-Sat", "time": "11:00am"}, {"days": "Sun", "time": "Closed"}], "id": "7214300033", "name": "USPS COLLECTION BOX - BLUE BOX", "address": {"city": "SEARCY", "state": "AR", "street": "1507 E RACE AVE", "postcode": "72143"}}},
{"geometry": {"type": "Point", "coordinates": [-91.7429704833, 35.2526161786]}, "type": "Feature", "properties": {"collection_times": [{"days": "Mon-Fri", "time": "5:00pm"}, {"days": "Sat", "time": "12:00pm"}, {"days": "Sun", "time": "Closed"}], "id": "7214300037", "name": "USPS COLLECTION BOX - PO LOBBY", "address": {"city": "SEARCY", "state": "AR", "street": "600 W ACADEMY AVE", "postcode": "72143"}}},
{"geometry": {"type": "Point", "coordinates": [-91.7050277224, 35.2505777731]}, "type": "Feature", "properties": {"collection_times": [{"days": "Mon-Fri", "time": "4:30pm"}, {"days": "Sat", "time": "12:00pm"}, {"days": "Sun", "time": "Closed"}], "id": "7214300041", "name": "USPS COLLECTION BOX - BLUE BOX", "address": {"city": "SEARCY", "state": "AR", "street": "2701 E RACE AVE", "postcode": "72143"}}},
{"geometry": {"type": "Point", "coordinates": [-92.4016131304, 34.3046893974]}, "type": "Feature", "properties": {"collection_times": [{"days": "Mon-Fri", "time": "4:45pm"}, {"days": "Sat", "time": "3:30pm"}, {"days": "Sun", "time": "Closed"}], "id": "7215000001", "name": "USPS COLLECTION BOX - BLUE BOX", "address": {"city": "SHERIDAN", "state": "AR", "street": "313 S OAK ST", "postcode": "72150"}}},
{"geometry": {"type": "Point", "coordinates": [-92.4016131304, 34.3046893974]}, "type": "Feature", "properties": {"collection_times": [{"days": "Mon-Fri", "time": "4:45pm"}, {"days": "Sat", "time": "3:30pm"}, {"days": "Sun", "time": "Closed"}], "id": "7215000002", "name": "USPS COLLECTION BOX - PO LOBBY", "address": {"city": "SHERIDAN", "state": "AR", "street": "313 S OAK ST", "postcode": "72150"}}},
{"geometry": {"type": "Point", "coordinates": [-92.4016131304, 34.3046893974]}, "type": "Feature", "properties": {"collection_times": [{"days": "Mon-Fri", "time": "4:45pm"}, {"days": "Sat", "time": "3:30pm"}, {"days": "Sun", "time": "Closed"}], "id": "7215000003", "name": "USPS COLLECTION BOX - BLUE BOX", "address": {"city": "SHERIDAN", "state": "AR", "street": "313 S OAK ST", "postcode": "72150"}}},
{"geometry": {"type": "Point", "coordinates": [-92.4016131304, 34.3046893974]}, "type": "Feature", "properties": {"collection_times": [{"days": "Mon-Fri", "time": "4:45pm"}, {"days": "Sat", "time": "3:30pm"}, {"days": "Sun", "time": "Closed"}], "id": "7215000004", "name": "USPS COLLECTION BOX - PO LOBBY", "address": {"city": "SHERIDAN", "state": "AR", "street": "313 S OAK ST", "postcode": "72150"}}},
{"geometry": {"type": "Point", "coordinates": [-91.9444795767, 34.3792165818]}, "type": "Feature", "properties": {"collection_times": [{"days": "Mon-Fri", "time": "3:00pm"}, {"days": "Sat", "time": "9:30am"}, {"days": "Sun", "time": "Closed"}], "id": "7215200001", "name": "USPS COLLECTION BOX - BLUE BOX", "address": {"city": "SHERRILL", "state": "AR", "street": "114 E MAIN ST", "postcode": "72152"}}},
{"geometry": {"type": "Point", "coordinates": [-91.9444795767, 34.3792165818]}, "type": "Feature", "properties": {"collection_times": [{"days": "Mon-Fri", "time": "11:30am"}, {"days": "Sat", "time": "9:30am"}, {"days": "Sun", "time": "Closed"}], "id": "7215200002", "name": "USPS COLLECTION BOX - PO LOBBY", "address": {"city": "SHERRILL", "state": "AR", "street": "114 E MAIN ST", "postcode": "72152"}}},
{"geometry": {"type": "Point", "coordinates": [-91.9444795767, 34.3792165818]}, "type": "Feature", "properties": {"collection_times": [{"days": "Mon-Fri", "time": "11:30am"}, {"days": "Sat", "time": "9:30am"}, {"days": "Sun", "time": "Closed"}], "id": "7215200003", "name": "USPS COLLECTION BOX - PO LOBBY", "address": {"city": "SHERRILL", "state": "AR", "street": "114 E MAIN ST", "postcode": "72152"}}},
{"geometry": {"type": "Point", "coordinates": [-92.3191931398, 35.6585403834]}, "type": "Feature", "properties": {"collection_times": [{"days": "Mon-Fri", "time": "3:45pm"}, {"days": "Sat", "time": "10:15am"}, {"days": "Sun", "time": "Closed"}], "id": "7215300001", "name": "USPS COLLECTION BOX - PO LOBBY", "address": {"city": "SHIRLEY", "state": "AR", "street": "239 SAM ST", "postcode": "72153"}}},
{"geometry": {"type": "Point", "coordinates": [-92.3191931398, 35.6585403834]}, "type": "Feature", "properties": {"collection_times": [{"days": "Mon-Fri", "time": "3:45pm"}, {"days": "Sat", "time": "10:15am"}, {"days": "Sun", "time": "Closed"}], "id": "7215300009", "name": "USPS COLLECTION BOX - PO LOBBY", "address": {"city": "SHIRLEY", "state": "AR", "street": "239 SAM ST", "postcode": "72153"}}},
{"geometry": {"type": "Point", "coordinates": [-92.3191931398, 35.6585403834]}, "type": "Feature", "properties": {"collection_times": [{"days": "Mon-Fri", "time": "3:45pm"}, {"days": "Sat", "time": "10:15am"}, {"days": "Sun", "time": "Closed"}], "id": "7215300010", "name": "USPS COLLECTION BOX - BLUE BOX", "address": {"city": "SHIRLEY", "state": "AR", "street": "239 SAM ST", "postcode": "72153"}}},
{"geometry": {"type": "Point", "coordinates": [-92.3056608256, 35.4598478726]}, "type": "Feature", "properties": {"collection_times": [{"days": "Mon-Fri", "time": "1:00pm"}, {"days": "Sat", "time": "9:30am"}, {"days": "Sun", "time": "Closed"}], "id": "7215300011", "name": "USPS COLLECTION BOX - BLUE BOX", "address": {"city": "SHIRLEY", "state": "AR", "street": "107 VILLAGE PL", "postcode": "72153"}}},
{"geometry": {"type": "Point", "coordinates": [-92.6940253499, 35.222160365]}, "type": "Feature", "properties": {"collection_times": [{"days": "Mon-Fri", "time": "4:00pm"}, {"days": "Sat", "time": "11:45am"}, {"days": "Sun", "time": "Closed"}], "id": "7215600001", "name": "USPS COLLECTION BOX - BLUE BOX", "address": {"city": "SOLGOHACHIA", "state": "AR", "street": "3142 HIGHWAY 9", "postcode": "72156"}}},
{"geometry": {"type": "Point", "coordinates": [-92.6940253499, 35.222160365]}, "type": "Feature", "properties": {"collection_times": [{"days": "Mon-Fri", "time": "11:30am"}, {"days": "Sat", "time": "11:45am"}, {"days": "Sun", "time": "Closed"}], "id": "7215600002", "name": "USPS COLLECTION BOX - PO LOBBY", "address": {"city": "SOLGOHACHIA", "state": "AR", "street": "3142 HIGHWAY 9", "postcode": "72156"}}},
{"geometry": {"type": "Point", "coordinates": [-92.6940253499, 35.222160365]}, "type": "Feature", "properties": {"collection_times": [{"days": "Mon-Fri", "time": "11:30am"}, {"days": "Sat", "time": "11:45am"}, {"days": "Sun", "time": "Closed"}], "id": "7215600003", "name": "USPS COLLECTION BOX - PO LOBBY", "address": {"city": "SOLGOHACHIA", "state": "AR", "street": "3142 HIGHWAY 9", "postcode": "72156"}}},
{"geometry": {"type": "Point", "coordinates": [-92.6206862333, 35.2737280893]}, "type": "Feature", "properties": {"collection_times": [{"days": "Mon-Fri", "time": "3:15pm"}, {"days": "Sat", "time": "10:00am"}, {"days": "Sun", "time": "Closed"}], "id": "7215700001", "name": "USPS COLLECTION BOX - BLUE BOX", "address": {"city": "SPRINGFIELD", "state": "AR", "street": "765 STAGECOACH RD", "postcode": "72157"}}},
{"geometry": {"type": "Point", "coordinates": [-92.6206862333, 35.2737280893]}, "type": "Feature", "properties": {"collection_times": [{"days": "Mon-Fri", "time": "11:00am"}, {"days": "Sat", "time": "10:00am"}, {"days": "Sun", "time": "Closed"}], "id": "7215700002", "name": "USPS COLLECTION BOX - PO LOBBY", "address": {"city": "SPRINGFIELD", "state": "AR", "street": "765 STAGECOACH RD", "postcode": "72157"}}},
{"geometry": {"type": "Point", "coordinates": [-92.6206862333, 35.2737280893]}, "type": "Feature", "properties": {"collection_times": [{"days": "Mon-Fri", "time": "11:00am"}, {"days": "Sat", "time": "10:00am"}, {"days": "Sun", "time": "Closed"}], "id": "7215700003", "name": "USPS COLLECTION BOX - PO LOBBY", "address": {"city": "SPRINGFIELD", "state": "AR", "street": "765 STAGECOACH RD", "postcode": "72157"}}},
{"geometry": {"type": "Point", "coordinates": [-91.5584666358, 34.4810218538]}, "type": "Feature", "properties": {"collection_times": [{"days": "Mon-Sat", "time": "12:30pm"}, {"days": "Sun", "time": "Closed"}], "id": "7216000002", "name": "USPS COLLECTION BOX - BLUE BOX", "address": {"city": "STUTTGART", "state": "AR", "street": "2100 S BUERKLE ST", "postcode": "72160"}}},
{"geometry": {"type": "Point", "coordinates": [-91.5545566821, 34.5093834414]}, "type": "Feature", "properties": {"collection_times": [{"days": "Mon-Fri", "time": "5:00pm"}, {"days": "Sat", "time": "4:30pm"}, {"days": "Sun", "time": "Closed"}], "id": "7216000014", "name": "USPS COLLECTION BOX - BLUE BOX", "address": {"city": "STUTTGART", "state": "AR", "street": "304 W MICHIGAN ST", "postcode": "72160"}}},
{"geometry": {"type": "Point", "coordinates": [-91.5545566821, 34.5093834414]}, "type": "Feature", "properties": {"collection_times": [{"days": "Mon-Fri", "time": "5:00pm"}, {"days": "Sat", "time": "4:30pm"}, {"days": "Sun", "time": "Closed"}], "id": "7216000015", "name": "USPS COLLECTION BOX - BLUE BOX", "address": {"city": "STUTTGART", "state": "AR", "street": "304 W MICHIGAN ST", "postcode": "72160"}}},
{"geometry": {"type": "Point", "coordinates": [-91.5545566821, 34.5093834414]}, "type": "Feature", "properties": {"collection_times": [{"days": "Mon-Fri", "time": "5:00pm"}, {"days": "Sat", "time": "4:30pm"}, {"days": "Sun", "time": "Closed"}], "id": "7216000016", "name": "USPS COLLECTION BOX - BLUE BOX", "address": {"city": "STUTTGART", "state": "AR", "street": "304 W MICHIGAN ST", "postcode": "72160"}}},
{"geometry": {"type": "Point", "coordinates": [-91.5545566821, 34.5093834414]}, "type": "Feature", "properties": {"collection_times": [{"days": "Mon-Fri", "time": "5:00pm"}, {"days": "Sat", "time": "4:30pm"}, {"days": "Sun", "time": "Closed"}], "id": "7216000017", "name": "USPS COLLECTION BOX - PO LOBBY", "address": {"city": "STUTTGART", "state": "AR", "street": "304 W MICHIGAN ST", "postcode": "72160"}}},
{"geometry": {"type": "Point", "coordinates": [-91.5545566821, 34.5093834414]}, "type": "Feature", "properties": {"collection_times": [{"days": "Mon-Fri", "time": "5:00pm"}, {"days": "Sat", "time": "4:30pm"}, {"days": "Sun", "time": "Closed"}], "id": "7216000018", "name": "USPS COLLECTION BOX - PO LOBBY", "address": {"city": "STUTTGART", "state": "AR", "street": "304 W MICHIGAN ST", "postcode": "72160"}}},
{"geometry": {"type": "Point", "coordinates": [-91.5545566821, 34.5093834414]}, "type": "Feature", "properties": {"collection_times": [{"days": "Mon-Fri", "time": "5:00pm"}, {"days": "Sat", "time": "4:30pm"}, {"days": "Sun", "time": "Closed"}], "id": "7216000019", "name": "USPS COLLECTION BOX - PO LOBBY", "address": {"city": "STUTTGART", "state": "AR", "street": "304 W MICHIGAN ST", "postcode": "72160"}}},
{"geometry": {"type": "Point", "coordinates": [-91.553899922, 34.50017641]}, "type": "Feature", "properties": {"collection_times": [{"days": "Mon-Sat", "time": "10:00am"}, {"days": "Sun", "time": "Closed"}], "id": "7216000023", "name": "USPS COLLECTION BOX - BLUE BOX", "address": {"city": "STUTTGART", "state": "AR", "street": "304 S MAPLE ST", "postcode": "72160"}}},
{"geometry": {"type": "Point", "coordinates": [-92.2375337195, 34.6861022784]}, "type": "Feature", "properties": {"collection_times": [{"days": "Mon-Fri", "time": "4:00pm"}, {"days": "Sat", "time": "11:15am"}, {"days": "Sun", "time": "Closed"}], "id": "7216400001", "name": "USPS COLLECTION BOX - BLUE BOX", "address": {"city": "SWEET HOME", "state": "AR", "street": "7010 HIGHWAY 365 S", "postcode": "72164"}}},
{"geometry": {"type": "Point", "coordinates": [-92.2375337195, 34.6861022784]}, "type": "Feature", "properties": {"collection_times": [{"days": "Mon-Fri", "time": "4:00pm"}, {"days": "Sat", "time": "11:15am"}, {"days": "Sun", "time": "Closed"}], "id": "7216400002", "name": "USPS COLLECTION BOX - PO LOBBY", "address": {"city": "SWEET HOME", "state": "AR", "street": "7010 HIGHWAY 365 S", "postcode": "72164"}}},
{"geometry": {"type": "Point", "coordinates": [-92.2375337195, 34.6861022784]}, "type": "Feature", "properties": {"collection_times": [{"days": "Mon-Fri", "time": "4:00pm"}, {"days": "Sat", "time": "11:15am"}, {"days": "Sun", "time": "Closed"}], "id": "7216400004", "name": "USPS COLLECTION BOX - PO LOBBY", "address": {"city": "SWEET HOME", "state": "AR", "street": "7010 HIGHWAY 365 S", "postcode": "72164"}}},
{"geometry": {"type": "Point", "coordinates": [-91.4793181341, 35.5684919301]}, "type": "Feature", "properties": {"collection_times": [{"days": "Mon-Sat", "time": "11:00am"}, {"days": "Sun", "time": "Closed"}], "id": "7216500001", "name": "USPS COLLECTION BOX - PO LOBBY", "address": {"city": "THIDA", "state": "AR", "street": "999 THIDA RD", "postcode": "72165"}}},
{"geometry": {"type": "Point", "coordinates": [-91.2743858764, 34.1421402102]}, "type": "Feature", "properties": {"collection_times": [{"days": "Mon-Fri", "time": "2:15pm"}, {"days": "Sat", "time": "12:30pm"}, {"days": "Sun", "time": "Closed"}], "id": "7216600001", "name": "USPS COLLECTION BOX - BLUE BOX", "address": {"city": "TICHNOR", "state": "AR", "street": "1002 HIGHWAY 44", "postcode": "72166"}}},
{"geometry": {"type": "Point", "coordinates": [-91.2743858764, 34.1421402102]}, "type": "Feature", "properties": {"collection_times": [{"days": "Mon-Fri", "time": "2:15pm"}, {"days": "Sat", "time": "12:30pm"}, {"days": "Sun", "time": "Closed"}], "id": "7216600002", "name": "USPS COLLECTION BOX - PO LOBBY", "address": {"city": "TICHNOR", "state": "AR", "street": "1002 HIGHWAY 44", "postcode": "72166"}}},
{"geometry": {"type": "Point", "coordinates": [-92.6557948218, 34.4365985062]}, "type": "Feature", "properties": {"collection_times": [{"days": "Mon-Fri", "time": "4:00pm"}, {"days": "Sat", "time": "10:00am"}, {"days": "Sun", "time": "Closed"}], "id": "7216700001", "name": "USPS COLLECTION BOX - BLUE BOX", "address": {"city": "TRASKWOOD", "state": "AR", "street": "8108 HIGHWAY 229", "postcode": "72167"}}},
{"geometry": {"type": "Point", "coordinates": [-92.6557948218, 34.4365985062]}, "type": "Feature", "properties": {"collection_times": [{"days": "Mon-Fri", "time": "11:30am"}, {"days": "Sat", "time": "10:00am"}, {"days": "Sun", "time": "Closed"}], "id": "7216700002", "name": "USPS COLLECTION BOX - PO LOBBY", "address": {"city": "TRASKWOOD", "state": "AR", "street": "8108 HIGHWAY 229", "postcode": "72167"}}},
{"geometry": {"type": "Point", "coordinates": [-91.9547465605, 34.4444218562]}, "type": "Feature", "properties": {"collection_times": [{"days": "Mon-Fri", "time": "3:30pm"}, {"days": "Sat", "time": "10:30am"}, {"days": "Sun", "time": "Closed"}], "id": "7216800001", "name": "USPS COLLECTION BOX - BLUE BOX", "address": {"city": "TUCKER", "state": "AR", "street": "100 JOE T HENSLEE RD", "postcode": "72168"}}},
{"geometry": {"type": "Point", "coordinates": [-91.9547465605, 34.4444218562]}, "type": "Feature", "properties": {"collection_times": [{"days": "Mon-Fri", "time": "3:30pm"}, {"days": "Sat", "time": "10:30am"}, {"days": "Sun", "time": "Closed"}], "id": "7216800002", "name": "USPS COLLECTION BOX - PO LOBBY", "address": {"city": "TUCKER", "state": "AR", "street": "100 JOE T HENSLEE RD", "postcode": "72168"}}},
{"geometry": {"type": "Point", "coordinates": [-91.9547465605, 34.4444218562]}, "type": "Feature", "properties": {"collection_times": [{"days": "Mon-Fri", "time": "3:30pm"}, {"days": "Sat", "time": "10:30am"}, {"days": "Sun", "time": "Closed"}], "id": "7216800003", "name": "USPS COLLECTION BOX - PO LOBBY", "address": {"city": "TUCKER", "state": "AR", "street": "100 JOE T HENSLEE RD", "postcode": "72168"}}},
{"geometry": {"type": "Point", "coordinates": [-91.2303823125, 35.3911131349]}, "type": "Feature", "properties": {"collection_times": [{"days": "Mon-Fri", "time": "4:00pm"}, {"days": "Sat", "time": "11:45am"}, {"days": "Sun", "time": "Closed"}], "id": "7216900001", "name": "USPS COLLECTION BOX - BLUE BOX", "address": {"city": "TUPELO", "state": "AR", "street": "11220 HIGHWAY 17", "postcode": "72169"}}},
{"geometry": {"type": "Point", "coordinates": [-91.2303823125, 35.3911131349]}, "type": "Feature", "properties": {"collection_times": [{"days": "Mon-Fri", "time": "12:00pm"}, {"days": "Sat", "time": "11:45am"}, {"days": "Sun", "time": "Closed"}], "id": "7216900002", "name": "USPS COLLECTION BOX - PO LOBBY", "address": {"city": "TUPELO", "state": "AR", "street": "11220 HIGHWAY 17", "postcode": "72169"}}},
{"geometry": {"type": "Point", "coordinates": [-91.5210578767, 34.6105437945]}, "type": "Feature", "properties": {"collection_times": [{"days": "Mon-Fri", "time": "3:30pm"}, {"days": "Sat", "time": "9:30am"}, {"days": "Sun", "time": "Closed"}], "id": "7217000001", "name": "USPS COLLECTION BOX - BLUE BOX", "address": {"city": "ULM", "state": "AR", "street": "127 W 2ND ST", "postcode": "72170"}}},
{"geometry": {"type": "Point", "coordinates": [-91.5210578767, 34.6105437945]}, "type": "Feature", "properties": {"collection_times": [{"days": "Mon-Fri", "time": "3:30pm"}, {"days": "Sat", "time": "9:30am"}, {"days": "Sun", "time": "Closed"}], "id": "7217000002", "name": "USPS COLLECTION BOX - PO LOBBY", "address": {"city": "ULM", "state": "AR", "street": "127 W 2ND ST", "postcode": "72170"}}},
{"geometry": {"type": "Point", "coordinates": [-91.5210578767, 34.6105437945]}, "type": "Feature", "properties": {"collection_times": [{"days": "Mon-Fri", "time": "3:30pm"}, {"days": "Sat", "time": "9:30am"}, {"days": "Sun", "time": "Closed"}], "id": "7217000003", "name": "USPS COLLECTION BOX - PO LOBBY", "address": {"city": "ULM", "state": "AR", "street": "127 W 2ND ST", "postcode": "72170"}}},
{"geometry": {"type": "Point", "coordinates": [-92.207394356, 35.082572117]}, "type": "Feature", "properties": {"collection_times": [{"days": "Mon-Fri", "time": "4:00pm"}, {"days": "Sat", "time": "11:00am"}, {"days": "Sun", "time": "Closed"}], "id": "7217300001", "name": "USPS COLLECTION BOX - PO LOBBY", "address": {"city": "VILONIA", "state": "AR", "street": "8 S CHURCH ST", "postcode": "72173"}}},
{"geometry": {"type": "Point", "coordinates": [-92.207394356, 35.082572117]}, "type": "Feature", "properties": {"collection_times": [{"days": "Mon-Fri", "time": "4:00pm"}, {"days": "Sat", "time": "11:00am"}, {"days": "Sun", "time": "Closed"}], "id": "7217300002", "name": "USPS COLLECTION BOX - BLUE BOX", "address": {"city": "VILONIA", "state": "AR", "street": "8 S CHURCH ST", "postcode": "72173"}}},
{"geometry": {"type": "Point", "coordinates": [-92.207394356, 35.082572117]}, "type": "Feature", "properties": {"collection_times": [{"days": "Mon-Fri", "time": "4:00pm"}, {"days": "Sat", "time": "11:00am"}, {"days": "Sun", "time": "Closed"}], "id": "7217300004", "name": "USPS COLLECTION BOX - PO LOBBY", "address": {"city": "VILONIA", "state": "AR", "street": "8 S CHURCH ST", "postcode": "72173"}}},
{"geometry": {"type": "Point", "coordinates": [-91.7948537403, 34.3614126684]}, "type": "Feature", "properties": {"collection_times": [{"days": "Mon-Fri", "time": "4:00pm"}, {"days": "Sat", "time": "9:45am"}, {"days": "Sun", "time": "Closed"}], "id": "7217500000", "name": "USPS COLLECTION BOX - BLUE BOX", "address": {"city": "WABBASEKA", "state": "AR", "street": "210 S 1ST ST", "postcode": "72175"}}},
{"geometry": {"type": "Point", "coordinates": [-91.7948537403, 34.3614126684]}, "type": "Feature", "properties": {"collection_times": [{"days": "Mon-Fri", "time": "12:30pm"}, {"days": "Sat", "time": "10:00am"}, {"days": "Sun", "time": "Closed"}], "id": "7217500001", "name": "USPS COLLECTION BOX - PO LOBBY", "address": {"city": "WABBASEKA", "state": "AR", "street": "210 S 1ST ST", "postcode": "72175"}}},
{"geometry": {"type": "Point", "coordinates": [-91.9547312724, 35.0326916539]}, "type": "Feature", "properties": {"collection_times": [{"days": "Mon-Fri", "time": "4:15pm"}, {"days": "Sat", "time": "10:45am"}, {"days": "Sun", "time": "Closed"}], "id": "7217600002", "name": "USPS COLLECTION BOX - PO LOBBY", "address": {"city": "WARD", "state": "AR", "street": "106 BALDING RD", "postcode": "72176"}}},
{"geometry": {"type": "Point", "coordinates": [-91.9547312724, 35.0326916539]}, "type": "Feature", "properties": {"collection_times": [{"days": "Mon-Fri", "time": "4:15pm"}, {"days": "Sat", "time": "10:45am"}, {"days": "Sun", "time": "Closed"}], "id": "7217600003", "name": "USPS COLLECTION BOX - PO LOBBY", "address": {"city": "WARD", "state": "AR", "street": "106 BALDING RD", "postcode": "72176"}}},
{"geometry": {"type": "Point", "coordinates": [-91.9547312724, 35.0326916539]}, "type": "Feature", "properties": {"collection_times": [{"days": "Mon-Fri", "time": "4:15pm"}, {"days": "Sat", "time": "10:45am"}, {"days": "Sun", "time": "Closed"}], "id": "7217600004", "name": "USPS COLLECTION BOX - BLUE BOX", "address": {"city": "WARD", "state": "AR", "street": "106 BALDING RD", "postcode": "72176"}}},
{"geometry": {"type": "Point", "coordinates": [-91.6125264884, 35.2071741818]}, "type": "Feature", "properties": {"collection_times": [{"days": "Mon-Fri", "time": "11:30am"}, {"days": "Sat", "time": "12:00pm"}, {"days": "Sun", "time": "Closed"}], "id": "7217800001", "name": "USPS COLLECTION BOX - BLUE BOX", "address": {"city": "WEST POINT", "state": "AR", "street": "112 BROAD ST", "postcode": "72178"}}},
{"geometry": {"type": "Point", "coordinates": [-91.6125264884, 35.2071741818]}, "type": "Feature", "properties": {"collection_times": [{"days": "Mon-Fri", "time": "11:30am"}, {"days": "Sat", "time": "12:00pm"}, {"days": "Sun", "time": "Closed"}], "id": "7217800002", "name": "USPS COLLECTION BOX - PO LOBBY", "address": {"city": "WEST POINT", "state": "AR", "street": "112 BROAD ST", "postcode": "72178"}}},
{"geometry": {"type": "Point", "coordinates": [-91.8792313471, 35.4925258872]}, "type": "Feature", "properties": {"collection_times": [{"days": "Mon-Fri", "time": "4:00pm"}, {"days": "Sat", "time": "12:15pm"}, {"days": "Sun", "time": "Closed"}], "id": "7217900001", "name": "USPS COLLECTION BOX - BLUE BOX", "address": {"city": "WILBURN", "state": "AR", "street": "4605 WILBURN RD", "postcode": "72179"}}},
{"geometry": {"type": "Point", "coordinates": [-91.8792313471, 35.4925258872]}, "type": "Feature", "properties": {"collection_times": [{"days": "Mon-Fri", "time": "11:45am"}, {"days": "Sat", "time": "12:15pm"}, {"days": "Sun", "time": "Closed"}], "id": "7217900002", "name": "USPS COLLECTION BOX - PO LOBBY", "address": {"city": "WILBURN", "state": "AR", "street": "4605 WILBURN RD", "postcode": "72179"}}},
{"geometry": {"type": "Point", "coordinates": [-92.211281392, 34.5287577341]}, "type": "Feature", "properties": {"collection_times": [{"days": "Mon-Fri", "time": "3:45pm"}, {"days": "Sat", "time": "10:30am"}, {"days": "Sun", "time": "Closed"}], "id": "7218000001", "name": "USPS COLLECTION BOX - BLUE BOX", "address": {"city": "WOODSON", "state": "AR", "street": "24622 HIGHWAY 365", "postcode": "72180"}}},
{"geometry": {"type": "Point", "coordinates": [-92.211281392, 34.5287577341]}, "type": "Feature", "properties": {"collection_times": [{"days": "Mon-Fri", "time": "11:30am"}, {"days": "Sat", "time": "10:30am"}, {"days": "Sun", "time": "Closed"}], "id": "7218000002", "name": "USPS COLLECTION BOX - PO LOBBY", "address": {"city": "WOODSON", "state": "AR", "street": "24622 HIGHWAY 365", "postcode": "72180"}}},
{"geometry": {"type": "Point", "coordinates": [-92.4558100347, 35.201463925]}, "type": "Feature", "properties": {"collection_times": [{"days": "Mon-Fri", "time": "12:00pm"}, {"days": "Sat", "time": "11:15am"}, {"days": "Sun", "time": "Closed"}], "id": "7218100002", "name": "USPS COLLECTION BOX - PO LOBBY", "address": {"city": "WOOSTER", "state": "AR", "street": "19 PATTON RD", "postcode": "72181"}}},
{"geometry": {"type": "Point", "coordinates": [-92.0247366991, 34.4835141482]}, "type": "Feature", "properties": {"collection_times": [{"days": "Mon-Fri", "time": "2:00pm"}, {"days": "Sat", "time": "12:30pm"}, {"days": "Sun", "time": "Closed"}], "id": "7218200002", "name": "USPS COLLECTION BOX - PO LOBBY", "address": {"city": "WRIGHT", "state": "AR", "street": "8305 ARKANSAS HIGHWAY 256", "postcode": "72182"}}},
{"geometry": {"type": "Point", "coordinates": [-92.2167061885, 34.6019551471]}, "type": "Feature", "properties": {"collection_times": [{"days": "Mon-Fri", "time": "3:30pm"}, {"days": "Sat", "time": "10:30am"}, {"days": "Sun", "time": "Closed"}], "id": "7218300001", "name": "USPS COLLECTION BOX - BLUE BOX", "address": {"city": "WRIGHTSVILLE", "state": "AR", "street": "16220 HIGHWAY 365", "postcode": "72183"}}},
{"geometry": {"type": "Point", "coordinates": [-92.2167061885, 34.6019551471]}, "type": "Feature", "properties": {"collection_times": [{"days": "Mon-Fri", "time": "3:30pm"}, {"days": "Sat", "time": "10:30am"}, {"days": "Sun", "time": "Closed"}], "id": "7218300002", "name": "USPS COLLECTION BOX - PO LOBBY", "address": {"city": "WRIGHTSVILLE", "state": "AR", "street": "16220 HIGHWAY 365", "postcode": "72183"}}}
]}
