{"type": "FeatureCollection", "features": [
{"geometry": {"type": "Point", "coordinates": [-92.2748505548, 34.7433913839]}, "type": "Feature", "properties": {"collection_times": [{"days": "Mon-Fri", "time": "11:45am"}, {"days": "Sat-Sun", "time": "Closed"}], "id": "7220100028", "name": "USPS COLLECTION BOX - BLUE BOX", "address": {"city": "LITTLE ROCK", "state": "AR", "street": "623 S SPRING ST", "postcode": "72201"}}},
{"geometry": {"type": "Point", "coordinates": [-92.2747742296, 34.7476408328]}, "type": "Feature", "properties": {"collection_times": [{"days": "Mon-Fri", "time": "3:45pm"}, {"days": "Sat-Sun", "time": "Closed"}], "id": "7220100038", "name": "USPS COLLECTION BOX - BLUE BOX", "address": {"city": "LITTLE ROCK", "state": "AR", "street": "415 W 2ND ST", "postcode": "72201"}}},
{"geometry": {"type": "Point", "coordinates": [-92.2878033505, 34.7474917056]}, "type": "Feature", "properties": {"collection_times": [{"days": "Mon-Fri", "time": "4:00pm"}, {"days": "Sat-Sun", "time": "Closed"}], "id": "7220100044", "name": "USPS COLLECTION BOX - BLUE BOX", "address": {"city": "LITTLE ROCK", "state": "AR", "street": "1500 W 4TH ST", "postcode": "72201"}}},
{"geometry": {"type": "Point", "coordinates": [-92.2773596639, 34.7460915206]}, "type": "Feature", "properties": {"collection_times": [{"days": "Mon-Fri", "time": "3:30pm"}, {"days": "Sat-Sun", "time": "Closed"}], "id": "7220100051", "name": "USPS COLLECTION BOX - BLUE BOX", "address": {"city": "LITTLE ROCK", "state": "AR", "street": "423 MAIN ST", "postcode": "72201"}}},
{"geometry": {"type": "Point", "coordinates": [-92.2729917671, 34.7473037767]}, "type": "Feature", "properties": {"collection_times": [{"days": "Mon-Fri", "time": "4:00pm"}, {"days": "Sat-Sun", "time": "Closed"}], "id": "7220100056", "name": "USPS COLLECTION BOX - BLUE BOX", "address": {"city": "LITTLE ROCK", "state": "AR", "street": "212 CENTER ST", "postcode": "72201"}}},
{"geometry": {"type": "Point", "coordinates": [-92.2809569806, 34.7311739044]}, "type": "Feature", "properties": {"collection_times": [{"days": "Mon-Fri", "time": "3:45pm"}, {"days": "Sat-Sun", "time": "Closed"}], "id": "7220100062", "name": "USPS COLLECTION BOX - BLUE BOX", "address": {"city": "LITTLE ROCK", "state": "AR", "street": "101 S GAINES ST", "postcode": "72201"}}},
{"geometry": {"type": "Point", "coordinates": [-92.27232172, 34.744045644]}, "type": "Feature", "properties": {"collection_times": [{"days": "Mon-Fri", "time": "4:00pm"}, {"days": "Sat-Sun", "time": "Closed"}], "id": "7220100065", "name": "USPS COLLECTION BOX - BLUE BOX", "address": {"city": "LITTLE ROCK", "state": "AR", "street": "523 LOUISIANA ST", "postcode": "72201"}}},
{"geometry": {"type": "Point", "coordinates": [-92.2698779578, 34.7470983194]}, "type": "Feature", "properties": {"collection_times": [{"days": "Mon-Fri", "time": "1:00pm"}, {"days": "Sat-Sun", "time": "Closed"}], "id": "7220100067", "name": "USPS COLLECTION BOX - BLUE BOX", "address": {"city": "LITTLE ROCK", "state": "AR", "street": "122 E 2ND ST", "postcode": "72201"}}},
{"geometry": {"type": "Point", "coordinates": [-92.2745797896, 34.7487310248]}, "type": "Feature", "properties": {"collection_times": [{"days": "Mon-Fri", "time": "9:30am"}, {"days": "Sat-Sun", "time": "Closed"}], "id": "7220100070", "name": "USPS COLLECTION BOX - BLUE BOX", "address": {"city": "LITTLE ROCK", "state": "AR", "street": "115 E CAPITOL AVE", "postcode": "72201"}}},
{"geometry": {"type": "Point", "coordinates": [-92.2858480718, 34.7499768308]}, "type": "Feature", "properties": {"collection_times": [{"days": "Mon-Fri", "time": "4:00pm"}, {"days": "Sat-Sun", "time": "Closed"}], "id": "7220100071", "name": "USPS COLLECTION BOX - BLUE BOX", "address": {"city": "LITTLE ROCK", "state": "AR", "street": "1400 W MARKHAM ST", "postcode": "72201"}}},
{"geometry": {"type": "Point", "coordinates": [-92.2694968922, 34.7479910448]}, "type": "Feature", "properties": {"collection_times": [{"days": "Mon-Fri", "time": "10:00am"}, {"days": "Sat-Sun", "time": "Closed"}], "id": "7220100075", "name": "USPS COLLECTION BOX - BLUE BOX", "address": {"city": "LITTLE ROCK", "state": "AR", "street": "3 STATEHOUSE PLZ", "postcode": "72201"}}},
{"geometry": {"type": "Point", "coordinates": [-92.2729917671, 34.7473037767]}, "type": "Feature", "properties": {"collection_times": [{"days": "Mon-Fri", "time": "4:00pm"}, {"days": "Sat-Sun", "time": "Closed"}], "id": "7220100086", "name": "USPS COLLECTION BOX - BLUE BOX", "address": {"city": "LITTLE ROCK", "state": "AR", "street": "212 CENTER ST", "postcode": "72201"}}},
{"geometry": {"type": "Point", "coordinates": [-92.2912944949, 34.7453312246]}, "type": "Feature", "properties": {"collection_times": [{"days": "Mon-Fri", "time": "4:00pm"}, {"days": "Sat-Sun", "time": "Closed"}], "id": "7220100091", "name": "USPS COLLECTION BOX - BLUE BOX", "address": {"city": "LITTLE ROCK", "state": "AR", "street": "625 MARSHALL ST", "postcode": "72201"}}},
{"geometry": {"type": "Point", "coordinates": [-92.2743421418, 34.7466066504]}, "type": "Feature", "properties": {"collection_times": [{"days": "Mon-Fri", "time": "12:00pm"}, {"days": "Sat-Sun", "time": "Closed"}], "id": "7220100114", "name": "USPS COLLECTION BOX - BLUE BOX", "address": {"city": "LITTLE ROCK", "state": "AR", "street": "300 S SPRING ST", "postcode": "72201"}}},
{"geometry": {"type": "Point", "coordinates": [-92.2698779578, 34.7470983194]}, "type": "Feature", "properties": {"collection_times": [{"days": "Mon-Fri", "time": "1:00pm"}, {"days": "Sat-Sun", "time": "Closed"}], "id": "7220100118", "name": "USPS COLLECTION BOX - BLUE BOX", "address": {"city": "LITTLE ROCK", "state": "AR", "street": "122 E 2ND ST", "postcode": "72201"}}},
{"geometry": {"type": "Point", "coordinates": [-92.284875332, 34.7439483069]}, "type": "Feature", "properties": {"collection_times": [{"days": "Mon-Fri", "time": "2:30pm"}, {"days": "Sat-Sun", "time": "Closed"}], "id": "7220100121", "name": "USPS COLLECTION BOX - BLUE BOX", "address": {"city": "LITTLE ROCK", "state": "AR", "street": "1223 W 7TH ST", "postcode": "72201"}}},
{"geometry": {"type": "Point", "coordinates": [-92.2747742296, 34.7476408328]}, "type": "Feature", "properties": {"collection_times": [{"days": "Mon-Fri", "time": "3:45pm"}, {"days": "Sat-Sun", "time": "Closed"}], "id": "7220100122", "name": "USPS COLLECTION BOX - BLUE BOX", "address": {"city": "LITTLE ROCK", "state": "AR", "street": "415 W 2ND ST", "postcode": "72201"}}},
{"geometry": {"type": "Point", "coordinates": [-92.2723370306, 34.7443849319]}, "type": "Feature", "properties": {"collection_times": [{"days": "Mon-Fri", "time": "4:00pm"}, {"days": "Sat-Sun", "time": "Closed"}], "id": "7220100146", "name": "USPS COLLECTION BOX - BLUE BOX", "address": {"city": "LITTLE ROCK", "state": "AR", "street": "200 W CAPITOL AVE", "postcode": "72201"}}},
{"geometry": {"type": "Point", "coordinates": [-92.3252528791, 34.7408197518]}, "type": "Feature", "properties": {"collection_times": [{"days": "Mon-Fri", "time": "12:45pm"}, {"days": "Sat-Sun", "time": "Closed"}], "id": "7220200000", "name": "USPS COLLECTION BOX - BLUE BOX", "address": {"city": "LITTLE ROCK", "state": "AR", "street": "1400 W 12TH ST", "postcode": "72202"}}},
{"geometry": {"type": "Point", "coordinates": [-92.2185205363, 34.7279124133]}, "type": "Feature", "properties": {"collection_times": [{"days": "Mon-Fri", "time": "11:45am"}, {"days": "Sat-Sun", "time": "Closed"}], "id": "7220200004", "name": "USPS COLLECTION BOX - BLUE BOX", "address": {"city": "LITTLE ROCK", "state": "AR", "street": "1 AIRPORT RD", "postcode": "72202"}}},
{"geometry": {"type": "Point", "coordinates": [-92.3050780442, 34.7641728188]}, "type": "Feature", "properties": {"collection_times": [{"days": "Mon-Fri", "time": "4:00pm"}, {"days": "Sat-Sun", "time": "Closed"}], "id": "7220200020", "name": "USPS COLLECTION BOX - BLUE BOX", "address": {"city": "LITTLE ROCK", "state": "AR", "street": "1500 RIVERFRONT DR", "postcode": "72202"}}},
{"geometry": {"type": "Point", "coordinates": [-92.2634619226, 34.7361922172]}, "type": "Feature", "properties": {"collection_times": [{"days": "Mon-Fri", "time": "10:00am"}, {"days": "Sat-Sun", "time": "Closed"}], "id": "7220200025", "name": "USPS COLLECTION BOX - BLUE BOX", "address": {"city": "LITTLE ROCK", "state": "AR", "street": "1201 MCMATH AVE", "postcode": "72202"}}},
{"geometry": {"type": "Point", "coordinates": [-92.2621487016, 34.7421137554]}, "type": "Feature", "properties": {"collection_times": [{"days": "Mon-Fri", "time": "11:45am"}, {"days": "Sat-Sun", "time": "Closed"}], "id": "7220200034", "name": "USPS COLLECTION BOX - BLUE BOX", "address": {"city": "LITTLE ROCK", "state": "AR", "street": "822 E 6TH ST", "postcode": "72202"}}},
{"geometry": {"type": "Point", "coordinates": [-92.265078534, 34.7433989004]}, "type": "Feature", "properties": {"collection_times": [{"days": "Mon-Fri", "time": "6:00pm"}, {"days": "Sat", "time": "4:30pm"}, {"days": "Sun", "time": "Closed"}], "id": "7220200040", "name": "USPS COLLECTION BOX - BLUE BOX", "address": {"city": "LITTLE ROCK", "state": "AR", "street": "600 E CAPITOL AVE", "postcode": "72202"}}},
{"geometry": {"type": "Point", "coordinates": [-92.265078534, 34.7433989004]}, "type": "Feature", "properties": {"collection_times": [{"days": "Mon-Fri", "time": "6:00pm"}, {"days": "Sat", "time": "4:30pm"}, {"days": "Sun", "time": "Closed"}], "id": "7220200041", "name": "USPS COLLECTION BOX - BLUE BOX", "address": {"city": "LITTLE ROCK", "state": "AR", "street": "600 E CAPITOL AVE", "postcode": "72202"}}},
{"geometry": {"type": "Point", "coordinates": [-92.265078534, 34.7433989004]}, "type": "Feature", "properties": {"collection_times": [{"days": "Mon-Fri", "time": "6:00pm"}, {"days": "Sat", "time": "4:30pm"}, {"days": "Sun", "time": "Closed"}], "id": "7220200048", "name": "USPS COLLECTION BOX - PO LOBBY", "address": {"city": "LITTLE ROCK", "state": "AR", "street": "600 E CAPITOL AVE", "postcode": "72202"}}},
{"geometry": {"type": "Point", "coordinates": [-92.265078534, 34.7433989004]}, "type": "Feature", "properties": {"collection_times": [{"days": "Mon-Fri", "time": "6:00pm"}, {"days": "Sat", "time": "4:30pm"}, {"days": "Sun", "time": "Closed"}], "id": "7220200050", "name": "USPS COLLECTION BOX - PO LOBBY", "address": {"city": "LITTLE ROCK", "state": "AR", "street": "600 E CAPITOL AVE", "postcode": "72202"}}},
{"geometry": {"type": "Point", "coordinates": [-92.3086734866, 34.7603045293]}, "type": "Feature", "properties": {"collection_times": [{"days": "Mon-Fri", "time": "12:00pm"}, {"days": "Sat-Sun", "time": "Closed"}], "id": "7220200058", "name": "USPS COLLECTION BOX - BLUE BOX", "address": {"city": "LITTLE ROCK", "state": "AR", "street": "2800 CANTRELL RD", "postcode": "72202"}}},
{"geometry": {"type": "Point", "coordinates": [-92.2914942281, 34.743425882]}, "type": "Feature", "properties": {"collection_times": [{"days": "Mon-Fri", "time": "2:00pm"}, {"days": "Sat-Sun", "time": "Closed"}], "id": "7220200060", "name": "USPS COLLECTION BOX - BLUE BOX", "address": {"city": "LITTLE ROCK", "state": "AR", "street": "1 CHILDRENS WAY", "postcode": "72202"}}},
{"geometry": {"type": "Point", "coordinates": [-92.3583117037, 34.7154938603]}, "type": "Feature", "properties": {"collection_times": [{"days": "Mon-Fri", "time": "5:00pm"}, {"days": "Sat", "time": "4:30pm"}, {"days": "Sun", "time": "Closed"}], "id": "7220400001", "name": "USPS COLLECTION BOX - BLUE BOX", "address": {"city": "LITTLE ROCK", "state": "AR", "street": "7401 COLONEL GLENN RD", "postcode": "72204"}}},
{"geometry": {"type": "Point", "coordinates": [-92.3381199617, 34.7431464253]}, "type": "Feature", "properties": {"collection_times": [{"days": "Mon-Fri", "time": "12:30pm"}, {"days": "Sat-Sun", "time": "Closed"}], "id": "7220400003", "name": "USPS COLLECTION BOX - BLUE BOX", "address": {"city": "LITTLE ROCK", "state": "AR", "street": "5800 W 10TH ST", "postcode": "72204"}}},
{"geometry": {"type": "Point", "coordinates": [-92.3545571419, 34.7224362974]}, "type": "Feature", "properties": {"collection_times": [{"days": "Mon-Fri", "time": "12:00pm"}, {"days": "Sat-Sun", "time": "Closed"}], "id": "7220400016", "name": "USPS COLLECTION BOX - BLUE BOX", "address": {"city": "LITTLE ROCK", "state": "AR", "street": "6221 ASHER AVE", "postcode": "72204"}}},
{"geometry": {"type": "Point", "coordinates": [-92.3417783245, 34.7268504155]}, "type": "Feature", "properties": {"collection_times": [{"days": "Mon-Fri", "time": "12:00pm"}, {"days": "Sat-Sun", "time": "Closed"}], "id": "7220400025", "name": "USPS COLLECTION BOX - BLUE BOX", "address": {"city": "LITTLE ROCK", "state": "AR", "street": "2801 S UNIVERSITY AVE", "postcode": "72204"}}},
{"geometry": {"type": "Point", "coordinates": [-92.3583117037, 34.7154938603]}, "type": "Feature", "properties": {"collection_times": [{"days": "Mon-Fri", "time": "5:00pm"}, {"days": "Sat", "time": "4:30pm"}, {"days": "Sun", "time": "Closed"}], "id": "7220400035", "name": "USPS COLLECTION BOX - BLUE BOX", "address": {"city": "LITTLE ROCK", "state": "AR", "street": "7401 COLONEL GLENN RD", "postcode": "72204"}}},
{"geometry": {"type": "Point", "coordinates": [-92.3583117037, 34.7154938603]}, "type": "Feature", "properties": {"collection_times": [{"days": "Mon-Fri", "time": "5:00pm"}, {"days": "Sat", "time": "4:30pm"}, {"days": "Sun", "time": "Closed"}], "id": "7220400036", "name": "USPS COLLECTION BOX - PO LOBBY", "address": {"city": "LITTLE ROCK", "state": "AR", "street": "7401 COLONEL GLENN RD", "postcode": "72204"}}},
{"geometry": {"type": "Point", "coordinates": [-92.3515452618, 34.7416908373]}, "type": "Feature", "properties": {"collection_times": [{"days": "Mon-Fri", "time": "12:30pm"}, {"days": "Sat-Sun", "time": "Closed"}], "id": "7220400037", "name": "USPS COLLECTION BOX - BLUE BOX", "address": {"city": "LITTLE ROCK", "state": "AR", "street": "6801 W 12TH ST", "postcode": "72204"}}},
{"geometry": {"type": "Point", "coordinates": [-92.3191394641, 34.7406192963]}, "type": "Feature", "properties": {"collection_times": [{"days": "Mon-Fri", "time": "12:30pm"}, {"days": "Sat-Sun", "time": "Closed"}], "id": "7220400039", "name": "USPS COLLECTION BOX - BLUE BOX", "address": {"city": "LITTLE ROCK", "state": "AR", "street": "4110 W 12TH ST", "postcode": "72204"}}},
{"geometry": {"type": "Point", "coordinates": [-92.3413816886, 34.7420083367]}, "type": "Feature", "properties": {"collection_times": [{"days": "Mon-Fri", "time": "12:30pm"}, {"days": "Sat-Sun", "time": "Closed"}], "id": "7220400046", "name": "USPS COLLECTION BOX - BLUE BOX", "address": {"city": "LITTLE ROCK", "state": "AR", "street": "1123 S UNIVERSITY AVE", "postcode": "72204"}}},
{"geometry": {"type": "Point", "coordinates": [-92.3583117037, 34.7154938603]}, "type": "Feature", "properties": {"collection_times": [{"days": "Mon-Fri", "time": "5:00pm"}, {"days": "Sat", "time": "4:30pm"}, {"days": "Sun", "time": "Closed"}], "id": "7220400050", "name": "USPS COLLECTION BOX - PO LOBBY", "address": {"city": "LITTLE ROCK", "state": "AR", "street": "7401 COLONEL GLENN RD", "postcode": "72204"}}},
{"geometry": {"type": "Point", "coordinates": [-92.3263441587, 34.7517302604]}, "type": "Feature", "properties": {"collection_times": [{"days": "Mon-Fri", "time": "1:00pm"}, {"days": "Sat-Sun", "time": "Closed"}], "id": "7220500006", "name": "USPS COLLECTION BOX - BLUE BOX", "address": {"city": "LITTLE ROCK", "state": "AR", "street": "4815 W MARKHAM ST", "postcode": "72205"}}},
{"geometry": {"type": "Point", "coordinates": [-92.3456971987, 34.7482909527]}, "type": "Feature", "properties": {"collection_times": [{"days": "Mon-Fri", "time": "3:45pm"}, {"days": "Sat-Sun", "time": "Closed"}], "id": "7220500021", "name": "USPS COLLECTION BOX - BLUE BOX", "address": {"city": "LITTLE ROCK", "state": "AR", "street": "606 S MCKINLEY ST", "postcode": "72205"}}},
{"geometry": {"type": "Point", "coordinates": [-92.3243040093, 34.7576654121]}, "type": "Feature", "properties": {"collection_times": [{"days": "Mon-Fri", "time": "4:00pm"}, {"days": "Sat", "time": "1:30pm"}, {"days": "Sun", "time": "Closed"}], "id": "7220500027", "name": "USPS COLLECTION BOX - BLUE BOX", "address": {"city": "LITTLE ROCK", "state": "AR", "street": "2803 KAVANAUGH BLVD", "postcode": "72205"}}},
{"geometry": {"type": "Point", "coordinates": [-92.3465567015, 34.7525583607]}, "type": "Feature", "properties": {"collection_times": [{"days": "Mon-Fri", "time": "4:00pm"}, {"days": "Sat-Sun", "time": "Closed"}], "id": "7220500031", "name": "USPS COLLECTION BOX - BLUE BOX", "address": {"city": "LITTLE ROCK", "state": "AR", "street": "9501 BAPTIST HEALTH DR", "postcode": "72205"}}},
{"geometry": {"type": "Point", "coordinates": [-92.3369284977, 34.751168552]}, "type": "Feature", "properties": {"collection_times": [{"days": "Mon-Fri", "time": "2:00pm"}, {"days": "Sat-Sun", "time": "Closed"}], "id": "7220500032", "name": "USPS COLLECTION BOX - BLUE BOX", "address": {"city": "LITTLE ROCK", "state": "AR", "street": "5 SAINT VINCENT CIR", "postcode": "72205"}}},
{"geometry": {"type": "Point", "coordinates": [-92.3454275245, 34.7553192011]}, "type": "Feature", "properties": {"collection_times": [{"days": "Mon-Fri", "time": "3:45pm"}, {"days": "Sat-Sun", "time": "Closed"}], "id": "7220500034", "name": "USPS COLLECTION BOX - BLUE BOX", "address": {"city": "LITTLE ROCK", "state": "AR", "street": "415 N MCKINLEY ST", "postcode": "72205"}}},
{"geometry": {"type": "Point", "coordinates": [-92.3219401892, 34.7450368377]}, "type": "Feature", "properties": {"collection_times": [{"days": "Mon-Fri", "time": "1:00pm"}, {"days": "Sat-Sun", "time": "Closed"}], "id": "7220500037", "name": "USPS COLLECTION BOX - BLUE BOX", "address": {"city": "LITTLE ROCK", "state": "AR", "street": "4300 W 7TH ST", "postcode": "72205"}}},
{"geometry": {"type": "Point", "coordinates": [-92.3243040093, 34.7576654121]}, "type": "Feature", "properties": {"collection_times": [{"days": "Mon-Fri", "time": "4:00pm"}, {"days": "Sat", "time": "1:30pm"}, {"days": "Sun", "time": "Closed"}], "id": "7220500051", "name": "USPS COLLECTION BOX - BLUE BOX", "address": {"city": "LITTLE ROCK", "state": "AR", "street": "2803 KAVANAUGH BLVD", "postcode": "72205"}}},
{"geometry": {"type": "Point", "coordinates": [-92.3243040093, 34.7576654121]}, "type": "Feature", "properties": {"collection_times": [{"days": "Mon-Fri", "time": "4:00pm"}, {"days": "Sat", "time": "1:30pm"}, {"days": "Sun", "time": "Closed"}], "id": "7220500053", "name": "USPS COLLECTION BOX - BLUE BOX", "address": {"city": "LITTLE ROCK", "state": "AR", "street": "2803 KAVANAUGH BLVD", "postcode": "72205"}}},
{"geometry": {"type": "Point", "coordinates": [-92.3861989807, 34.753084274]}, "type": "Feature", "properties": {"collection_times": [{"days": "Mon-Fri", "time": "3:45pm"}, {"days": "Sat-Sun", "time": "Closed"}], "id": "7220500056", "name": "USPS COLLECTION BOX - BLUE BOX", "address": {"city": "LITTLE ROCK", "state": "AR", "street": "1 CORPORATE HILL DR", "postcode": "72205"}}},
{"geometry": {"type": "Point", "coordinates": [-92.3861989807, 34.753084274]}, "type": "Feature", "properties": {"collection_times": [{"days": "Mon-Fri", "time": "3:45pm"}, {"days": "Sat-Sun", "time": "Closed"}], "id": "7220500057", "name": "USPS COLLECTION BOX - BLUE BOX", "address": {"city": "LITTLE ROCK", "state": "AR", "street": "1 CORPORATE HILL DR", "postcode": "72205"}}},
{"geometry": {"type": "Point", "coordinates": [-92.3465567015, 34.7525583607]}, "type": "Feature", "properties": {"collection_times": [{"days": "Mon-Fri", "time": "4:00pm"}, {"days": "Sat-Sun", "time": "Closed"}], "id": "7220500067", "name": "USPS COLLECTION BOX - BLUE BOX", "address": {"city": "LITTLE ROCK", "state": "AR", "street": "9600 BAPTIST HEALTH DR", "postcode": "72205"}}},
{"geometry": {"type": "Point", "coordinates": [-92.3465567015, 34.7525583607]}, "type": "Feature", "properties": {"collection_times": [{"days": "Mon-Fri", "time": "4:00pm"}, {"days": "Sat-Sun", "time": "Closed"}], "id": "7220500078", "name": "USPS COLLECTION BOX - BLUE BOX", "address": {"city": "LITTLE ROCK", "state": "AR", "street": "9601 BAPTIST HEALTH DR", "postcode": "72205"}}},
{"geometry": {"type": "Point", "coordinates": [-92.3693713806, 34.7531378868]}, "type": "Feature", "properties": {"collection_times": [{"days": "Mon-Fri", "time": "5:00pm"}, {"days": "Sat", "time": "1:30pm"}, {"days": "Sun", "time": "Closed"}], "id": "7220500082", "name": "USPS COLLECTION BOX - BLUE BOX", "address": {"city": "LITTLE ROCK", "state": "AR", "street": "8509 W MARKHAM ST", "postcode": "72205"}}},
{"geometry": {"type": "Point", "coordinates": [-92.3693713806, 34.7531378868]}, "type": "Feature", "properties": {"collection_times": [{"days": "Mon-Fri", "time": "5:00pm"}, {"days": "Sat", "time": "1:30pm"}, {"days": "Sun", "time": "Closed"}], "id": "7220500083", "name": "USPS COLLECTION BOX - BLUE BOX", "address": {"city": "LITTLE ROCK", "state": "AR", "street": "8509 W MARKHAM ST", "postcode": "72205"}}},
{"geometry": {"type": "Point", "coordinates": [-92.3243040093, 34.7576654121]}, "type": "Feature", "properties": {"collection_times": [{"days": "Mon-Fri", "time": "5:00pm"}, {"days": "Sat-Sun", "time": "Closed"}], "id": "7220500087", "name": "USPS COLLECTION BOX - PO LOBBY", "address": {"city": "LITTLE ROCK", "state": "AR", "street": "2803 KAVANAUGH BLVD", "postcode": "72205"}}},
{"geometry": {"type": "Point", "coordinates": [-92.3243040093, 34.7576654121]}, "type": "Feature", "properties": {"collection_times": [{"days": "Mon-Fri", "time": "5:00pm"}, {"days": "Sat-Sun", "time": "Closed"}], "id": "7220500093", "name": "USPS COLLECTION BOX - PO LOBBY", "address": {"city": "LITTLE ROCK", "state": "AR", "street": "2803 KAVANAUGH BLVD", "postcode": "72205"}}},
{"geometry": {"type": "Point", "coordinates": [-92.3878164141, 34.7428241409]}, "type": "Feature", "properties": {"collection_times": [{"days": "Mon-Fri", "time": "2:30pm"}, {"days": "Sat-Sun", "time": "Closed"}], "id": "7220500095", "name": "USPS COLLECTION BOX - BLUE BOX", "address": {"city": "LITTLE ROCK", "state": "AR", "street": "10201 KANIS RD", "postcode": "72205"}}},
{"geometry": {"type": "Point", "coordinates": [-92.3465567015, 34.7525583607]}, "type": "Feature", "properties": {"collection_times": [{"days": "Mon-Fri", "time": "4:00pm"}, {"days": "Sat-Sun", "time": "Closed"}], "id": "7220500096", "name": "USPS COLLECTION BOX - BLUE BOX", "address": {"city": "LITTLE ROCK", "state": "AR", "street": "9601 BAPTIST HEALTH DR", "postcode": "72205"}}},
{"geometry": {"type": "Point", "coordinates": [-92.3427263659, 34.7142812504]}, "type": "Feature", "properties": {"collection_times": [{"days": "Mon-Fri", "time": "4:00pm"}, {"days": "Sat-Sun", "time": "Closed"}], "id": "7220500098", "name": "USPS COLLECTION BOX - BLUE BOX", "address": {"city": "LITTLE ROCK", "state": "AR", "street": "500 S UNIVERSITY AVE", "postcode": "72205"}}},
{"geometry": {"type": "Point", "coordinates": [-92.3693713806, 34.7531378868]}, "type": "Feature", "properties": {"collection_times": [{"days": "Mon-Fri", "time": "5:00pm"}, {"days": "Sat", "time": "1:30pm"}, {"days": "Sun", "time": "Closed"}], "id": "7220500099", "name": "USPS COLLECTION BOX - APC", "address": {"city": "LITTLE ROCK", "state": "AR", "street": "8509 W MARKHAM ST", "postcode": "72205"}}},
{"geometry": {"type": "Point", "coordinates": [-92.3693713806, 34.7531378868]}, "type": "Feature", "properties": {"collection_times": [{"days": "Mon-Fri", "time": "5:00pm"}, {"days": "Sat", "time": "1:30pm"}, {"days": "Sun", "time": "Closed"}], "id": "7220500100", "name": "USPS COLLECTION BOX - PO LOBBY", "address": {"city": "LITTLE ROCK", "state": "AR", "street": "8509 W MARKHAM ST", "postcode": "72205"}}},
{"geometry": {"type": "Point", "coordinates": [-92.3693713806, 34.7531378868]}, "type": "Feature", "properties": {"collection_times": [{"days": "Mon-Fri", "time": "5:00pm"}, {"days": "Sat", "time": "1:30pm"}, {"days": "Sun", "time": "Closed"}], "id": "7220500101", "name": "USPS COLLECTION BOX - PO LOBBY", "address": {"city": "LITTLE ROCK", "state": "AR", "street": "8509 W MARKHAM ST", "postcode": "72205"}}},
{"geometry": {"type": "Point", "coordinates": [-92.3384116336, 34.7496980618]}, "type": "Feature", "properties": {"collection_times": [{"days": "Mon-Fri", "time": "2:00pm"}, {"days": "Sat-Sun", "time": "Closed"}], "id": "7220500105", "name": "USPS COLLECTION BOX - BLUE BOX", "address": {"city": "LITTLE ROCK", "state": "AR", "street": "1 SAINT VINCENT CIR", "postcode": "72205"}}},
{"geometry": {"type": "Point", "coordinates": [-92.3456971987, 34.7482909527]}, "type": "Feature", "properties": {"collection_times": [{"days": "Mon-Fri", "time": "3:45pm"}, {"days": "Sat-Sun", "time": "Closed"}], "id": "7220500106", "name": "USPS COLLECTION BOX - BLUE BOX", "address": {"city": "LITTLE ROCK", "state": "AR", "street": "606 S MCKINLEY ST", "postcode": "72205"}}},
{"geometry": {"type": "Point", "coordinates": [-92.2734909408, 34.7323708461]}, "type": "Feature", "properties": {"collection_times": [{"days": "Mon-Fri", "time": "5:00pm"}, {"days": "Sat", "time": "4:30pm"}, {"days": "Sun", "time": "Closed"}], "id": "7220600000", "name": "USPS COLLECTION BOX - BLUE BOX", "address": {"city": "LITTLE ROCK", "state": "AR", "street": "1700 MAIN ST", "postcode": "72206"}}},
{"geometry": {"type": "Point", "coordinates": [-92.2734909408, 34.7323708461]}, "type": "Feature", "properties": {"collection_times": [{"days": "Mon-Fri", "time": "5:00pm"}, {"days": "Sat", "time": "4:30pm"}, {"days": "Sun", "time": "Closed"}], "id": "7220600002", "name": "USPS COLLECTION BOX - PO LOBBY", "address": {"city": "LITTLE ROCK", "state": "AR", "street": "1700 MAIN ST", "postcode": "72206"}}},
{"geometry": {"type": "Point", "coordinates": [-92.2599411191, 34.7235018181]}, "type": "Feature", "properties": {"collection_times": [{"days": "Mon-Fri", "time": "11:45am"}, {"days": "Sat-Sun", "time": "Closed"}], "id": "7220600004", "name": "USPS COLLECTION BOX - BLUE BOX", "address": {"city": "LITTLE ROCK", "state": "AR", "street": "1100 E ROOSEVELT RD", "postcode": "72206"}}},
{"geometry": {"type": "Point", "coordinates": [-92.2734909408, 34.7323708461]}, "type": "Feature", "properties": {"collection_times": [{"days": "Mon-Fri", "time": "5:00pm"}, {"days": "Sat", "time": "4:30pm"}, {"days": "Sun", "time": "Closed"}], "id": "7220600015", "name": "USPS COLLECTION BOX - PO LOBBY", "address": {"city": "LITTLE ROCK", "state": "AR", "street": "1700 MAIN ST", "postcode": "72206"}}},
{"geometry": {"type": "Point", "coordinates": [-92.3194560678, 34.6112485252]}, "type": "Feature", "properties": {"collection_times": [{"days": "Mon-Fri", "time": "3:00pm"}, {"days": "Sat", "time": "2:00pm"}, {"days": "Sun", "time": "Closed"}], "id": "7220600017", "name": "USPS COLLECTION BOX - BLUE BOX", "address": {"city": "LITTLE ROCK", "state": "AR", "street": "15500 ARCH ST", "postcode": "72206"}}},
{"geometry": {"type": "Point", "coordinates": [-92.3343766572, 34.77019104]}, "type": "Feature", "properties": {"collection_times": [{"days": "Mon-Fri", "time": "5:00pm"}, {"days": "Sat", "time": "4:30pm"}, {"days": "Sun", "time": "Closed"}], "id": "7220700001", "name": "USPS COLLECTION BOX - BLUE BOX", "address": {"city": "LITTLE ROCK", "state": "AR", "street": "5420 KAVANAUGH BLVD", "postcode": "72207"}}},
{"geometry": {"type": "Point", "coordinates": [-92.3343766572, 34.77019104]}, "type": "Feature", "properties": {"collection_times": [{"days": "Mon-Fri", "time": "5:00pm"}, {"days": "Sat", "time": "4:30pm"}, {"days": "Sun", "time": "Closed"}], "id": "7220700002", "name": "USPS COLLECTION BOX - PO LOBBY", "address": {"city": "LITTLE ROCK", "state": "AR", "street": "5420 KAVANAUGH BLVD", "postcode": "72207"}}},
{"geometry": {"type": "Point", "coordinates": [-92.3378461051, 34.7655020958]}, "type": "Feature", "properties": {"collection_times": [{"days": "Mon-Fri", "time": "4:00pm"}, {"days": "Sat-Sun", "time": "Closed"}], "id": "7220700005", "name": "USPS COLLECTION BOX - BLUE BOX", "address": {"city": "LITTLE ROCK", "state": "AR", "street": "1501 N PIERCE ST", "postcode": "72207"}}},
{"geometry": {"type": "Point", "coordinates": [-92.3378461051, 34.7655020958]}, "type": "Feature", "properties": {"collection_times": [{"days": "Mon-Fri", "time": "4:00pm"}, {"days": "Sat-Sun", "time": "Closed"}], "id": "7220700031", "name": "USPS COLLECTION BOX - BLUE BOX", "address": {"city": "LITTLE ROCK", "state": "AR", "street": "1501 N PIERCE ST", "postcode": "72207"}}},
{"geometry": {"type": "Point", "coordinates": [-92.3343766572, 34.77019104]}, "type": "Feature", "properties": {"collection_times": [{"days": "Mon-Fri", "time": "5:00pm"}, {"days": "Sat", "time": "4:30pm"}, {"days": "Sun", "time": "Closed"}], "id": "7220700041", "name": "USPS COLLECTION BOX - PO LOBBY", "address": {"city": "LITTLE ROCK", "state": "AR", "street": "5420 KAVANAUGH BLVD", "postcode": "72207"}}},
{"geometry": {"type": "Point", "coordinates": [-92.3344025958, 34.6903400968]}, "type": "Feature", "properties": {"collection_times": [{"days": "Mon-Fri", "time": "11:45am"}, {"days": "Sat-Sun", "time": "Closed"}], "id": "7220900005", "name": "USPS COLLECTION BOX - BLUE BOX", "address": {"city": "LITTLE ROCK", "state": "AR", "street": "5215 W 65TH ST", "postcode": "72209"}}},
{"geometry": {"type": "Point", "coordinates": [-92.3546176603, 34.669441266]}, "type": "Feature", "properties": {"collection_times": [{"days": "Mon-Fri", "time": "5:00pm"}, {"days": "Sat", "time": "4:30pm"}, {"days": "Sun", "time": "Closed"}], "id": "7220900029", "name": "USPS COLLECTION BOX - BLUE BOX", "address": {"city": "LITTLE ROCK", "state": "AR", "street": "6909 BASELINE RD", "postcode": "72209"}}},
{"geometry": {"type": "Point", "coordinates": [-92.3546176603, 34.669441266]}, "type": "Feature", "properties": {"collection_times": [{"days": "Mon-Fri", "time": "5:00pm"}, {"days": "Sat", "time": "4:30pm"}, {"days": "Sun", "time": "Closed"}], "id": "7220900030", "name": "USPS COLLECTION BOX - BLUE BOX", "address": {"city": "LITTLE ROCK", "state": "AR", "street": "6909 BASELINE RD", "postcode": "72209"}}},
{"geometry": {"type": "Point", "coordinates": [-92.3546176603, 34.669441266]}, "type": "Feature", "properties": {"collection_times": [{"days": "Mon-Fri", "time": "5:00pm"}, {"days": "Sat", "time": "4:30pm"}, {"days": "Sun", "time": "Closed"}], "id": "7220900039", "name": "USPS COLLECTION BOX - PO LOBBY", "address": {"city": "LITTLE ROCK", "state": "AR", "street": "6909 BASELINE RD", "postcode": "72209"}}},
{"geometry": {"type": "Point", "coordinates": [-92.3137987022, 34.6895267183]}, "type": "Feature", "properties": {"collection_times": [{"days": "Mon-Fri", "time": "11:45am"}, {"days": "Sat-Sun", "time": "Closed"}], "id": "7220900040", "name": "USPS COLLECTION BOX - BLUE BOX", "address": {"city": "LITTLE ROCK", "state": "AR", "street": "3300 W 65TH ST", "postcode": "72209"}}},
{"geometry": {"type": "Point", "coordinates": [-92.3546176603, 34.669441266]}, "type": "Feature", "properties": {"collection_times": [{"days": "Mon-Fri", "time": "5:00pm"}, {"days": "Sat", "time": "4:30pm"}, {"days": "Sun", "time": "Closed"}], "id": "7220900042", "name": "USPS COLLECTION BOX - PO LOBBY", "address": {"city": "LITTLE ROCK", "state": "AR", "street": "6909 BASELINE RD", "postcode": "72209"}}},
{"geometry": {"type": "Point", "coordinates": [-92.3466190516, 34.6746205251]}, "type": "Feature", "properties": {"collection_times": [{"days": "Mon-Fri", "time": "4:00pm"}, {"days": "Sat", "time": "12:00pm"}, {"days": "Sun", "time": "Closed"}], "id": "7220900049", "name": "USPS COLLECTION BOX - BLUE BOX", "address": {"city": "LITTLE ROCK", "state": "AR", "street": "13501 OTTER CREEK PKWY", "postcode": "72209"}}},
{"geometry": {"type": "Point", "coordinates": [-92.4278842387, 34.658316585]}, "type": "Feature", "properties": {"collection_times": [{"days": "Mon-Fri", "time": "4:00pm"}, {"days": "Sat", "time": "9:30am"}, {"days": "Sun", "time": "Closed"}], "id": "7221000001", "name": "USPS COLLECTION BOX - PO LOBBY", "address": {"city": "LITTLE ROCK", "state": "AR", "street": "13501 OTTER CREEK PKWY", "postcode": "72210"}}},
{"geometry": {"type": "Point", "coordinates": [-92.4278842387, 34.658316585]}, "type": "Feature", "properties": {"collection_times": [{"days": "Mon-Fri", "time": "4:00pm"}, {"days": "Sat", "time": "9:30am"}, {"days": "Sun", "time": "Closed"}], "id": "7221000002", "name": "USPS COLLECTION BOX - PO LOBBY", "address": {"city": "LITTLE ROCK", "state": "AR", "street": "13501 OTTER CREEK PKWY", "postcode": "72210"}}},
{"geometry": {"type": "Point", "coordinates": [-92.3944791432, 34.7486256533]}, "type": "Feature", "properties": {"collection_times": [{"days": "Mon-Fri", "time": "10:00am"}, {"days": "Sat-Sun", "time": "Closed"}], "id": "7221100004", "name": "USPS COLLECTION BOX - BLUE BOX", "address": {"city": "LITTLE ROCK", "state": "AR", "street": "10800 FINANCIAL CENTRE PKWY", "postcode": "72211"}}},
{"geometry": {"type": "Point", "coordinates": [-92.394154638, 34.7458844984]}, "type": "Feature", "properties": {"collection_times": [{"days": "Mon-Fri", "time": "2:30pm"}, {"days": "Sat-Sun", "time": "Closed"}], "id": "7221100006", "name": "USPS COLLECTION BOX - BLUE BOX", "address": {"city": "LITTLE ROCK", "state": "AR", "street": "900 S SHACKLEFORD RD", "postcode": "72211"}}},
{"geometry": {"type": "Point", "coordinates": [-92.3940999648, 34.7478257354]}, "type": "Feature", "properties": {"collection_times": [{"days": "Mon-Fri", "time": "4:00pm"}, {"days": "Sat-Sun", "time": "Closed"}], "id": "7221100007", "name": "USPS COLLECTION BOX - BLUE BOX", "address": {"city": "LITTLE ROCK", "state": "AR", "street": "650 S SHACKLEFORD RD", "postcode": "72211"}}},
{"geometry": {"type": "Point", "coordinates": [-92.3981828623, 34.7468483102]}, "type": "Feature", "properties": {"collection_times": [{"days": "Mon-Fri", "time": "2:30pm"}, {"days": "Sat-Sun", "time": "Closed"}], "id": "7221100010", "name": "USPS COLLECTION BOX - BLUE BOX", "address": {"city": "LITTLE ROCK", "state": "AR", "street": "11219 FINANCIAL CENTRE PKWY", "postcode": "72211"}}},
{"geometry": {"type": "Point", "coordinates": [-92.4003823591, 34.7663453764]}, "type": "Feature", "properties": {"collection_times": [{"days": "Mon-Fri", "time": "5:00pm"}, {"days": "Sat", "time": "4:30pm"}, {"days": "Sun", "time": "Closed"}], "id": "7221100026", "name": "USPS COLLECTION BOX - PO LOBBY", "address": {"city": "LITTLE ROCK", "state": "AR", "street": "11415 HURON LN", "postcode": "72211"}}},
{"geometry": {"type": "Point", "coordinates": [-92.3944791432, 34.7486256533]}, "type": "Feature", "properties": {"collection_times": [{"days": "Mon-Fri", "time": "10:00am"}, {"days": "Sat-Sun", "time": "Closed"}], "id": "7221100040", "name": "USPS COLLECTION BOX - BLUE BOX", "address": {"city": "LITTLE ROCK", "state": "AR", "street": "10800 FINANCIAL CENTRE PKWY", "postcode": "72211"}}},
{"geometry": {"type": "Point", "coordinates": [-92.3940999648, 34.7478257354]}, "type": "Feature", "properties": {"collection_times": [{"days": "Mon-Fri", "time": "4:00pm"}, {"days": "Sat-Sun", "time": "Closed"}], "id": "7221100042", "name": "USPS COLLECTION BOX - BLUE BOX", "address": {"city": "LITTLE ROCK", "state": "AR", "street": "650 S SHACKLEFORD RD", "postcode": "72211"}}},
{"geometry": {"type": "Point", "coordinates": [-92.3940999648, 34.7478257354]}, "type": "Feature", "properties": {"collection_times": [{"days": "Mon-Fri", "time": "4:00pm"}, {"days": "Sat-Sun", "time": "Closed"}], "id": "7221100043", "name": "USPS COLLECTION BOX - BLUE BOX", "address": {"city": "LITTLE ROCK", "state": "AR", "street": "650 S SHACKLEFORD RD", "postcode": "72211"}}},
{"geometry": {"type": "Point", "coordinates": [-92.3953739282, 34.739294136]}, "type": "Feature", "properties": {"collection_times": [{"days": "Mon-Fri", "time": "4:15pm"}, {"days": "Sat-Sun", "time": "Closed"}], "id": "7221100048", "name": "USPS COLLECTION BOX - BLUE BOX", "address": {"city": "LITTLE ROCK", "state": "AR", "street": "10816 EXECUTIVE CENTER DR", "postcode": "72211"}}},
{"geometry": {"type": "Point", "coordinates": [-92.394154638, 34.7458844984]}, "type": "Feature", "properties": {"collection_times": [{"days": "Mon-Fri", "time": "2:30pm"}, {"days": "Sat-Sun", "time": "Closed"}], "id": "7221100053", "name": "USPS COLLECTION BOX - BLUE BOX", "address": {"city": "LITTLE ROCK", "state": "AR", "street": "900 S SHACKLEFORD RD", "postcode": "72211"}}},
{"geometry": {"type": "Point", "coordinates": [-92.4003823591, 34.7663453764]}, "type": "Feature", "properties": {"collection_times": [{"days": "Mon-Fri", "time": "5:00pm"}, {"days": "Sat", "time": "4:30pm"}, {"days": "Sun", "time": "Closed"}], "id": "7221100055", "name": "USPS COLLECTION BOX - PO LOBBY", "address": {"city": "LITTLE ROCK", "state": "AR", "street": "11415 HURON LN", "postcode": "72211"}}},
{"geometry": {"type": "Point", "coordinates": [-92.4003823591, 34.7663453764]}, "type": "Feature", "properties": {"collection_times": [{"days": "Mon-Fri", "time": "5:00pm"}, {"days": "Sat", "time": "4:30pm"}, {"days": "Sun", "time": "Closed"}], "id": "7221100057", "name": "USPS COLLECTION BOX - BLUE BOX", "address": {"city": "LITTLE ROCK", "state": "AR", "street": "11415 HURON LN", "postcode": "72211"}}},
{"geometry": {"type": "Point", "coordinates": [-92.4003823591, 34.7663453764]}, "type": "Feature", "properties": {"collection_times": [{"days": "Mon-Fri", "time": "5:00pm"}, {"days": "Sat", "time": "4:30pm"}, {"days": "Sun", "time": "Closed"}], "id": "7221100058", "name": "USPS COLLECTION BOX - BLUE BOX", "address": {"city": "LITTLE ROCK", "state": "AR", "street": "11415 HURON LN", "postcode": "72211"}}},
{"geometry": {"type": "Point", "coordinates": [-92.3940999648, 34.7478257354]}, "type": "Feature", "properties": {"collection_times": [{"days": "Mon-Fri", "time": "4:00pm"}, {"days": "Sat-Sun", "time": "Closed"}], "id": "7221100061", "name": "USPS COLLECTION BOX - BLUE BOX", "address": {"city": "LITTLE ROCK", "state": "AR", "street": "650 S SHACKLEFORD RD", "postcode": "72211"}}},
{"geometry": {"type": "Point", "coordinates": [-92.4003823591, 34.7663453764]}, "type": "Feature", "properties": {"collection_times": [{"days": "Mon-Fri", "time": "5:00pm"}, {"days": "Sat", "time": "4:30pm"}, {"days": "Sun", "time": "Closed"}], "id": "7221100063", "name": "USPS COLLECTION BOX - APC", "address": {"city": "LITTLE ROCK", "state": "AR", "street": "11415 HURON LN", "postcode": "72211"}}},
{"geometry": {"type": "Point", "coordinates": [-92.3949458523, 34.789396873]}, "type": "Feature", "properties": {"collection_times": [{"days": "Mon-Fri", "time": "9:00am"}, {"days": "Sat-Sun", "time": "Closed"}], "id": "7221200004", "name": "USPS COLLECTION BOX - BLUE BOX", "address": {"city": "LITTLE ROCK", "state": "AR", "street": "11101 ANDERSON DR", "postcode": "72212"}}},
{"geometry": {"type": "Point", "coordinates": [-92.4014718155, 34.7733603095]}, "type": "Feature", "properties": {"collection_times": [{"days": "Mon-Fri", "time": "1:00pm"}, {"days": "Sat-Sun", "time": "Closed"}], "id": "7221200022", "name": "USPS COLLECTION BOX - BLUE BOX", "address": {"city": "LITTLE ROCK", "state": "AR", "street": "2207 HIDDEN VALLEY DR", "postcode": "72212"}}},
{"geometry": {"type": "Point", "coordinates": [-92.4533612376, 34.7611546044]}, "type": "Feature", "properties": {"collection_times": [{"days": "Mon-Fri", "time": "5:30pm"}, {"days": "Sat", "time": "4:30pm"}, {"days": "Sun", "time": "Closed"}], "id": "7222300003", "name": "USPS COLLECTION BOX - PO LOBBY", "address": {"city": "LITTLE ROCK", "state": "AR", "street": "815 TECHNOLOGY DR", "postcode": "72223"}}},
{"geometry": {"type": "Point", "coordinates": [-92.4533612376, 34.7611546044]}, "type": "Feature", "properties": {"collection_times": [{"days": "Mon-Fri", "time": "5:30pm"}, {"days": "Sat", "time": "4:30pm"}, {"days": "Sun", "time": "Closed"}], "id": "7222300004", "name": "USPS COLLECTION BOX - PO LOBBY", "address": {"city": "LITTLE ROCK", "state": "AR", "street": "815 TECHNOLOGY DR", "postcode": "72223"}}},
{"geometry": {"type": "Point", "coordinates": [-92.4277424842, 34.8020321467]}, "type": "Feature", "properties": {"collection_times": [{"days": "Mon-Fri", "time": "12:45pm"}, {"days": "Sat-Sun", "time": "Closed"}], "id": "7222300007", "name": "USPS COLLECTION BOX - BLUE BOX", "address": {"city": "LITTLE ROCK", "state": "AR", "street": "14000 CANTRELL RD", "postcode": "72223"}}},
{"geometry": {"type": "Point", "coordinates": [-92.4533612376, 34.7611546044]}, "type": "Feature", "properties": {"collection_times": [{"days": "Mon-Fri", "time": "5:30pm"}, {"days": "Sat", "time": "4:30pm"}, {"days": "Sun", "time": "Closed"}], "id": "7222300008", "name": "USPS COLLECTION BOX - BLUE BOX", "address": {"city": "LITTLE ROCK", "state": "AR", "street": "815 TECHNOLOGY DR", "postcode": "72223"}}},
{"geometry": {"type": "Point", "coordinates": [-92.4714858196, 34.7941603164]}, "type": "Feature", "properties": {"collection_times": [{"days": "Mon-Fri", "time": "12:00pm"}, {"days": "Sat-Sun", "time": "Closed"}], "id": "7222300012", "name": "USPS COLLECTION BOX - BLUE BOX", "address": {"city": "LITTLE ROCK", "state": "AR", "street": "16105 CHENAL PKWY", "postcode": "72223"}}},
{"geometry": {"type": "Point", "coordinates": [-92.387804847, 34.7669619504]}, "type": "Feature", "properties": {"collection_times": [{"days": "Mon-Fri", "time": "1:00pm"}, {"days": "Sat-Sun", "time": "Closed"}], "id": "7222700001", "name": "USPS COLLECTION BOX - BLUE BOX", "address": {"city": "LITTLE ROCK", "state": "AR", "street": "10300 N RODNEY PARHAM RD", "postcode": "72227"}}},
{"geometry": {"type": "Point", "coordinates": [-92.368227978, 34.7771674425]}, "type": "Feature", "properties": {"collection_times": [{"days": "Mon-Fri", "time": "3:00pm"}, {"days": "Sat-Sun", "time": "Closed"}], "id": "7222700013", "name": "USPS COLLECTION BOX - BLUE BOX", "address": {"city": "LITTLE ROCK", "state": "AR", "street": "8315 CANTRELL RD", "postcode": "72227"}}},
{"geometry": {"type": "Point", "coordinates": [-92.2130739496, 34.7887073935]}, "type": "Feature", "properties": {"collection_times": [{"days": "Mon-Fri", "time": "7:00pm"}, {"days": "Sat", "time": "6:00pm"}, {"days": "Sun", "time": "Closed"}], "id": "7223100000", "name": "USPS COLLECTION BOX - BLUE BOX", "address": {"city": "LITTLE ROCK", "state": "AR", "street": "4700 E MCCAIN BLVD", "postcode": "72231"}}},
{"geometry": {"type": "Point", "coordinates": [-92.2130739496, 34.7887073935]}, "type": "Feature", "properties": {"collection_times": [{"days": "Mon-Fri", "time": "7:00pm"}, {"days": "Sat", "time": "6:00pm"}, {"days": "Sun", "time": "Closed"}], "id": "7223100002", "name": "USPS COLLECTION BOX - BLUE BOX", "address": {"city": "LITTLE ROCK", "state": "AR", "street": "4700 E MCCAIN BLVD", "postcode": "72231"}}},
{"geometry": {"type": "Point", "coordinates": [-92.2130739496, 34.7887073935]}, "type": "Feature", "properties": {"collection_times": [{"days": "Mon-Fri", "time": "7:00pm"}, {"days": "Sat", "time": "6:00pm"}, {"days": "Sun", "time": "Closed"}], "id": "7223100020", "name": "USPS COLLECTION BOX - PO LOBBY", "address": {"city": "LITTLE ROCK", "state": "AR", "street": "4700 E MCCAIN BLVD", "postcode": "72231"}}},
{"geometry": {"type": "Point", "coordinates": [-92.2130739496, 34.7887073935]}, "type": "Feature", "properties": {"collection_times": [{"days": "Mon-Fri", "time": "7:00pm"}, {"days": "Sat", "time": "6:00pm"}, {"days": "Sun", "time": "Closed"}], "id": "7223100021", "name": "USPS COLLECTION BOX - PO LOBBY", "address": {"city": "LITTLE ROCK", "state": "AR", "street": "4700 E MCCAIN BLVD", "postcode": "72231"}}},
{"geometry": {"type": "Point", "coordinates": [-92.2130739496, 34.7887073935]}, "type": "Feature", "properties": {"collection_times": [{"days": "Mon-Fri", "time": "7:00pm"}, {"days": "Sat", "time": "6:00pm"}, {"days": "Sun", "time": "Closed"}], "id": "7223100023", "name": "USPS COLLECTION BOX - PO LOBBY", "address": {"city": "LITTLE ROCK", "state": "AR", "street": "4700 E MCCAIN BLVD", "postcode": "72231"}}}
]}
