{"type": "FeatureCollection", "features": [
{"geometry": {"type": "Point", "coordinates": [-90.1847670102, 35.1616427544]}, "type": "Feature", "properties": {"collection_times": [{"days": "Mon-Sat", "time": "3:15pm"}, {"days": "Sun", "time": "Closed"}], "id": "7230100007", "name": "USPS COLLECTION BOX - BLUE BOX", "address": {"city": "WEST MEMPHIS", "state": "AR", "street": "101 DOVER RD", "postcode": "72301"}}},
{"geometry": {"type": "Point", "coordinates": [-90.1935350724, 35.1481653538]}, "type": "Feature", "properties": {"collection_times": [{"days": "Mon-Sat", "time": "1:30pm"}, {"days": "Sun", "time": "Closed"}], "id": "7230100008", "name": "USPS COLLECTION BOX - BLUE BOX", "address": {"city": "WEST MEMPHIS", "state": "AR", "street": "213 N AVALON ST", "postcode": "72301"}}},
{"geometry": {"type": "Point", "coordinates": [-90.1591536446, 35.1535255201]}, "type": "Feature", "properties": {"collection_times": [{"days": "Mon-Sat", "time": "11:15am"}, {"days": "Sun", "time": "Closed"}], "id": "7230100010", "name": "USPS COLLECTION BOX - BLUE BOX", "address": {"city": "WEST MEMPHIS", "state": "AR", "street": "2023 E BARTON AVE", "postcode": "72301"}}},
{"geometry": {"type": "Point", "coordinates": [-90.1559548496, 35.1531685857]}, "type": "Feature", "properties": {"collection_times": [{"days": "Mon-Sat", "time": "3:15pm"}, {"days": "Sun", "time": "Closed"}], "id": "7230100012", "name": "USPS COLLECTION BOX - BLUE BOX", "address": {"city": "WEST MEMPHIS", "state": "AR", "street": "310 MID CONTINENT PLZ", "postcode": "72301"}}},
{"geometry": {"type": "Point", "coordinates": [-90.1788871176, 35.1478220391]}, "type": "Feature", "properties": {"collection_times": [{"days": "Mon-Sat", "time": "3:20pm"}, {"days": "Sun", "time": "Closed"}], "id": "7230100014", "name": "USPS COLLECTION BOX - BLUE BOX", "address": {"city": "WEST MEMPHIS", "state": "AR", "street": "1800 N MISSOURI ST", "postcode": "72301"}}},
{"geometry": {"type": "Point", "coordinates": [-90.1871402589, 35.1654616623]}, "type": "Feature", "properties": {"collection_times": [{"days": "Mon-Sat", "time": "10:30am"}, {"days": "Sun", "time": "Closed"}], "id": "7230100015", "name": "USPS COLLECTION BOX - BLUE BOX", "address": {"city": "WEST MEMPHIS", "state": "AR", "street": "210 SHOPPINGWAY BLVD", "postcode": "72301"}}},
{"geometry": {"type": "Point", "coordinates": [-90.1875585303, 35.145301236]}, "type": "Feature", "properties": {"collection_times": [{"days": "Mon-Sat", "time": "8:45am"}, {"days": "Sun", "time": "Closed"}], "id": "7230100021", "name": "USPS COLLECTION BOX - BLUE BOX", "address": {"city": "WEST MEMPHIS", "state": "AR", "street": "200 S RHODES ST", "postcode": "72301"}}},
{"geometry": {"type": "Point", "coordinates": [-90.1860782919, 35.1464393781]}, "type": "Feature", "properties": {"collection_times": [{"days": "Mon-Sat", "time": "9:00am"}, {"days": "Sun", "time": "Closed"}], "id": "7230100022", "name": "USPS COLLECTION BOX - BLUE BOX", "address": {"city": "WEST MEMPHIS", "state": "AR", "street": "100 COURT ST", "postcode": "72301"}}},
{"geometry": {"type": "Point", "coordinates": [-90.1885881177, 35.1440408635]}, "type": "Feature", "properties": {"collection_times": [{"days": "Mon-Sat", "time": "9:00am"}, {"days": "Sun", "time": "Closed"}], "id": "7230100023", "name": "USPS COLLECTION BOX - BLUE BOX", "address": {"city": "WEST MEMPHIS", "state": "AR", "street": "228 W TYLER AVE", "postcode": "72301"}}},
{"geometry": {"type": "Point", "coordinates": [-90.191680533, 35.1463986378]}, "type": "Feature", "properties": {"collection_times": [{"days": "Mon-Sat", "time": "12:30pm"}, {"days": "Sun", "time": "Closed"}], "id": "7230100025", "name": "USPS COLLECTION BOX - BLUE BOX", "address": {"city": "WEST MEMPHIS", "state": "AR", "street": "330 W BROADWAY ST", "postcode": "72301"}}},
{"geometry": {"type": "Point", "coordinates": [-90.1942295085, 35.1464759601]}, "type": "Feature", "properties": {"collection_times": [{"days": "Mon-Sat", "time": "3:25pm"}, {"days": "Sun", "time": "Closed"}], "id": "7230100026", "name": "USPS COLLECTION BOX - BLUE BOX", "address": {"city": "WEST MEMPHIS", "state": "AR", "street": "429 W BROADWAY ST", "postcode": "72301"}}},
{"geometry": {"type": "Point", "coordinates": [-90.1848360466, 35.1479904623]}, "type": "Feature", "properties": {"collection_times": [{"days": "Mon-Sat", "time": "3:25pm"}, {"days": "Sun", "time": "Closed"}], "id": "7230100028", "name": "USPS COLLECTION BOX - BLUE BOX", "address": {"city": "WEST MEMPHIS", "state": "AR", "street": "100 W BOND", "postcode": "72301"}}},
{"geometry": {"type": "Point", "coordinates": [-90.1316594315, 35.1485619529]}, "type": "Feature", "properties": {"collection_times": [{"days": "Mon-Sat", "time": "9:15am"}, {"days": "Sun", "time": "Closed"}], "id": "7230100029", "name": "USPS COLLECTION BOX - BLUE BOX", "address": {"city": "WEST MEMPHIS", "state": "AR", "street": "3000 SERVICE ROAD LOOP", "postcode": "72301"}}},
{"geometry": {"type": "Point", "coordinates": [-90.1770518201, 35.1512710653]}, "type": "Feature", "properties": {"collection_times": [{"days": "Mon-Fri", "time": "5:30pm"}, {"days": "Sat", "time": "4:30pm"}, {"days": "Sun", "time": "Closed"}], "id": "7230100030", "name": "USPS COLLECTION BOX - BLUE BOX", "address": {"city": "WEST MEMPHIS", "state": "AR", "street": "615 E COOPER AVE", "postcode": "72301"}}},
{"geometry": {"type": "Point", "coordinates": [-90.1770518201, 35.1512710653]}, "type": "Feature", "properties": {"collection_times": [{"days": "Mon-Fri", "time": "5:30pm"}, {"days": "Sat", "time": "4:30pm"}, {"days": "Sun", "time": "Closed"}], "id": "7230100031", "name": "USPS COLLECTION BOX - PO LOBBY", "address": {"city": "WEST MEMPHIS", "state": "AR", "street": "615 E COOPER AVE", "postcode": "72301"}}},
{"geometry": {"type": "Point", "coordinates": [-90.1778260511, 35.1655348565]}, "type": "Feature", "properties": {"collection_times": [{"days": "Mon-Sat", "time": "2:15pm"}, {"days": "Sun", "time": "Closed"}], "id": "7230100038", "name": "USPS COLLECTION BOX - BLUE BOX", "address": {"city": "WEST MEMPHIS", "state": "AR", "street": "798 S SERVICE RD", "postcode": "72301"}}},
{"geometry": {"type": "Point", "coordinates": [-90.1605034352, 35.1464899027]}, "type": "Feature", "properties": {"collection_times": [{"days": "Mon-Sat", "time": "9:15am"}, {"days": "Sun", "time": "Closed"}], "id": "7230100041", "name": "USPS COLLECTION BOX - BLUE BOX", "address": {"city": "WEST MEMPHIS", "state": "AR", "street": "2000 W BROADWAY ST", "postcode": "72301"}}},
{"geometry": {"type": "Point", "coordinates": [-90.1358642758, 35.153558379]}, "type": "Feature", "properties": {"collection_times": [{"days": "Mon-Sat", "time": "8:45am"}, {"days": "Sun", "time": "Closed"}], "id": "7230100042", "name": "USPS COLLECTION BOX - BLUE BOX", "address": {"city": "WEST MEMPHIS", "state": "AR", "street": "3900 PETRO DR", "postcode": "72301"}}},
{"geometry": {"type": "Point", "coordinates": [-90.2040166023, 35.1536162119]}, "type": "Feature", "properties": {"collection_times": [{"days": "Mon-Sat", "time": "1:15pm"}, {"days": "Sun", "time": "Closed"}], "id": "7230100045", "name": "USPS COLLECTION BOX - BLUE BOX", "address": {"city": "WEST MEMPHIS", "state": "AR", "street": "811 W BARTON AVE", "postcode": "72301"}}},
{"geometry": {"type": "Point", "coordinates": [-90.1770518201, 35.1512710653]}, "type": "Feature", "properties": {"collection_times": [{"days": "Mon-Fri", "time": "5:30pm"}, {"days": "Sat", "time": "4:30pm"}, {"days": "Sun", "time": "Closed"}], "id": "7230100046", "name": "USPS COLLECTION BOX - PO LOBBY", "address": {"city": "WEST MEMPHIS", "state": "AR", "street": "615 E COOPER AVE", "postcode": "72301"}}},
{"geometry": {"type": "Point", "coordinates": [-90.1936274795, 35.1298120328]}, "type": "Feature", "properties": {"collection_times": [{"days": "Mon-Sat", "time": "11:00am"}, {"days": "Sun", "time": "Closed"}], "id": "7230100048", "name": "USPS COLLECTION BOX - BLUE BOX", "address": {"city": "WEST MEMPHIS", "state": "AR", "street": "1334 S AVALON ST", "postcode": "72301"}}},
{"geometry": {"type": "Point", "coordinates": [-90.1770518201, 35.1512710653]}, "type": "Feature", "properties": {"collection_times": [{"days": "Mon-Fri", "time": "5:30pm"}, {"days": "Sat", "time": "4:30pm"}, {"days": "Sun", "time": "Closed"}], "id": "7230100049", "name": "USPS COLLECTION BOX - PO LOBBY", "address": {"city": "WEST MEMPHIS", "state": "AR", "street": "615 E COOPER AVE", "postcode": "72301"}}},
{"geometry": {"type": "Point", "coordinates": [-90.1770518201, 35.1512710653]}, "type": "Feature", "properties": {"collection_times": [{"days": "Mon-Fri", "time": "5:30pm"}, {"days": "Sat", "time": "4:30pm"}, {"days": "Sun", "time": "Closed"}], "id": "7230100050", "name": "USPS COLLECTION BOX - PO LOBBY", "address": {"city": "WEST MEMPHIS", "state": "AR", "street": "615 E COOPER AVE", "postcode": "72301"}}},
{"geometry": {"type": "Point", "coordinates": [-90.1599452537, 35.1464813481]}, "type": "Feature", "properties": {"collection_times": [{"days": "Mon-Sat", "time": "1:15pm"}, {"days": "Sun", "time": "Closed"}], "id": "7230100051", "name": "USPS COLLECTION BOX - BLUE BOX", "address": {"city": "WEST MEMPHIS", "state": "AR", "street": "2050 E BROADWAY ST", "postcode": "72301"}}},
{"geometry": {"type": "Point", "coordinates": [-89.6840766273, 35.9041827562]}, "type": "Feature", "properties": {"collection_times": [{"days": "Mon-Fri", "time": "12:00pm"}, {"days": "Sat", "time": "12:30pm"}, {"days": "Sun", "time": "Closed"}], "id": "7231000002", "name": "USPS COLLECTION BOX - PO LOBBY", "address": {"city": "ARMOREL", "state": "AR", "street": "4606 N STATE HIGHWAY 137", "postcode": "72310"}}},
{"geometry": {"type": "Point", "coordinates": [-89.6840766273, 35.9041827562]}, "type": "Feature", "properties": {"collection_times": [{"days": "Mon-Fri", "time": "12:00pm"}, {"days": "Sat", "time": "12:30pm"}, {"days": "Sun", "time": "Closed"}], "id": "7231000003", "name": "USPS COLLECTION BOX - PO LOBBY", "address": {"city": "ARMOREL", "state": "AR", "street": "4606 N STATE HIGHWAY 137", "postcode": "72310"}}},
{"geometry": {"type": "Point", "coordinates": [-89.6840766273, 35.9041827562]}, "type": "Feature", "properties": {"collection_times": [{"days": "Mon-Fri", "time": "4:00pm"}, {"days": "Sat", "time": "12:30pm"}, {"days": "Sun", "time": "Closed"}], "id": "7231000004", "name": "USPS COLLECTION BOX - BLUE BOX", "address": {"city": "ARMOREL", "state": "AR", "street": "4606 N STATE HIGHWAY 137", "postcode": "72310"}}},
{"geometry": {"type": "Point", "coordinates": [-91.0007379894, 34.6819197712]}, "type": "Feature", "properties": {"collection_times": [{"days": "Mon-Fri", "time": "4:30pm"}, {"days": "Sat", "time": "10:30am"}, {"days": "Sun", "time": "Closed"}], "id": "7231100001", "name": "USPS COLLECTION BOX - BLUE BOX", "address": {"city": "AUBREY", "state": "AR", "street": "3566 HIGHWAY 121 S", "postcode": "72311"}}},
{"geometry": {"type": "Point", "coordinates": [-91.0007379894, 34.6819197712]}, "type": "Feature", "properties": {"collection_times": [{"days": "Mon-Fri", "time": "4:15pm"}, {"days": "Sat", "time": "10:45am"}, {"days": "Sun", "time": "Closed"}], "id": "7231100002", "name": "USPS COLLECTION BOX - PO LOBBY", "address": {"city": "AUBREY", "state": "AR", "street": "3566 HIGHWAY 121 S", "postcode": "72311"}}},
{"geometry": {"type": "Point", "coordinates": [-90.768253517, 34.554849022]}, "type": "Feature", "properties": {"collection_times": [{"days": "Mon-Fri", "time": "3:30pm"}, {"days": "Sat", "time": "9:30am"}, {"days": "Sun", "time": "Closed"}], "id": "7231200000", "name": "USPS COLLECTION BOX - BLUE BOX", "address": {"city": "BARTON", "state": "AR", "street": "9353 HIGHWAY 85 S", "postcode": "72312"}}},
{"geometry": {"type": "Point", "coordinates": [-90.768253517, 34.554849022]}, "type": "Feature", "properties": {"collection_times": [{"days": "Mon-Fri", "time": "11:30am"}, {"days": "Sat", "time": "9:30am"}, {"days": "Sun", "time": "Closed"}], "id": "7231200001", "name": "USPS COLLECTION BOX - PO LOBBY", "address": {"city": "BARTON", "state": "AR", "street": "9353 HIGHWAY 85 S", "postcode": "72312"}}},
{"geometry": {"type": "Point", "coordinates": [-90.2233625737, 35.4597029521]}, "type": "Feature", "properties": {"collection_times": [{"days": "Mon-Fri", "time": "4:00pm"}, {"days": "Sat", "time": "10:00am"}, {"days": "Sun", "time": "Closed"}], "id": "7231300000", "name": "USPS COLLECTION BOX - BLUE BOX", "address": {"city": "BASSETT", "state": "AR", "street": "414 HIGHWAY 61", "postcode": "72313"}}},
{"geometry": {"type": "Point", "coordinates": [-90.2233625737, 35.4597029521]}, "type": "Feature", "properties": {"collection_times": [{"days": "Mon-Fri", "time": "9:30am"}, {"days": "Sat", "time": "10:00am"}, {"days": "Sun", "time": "Closed"}], "id": "7231300001", "name": "USPS COLLECTION BOX - PO LOBBY", "address": {"city": "BASSETT", "state": "AR", "street": "414 HIGHWAY 61", "postcode": "72313"}}},
{"geometry": {"type": "Point", "coordinates": [-90.2233625737, 35.4597029521]}, "type": "Feature", "properties": {"collection_times": [{"days": "Mon-Fri", "time": "9:30am"}, {"days": "Sat", "time": "10:00am"}, {"days": "Sun", "time": "Closed"}], "id": "7231300002", "name": "USPS COLLECTION BOX - PO LOBBY", "address": {"city": "BASSETT", "state": "AR", "street": "414 HIGHWAY 61", "postcode": "72313"}}},
{"geometry": {"type": "Point", "coordinates": [-89.9067937606, 35.9314390341]}, "type": "Feature", "properties": {"collection_times": [{"days": "Mon-Fri", "time": "5:00pm"}, {"days": "Sat", "time": "4:30pm"}, {"days": "Sun", "time": "Closed"}], "id": "7231500001", "name": "USPS COLLECTION BOX - BLUE BOX", "address": {"city": "BLYTHEVILLE", "state": "AR", "street": "600 N BROADWAY ST", "postcode": "72315"}}},
{"geometry": {"type": "Point", "coordinates": [-89.904140086, 35.9286277553]}, "type": "Feature", "properties": {"collection_times": [{"days": "Mon-Sat", "time": "10:15am"}, {"days": "Sun", "time": "Closed"}], "id": "7231500010", "name": "USPS COLLECTION BOX - BLUE BOX", "address": {"city": "BLYTHEVILLE", "state": "AR", "street": "208 N 2ND ST", "postcode": "72315"}}},
{"geometry": {"type": "Point", "coordinates": [-89.9098985625, 35.9294105056]}, "type": "Feature", "properties": {"collection_times": [{"days": "Mon-Sat", "time": "9:15am"}, {"days": "Sun", "time": "Closed"}], "id": "7231500012", "name": "USPS COLLECTION BOX - BLUE BOX", "address": {"city": "BLYTHEVILLE", "state": "AR", "street": "302 N 6TH ST", "postcode": "72315"}}},
{"geometry": {"type": "Point", "coordinates": [-89.9056287591, 35.9275967089]}, "type": "Feature", "properties": {"collection_times": [{"days": "Mon-Sat", "time": "11:30am"}, {"days": "Sun", "time": "Closed"}], "id": "7231500013", "name": "USPS COLLECTION BOX - BLUE BOX", "address": {"city": "BLYTHEVILLE", "state": "AR", "street": "400 W MAIN ST", "postcode": "72315"}}},
{"geometry": {"type": "Point", "coordinates": [-89.910106179, 35.9363225741]}, "type": "Feature", "properties": {"collection_times": [{"days": "Mon-Sat", "time": "10:00am"}, {"days": "Sun", "time": "Closed"}], "id": "7231500020", "name": "USPS COLLECTION BOX - BLUE BOX", "address": {"city": "BLYTHEVILLE", "state": "AR", "street": "959 N 6TH ST", "postcode": "72315"}}},
{"geometry": {"type": "Point", "coordinates": [-89.9067937606, 35.9314390341]}, "type": "Feature", "properties": {"collection_times": [{"days": "Mon-Fri", "time": "5:00pm"}, {"days": "Sat", "time": "4:30pm"}, {"days": "Sun", "time": "Closed"}], "id": "7231500035", "name": "USPS COLLECTION BOX - PO LOBBY", "address": {"city": "BLYTHEVILLE", "state": "AR", "street": "600 N BROADWAY ST", "postcode": "72315"}}},
{"geometry": {"type": "Point", "coordinates": [-89.9067937606, 35.9314390341]}, "type": "Feature", "properties": {"collection_times": [{"days": "Mon-Fri", "time": "5:00pm"}, {"days": "Sat", "time": "4:30pm"}, {"days": "Sun", "time": "Closed"}], "id": "7231500038", "name": "USPS COLLECTION BOX - BLUE BOX", "address": {"city": "BLYTHEVILLE", "state": "AR", "street": "600 N BROADWAY ST", "postcode": "72315"}}},
{"geometry": {"type": "Point", "coordinates": [-89.9131465812, 35.9269206303]}, "type": "Feature", "properties": {"collection_times": [{"days": "Mon-Fri", "time": "3:00pm"}, {"days": "Sat", "time": "12:00pm"}, {"days": "Sun", "time": "Closed"}], "id": "7231500041", "name": "USPS COLLECTION BOX - BLUE BOX", "address": {"city": "BLYTHEVILLE", "state": "AR", "street": "201 S AIR BASE HWY", "postcode": "72315"}}},
{"geometry": {"type": "Point", "coordinates": [-89.9067937606, 35.9314390341]}, "type": "Feature", "properties": {"collection_times": [{"days": "Mon-Fri", "time": "5:00pm"}, {"days": "Sat", "time": "4:30pm"}, {"days": "Sun", "time": "Closed"}], "id": "7231500045", "name": "USPS COLLECTION BOX - PO LOBBY", "address": {"city": "BLYTHEVILLE", "state": "AR", "street": "600 N BROADWAY ST", "postcode": "72315"}}},
{"geometry": {"type": "Point", "coordinates": [-89.8929556442, 35.9274158345]}, "type": "Feature", "properties": {"collection_times": [{"days": "Mon-Fri", "time": "2:00pm"}, {"days": "Sat", "time": "12:15pm"}, {"days": "Sun", "time": "Closed"}], "id": "7231500046", "name": "USPS COLLECTION BOX - BLUE BOX", "address": {"city": "BLYTHEVILLE", "state": "AR", "street": "1040 E MAIN ST", "postcode": "72315"}}},
{"geometry": {"type": "Point", "coordinates": [-89.8950620741, 35.9273751218]}, "type": "Feature", "properties": {"collection_times": [{"days": "Mon-Fri", "time": "1:30pm"}, {"days": "Sat", "time": "12:10pm"}, {"days": "Sun", "time": "Closed"}], "id": "7231500047", "name": "USPS COLLECTION BOX - BLUE BOX", "address": {"city": "BLYTHEVILLE", "state": "AR", "street": "847 E MAIN ST", "postcode": "72315"}}},
{"geometry": {"type": "Point", "coordinates": [-89.8659493369, 35.92880026]}, "type": "Feature", "properties": {"collection_times": [{"days": "Mon-Sat", "time": "10:00am"}, {"days": "Sun", "time": "Closed"}], "id": "7231500048", "name": "USPS COLLECTION BOX - BLUE BOX", "address": {"city": "BLYTHEVILLE", "state": "AR", "street": "3710 E MAIN ST", "postcode": "72315"}}},
{"geometry": {"type": "Point", "coordinates": [-90.5794009201, 34.8656922887]}, "type": "Feature", "properties": {"collection_times": [{"days": "Mon-Fri", "time": "3:30pm"}, {"days": "Sat", "time": "11:15am"}, {"days": "Sun", "time": "Closed"}], "id": "7232000001", "name": "USPS COLLECTION BOX - BLUE BOX", "address": {"city": "BRICKEYS", "state": "AR", "street": "12092 HIGHWAY 79 N", "postcode": "72320"}}},
{"geometry": {"type": "Point", "coordinates": [-90.5794009201, 34.8656922887]}, "type": "Feature", "properties": {"collection_times": [{"days": "Mon-Fri", "time": "3:30pm"}, {"days": "Sat", "time": "11:15am"}, {"days": "Sun", "time": "Closed"}], "id": "7232000002", "name": "USPS COLLECTION BOX - PO LOBBY", "address": {"city": "BRICKEYS", "state": "AR", "street": "12092 HIGHWAY 79 N", "postcode": "72320"}}},
{"geometry": {"type": "Point", "coordinates": [-89.9303743455, 35.8201324688]}, "type": "Feature", "properties": {"collection_times": [{"days": "Mon-Fri", "time": "2:00pm"}, {"days": "Sat", "time": "10:45am"}, {"days": "Sun", "time": "Closed"}], "id": "7232100001", "name": "USPS COLLECTION BOX - BLUE BOX", "address": {"city": "BURDETTE", "state": "AR", "street": "157 PLANTATION DR", "postcode": "72321"}}},
{"geometry": {"type": "Point", "coordinates": [-89.9303743455, 35.8201324688]}, "type": "Feature", "properties": {"collection_times": [{"days": "Mon-Fri", "time": "2:00pm"}, {"days": "Sat", "time": "10:45am"}, {"days": "Sun", "time": "Closed"}], "id": "7232100002", "name": "USPS COLLECTION BOX - PO LOBBY", "address": {"city": "BURDETTE", "state": "AR", "street": "157 PLANTATION DR", "postcode": "72321"}}},
{"geometry": {"type": "Point", "coordinates": [-89.9303743455, 35.8201324688]}, "type": "Feature", "properties": {"collection_times": [{"days": "Mon-Fri", "time": "2:00pm"}, {"days": "Sat", "time": "10:45am"}, {"days": "Sun", "time": "Closed"}], "id": "7232100003", "name": "USPS COLLECTION BOX - PO LOBBY", "address": {"city": "BURDETTE", "state": "AR", "street": "157 PLANTATION DR", "postcode": "72321"}}},
{"geometry": {"type": "Point", "coordinates": [-90.7240097773, 35.4040453508]}, "type": "Feature", "properties": {"collection_times": [{"days": "Mon-Fri", "time": "4:00pm"}, {"days": "Sat", "time": "11:00am"}, {"days": "Sun", "time": "Closed"}], "id": "7232400001", "name": "USPS COLLECTION BOX - BLUE BOX", "address": {"city": "CHERRY VALLEY", "state": "AR", "street": "3239 HIGHWAY 42", "postcode": "72324"}}},
{"geometry": {"type": "Point", "coordinates": [-90.7240097773, 35.4040453508]}, "type": "Feature", "properties": {"collection_times": [{"days": "Mon-Fri", "time": "11:30am"}, {"days": "Sat", "time": "11:00am"}, {"days": "Sun", "time": "Closed"}], "id": "7232400002", "name": "USPS COLLECTION BOX - PO LOBBY", "address": {"city": "CHERRY VALLEY", "state": "AR", "street": "3239 HIGHWAY 42", "postcode": "72324"}}},
{"geometry": {"type": "Point", "coordinates": [-90.7240097773, 35.4040453508]}, "type": "Feature", "properties": {"collection_times": [{"days": "Mon-Fri", "time": "11:30am"}, {"days": "Sat", "time": "11:00am"}, {"days": "Sun", "time": "Closed"}], "id": "7232400003", "name": "USPS COLLECTION BOX - PO LOBBY", "address": {"city": "CHERRY VALLEY", "state": "AR", "street": "3239 HIGHWAY 42", "postcode": "72324"}}},
{"geometry": {"type": "Point", "coordinates": [-90.2362490938, 35.3091494683]}, "type": "Feature", "properties": {"collection_times": [{"days": "Mon-Fri", "time": "4:45pm"}, {"days": "Sat", "time": "10:45am"}, {"days": "Sun", "time": "Closed"}], "id": "7232500001", "name": "USPS COLLECTION BOX - BLUE BOX", "address": {"city": "CLARKEDALE", "state": "AR", "street": "10555 HIGHWAY 77", "postcode": "72325"}}},
{"geometry": {"type": "Point", "coordinates": [-90.2362490938, 35.3091494683]}, "type": "Feature", "properties": {"collection_times": [{"days": "Mon-Fri", "time": "2:30pm"}, {"days": "Sat", "time": "10:45am"}, {"days": "Sun", "time": "Closed"}], "id": "7232500002", "name": "USPS COLLECTION BOX - PO LOBBY", "address": {"city": "CLARKEDALE", "state": "AR", "street": "10555 HIGHWAY 77", "postcode": "72325"}}},
{"geometry": {"type": "Point", "coordinates": [-90.2362490938, 35.3091494683]}, "type": "Feature", "properties": {"collection_times": [{"days": "Mon-Fri", "time": "2:30pm"}, {"days": "Sat", "time": "10:45am"}, {"days": "Sun", "time": "Closed"}], "id": "7232500003", "name": "USPS COLLECTION BOX - PO LOBBY", "address": {"city": "CLARKEDALE", "state": "AR", "street": "10555 HIGHWAY 77", "postcode": "72325"}}},
{"geometry": {"type": "Point", "coordinates": [-90.81169023, 35.1199257313]}, "type": "Feature", "properties": {"collection_times": [{"days": "Mon-Fri", "time": "4:30pm"}, {"days": "Sat", "time": "9:30am"}, {"days": "Sun", "time": "Closed"}], "id": "7232600000", "name": "USPS COLLECTION BOX - BLUE BOX", "address": {"city": "COLT", "state": "AR", "street": "8587 HIGHWAY 1 N", "postcode": "72326"}}},
{"geometry": {"type": "Point", "coordinates": [-90.81169023, 35.1199257313]}, "type": "Feature", "properties": {"collection_times": [{"days": "Mon-Fri", "time": "2:00pm"}, {"days": "Sat", "time": "9:30am"}, {"days": "Sun", "time": "Closed"}], "id": "7232600001", "name": "USPS COLLECTION BOX - PO LOBBY", "address": {"city": "COLT", "state": "AR", "street": "8587 HIGHWAY 1 N", "postcode": "72326"}}},
{"geometry": {"type": "Point", "coordinates": [-90.3264796727, 35.2272337029]}, "type": "Feature", "properties": {"collection_times": [{"days": "Mon-Fri", "time": "4:15pm"}, {"days": "Sat", "time": "11:45am"}, {"days": "Sun", "time": "Closed"}], "id": "7232700001", "name": "USPS COLLECTION BOX - BLUE BOX", "address": {"city": "CRAWFORDSVILLE", "state": "AR", "street": "5482 MAIN ST", "postcode": "72327"}}},
{"geometry": {"type": "Point", "coordinates": [-90.3264796727, 35.2272337029]}, "type": "Feature", "properties": {"collection_times": [{"days": "Mon-Fri", "time": "11:00am"}, {"days": "Sat", "time": "11:45am"}, {"days": "Sun", "time": "Closed"}], "id": "7232700002", "name": "USPS COLLECTION BOX - PO LOBBY", "address": {"city": "CRAWFORDSVILLE", "state": "AR", "street": "5482 MAIN ST", "postcode": "72327"}}},
{"geometry": {"type": "Point", "coordinates": [-90.3264796727, 35.2272337029]}, "type": "Feature", "properties": {"collection_times": [{"days": "Mon-Fri", "time": "11:00am"}, {"days": "Sat", "time": "11:45am"}, {"days": "Sun", "time": "Closed"}], "id": "7232700003", "name": "USPS COLLECTION BOX - PO LOBBY", "address": {"city": "CRAWFORDSVILLE", "state": "AR", "street": "5482 MAIN ST", "postcode": "72327"}}},
{"geometry": {"type": "Point", "coordinates": [-90.984199126, 34.1283267966]}, "type": "Feature", "properties": {"collection_times": [{"days": "Mon-Fri", "time": "2:30pm"}, {"days": "Sat", "time": "8:30am"}, {"days": "Sun", "time": "Closed"}], "id": "7232800000", "name": "USPS COLLECTION BOX - PO LOBBY", "address": {"city": "CRUMROD", "state": "AR", "street": "38305 HIGHWAY 44 S", "postcode": "72328"}}},
{"geometry": {"type": "Point", "coordinates": [-90.984199126, 34.1283267966]}, "type": "Feature", "properties": {"collection_times": [{"days": "Mon-Fri", "time": "2:30pm"}, {"days": "Sat", "time": "8:30am"}, {"days": "Sun", "time": "Closed"}], "id": "7232800001", "name": "USPS COLLECTION BOX - BLUE BOX", "address": {"city": "CRUMROD", "state": "AR", "street": "38305 HIGHWAY 44 S", "postcode": "72328"}}},
{"geometry": {"type": "Point", "coordinates": [-90.2139396017, 35.5899386346]}, "type": "Feature", "properties": {"collection_times": [{"days": "Mon-Fri", "time": "3:45pm"}, {"days": "Sat", "time": "10:45am"}, {"days": "Sun", "time": "Closed"}], "id": "7233000001", "name": "USPS COLLECTION BOX - BLUE BOX", "address": {"city": "DYESS", "state": "AR", "street": "105 HIGHWAY 297 N", "postcode": "72330"}}},
{"geometry": {"type": "Point", "coordinates": [-90.2139396017, 35.5899386346]}, "type": "Feature", "properties": {"collection_times": [{"days": "Mon-Fri", "time": "11:30am"}, {"days": "Sat", "time": "10:45am"}, {"days": "Sun", "time": "Closed"}], "id": "7233000002", "name": "USPS COLLECTION BOX - PO LOBBY", "address": {"city": "DYESS", "state": "AR", "street": "105 HIGHWAY 297 N", "postcode": "72330"}}},
{"geometry": {"type": "Point", "coordinates": [-90.2139396017, 35.5899386346]}, "type": "Feature", "properties": {"collection_times": [{"days": "Mon-Fri", "time": "11:30am"}, {"days": "Sat", "time": "10:45am"}, {"days": "Sun", "time": "Closed"}], "id": "7233000003", "name": "USPS COLLECTION BOX - PO LOBBY", "address": {"city": "DYESS", "state": "AR", "street": "105 HIGHWAY 297 N", "postcode": "72330"}}},
{"geometry": {"type": "Point", "coordinates": [-90.4639236421, 35.2709610629]}, "type": "Feature", "properties": {"collection_times": [{"days": "Mon-Fri", "time": "4:30pm"}, {"days": "Sat", "time": "2:30pm"}, {"days": "Sun", "time": "Closed"}], "id": "7233100001", "name": "USPS COLLECTION BOX - BLUE BOX", "address": {"city": "EARLE", "state": "AR", "street": "700 EXCHANGE ST", "postcode": "72331"}}},
{"geometry": {"type": "Point", "coordinates": [-90.4582138265, 35.2666051567]}, "type": "Feature", "properties": {"collection_times": [{"days": "Mon-Sat", "time": "10:15am"}, {"days": "Sun", "time": "Closed"}], "id": "7233100002", "name": "USPS COLLECTION BOX - BLUE BOX", "address": {"city": "EARLE", "state": "AR", "street": "615 TENNESSEE ST", "postcode": "72331"}}},
{"geometry": {"type": "Point", "coordinates": [-90.4564656856, 35.2660406657]}, "type": "Feature", "properties": {"collection_times": [{"days": "Mon-Sat", "time": "11:25am"}, {"days": "Sun", "time": "Closed"}], "id": "7233100003", "name": "USPS COLLECTION BOX - BLUE BOX", "address": {"city": "EARLE", "state": "AR", "street": "101 DESHA ST", "postcode": "72331"}}},
{"geometry": {"type": "Point", "coordinates": [-90.4573063233, 35.2648777533]}, "type": "Feature", "properties": {"collection_times": [{"days": "Mon-Sat", "time": "12:00pm"}, {"days": "Sun", "time": "Closed"}], "id": "7233100004", "name": "USPS COLLECTION BOX - BLUE BOX", "address": {"city": "EARLE", "state": "AR", "street": "408 STATE HIGHWAY 149 N", "postcode": "72331"}}},
{"geometry": {"type": "Point", "coordinates": [-90.4639236421, 35.2709610629]}, "type": "Feature", "properties": {"collection_times": [{"days": "Mon-Fri", "time": "4:30pm"}, {"days": "Sat", "time": "2:30pm"}, {"days": "Sun", "time": "Closed"}], "id": "7233100008", "name": "USPS COLLECTION BOX - PO LOBBY", "address": {"city": "EARLE", "state": "AR", "street": "700 EXCHANGE ST", "postcode": "72331"}}},
{"geometry": {"type": "Point", "coordinates": [-90.4661288336, 35.2672771283]}, "type": "Feature", "properties": {"collection_times": [{"days": "Mon-Sat", "time": "8:25am"}, {"days": "Sun", "time": "Closed"}], "id": "7233100009", "name": "USPS COLLECTION BOX - BLUE BOX", "address": {"city": "EARLE", "state": "AR", "street": "1108 MISSISSIPPI ST", "postcode": "72331"}}},
{"geometry": {"type": "Point", "coordinates": [-90.3069497154, 35.1028017844]}, "type": "Feature", "properties": {"collection_times": [{"days": "Mon-Fri", "time": "3:45pm"}, {"days": "Sat", "time": "10:45am"}, {"days": "Sun", "time": "Closed"}], "id": "7233200001", "name": "USPS COLLECTION BOX - PO LOBBY", "address": {"city": "EDMONDSON", "state": "AR", "street": "94 WARD ST", "postcode": "72332"}}},
{"geometry": {"type": "Point", "coordinates": [-90.3069497154, 35.1028017844]}, "type": "Feature", "properties": {"collection_times": [{"days": "Mon-Fri", "time": "3:45pm"}, {"days": "Sat", "time": "10:45am"}, {"days": "Sun", "time": "Closed"}], "id": "7233200002", "name": "USPS COLLECTION BOX - BLUE BOX", "address": {"city": "EDMONDSON", "state": "AR", "street": "94 WARD ST", "postcode": "72332"}}},
{"geometry": {"type": "Point", "coordinates": [-90.8500536628, 34.3076947656]}, "type": "Feature", "properties": {"collection_times": [{"days": "Mon-Fri", "time": "4:00pm"}, {"days": "Sat", "time": "12:00pm"}, {"days": "Sun", "time": "Closed"}], "id": "7233300000", "name": "USPS COLLECTION BOX - BLUE BOX", "address": {"city": "ELAINE", "state": "AR", "street": "217 MAIN ST", "postcode": "72333"}}},
{"geometry": {"type": "Point", "coordinates": [-90.8500536628, 34.3076947656]}, "type": "Feature", "properties": {"collection_times": [{"days": "Mon-Fri", "time": "4:00pm"}, {"days": "Sat", "time": "12:00pm"}, {"days": "Sun", "time": "Closed"}], "id": "7233300001", "name": "USPS COLLECTION BOX - PO LOBBY", "address": {"city": "ELAINE", "state": "AR", "street": "217 MAIN ST", "postcode": "72333"}}},
{"geometry": {"type": "Point", "coordinates": [-90.7778923968, 35.0114597187]}, "type": "Feature", "properties": {"collection_times": [{"days": "Mon-Fri", "time": "12:00pm"}, {"days": "Sat-Sun", "time": "Closed"}], "id": "7233500015", "name": "USPS COLLECTION BOX - BLUE BOX", "address": {"city": "FORREST CITY", "state": "AR", "street": "1200 E BROADWAY ST", "postcode": "72335"}}},
{"geometry": {"type": "Point", "coordinates": [-90.7834197119, 35.0079725898]}, "type": "Feature", "properties": {"collection_times": [{"days": "Mon-Fri", "time": "2:00pm"}, {"days": "Sat-Sun", "time": "Closed"}], "id": "7233500017", "name": "USPS COLLECTION BOX - BLUE BOX", "address": {"city": "FORREST CITY", "state": "AR", "street": "313 S IZARD ST", "postcode": "72335"}}},
{"geometry": {"type": "Point", "coordinates": [-90.7839459819, 35.0096661073]}, "type": "Feature", "properties": {"collection_times": [{"days": "Mon-Fri", "time": "5:00pm"}, {"days": "Sat", "time": "4:30pm"}, {"days": "Sun", "time": "Closed"}], "id": "7233500023", "name": "USPS COLLECTION BOX - BLUE BOX", "address": {"city": "FORREST CITY", "state": "AR", "street": "621 E BROADWAY ST", "postcode": "72335"}}},
{"geometry": {"type": "Point", "coordinates": [-90.7839459819, 35.0096661073]}, "type": "Feature", "properties": {"collection_times": [{"days": "Mon-Fri", "time": "5:00pm"}, {"days": "Sat", "time": "4:30pm"}, {"days": "Sun", "time": "Closed"}], "id": "7233500026", "name": "USPS COLLECTION BOX - PO LOBBY", "address": {"city": "FORREST CITY", "state": "AR", "street": "621 E BROADWAY ST", "postcode": "72335"}}},
{"geometry": {"type": "Point", "coordinates": [-90.7839459819, 35.0096661073]}, "type": "Feature", "properties": {"collection_times": [{"days": "Mon-Fri", "time": "5:00pm"}, {"days": "Sat", "time": "4:30pm"}, {"days": "Sun", "time": "Closed"}], "id": "7233500028", "name": "USPS COLLECTION BOX - PO LOBBY", "address": {"city": "FORREST CITY", "state": "AR", "street": "621 E BROADWAY ST", "postcode": "72335"}}},
{"geometry": {"type": "Point", "coordinates": [-90.7839459819, 35.0096661073]}, "type": "Feature", "properties": {"collection_times": [{"days": "Mon-Fri", "time": "5:00pm"}, {"days": "Sat", "time": "4:30pm"}, {"days": "Sun", "time": "Closed"}], "id": "7233500029", "name": "USPS COLLECTION BOX - PO LOBBY", "address": {"city": "FORREST CITY", "state": "AR", "street": "621 E BROADWAY ST", "postcode": "72335"}}},
{"geometry": {"type": "Point", "coordinates": [-90.7910821384, 35.0298312454]}, "type": "Feature", "properties": {"collection_times": [{"days": "Mon-Sat", "time": "12:00pm"}, {"days": "Sun", "time": "Closed"}], "id": "7233500035", "name": "USPS COLLECTION BOX - BLUE BOX", "address": {"city": "FORREST CITY", "state": "AR", "street": "205 DEADRICK RD", "postcode": "72335"}}},
{"geometry": {"type": "Point", "coordinates": [-90.0200467515, 35.4686702802]}, "type": "Feature", "properties": {"collection_times": [{"days": "Mon-Fri", "time": "2:15pm"}, {"days": "Sat", "time": "3:30pm"}, {"days": "Sun", "time": "Closed"}], "id": "7233800000", "name": "USPS COLLECTION BOX - BLUE BOX", "address": {"city": "FRENCHMAN'S BAYO", "state": "AR", "street": "8071 S US HIGHWAY 61", "postcode": "72338"}}},
{"geometry": {"type": "Point", "coordinates": [-90.1943891218, 35.452149933]}, "type": "Feature", "properties": {"collection_times": [{"days": "Mon-Fri", "time": "2:15pm"}, {"days": "Sat", "time": "3:30pm"}, {"days": "Sun", "time": "Closed"}], "id": "7233800001", "name": "USPS COLLECTION BOX - PO LOBBY", "address": {"city": "FRENCHMAN'S BAYO", "state": "AR", "street": "8071 S US HIGHWAY 61", "postcode": "72338"}}},
{"geometry": {"type": "Point", "coordinates": [-90.1943891218, 35.452149933]}, "type": "Feature", "properties": {"collection_times": [{"days": "Mon-Fri", "time": "2:15pm"}, {"days": "Sat", "time": "3:30pm"}, {"days": "Sun", "time": "Closed"}], "id": "7233800002", "name": "USPS COLLECTION BOX - PO LOBBY", "address": {"city": "FRENCHMAN'S BAYO", "state": "AR", "street": "8071 S US HIGHWAY 61", "postcode": "72338"}}},
{"geometry": {"type": "Point", "coordinates": [-90.2827072678, 35.4155534404]}, "type": "Feature", "properties": {"collection_times": [{"days": "Mon-Fri", "time": "4:00pm"}, {"days": "Sat", "time": "10:00am"}, {"days": "Sun", "time": "Closed"}], "id": "7233900000", "name": "USPS COLLECTION BOX - BLUE BOX", "address": {"city": "GILMORE", "state": "AR", "street": "102 S FRONT ST", "postcode": "72339"}}},
{"geometry": {"type": "Point", "coordinates": [-90.2827072678, 35.4155534404]}, "type": "Feature", "properties": {"collection_times": [{"days": "Mon-Fri", "time": "9:30am"}, {"days": "Sat", "time": "10:00am"}, {"days": "Sun", "time": "Closed"}], "id": "7233900001", "name": "USPS COLLECTION BOX - PO LOBBY", "address": {"city": "GILMORE", "state": "AR", "street": "102 S FRONT ST", "postcode": "72339"}}},
{"geometry": {"type": "Point", "coordinates": [-90.2827072678, 35.4155534404]}, "type": "Feature", "properties": {"collection_times": [{"days": "Mon-Fri", "time": "9:30am"}, {"days": "Sat", "time": "10:00am"}, {"days": "Sun", "time": "Closed"}], "id": "7233900002", "name": "USPS COLLECTION BOX - PO LOBBY", "address": {"city": "GILMORE", "state": "AR", "street": "102 S FRONT ST", "postcode": "72339"}}},
{"geometry": {"type": "Point", "coordinates": [-91.0259682896, 34.9427105433]}, "type": "Feature", "properties": {"collection_times": [{"days": "Mon-Fri", "time": "11:45am"}, {"days": "Sat", "time": "9:15am"}, {"days": "Sun", "time": "Closed"}], "id": "7234000000", "name": "USPS COLLECTION BOX - BLUE BOX", "address": {"city": "GOODWIN", "state": "AR", "street": "75 SFC 907", "postcode": "72340"}}},
{"geometry": {"type": "Point", "coordinates": [-91.0259682896, 34.9427105433]}, "type": "Feature", "properties": {"collection_times": [{"days": "Mon-Fri", "time": "9:30am"}, {"days": "Sat", "time": "9:15am"}, {"days": "Sun", "time": "Closed"}], "id": "7234000001", "name": "USPS COLLECTION BOX - PO LOBBY", "address": {"city": "GOODWIN", "state": "AR", "street": "75 SFC 907", "postcode": "72340"}}},
{"geometry": {"type": "Point", "coordinates": [-90.7456974301, 34.8974715122]}, "type": "Feature", "properties": {"collection_times": [{"days": "Mon-Fri", "time": "10:00am"}, {"days": "Sat", "time": "9:30am"}, {"days": "Sun", "time": "Closed"}], "id": "7234100001", "name": "USPS COLLECTION BOX - BLUE BOX", "address": {"city": "HAYNES", "state": "AR", "street": "8402 HIGHWAY 1 N", "postcode": "72341"}}},
{"geometry": {"type": "Point", "coordinates": [-90.7918939588, 34.890795059]}, "type": "Feature", "properties": {"collection_times": [{"days": "Mon-Fri", "time": "10:00am"}, {"days": "Sat", "time": "9:30am"}, {"days": "Sun", "time": "Closed"}], "id": "7234100002", "name": "USPS COLLECTION BOX - PO LOBBY", "address": {"city": "HAYNES", "state": "AR", "street": "8402 HWY 1 NORTH", "postcode": "72341"}}},
{"geometry": {"type": "Point", "coordinates": [-90.5874317963, 34.5282355726]}, "type": "Feature", "properties": {"collection_times": [{"days": "Mon-Fri", "time": "4:30pm"}, {"days": "Sat", "time": "3:00pm"}, {"days": "Sun", "time": "Closed"}], "id": "7234200016", "name": "USPS COLLECTION BOX - BLUE BOX", "address": {"city": "HELENA", "state": "AR", "street": "617 WALNUT", "postcode": "72342"}}},
{"geometry": {"type": "Point", "coordinates": [-90.5874317963, 34.5282355726]}, "type": "Feature", "properties": {"collection_times": [{"days": "Mon-Fri", "time": "4:30pm"}, {"days": "Sat", "time": "3:00pm"}, {"days": "Sun", "time": "Closed"}], "id": "7234200017", "name": "USPS COLLECTION BOX - BLUE BOX", "address": {"city": "HELENA", "state": "AR", "street": "617 WALNUT", "postcode": "72342"}}},
{"geometry": {"type": "Point", "coordinates": [-90.5874317963, 34.5282355726]}, "type": "Feature", "properties": {"collection_times": [{"days": "Mon-Fri", "time": "4:30pm"}, {"days": "Sat", "time": "3:00pm"}, {"days": "Sun", "time": "Closed"}], "id": "7234200018", "name": "USPS COLLECTION BOX - PO LOBBY", "address": {"city": "HELENA", "state": "AR", "street": "617 WALNUT", "postcode": "72342"}}},
{"geometry": {"type": "Point", "coordinates": [-90.5874317963, 34.5282355726]}, "type": "Feature", "properties": {"collection_times": [{"days": "Mon-Fri", "time": "4:30pm"}, {"days": "Sat", "time": "3:00pm"}, {"days": "Sun", "time": "Closed"}], "id": "7234200019", "name": "USPS COLLECTION BOX - BLUE BOX", "address": {"city": "HELENA", "state": "AR", "street": "617 WALNUT", "postcode": "72342"}}},
{"geometry": {"type": "Point", "coordinates": [-90.5874317963, 34.5282355726]}, "type": "Feature", "properties": {"collection_times": [{"days": "Mon-Fri", "time": "4:30pm"}, {"days": "Sat", "time": "3:00pm"}, {"days": "Sun", "time": "Closed"}], "id": "7234200020", "name": "USPS COLLECTION BOX - BLUE BOX", "address": {"city": "HELENA", "state": "AR", "street": "617 WALNUT", "postcode": "72342"}}},
{"geometry": {"type": "Point", "coordinates": [-90.5874317963, 34.5282355726]}, "type": "Feature", "properties": {"collection_times": [{"days": "Mon-Fri", "time": "4:30pm"}, {"days": "Sat", "time": "3:00pm"}, {"days": "Sun", "time": "Closed"}], "id": "7234200021", "name": "USPS COLLECTION BOX - PO LOBBY", "address": {"city": "HELENA", "state": "AR", "street": "617 WALNUT", "postcode": "72342"}}},
{"geometry": {"type": "Point", "coordinates": [-90.5874317963, 34.5282355726]}, "type": "Feature", "properties": {"collection_times": [{"days": "Mon-Fri", "time": "4:30pm"}, {"days": "Sat", "time": "3:00pm"}, {"days": "Sun", "time": "Closed"}], "id": "7234200022", "name": "USPS COLLECTION BOX - PO LOBBY", "address": {"city": "HELENA", "state": "AR", "street": "617 WALNUT", "postcode": "72342"}}},
{"geometry": {"type": "Point", "coordinates": [-90.5874317963, 34.5282355726]}, "type": "Feature", "properties": {"collection_times": [{"days": "Mon-Fri", "time": "4:30pm"}, {"days": "Sat", "time": "3:00pm"}, {"days": "Sun", "time": "Closed"}], "id": "7234200023", "name": "USPS COLLECTION BOX - PO LOBBY", "address": {"city": "HELENA", "state": "AR", "street": "617 WALNUT", "postcode": "72342"}}},
{"geometry": {"type": "Point", "coordinates": [-90.4946206082, 35.1291395308]}, "type": "Feature", "properties": {"collection_times": [{"days": "Mon-Fri", "time": "4:30pm"}, {"days": "Sat", "time": "10:30am"}, {"days": "Sun", "time": "Closed"}], "id": "7234600001", "name": "USPS COLLECTION BOX - BLUE BOX", "address": {"city": "HETH", "state": "AR", "street": "19763 HIGHWAY 70 E", "postcode": "72346"}}},
{"geometry": {"type": "Point", "coordinates": [-90.4946206082, 35.1291395308]}, "type": "Feature", "properties": {"collection_times": [{"days": "Mon-Fri", "time": "11:30am"}, {"days": "Sat", "time": "10:30am"}, {"days": "Sun", "time": "Closed"}], "id": "7234600002", "name": "USPS COLLECTION BOX - PO LOBBY", "address": {"city": "HETH", "state": "AR", "street": "19763 HIGHWAY 70 E", "postcode": "72346"}}},
{"geometry": {"type": "Point", "coordinates": [-90.9966480827, 35.3965261112]}, "type": "Feature", "properties": {"collection_times": [{"days": "Mon-Fri", "time": "4:00pm"}, {"days": "Sat", "time": "10:00am"}, {"days": "Sun", "time": "Closed"}], "id": "7234700000", "name": "USPS COLLECTION BOX - BLUE BOX", "address": {"city": "HICKORY RIDGE", "state": "AR", "street": "132 S FLORA ST", "postcode": "72347"}}},
{"geometry": {"type": "Point", "coordinates": [-90.9966480827, 35.3965261112]}, "type": "Feature", "properties": {"collection_times": [{"days": "Mon-Fri", "time": "11:30am"}, {"days": "Sat", "time": "10:00am"}, {"days": "Sun", "time": "Closed"}], "id": "7234700001", "name": "USPS COLLECTION BOX - PO LOBBY", "address": {"city": "HICKORY RIDGE", "state": "AR", "street": "132 S FLORA ST", "postcode": "72347"}}},
{"geometry": {"type": "Point", "coordinates": [-90.4697833451, 34.9507561441]}, "type": "Feature", "properties": {"collection_times": [{"days": "Mon-Fri", "time": "4:00pm"}, {"days": "Sat", "time": "11:00am"}, {"days": "Sun", "time": "Closed"}], "id": "7234800001", "name": "USPS COLLECTION BOX - BLUE BOX", "address": {"city": "HUGHES", "state": "AR", "street": "201 N STONEWALL ST", "postcode": "72348"}}},
{"geometry": {"type": "Point", "coordinates": [-90.4697833451, 34.9507561441]}, "type": "Feature", "properties": {"collection_times": [{"days": "Mon-Fri", "time": "4:00pm"}, {"days": "Sat", "time": "11:00am"}, {"days": "Sun", "time": "Closed"}], "id": "7234800002", "name": "USPS COLLECTION BOX - PO LOBBY", "address": {"city": "HUGHES", "state": "AR", "street": "201 N STONEWALL ST", "postcode": "72348"}}},
{"geometry": {"type": "Point", "coordinates": [-90.4697833451, 34.9507561441]}, "type": "Feature", "properties": {"collection_times": [{"days": "Mon-Fri", "time": "4:00pm"}, {"days": "Sat", "time": "11:00am"}, {"days": "Sun", "time": "Closed"}], "id": "7234800003", "name": "USPS COLLECTION BOX - PO LOBBY", "address": {"city": "HUGHES", "state": "AR", "street": "201 N STONEWALL ST", "postcode": "72348"}}},
{"geometry": {"type": "Point", "coordinates": [-90.14704141, 35.5091478404]}, "type": "Feature", "properties": {"collection_times": [{"days": "Mon-Fri", "time": "3:30pm"}, {"days": "Sat", "time": "11:30am"}, {"days": "Sun", "time": "Closed"}], "id": "7235000000", "name": "USPS COLLECTION BOX - BLUE BOX", "address": {"city": "JOINER", "state": "AR", "street": "117 HIGHWAY 118 W", "postcode": "72350"}}},
{"geometry": {"type": "Point", "coordinates": [-90.14704141, 35.5091478404]}, "type": "Feature", "properties": {"collection_times": [{"days": "Mon-Fri", "time": "12:00pm"}, {"days": "Sat", "time": "11:30am"}, {"days": "Sun", "time": "Closed"}], "id": "7235000001", "name": "USPS COLLECTION BOX - PO LOBBY", "address": {"city": "JOINER", "state": "AR", "street": "117 HIGHWAY 118 W", "postcode": "72350"}}},
{"geometry": {"type": "Point", "coordinates": [-90.14704141, 35.5091478404]}, "type": "Feature", "properties": {"collection_times": [{"days": "Mon-Fri", "time": "12:00pm"}, {"days": "Sat", "time": "11:30am"}, {"days": "Sun", "time": "Closed"}], "id": "7235000002", "name": "USPS COLLECTION BOX - PO LOBBY", "address": {"city": "JOINER", "state": "AR", "street": "117 HIGHWAY 118 W", "postcode": "72350"}}},
{"geometry": {"type": "Point", "coordinates": [-90.14704141, 35.5091478404]}, "type": "Feature", "properties": {"collection_times": [{"days": "Mon-Fri", "time": "12:00pm"}, {"days": "Sat", "time": "11:30am"}, {"days": "Sun", "time": "Closed"}], "id": "7235000003", "name": "USPS COLLECTION BOX - PO LOBBY", "address": {"city": "JOINER", "state": "AR", "street": "117 HIGHWAY 118 W", "postcode": "72350"}}},
{"geometry": {"type": "Point", "coordinates": [-90.14704141, 35.5091478404]}, "type": "Feature", "properties": {"collection_times": [{"days": "Mon-Fri", "time": "12:00pm"}, {"days": "Sat", "time": "11:30am"}, {"days": "Sun", "time": "Closed"}], "id": "7235000004", "name": "USPS COLLECTION BOX - PO LOBBY", "address": {"city": "JOINER", "state": "AR", "street": "117 HIGHWAY 118 W", "postcode": "72350"}}},
{"geometry": {"type": "Point", "coordinates": [-90.0984681989, 35.6748776635]}, "type": "Feature", "properties": {"collection_times": [{"days": "Mon-Fri", "time": "3:30pm"}, {"days": "Sat", "time": "10:00am"}, {"days": "Sun", "time": "Closed"}], "id": "7235100000", "name": "USPS COLLECTION BOX - BLUE BOX", "address": {"city": "KEISER", "state": "AR", "street": "106 MAIN ST", "postcode": "72351"}}},
{"geometry": {"type": "Point", "coordinates": [-90.0984681989, 35.6748776635]}, "type": "Feature", "properties": {"collection_times": [{"days": "Mon-Fri", "time": "11:30am"}, {"days": "Sat", "time": "10:00am"}, {"days": "Sun", "time": "Closed"}], "id": "7235100001", "name": "USPS COLLECTION BOX - PO LOBBY", "address": {"city": "KEISER", "state": "AR", "street": "106 MAIN ST", "postcode": "72351"}}},
{"geometry": {"type": "Point", "coordinates": [-90.7326046003, 34.6566610552]}, "type": "Feature", "properties": {"collection_times": [{"days": "Mon-Sat", "time": "11:30am"}, {"days": "Sun", "time": "Closed"}], "id": "7235200001", "name": "USPS COLLECTION BOX - PO LOBBY", "address": {"city": "LAGRANGE", "state": "AR", "street": "74 E CULLUM DR", "postcode": "72352"}}},
{"geometry": {"type": "Point", "coordinates": [-90.7326046003, 34.6566610552]}, "type": "Feature", "properties": {"collection_times": [{"days": "Mon-Sat", "time": "11:30am"}, {"days": "Sun", "time": "Closed"}], "id": "7235200002", "name": "USPS COLLECTION BOX - BLUE BOX", "address": {"city": "LAGRANGE", "state": "AR", "street": "74 E CULLUM DR", "postcode": "72352"}}},
{"geometry": {"type": "Point", "coordinates": [-90.9723080813, 34.3360367638]}, "type": "Feature", "properties": {"collection_times": [{"days": "Mon-Sat", "time": "9:00am"}, {"days": "Sun", "time": "Closed"}], "id": "7235300000", "name": "USPS COLLECTION BOX - BLUE BOX", "address": {"city": "LAMBROOK", "state": "AR", "street": "31393 HIGHWAY 20", "postcode": "72353"}}},
{"geometry": {"type": "Point", "coordinates": [-90.9723080813, 34.3360367638]}, "type": "Feature", "properties": {"collection_times": [{"days": "Mon-Sat", "time": "9:00am"}, {"days": "Sun", "time": "Closed"}], "id": "7235300001", "name": "USPS COLLECTION BOX - PO LOBBY", "address": {"city": "LAMBROOK", "state": "AR", "street": "31393 HIGHWAY 20", "postcode": "72353"}}},
{"geometry": {"type": "Point", "coordinates": [-90.3303436958, 35.612650519]}, "type": "Feature", "properties": {"collection_times": [{"days": "Mon-Fri", "time": "3:30pm"}, {"days": "Sat", "time": "8:00am"}, {"days": "Sun", "time": "Closed"}], "id": "7235400001", "name": "USPS COLLECTION BOX - BLUE BOX", "address": {"city": "LEPANTO", "state": "AR", "street": "125 HOLMES ST", "postcode": "72354"}}},
{"geometry": {"type": "Point", "coordinates": [-90.3303436958, 35.612650519]}, "type": "Feature", "properties": {"collection_times": [{"days": "Mon-Fri", "time": "3:30pm"}, {"days": "Sat", "time": "8:00am"}, {"days": "Sun", "time": "Closed"}], "id": "7235400002", "name": "USPS COLLECTION BOX - PO LOBBY", "address": {"city": "LEPANTO", "state": "AR", "street": "125 HOLMES ST", "postcode": "72354"}}},
{"geometry": {"type": "Point", "coordinates": [-90.3303436958, 35.612650519]}, "type": "Feature", "properties": {"collection_times": [{"days": "Mon-Fri", "time": "3:30pm"}, {"days": "Sat", "time": "8:00am"}, {"days": "Sun", "time": "Closed"}], "id": "7235400004", "name": "USPS COLLECTION BOX - PO LOBBY", "address": {"city": "LEPANTO", "state": "AR", "street": "125 HOLMES ST", "postcode": "72354"}}},
{"geometry": {"type": "Point", "coordinates": [-90.732770535, 34.5985772038]}, "type": "Feature", "properties": {"collection_times": [{"days": "Mon-Fri", "time": "4:00pm"}, {"days": "Sat", "time": "9:30am"}, {"days": "Sun", "time": "Closed"}], "id": "7235500000", "name": "USPS COLLECTION BOX - BLUE BOX", "address": {"city": "LEXA", "state": "AR", "street": "8984 HIGHWAY 242 W", "postcode": "72355"}}},
{"geometry": {"type": "Point", "coordinates": [-90.732770535, 34.5985772038]}, "type": "Feature", "properties": {"collection_times": [{"days": "Mon-Fri", "time": "10:30am"}, {"days": "Sat", "time": "9:30am"}, {"days": "Sun", "time": "Closed"}], "id": "7235500001", "name": "USPS COLLECTION BOX - PO LOBBY", "address": {"city": "LEXA", "state": "AR", "street": "8984 HIGHWAY 242 W", "postcode": "72355"}}},
{"geometry": {"type": "Point", "coordinates": [-90.732770535, 34.5985772038]}, "type": "Feature", "properties": {"collection_times": [{"days": "Mon-Fri", "time": "10:30am"}, {"days": "Sat", "time": "9:30am"}, {"days": "Sun", "time": "Closed"}], "id": "7235500002", "name": "USPS COLLECTION BOX - PO LOBBY", "address": {"city": "LEXA", "state": "AR", "street": "8984 HIGHWAY 242 W", "postcode": "72355"}}},
{"geometry": {"type": "Point", "coordinates": [-89.9281674952, 35.7559916629]}, "type": "Feature", "properties": {"collection_times": [{"days": "Mon-Fri", "time": "4:00pm"}, {"days": "Sat", "time": "10:30am"}, {"days": "Sun", "time": "Closed"}], "id": "7235800004", "name": "USPS COLLECTION BOX - BLUE BOX", "address": {"city": "LUXORA", "state": "AR", "street": "103 N MAIN ST", "postcode": "72358"}}},
{"geometry": {"type": "Point", "coordinates": [-89.9281674952, 35.7559916629]}, "type": "Feature", "properties": {"collection_times": [{"days": "Mon-Fri", "time": "11:00am"}, {"days": "Sat", "time": "10:30am"}, {"days": "Sun", "time": "Closed"}], "id": "7235800005", "name": "USPS COLLECTION BOX - PO LOBBY", "address": {"city": "LUXORA", "state": "AR", "street": "103 N MAIN ST", "postcode": "72358"}}},
{"geometry": {"type": "Point", "coordinates": [-90.721163111, 35.0131327113]}, "type": "Feature", "properties": {"collection_times": [{"days": "Mon-Fri", "time": "11:30am"}, {"days": "Sat", "time": "11:15am"}, {"days": "Sun", "time": "Closed"}], "id": "7235900002", "name": "USPS COLLECTION BOX - PO LOBBY", "address": {"city": "MADISON", "state": "AR", "street": "101 S FIRST ST", "postcode": "72359"}}},
{"geometry": {"type": "Point", "coordinates": [-90.7562416985, 34.771317051]}, "type": "Feature", "properties": {"collection_times": [{"days": "Mon-Fri", "time": "5:00pm"}, {"days": "Sat", "time": "3:00pm"}, {"days": "Sun", "time": "Closed"}], "id": "7236000010", "name": "USPS COLLECTION BOX - BLUE BOX", "address": {"city": "MARIANNA", "state": "AR", "street": "1 W MISSISSIPPI ST", "postcode": "72360"}}},
{"geometry": {"type": "Point", "coordinates": [-90.7562416985, 34.771317051]}, "type": "Feature", "properties": {"collection_times": [{"days": "Mon-Fri", "time": "5:00pm"}, {"days": "Sat", "time": "3:00pm"}, {"days": "Sun", "time": "Closed"}], "id": "7236000012", "name": "USPS COLLECTION BOX - BLUE BOX", "address": {"city": "MARIANNA", "state": "AR", "street": "1 W MISSISSIPPI ST", "postcode": "72360"}}},
{"geometry": {"type": "Point", "coordinates": [-90.7562416985, 34.771317051]}, "type": "Feature", "properties": {"collection_times": [{"days": "Mon-Fri", "time": "5:00pm"}, {"days": "Sat", "time": "3:00pm"}, {"days": "Sun", "time": "Closed"}], "id": "7236000015", "name": "USPS COLLECTION BOX - PO LOBBY", "address": {"city": "MARIANNA", "state": "AR", "street": "1 W MISSISSIPPI ST", "postcode": "72360"}}},
{"geometry": {"type": "Point", "coordinates": [-90.7562416985, 34.771317051]}, "type": "Feature", "properties": {"collection_times": [{"days": "Mon-Fri", "time": "5:00pm"}, {"days": "Sat", "time": "3:00pm"}, {"days": "Sun", "time": "Closed"}], "id": "7236000017", "name": "USPS COLLECTION BOX - PO LOBBY", "address": {"city": "MARIANNA", "state": "AR", "street": "1 W MISSISSIPPI ST", "postcode": "72360"}}},
{"geometry": {"type": "Point", "coordinates": [-90.7562416985, 34.771317051]}, "type": "Feature", "properties": {"collection_times": [{"days": "Mon-Fri", "time": "5:00pm"}, {"days": "Sat", "time": "3:00pm"}, {"days": "Sun", "time": "Closed"}], "id": "7236000018", "name": "USPS COLLECTION BOX - PO LOBBY", "address": {"city": "MARIANNA", "state": "AR", "street": "1 W MISSISSIPPI ST", "postcode": "72360"}}},
{"geometry": {"type": "Point", "coordinates": [-90.7562416985, 34.771317051]}, "type": "Feature", "properties": {"collection_times": [{"days": "Mon-Fri", "time": "5:00pm"}, {"days": "Sat", "time": "3:00pm"}, {"days": "Sun", "time": "Closed"}], "id": "7236000019", "name": "USPS COLLECTION BOX - PO LOBBY", "address": {"city": "MARIANNA", "state": "AR", "street": "1 W MISSISSIPPI ST", "postcode": "72360"}}},
{"geometry": {"type": "Point", "coordinates": [-90.1966747962, 35.2149055175]}, "type": "Feature", "properties": {"collection_times": [{"days": "Mon-Sat", "time": "3:00pm"}, {"days": "Sun", "time": "Closed"}], "id": "7236400000", "name": "USPS COLLECTION BOX - BLUE BOX", "address": {"city": "MARION", "state": "AR", "street": "100 COURT ST", "postcode": "72364"}}},
{"geometry": {"type": "Point", "coordinates": [-90.2040082002, 35.2089489547]}, "type": "Feature", "properties": {"collection_times": [{"days": "Mon-Fri", "time": "5:00pm"}, {"days": "Sat", "time": "4:30pm"}, {"days": "Sun", "time": "Closed"}], "id": "7236400002", "name": "USPS COLLECTION BOX - PO LOBBY", "address": {"city": "MARION", "state": "AR", "street": "140 BLOCK ST", "postcode": "72364"}}},
{"geometry": {"type": "Point", "coordinates": [-90.2040082002, 35.2089489547]}, "type": "Feature", "properties": {"collection_times": [{"days": "Mon-Fri", "time": "5:00pm"}, {"days": "Sat", "time": "4:30pm"}, {"days": "Sun", "time": "Closed"}], "id": "7236400003", "name": "USPS COLLECTION BOX - BLUE BOX", "address": {"city": "MARION", "state": "AR", "street": "140 BLOCK ST", "postcode": "72364"}}},
{"geometry": {"type": "Point", "coordinates": [-90.2040082002, 35.2089489547]}, "type": "Feature", "properties": {"collection_times": [{"days": "Mon-Fri", "time": "5:00pm"}, {"days": "Sat", "time": "4:30pm"}, {"days": "Sun", "time": "Closed"}], "id": "7236400004", "name": "USPS COLLECTION BOX - BLUE BOX", "address": {"city": "MARION", "state": "AR", "street": "140 BLOCK ST", "postcode": "72364"}}},
{"geometry": {"type": "Point", "coordinates": [-90.2040082002, 35.2089489547]}, "type": "Feature", "properties": {"collection_times": [{"days": "Mon-Fri", "time": "5:00pm"}, {"days": "Sat", "time": "4:30pm"}, {"days": "Sun", "time": "Closed"}], "id": "7236400005", "name": "USPS COLLECTION BOX - PO LOBBY", "address": {"city": "MARION", "state": "AR", "street": "140 BLOCK ST", "postcode": "72364"}}},
{"geometry": {"type": "Point", "coordinates": [-90.197661668, 35.2145152279]}, "type": "Feature", "properties": {"collection_times": [{"days": "Mon-Sat", "time": "3:00pm"}, {"days": "Sun", "time": "Closed"}], "id": "7236400006", "name": "USPS COLLECTION BOX - BLUE BOX", "address": {"city": "MARION", "state": "AR", "street": "14 MILITARY RD", "postcode": "72364"}}},
{"geometry": {"type": "Point", "coordinates": [-90.1859700441, 35.200887218]}, "type": "Feature", "properties": {"collection_times": [{"days": "Mon-Sat", "time": "1:00pm"}, {"days": "Sun", "time": "Closed"}], "id": "7236400007", "name": "USPS COLLECTION BOX - BLUE BOX", "address": {"city": "MARION", "state": "AR", "street": "2100 STATE HIGHWAY 77", "postcode": "72364"}}},
{"geometry": {"type": "Point", "coordinates": [-90.4182179605, 35.5302139908]}, "type": "Feature", "properties": {"collection_times": [{"days": "Mon-Fri", "time": "4:15pm"}, {"days": "Sat", "time": "2:15pm"}, {"days": "Sun", "time": "Closed"}], "id": "7236500001", "name": "USPS COLLECTION BOX - BLUE BOX", "address": {"city": "MARKED TREE", "state": "AR", "street": "402 FRISCO ST", "postcode": "72365"}}},
{"geometry": {"type": "Point", "coordinates": [-90.4225686414, 35.5330579235]}, "type": "Feature", "properties": {"collection_times": [{"days": "Mon-Fri", "time": "2:00pm"}, {"days": "Sat", "time": "11:00am"}, {"days": "Sun", "time": "Closed"}], "id": "7236500012", "name": "USPS COLLECTION BOX - BLUE BOX", "address": {"city": "MARKED TREE", "state": "AR", "street": "48 FRISCO ST", "postcode": "72365"}}},
{"geometry": {"type": "Point", "coordinates": [-90.4226275778, 35.5320548789]}, "type": "Feature", "properties": {"collection_times": [{"days": "Mon-Fri", "time": "2:00pm"}, {"days": "Sat", "time": "11:00am"}, {"days": "Sun", "time": "Closed"}], "id": "7236500013", "name": "USPS COLLECTION BOX - BLUE BOX", "address": {"city": "MARKED TREE", "state": "AR", "street": "1 ELM ST", "postcode": "72365"}}},
{"geometry": {"type": "Point", "coordinates": [-90.4182179605, 35.5302139908]}, "type": "Feature", "properties": {"collection_times": [{"days": "Mon-Fri", "time": "4:45pm"}, {"days": "Sat", "time": "2:15pm"}, {"days": "Sun", "time": "Closed"}], "id": "7236500019", "name": "USPS COLLECTION BOX - PO LOBBY", "address": {"city": "MARKED TREE", "state": "AR", "street": "402 FRISCO ST", "postcode": "72365"}}},
{"geometry": {"type": "Point", "coordinates": [-90.4182179605, 35.5302139908]}, "type": "Feature", "properties": {"collection_times": [{"days": "Mon-Fri", "time": "4:45pm"}, {"days": "Sat", "time": "2:15pm"}, {"days": "Sun", "time": "Closed"}], "id": "7236500020", "name": "USPS COLLECTION BOX - PO LOBBY", "address": {"city": "MARKED TREE", "state": "AR", "street": "402 FRISCO ST", "postcode": "72365"}}},
{"geometry": {"type": "Point", "coordinates": [-90.9139747116, 34.5546800293]}, "type": "Feature", "properties": {"collection_times": [{"days": "Mon-Fri", "time": "4:00pm"}, {"days": "Sat", "time": "12:00pm"}, {"days": "Sun", "time": "Closed"}], "id": "7236600000", "name": "USPS COLLECTION BOX - BLUE BOX", "address": {"city": "MARVELL", "state": "AR", "street": "403 ELM ST", "postcode": "72366"}}},
{"geometry": {"type": "Point", "coordinates": [-90.9139747116, 34.5546800293]}, "type": "Feature", "properties": {"collection_times": [{"days": "Mon-Fri", "time": "4:00pm"}, {"days": "Sat", "time": "12:00pm"}, {"days": "Sun", "time": "Closed"}], "id": "7236600001", "name": "USPS COLLECTION BOX - PO LOBBY", "address": {"city": "MARVELL", "state": "AR", "street": "403 ELM ST", "postcode": "72366"}}},
{"geometry": {"type": "Point", "coordinates": [-90.9139747116, 34.5546800293]}, "type": "Feature", "properties": {"collection_times": [{"days": "Mon-Fri", "time": "4:00pm"}, {"days": "Sat", "time": "12:00pm"}, {"days": "Sun", "time": "Closed"}], "id": "7236600002", "name": "USPS COLLECTION BOX - PO LOBBY", "address": {"city": "MARVELL", "state": "AR", "street": "403 ELM ST", "postcode": "72366"}}},
{"geometry": {"type": "Point", "coordinates": [-91.0474605045, 34.1913269687]}, "type": "Feature", "properties": {"collection_times": [{"days": "Mon-Fri", "time": "2:30pm"}, {"days": "Sat", "time": "11:00am"}, {"days": "Sun", "time": "Closed"}], "id": "7236700000", "name": "USPS COLLECTION BOX - BLUE BOX", "address": {"city": "MELLWOOD", "state": "AR", "street": "32403 HIGHWAY 44", "postcode": "72367"}}},
{"geometry": {"type": "Point", "coordinates": [-91.0474605045, 34.1913269687]}, "type": "Feature", "properties": {"collection_times": [{"days": "Mon-Fri", "time": "2:30pm"}, {"days": "Sat", "time": "11:00am"}, {"days": "Sun", "time": "Closed"}], "id": "7236700001", "name": "USPS COLLECTION BOX - PO LOBBY", "address": {"city": "MELLWOOD", "state": "AR", "street": "32403 HIGHWAY 44", "postcode": "72367"}}},
{"geometry": {"type": "Point", "coordinates": [-91.0186157272, 34.8136080716]}, "type": "Feature", "properties": {"collection_times": [{"days": "Mon-Fri", "time": "3:45pm"}, {"days": "Sat", "time": "9:45am"}, {"days": "Sun", "time": "Closed"}], "id": "7236800000", "name": "USPS COLLECTION BOX - BLUE BOX", "address": {"city": "MORO", "state": "AR", "street": "103 N MAIN ST", "postcode": "72368"}}},
{"geometry": {"type": "Point", "coordinates": [-91.0186157272, 34.8136080716]}, "type": "Feature", "properties": {"collection_times": [{"days": "Mon-Fri", "time": "11:15am"}, {"days": "Sat", "time": "9:45am"}, {"days": "Sun", "time": "Closed"}], "id": "7236800001", "name": "USPS COLLECTION BOX - PO LOBBY", "address": {"city": "MORO", "state": "AR", "street": "103 N MAIN ST", "postcode": "72368"}}},
{"geometry": {"type": "Point", "coordinates": [-90.8990623515, 34.3894625426]}, "type": "Feature", "properties": {"collection_times": [{"days": "Mon-Sat", "time": "11:30am"}, {"days": "Sun", "time": "Closed"}], "id": "7236900002", "name": "USPS COLLECTION BOX - BLUE BOX", "address": {"city": "ONEIDA", "state": "AR", "street": "374 PHILLIPS 363 RD", "postcode": "72369"}}},
{"geometry": {"type": "Point", "coordinates": [-90.8990623515, 34.3894625426]}, "type": "Feature", "properties": {"collection_times": [{"days": "Mon-Fri", "time": "1:30pm"}, {"days": "Sat", "time": "11:30am"}, {"days": "Sun", "time": "Closed"}], "id": "7236900003", "name": "USPS COLLECTION BOX - PO LOBBY", "address": {"city": "ONEIDA", "state": "AR", "street": "374 PHILLIPS 363 RD", "postcode": "72369"}}},
{"geometry": {"type": "Point", "coordinates": [-89.9681401103, 35.7037600915]}, "type": "Feature", "properties": {"collection_times": [{"days": "Mon-Fri", "time": "5:00pm"}, {"days": "Sat", "time": "4:00pm"}, {"days": "Sun", "time": "Closed"}], "id": "7237000014", "name": "USPS COLLECTION BOX - BLUE BOX", "address": {"city": "OSCEOLA", "state": "AR", "street": "101 E JOHNSON AVE", "postcode": "72370"}}},
{"geometry": {"type": "Point", "coordinates": [-89.9681401103, 35.7037600915]}, "type": "Feature", "properties": {"collection_times": [{"days": "Mon-Fri", "time": "5:00pm"}, {"days": "Sat", "time": "4:00pm"}, {"days": "Sun", "time": "Closed"}], "id": "7237000015", "name": "USPS COLLECTION BOX - BLUE BOX", "address": {"city": "OSCEOLA", "state": "AR", "street": "101 E JOHNSON AVE", "postcode": "72370"}}},
{"geometry": {"type": "Point", "coordinates": [-89.9681401103, 35.7037600915]}, "type": "Feature", "properties": {"collection_times": [{"days": "Mon-Fri", "time": "5:00pm"}, {"days": "Sat", "time": "4:00pm"}, {"days": "Sun", "time": "Closed"}], "id": "7237000020", "name": "USPS COLLECTION BOX - PO LOBBY", "address": {"city": "OSCEOLA", "state": "AR", "street": "101 E JOHNSON AVE", "postcode": "72370"}}},
{"geometry": {"type": "Point", "coordinates": [-89.9681401103, 35.7037600915]}, "type": "Feature", "properties": {"collection_times": [{"days": "Mon-Fri", "time": "5:00pm"}, {"days": "Sat", "time": "4:00pm"}, {"days": "Sun", "time": "Closed"}], "id": "7237000021", "name": "USPS COLLECTION BOX - PO LOBBY", "address": {"city": "OSCEOLA", "state": "AR", "street": "101 E JOHNSON AVE", "postcode": "72370"}}},
{"geometry": {"type": "Point", "coordinates": [-89.980700779, 35.697672825]}, "type": "Feature", "properties": {"collection_times": [{"days": "Mon-Sat", "time": "3:00pm"}, {"days": "Sun", "time": "Closed"}], "id": "7237000023", "name": "USPS COLLECTION BOX - BLUE BOX", "address": {"city": "OSCEOLA", "state": "AR", "street": "815 W KEISER AVE", "postcode": "72370"}}},
{"geometry": {"type": "Point", "coordinates": [-89.9704201206, 35.7028431138]}, "type": "Feature", "properties": {"collection_times": [{"days": "Mon-Sat", "time": "3:00pm"}, {"days": "Sun", "time": "Closed"}], "id": "7237000024", "name": "USPS COLLECTION BOX - BLUE BOX", "address": {"city": "OSCEOLA", "state": "AR", "street": "303 W HALE AVE", "postcode": "72370"}}},
{"geometry": {"type": "Point", "coordinates": [-90.9056131731, 34.972352339]}, "type": "Feature", "properties": {"collection_times": [{"days": "Mon-Fri", "time": "4:00pm"}, {"days": "Sat", "time": "10:45am"}, {"days": "Sun", "time": "Closed"}], "id": "7237200001", "name": "USPS COLLECTION BOX - BLUE BOX", "address": {"city": "PALESTINE", "state": "AR", "street": "310 W PARKER ST", "postcode": "72372"}}},
{"geometry": {"type": "Point", "coordinates": [-90.9056131731, 34.972352339]}, "type": "Feature", "properties": {"collection_times": [{"days": "Mon-Fri", "time": "2:00pm"}, {"days": "Sat", "time": "10:45am"}, {"days": "Sun", "time": "Closed"}], "id": "7237200003", "name": "USPS COLLECTION BOX - PO LOBBY", "address": {"city": "PALESTINE", "state": "AR", "street": "310 W PARKER ST", "postcode": "72372"}}},
{"geometry": {"type": "Point", "coordinates": [-90.5586974681, 35.2672731497]}, "type": "Feature", "properties": {"collection_times": [{"days": "Mon-Fri", "time": "4:45pm"}, {"days": "Sat", "time": "12:00pm"}, {"days": "Sun", "time": "Closed"}], "id": "7237300001", "name": "USPS COLLECTION BOX - BLUE BOX", "address": {"city": "PARKIN", "state": "AR", "street": "111 S FRONT ST", "postcode": "72373"}}},
{"geometry": {"type": "Point", "coordinates": [-90.5586974681, 35.2672731497]}, "type": "Feature", "properties": {"collection_times": [{"days": "Mon-Fri", "time": "2:15pm"}, {"days": "Sat", "time": "12:00pm"}, {"days": "Sun", "time": "Closed"}], "id": "7237300003", "name": "USPS COLLECTION BOX - PO LOBBY", "address": {"city": "PARKIN", "state": "AR", "street": "111 S FRONT ST", "postcode": "72373"}}},
{"geometry": {"type": "Point", "coordinates": [-90.5586974681, 35.2672731497]}, "type": "Feature", "properties": {"collection_times": [{"days": "Mon-Fri", "time": "2:15pm"}, {"days": "Sat", "time": "12:00pm"}, {"days": "Sun", "time": "Closed"}], "id": "7237300004", "name": "USPS COLLECTION BOX - PO LOBBY", "address": {"city": "PARKIN", "state": "AR", "street": "111 S FRONT ST", "postcode": "72373"}}},
{"geometry": {"type": "Point", "coordinates": [-90.8832856752, 34.555581115]}, "type": "Feature", "properties": {"collection_times": [{"days": "Mon-Fri", "time": "4:00pm"}, {"days": "Sat", "time": "11:00am"}, {"days": "Sun", "time": "Closed"}], "id": "7237400000", "name": "USPS COLLECTION BOX - BLUE BOX", "address": {"city": "POPLAR GROVE", "state": "AR", "street": "11200 HIGHWAY 49", "postcode": "72374"}}},
{"geometry": {"type": "Point", "coordinates": [-90.8832856752, 34.555581115]}, "type": "Feature", "properties": {"collection_times": [{"days": "Mon-Fri", "time": "11:30am"}, {"days": "Sat", "time": "11:00am"}, {"days": "Sun", "time": "Closed"}], "id": "7237400001", "name": "USPS COLLECTION BOX - PO LOBBY", "address": {"city": "POPLAR GROVE", "state": "AR", "street": "11200 HIGHWAY 49", "postcode": "72374"}}},
{"geometry": {"type": "Point", "coordinates": [-90.8832856752, 34.555581115]}, "type": "Feature", "properties": {"collection_times": [{"days": "Mon-Fri", "time": "11:30am"}, {"days": "Sat", "time": "11:00am"}, {"days": "Sun", "time": "Closed"}], "id": "7237400002", "name": "USPS COLLECTION BOX - PO LOBBY", "address": {"city": "POPLAR GROVE", "state": "AR", "street": "11200 HIGHWAY 49", "postcode": "72374"}}},
{"geometry": {"type": "Point", "coordinates": [-90.2939421208, 35.0763288447]}, "type": "Feature", "properties": {"collection_times": [{"days": "Mon-Fri", "time": "3:45pm"}, {"days": "Sat", "time": "9:45am"}, {"days": "Sun", "time": "Closed"}], "id": "7237600000", "name": "USPS COLLECTION BOX - BLUE BOX", "address": {"city": "PROCTOR", "state": "AR", "street": "5650 HIGHWAY 147 S", "postcode": "72376"}}},
{"geometry": {"type": "Point", "coordinates": [-90.2939421208, 35.0763288447]}, "type": "Feature", "properties": {"collection_times": [{"days": "Mon-Fri", "time": "3:45pm"}, {"days": "Sat", "time": "9:45am"}, {"days": "Sun", "time": "Closed"}], "id": "7237600001", "name": "USPS COLLECTION BOX - PO LOBBY", "address": {"city": "PROCTOR", "state": "AR", "street": "5650 HIGHWAY 147 S", "postcode": "72376"}}},
{"geometry": {"type": "Point", "coordinates": [-91.0450607986, 34.0477069157]}, "type": "Feature", "properties": {"collection_times": [{"days": "Mon-Fri", "time": "12:30pm"}, {"days": "Sat", "time": "10:00am"}, {"days": "Sun", "time": "Closed"}], "id": "7237900000", "name": "USPS COLLECTION BOX - BLUE BOX", "address": {"city": "SNOW LAKE", "state": "AR", "street": "1586 S HIGHWAY 85", "postcode": "72379"}}},
{"geometry": {"type": "Point", "coordinates": [-91.0450607986, 34.0477069157]}, "type": "Feature", "properties": {"collection_times": [{"days": "Mon-Fri", "time": "12:30pm"}, {"days": "Sat", "time": "10:00am"}, {"days": "Sun", "time": "Closed"}], "id": "7237900001", "name": "USPS COLLECTION BOX - PO LOBBY", "address": {"city": "SNOW LAKE", "state": "AR", "street": "1586 S HIGHWAY 85", "postcode": "72379"}}},
{"geometry": {"type": "Point", "coordinates": [-91.0181937541, 34.4748645089]}, "type": "Feature", "properties": {"collection_times": [{"days": "Mon-Sat", "time": "10:45am"}, {"days": "Sun", "time": "Closed"}], "id": "7238300000", "name": "USPS COLLECTION BOX - BLUE BOX", "address": {"city": "TURNER", "state": "AR", "street": "8176 HIGHWAY 39", "postcode": "72383"}}},
{"geometry": {"type": "Point", "coordinates": [-91.0181937541, 34.4748645089]}, "type": "Feature", "properties": {"collection_times": [{"days": "Mon-Sat", "time": "10:45am"}, {"days": "Sun", "time": "Closed"}], "id": "7238300001", "name": "USPS COLLECTION BOX - PO LOBBY", "address": {"city": "TURNER", "state": "AR", "street": "8176 HIGHWAY 39", "postcode": "72383"}}},
{"geometry": {"type": "Point", "coordinates": [-90.2570619884, 35.3741001717]}, "type": "Feature", "properties": {"collection_times": [{"days": "Mon-Fri", "time": "4:15pm"}, {"days": "Sat", "time": "10:30am"}, {"days": "Sun", "time": "Closed"}], "id": "7238400001", "name": "USPS COLLECTION BOX - BLUE BOX", "address": {"city": "TURRELL", "state": "AR", "street": "237 BARTON ST", "postcode": "72384"}}},
{"geometry": {"type": "Point", "coordinates": [-90.2570619884, 35.3741001717]}, "type": "Feature", "properties": {"collection_times": [{"days": "Mon-Fri", "time": "11:30am"}, {"days": "Sat", "time": "10:30am"}, {"days": "Sun", "time": "Closed"}], "id": "7238400002", "name": "USPS COLLECTION BOX - PO LOBBY", "address": {"city": "TURRELL", "state": "AR", "street": "237 BARTON ST", "postcode": "72384"}}},
{"geometry": {"type": "Point", "coordinates": [-90.2570619884, 35.3741001717]}, "type": "Feature", "properties": {"collection_times": [{"days": "Mon-Fri", "time": "11:30am"}, {"days": "Sat", "time": "10:30am"}, {"days": "Sun", "time": "Closed"}], "id": "7238400003", "name": "USPS COLLECTION BOX - PO LOBBY", "address": {"city": "TURRELL", "state": "AR", "street": "237 BARTON ST", "postcode": "72384"}}},
{"geometry": {"type": "Point", "coordinates": [-90.3586811848, 35.4864760143]}, "type": "Feature", "properties": {"collection_times": [{"days": "Mon-Fri", "time": "4:00pm"}, {"days": "Sat", "time": "10:00am"}, {"days": "Sun", "time": "Closed"}], "id": "7238600000", "name": "USPS COLLECTION BOX - BLUE BOX", "address": {"city": "TYRONZA", "state": "AR", "street": "329 S MAIN ST", "postcode": "72386"}}},
{"geometry": {"type": "Point", "coordinates": [-90.3586811848, 35.4864760143]}, "type": "Feature", "properties": {"collection_times": [{"days": "Mon-Fri", "time": "4:00pm"}, {"days": "Sat", "time": "10:00am"}, {"days": "Sun", "time": "Closed"}], "id": "7238600001", "name": "USPS COLLECTION BOX - PO LOBBY", "address": {"city": "TYRONZA", "state": "AR", "street": "329 S MAIN ST", "postcode": "72386"}}},
{"geometry": {"type": "Point", "coordinates": [-90.3586811848, 35.4864760143]}, "type": "Feature", "properties": {"collection_times": [{"days": "Mon-Fri", "time": "4:00pm"}, {"days": "Sat", "time": "10:00am"}, {"days": "Sun", "time": "Closed"}], "id": "7238600002", "name": "USPS COLLECTION BOX - PO LOBBY", "address": {"city": "TYRONZA", "state": "AR", "street": "329 S MAIN ST", "postcode": "72386"}}},
{"geometry": {"type": "Point", "coordinates": [-90.3586811848, 35.4864760143]}, "type": "Feature", "properties": {"collection_times": [{"days": "Mon-Fri", "time": "4:00pm"}, {"days": "Sat", "time": "10:00am"}, {"days": "Sun", "time": "Closed"}], "id": "7238600003", "name": "USPS COLLECTION BOX - PO LOBBY", "address": {"city": "TYRONZA", "state": "AR", "street": "329 S MAIN ST", "postcode": "72386"}}},
{"geometry": {"type": "Point", "coordinates": [-90.3586811848, 35.4864760143]}, "type": "Feature", "properties": {"collection_times": [{"days": "Mon-Fri", "time": "4:00pm"}, {"days": "Sat", "time": "10:00am"}, {"days": "Sun", "time": "Closed"}], "id": "7238600004", "name": "USPS COLLECTION BOX - PO LOBBY", "address": {"city": "TYRONZA", "state": "AR", "street": "329 S MAIN ST", "postcode": "72386"}}},
{"geometry": {"type": "Point", "coordinates": [-90.7735047384, 35.3135027535]}, "type": "Feature", "properties": {"collection_times": [{"days": "Mon-Fri", "time": "4:30pm"}, {"days": "Sat", "time": "10:45am"}, {"days": "Sun", "time": "Closed"}], "id": "7238700001", "name": "USPS COLLECTION BOX - BLUE BOX", "address": {"city": "VANNDALE", "state": "AR", "street": "2905 HIGHWAY 1B", "postcode": "72387"}}},
{"geometry": {"type": "Point", "coordinates": [-90.7735047384, 35.3135027535]}, "type": "Feature", "properties": {"collection_times": [{"days": "Mon-Fri", "time": "9:30am"}, {"days": "Sat", "time": "10:45am"}, {"days": "Sun", "time": "Closed"}], "id": "7238700002", "name": "USPS COLLECTION BOX - PO LOBBY", "address": {"city": "VANNDALE", "state": "AR", "street": "2905 HIGHWAY 1B", "postcode": "72387"}}},
{"geometry": {"type": "Point", "coordinates": [-90.8295427674, 34.3804341549]}, "type": "Feature", "properties": {"collection_times": [{"days": "Mon-Fri", "time": "4:15pm"}, {"days": "Sat", "time": "11:15am"}, {"days": "Sun", "time": "Closed"}], "id": "7238900018", "name": "USPS COLLECTION BOX - BLUE BOX", "address": {"city": "WABASH", "state": "AR", "street": "17114 HIGHWAY 44", "postcode": "72389"}}},
{"geometry": {"type": "Point", "coordinates": [-90.8295427674, 34.3804341549]}, "type": "Feature", "properties": {"collection_times": [{"days": "Mon-Fri", "time": "4:00pm"}, {"days": "Sat", "time": "11:15am"}, {"days": "Sun", "time": "Closed"}], "id": "7238900019", "name": "USPS COLLECTION BOX - PO LOBBY", "address": {"city": "WABASH", "state": "AR", "street": "17114 HIGHWAY 44", "postcode": "72389"}}},
{"geometry": {"type": "Point", "coordinates": [-90.6451481005, 34.5465313191]}, "type": "Feature", "properties": {"collection_times": [{"days": "Mon-Fri", "time": "5:00pm"}, {"days": "Sat", "time": "2:45pm"}, {"days": "Sun", "time": "Closed"}], "id": "7239000001", "name": "USPS COLLECTION BOX - BLUE BOX", "address": {"city": "WEST HELENA", "state": "AR", "street": "221 N SEBASTIAN", "postcode": "72390"}}},
{"geometry": {"type": "Point", "coordinates": [-90.6451481005, 34.5465313191]}, "type": "Feature", "properties": {"collection_times": [{"days": "Mon-Fri", "time": "5:00pm"}, {"days": "Sat", "time": "2:45pm"}, {"days": "Sun", "time": "Closed"}], "id": "7239000018", "name": "USPS COLLECTION BOX - BLUE BOX", "address": {"city": "WEST HELENA", "state": "AR", "street": "221 N SEBASTIAN", "postcode": "72390"}}},
{"geometry": {"type": "Point", "coordinates": [-90.6451481005, 34.5465313191]}, "type": "Feature", "properties": {"collection_times": [{"days": "Mon-Fri", "time": "5:00pm"}, {"days": "Sat", "time": "2:45pm"}, {"days": "Sun", "time": "Closed"}], "id": "7239000019", "name": "USPS COLLECTION BOX - PO LOBBY", "address": {"city": "WEST HELENA", "state": "AR", "street": "221 N SEBASTIAN", "postcode": "72390"}}},
{"geometry": {"type": "Point", "coordinates": [-90.6451481005, 34.5465313191]}, "type": "Feature", "properties": {"collection_times": [{"days": "Mon-Fri", "time": "5:00pm"}, {"days": "Sat", "time": "2:45pm"}, {"days": "Sun", "time": "Closed"}], "id": "7239000020", "name": "USPS COLLECTION BOX - BLUE BOX", "address": {"city": "WEST HELENA", "state": "AR", "street": "221 N SEBASTIAN", "postcode": "72390"}}},
{"geometry": {"type": "Point", "coordinates": [-90.6451481005, 34.5465313191]}, "type": "Feature", "properties": {"collection_times": [{"days": "Mon-Fri", "time": "5:00pm"}, {"days": "Sat", "time": "2:45pm"}, {"days": "Sun", "time": "Closed"}], "id": "7239000024", "name": "USPS COLLECTION BOX - PO LOBBY", "address": {"city": "WEST HELENA", "state": "AR", "street": "221 N SEBASTIAN", "postcode": "72390"}}},
{"geometry": {"type": "Point", "coordinates": [-90.6451481005, 34.5465313191]}, "type": "Feature", "properties": {"collection_times": [{"days": "Mon-Fri", "time": "5:00pm"}, {"days": "Sat", "time": "2:45pm"}, {"days": "Sun", "time": "Closed"}], "id": "7239000025", "name": "USPS COLLECTION BOX - PO LOBBY", "address": {"city": "WEST HELENA", "state": "AR", "street": "221 N SEBASTIAN", "postcode": "72390"}}},
{"geometry": {"type": "Point", "coordinates": [-90.6451481005, 34.5465313191]}, "type": "Feature", "properties": {"collection_times": [{"days": "Mon-Fri", "time": "5:00pm"}, {"days": "Sat", "time": "2:45pm"}, {"days": "Sun", "time": "Closed"}], "id": "7239000026", "name": "USPS COLLECTION BOX - PO LOBBY", "address": {"city": "WEST HELENA", "state": "AR", "street": "221 N SEBASTIAN", "postcode": "72390"}}},
{"geometry": {"type": "Point", "coordinates": [-90.6451481005, 34.5465313191]}, "type": "Feature", "properties": {"collection_times": [{"days": "Mon-Fri", "time": "5:00pm"}, {"days": "Sat", "time": "2:45pm"}, {"days": "Sun", "time": "Closed"}], "id": "7239000027", "name": "USPS COLLECTION BOX - PO LOBBY", "address": {"city": "WEST HELENA", "state": "AR", "street": "221 N SEBASTIAN", "postcode": "72390"}}},
{"geometry": {"type": "Point", "coordinates": [-90.6451481005, 34.5465313191]}, "type": "Feature", "properties": {"collection_times": [{"days": "Mon-Fri", "time": "5:00pm"}, {"days": "Sat", "time": "2:45pm"}, {"days": "Sun", "time": "Closed"}], "id": "7239000028", "name": "USPS COLLECTION BOX - PO LOBBY", "address": {"city": "WEST HELENA", "state": "AR", "street": "221 N SEBASTIAN", "postcode": "72390"}}},
{"geometry": {"type": "Point", "coordinates": [-90.266581433, 35.6792227613]}, "type": "Feature", "properties": {"collection_times": [{"days": "Mon-Sat", "time": "9:30am"}, {"days": "Sun", "time": "Closed"}], "id": "7239100000", "name": "USPS COLLECTION BOX - BLUE BOX", "address": {"city": "WEST RIDGE", "state": "AR", "street": "5204 W STATE HIGHWAY 140", "postcode": "72391"}}},
{"geometry": {"type": "Point", "coordinates": [-90.266581433, 35.6792227613]}, "type": "Feature", "properties": {"collection_times": [{"days": "Mon-Sat", "time": "9:30am"}, {"days": "Sun", "time": "Closed"}], "id": "7239100001", "name": "USPS COLLECTION BOX - PO LOBBY", "address": {"city": "WEST RIDGE", "state": "AR", "street": "5204 W STATE HIGHWAY 140", "postcode": "72391"}}},
{"geometry": {"type": "Point", "coordinates": [-90.266581433, 35.6792227613]}, "type": "Feature", "properties": {"collection_times": [{"days": "Mon-Sat", "time": "9:30am"}, {"days": "Sun", "time": "Closed"}], "id": "7239100002", "name": "USPS COLLECTION BOX - PO LOBBY", "address": {"city": "WEST RIDGE", "state": "AR", "street": "5204 W STATE HIGHWAY 140", "postcode": "72391"}}},
{"geometry": {"type": "Point", "coordinates": [-91.1084493851, 34.9130759563]}, "type": "Feature", "properties": {"collection_times": [{"days": "Mon-Fri", "time": "4:15pm"}, {"days": "Sat", "time": "10:00am"}, {"days": "Sun", "time": "Closed"}], "id": "7239200000", "name": "USPS COLLECTION BOX - BLUE BOX", "address": {"city": "WHEATLEY", "state": "AR", "street": "100 LITTLE ROCK ST", "postcode": "72392"}}},
{"geometry": {"type": "Point", "coordinates": [-91.1084493851, 34.9130759563]}, "type": "Feature", "properties": {"collection_times": [{"days": "Mon-Fri", "time": "2:30pm"}, {"days": "Sat", "time": "10:00am"}, {"days": "Sun", "time": "Closed"}], "id": "7239200001", "name": "USPS COLLECTION BOX - PO LOBBY", "address": {"city": "WHEATLEY", "state": "AR", "street": "100 LITTLE ROCK ST", "postcode": "72392"}}},
{"geometry": {"type": "Point", "coordinates": [-90.6833410056, 35.021970542]}, "type": "Feature", "properties": {"collection_times": [{"days": "Mon-Fri", "time": "4:00pm"}, {"days": "Sat", "time": "10:00am"}, {"days": "Sun", "time": "Closed"}], "id": "7239400002", "name": "USPS COLLECTION BOX - BLUE BOX", "address": {"city": "WIDENER", "state": "AR", "street": "100 THIRD ST", "postcode": "72394"}}},
{"geometry": {"type": "Point", "coordinates": [-90.6833410056, 35.021970542]}, "type": "Feature", "properties": {"collection_times": [{"days": "Mon-Fri", "time": "11:30am"}, {"days": "Sat", "time": "10:00am"}, {"days": "Sun", "time": "Closed"}], "id": "7239400003", "name": "USPS COLLECTION BOX - PO LOBBY", "address": {"city": "WIDENER", "state": "AR", "street": "100 THIRD ST", "postcode": "72394"}}},
{"geometry": {"type": "Point", "coordinates": [-90.0420260939, 35.568426894]}, "type": "Feature", "properties": {"collection_times": [{"days": "Mon-Fri", "time": "11:30am"}, {"days": "Sat", "time": "10:30am"}, {"days": "Sun", "time": "Closed"}], "id": "7239500001", "name": "USPS COLLECTION BOX - PO LOBBY", "address": {"city": "WILSON", "state": "AR", "street": "3 PARK ST", "postcode": "72395"}}},
{"geometry": {"type": "Point", "coordinates": [-90.0420260939, 35.568426894]}, "type": "Feature", "properties": {"collection_times": [{"days": "Mon-Fri", "time": "4:45pm"}, {"days": "Sat", "time": "10:30am"}, {"days": "Sun", "time": "Closed"}], "id": "7239500004", "name": "USPS COLLECTION BOX - BLUE BOX", "address": {"city": "WILSON", "state": "AR", "street": "3 PARK ST", "postcode": "72395"}}},
{"geometry": {"type": "Point", "coordinates": [-90.0420260939, 35.568426894]}, "type": "Feature", "properties": {"collection_times": [{"days": "Mon-Fri", "time": "11:30am"}, {"days": "Sat", "time": "10:30am"}, {"days": "Sun", "time": "Closed"}], "id": "7239500005", "name": "USPS COLLECTION BOX - PO LOBBY", "address": {"city": "WILSON", "state": "AR", "street": "3 PARK ST", "postcode": "72395"}}},
{"geometry": {"type": "Point", "coordinates": [-90.0420260939, 35.568426894]}, "type": "Feature", "properties": {"collection_times": [{"days": "Mon-Fri", "time": "11:30am"}, {"days": "Sat", "time": "10:30am"}, {"days": "Sun", "time": "Closed"}], "id": "7239500006", "name": "USPS COLLECTION BOX - PO LOBBY", "address": {"city": "WILSON", "state": "AR", "street": "3 PARK ST", "postcode": "72395"}}},
{"geometry": {"type": "Point", "coordinates": [-90.0420260939, 35.568426894]}, "type": "Feature", "properties": {"collection_times": [{"days": "Mon-Fri", "time": "11:30am"}, {"days": "Sat", "time": "10:30am"}, {"days": "Sun", "time": "Closed"}], "id": "7239500007", "name": "USPS COLLECTION BOX - PO LOBBY", "address": {"city": "WILSON", "state": "AR", "street": "3 PARK ST", "postcode": "72395"}}},
{"geometry": {"type": "Point", "coordinates": [-90.78701005, 35.223612461]}, "type": "Feature", "properties": {"collection_times": [{"days": "Mon-Fri", "time": "3:45pm"}, {"days": "Sat", "time": "12:00pm"}, {"days": "Sun", "time": "Closed"}], "id": "7239600008", "name": "USPS COLLECTION BOX - BLUE BOX", "address": {"city": "WYNNE", "state": "AR", "street": "705 UNION AVE E", "postcode": "72396"}}},
{"geometry": {"type": "Point", "coordinates": [-90.7895662212, 35.2240114977]}, "type": "Feature", "properties": {"collection_times": [{"days": "Mon-Fri", "time": "5:00pm"}, {"days": "Sat", "time": "3:00pm"}, {"days": "Sun", "time": "Closed"}], "id": "7239600009", "name": "USPS COLLECTION BOX - BLUE BOX", "address": {"city": "WYNNE", "state": "AR", "street": "402 MERRIMAN AVE E", "postcode": "72396"}}},
{"geometry": {"type": "Point", "coordinates": [-90.7895662212, 35.2240114977]}, "type": "Feature", "properties": {"collection_times": [{"days": "Mon-Fri", "time": "5:00pm"}, {"days": "Sat", "time": "3:00pm"}, {"days": "Sun", "time": "Closed"}], "id": "7239600015", "name": "USPS COLLECTION BOX - PO LOBBY", "address": {"city": "WYNNE", "state": "AR", "street": "402 MERRIMAN AVE E", "postcode": "72396"}}},
{"geometry": {"type": "Point", "coordinates": [-90.7564167873, 35.2469505722]}, "type": "Feature", "properties": {"collection_times": [{"days": "Mon-Sat", "time": "9:00am"}, {"days": "Sun", "time": "Closed"}], "id": "7239600016", "name": "USPS COLLECTION BOX - BLUE BOX", "address": {"city": "WYNNE", "state": "AR", "street": "800 HIGHWAY 64 E", "postcode": "72396"}}}
]}
