{"type": "FeatureCollection", "features": [
{"geometry": {"type": "Point", "coordinates": [-90.6777316092, 35.8301566457]}, "type": "Feature", "properties": {"collection_times": [{"days": "Mon-Sat", "time": "3:30pm"}, {"days": "Sun", "time": "Closed"}], "id": "7240100004", "name": "USPS COLLECTION BOX - BLUE BOX", "address": {"city": "JONESBORO", "state": "AR", "street": "1311 S CARAWAY RD", "postcode": "72401"}}},
{"geometry": {"type": "Point", "coordinates": [-90.6776537392, 35.8243252101]}, "type": "Feature", "properties": {"collection_times": [{"days": "Mon-Fri", "time": "3:30pm"}, {"days": "Sat-Sun", "time": "Closed"}], "id": "7240100006", "name": "USPS COLLECTION BOX - BLUE BOX", "address": {"city": "JONESBORO", "state": "AR", "street": "1720 S CARAWAY RD", "postcode": "72401"}}},
{"geometry": {"type": "Point", "coordinates": [-90.6781797306, 35.8100451051]}, "type": "Feature", "properties": {"collection_times": [{"days": "Mon-Sat", "time": "3:45pm"}, {"days": "Sun", "time": "Closed"}], "id": "7240100008", "name": "USPS COLLECTION BOX - BLUE BOX", "address": {"city": "JONESBORO", "state": "AR", "street": "2929 S CARAWAY RD", "postcode": "72401"}}},
{"geometry": {"type": "Point", "coordinates": [-92.4388840948, 34.8999269099]}, "type": "Feature", "properties": {"collection_times": [{"days": "Mon-Sat", "time": "11:00am"}, {"days": "Sun", "time": "Closed"}], "id": "7240100017", "name": "USPS COLLECTION BOX - BLUE BOX", "address": {"city": "JONESBORO", "state": "AR", "street": "4225 STADIUM BLVD", "postcode": "72401"}}},
{"geometry": {"type": "Point", "coordinates": [-90.7050403351, 35.838273839]}, "type": "Feature", "properties": {"collection_times": [{"days": "Mon-Fri", "time": "4:30pm"}, {"days": "Sat-Sun", "time": "Closed"}], "id": "7240100022", "name": "USPS COLLECTION BOX - BLUE BOX", "address": {"city": "JONESBORO", "state": "AR", "street": "511 S MAIN ST", "postcode": "72401"}}},
{"geometry": {"type": "Point", "coordinates": [-90.7128604623, 35.8146588906]}, "type": "Feature", "properties": {"collection_times": [{"days": "Mon-Sat", "time": "4:15pm"}, {"days": "Sun", "time": "Closed"}], "id": "7240100039", "name": "USPS COLLECTION BOX - BLUE BOX", "address": {"city": "JONESBORO", "state": "AR", "street": "630 SOUTHWEST DR", "postcode": "72401"}}},
{"geometry": {"type": "Point", "coordinates": [-92.4388840948, 34.8999269099]}, "type": "Feature", "properties": {"collection_times": [{"days": "Mon-Sat", "time": "10:00am"}, {"days": "Sun", "time": "Closed"}], "id": "7240100040", "name": "USPS COLLECTION BOX - BLUE BOX", "address": {"city": "JONESBORO", "state": "AR", "street": "4800 E JOHNSON AVE", "postcode": "72401"}}},
{"geometry": {"type": "Point", "coordinates": [-90.6850027838, 35.821156662]}, "type": "Feature", "properties": {"collection_times": [{"days": "Mon-Sat", "time": "10:00am"}, {"days": "Sun", "time": "Closed"}], "id": "7240100043", "name": "USPS COLLECTION BOX - BLUE BOX", "address": {"city": "JONESBORO", "state": "AR", "street": "1815 E HIGHLAND DR", "postcode": "72401"}}},
{"geometry": {"type": "Point", "coordinates": [-90.693303053, 35.8356981245]}, "type": "Feature", "properties": {"collection_times": [{"days": "Mon-Sat", "time": "9:00am"}, {"days": "Sun", "time": "Closed"}], "id": "7240100047", "name": "USPS COLLECTION BOX - BLUE BOX", "address": {"city": "JONESBORO", "state": "AR", "street": "801 OSLER DR", "postcode": "72401"}}},
{"geometry": {"type": "Point", "coordinates": [-90.7040257476, 35.8357141648]}, "type": "Feature", "properties": {"collection_times": [{"days": "Mon-Fri", "time": "9:00am"}, {"days": "Sat-Sun", "time": "Closed"}], "id": "7240100049", "name": "USPS COLLECTION BOX - BLUE BOX", "address": {"city": "JONESBORO", "state": "AR", "street": "800 S CHURCH ST", "postcode": "72401"}}},
{"geometry": {"type": "Point", "coordinates": [-90.6466829921, 35.8155642016]}, "type": "Feature", "properties": {"collection_times": [{"days": "Mon-Fri", "time": "4:00pm"}, {"days": "Sat-Sun", "time": "Closed"}], "id": "7240100059", "name": "USPS COLLECTION BOX - PO LOBBY", "address": {"city": "JONESBORO", "state": "AR", "street": "4808 E NETTLETON AVE", "postcode": "72401"}}},
{"geometry": {"type": "Point", "coordinates": [-90.7239118058, 35.834767689]}, "type": "Feature", "properties": {"collection_times": [{"days": "Mon-Sat", "time": "10:00am"}, {"days": "Sun", "time": "Closed"}], "id": "7240100086", "name": "USPS COLLECTION BOX - BLUE BOX", "address": {"city": "JONESBORO", "state": "AR", "street": "1008 S GEE ST", "postcode": "72401"}}},
{"geometry": {"type": "Point", "coordinates": [-90.6714947112, 35.8283221015]}, "type": "Feature", "properties": {"collection_times": [{"days": "Mon-Sat", "time": "11:00am"}, {"days": "Sun", "time": "Closed"}], "id": "7240100093", "name": "USPS COLLECTION BOX - BLUE BOX", "address": {"city": "JONESBORO", "state": "AR", "street": "2905 E NETTLETON AVE", "postcode": "72401"}}},
{"geometry": {"type": "Point", "coordinates": [-90.6466829921, 35.8155642016]}, "type": "Feature", "properties": {"collection_times": [{"days": "Mon-Sat", "time": "4:00pm"}, {"days": "Sun", "time": "Closed"}], "id": "7240100099", "name": "USPS COLLECTION BOX - BLUE BOX", "address": {"city": "JONESBORO", "state": "AR", "street": "4808 E NETTLETON AVE", "postcode": "72401"}}},
{"geometry": {"type": "Point", "coordinates": [-90.7033961798, 35.8390336721]}, "type": "Feature", "properties": {"collection_times": [{"days": "Mon-Sat", "time": "4:45pm"}, {"days": "Sun", "time": "Closed"}], "id": "7240100116", "name": "USPS COLLECTION BOX - BLUE BOX", "address": {"city": "JONESBORO", "state": "AR", "street": "309 E MONROE AVE", "postcode": "72401"}}},
{"geometry": {"type": "Point", "coordinates": [-90.7033961798, 35.8390336721]}, "type": "Feature", "properties": {"collection_times": [{"days": "Mon-Sat", "time": "4:45pm"}, {"days": "Sun", "time": "Closed"}], "id": "7240100117", "name": "USPS COLLECTION BOX - BLUE BOX", "address": {"city": "JONESBORO", "state": "AR", "street": "309 E MONROE AVE", "postcode": "72401"}}},
{"geometry": {"type": "Point", "coordinates": [-90.7027718776, 35.8405009107]}, "type": "Feature", "properties": {"collection_times": [{"days": "Mon-Fri", "time": "3:15pm"}, {"days": "Sat-Sun", "time": "Closed"}], "id": "7240100119", "name": "USPS COLLECTION BOX - PO LOBBY", "address": {"city": "JONESBORO", "state": "AR", "street": "310 EAST ST", "postcode": "72401"}}},
{"geometry": {"type": "Point", "coordinates": [-90.6466829921, 35.8155642016]}, "type": "Feature", "properties": {"collection_times": [{"days": "Mon-Fri", "time": "4:00pm"}, {"days": "Sat-Sun", "time": "Closed"}], "id": "7240100126", "name": "USPS COLLECTION BOX - PO LOBBY", "address": {"city": "JONESBORO", "state": "AR", "street": "4808 E NETTLETON AVE", "postcode": "72401"}}},
{"geometry": {"type": "Point", "coordinates": [-90.6129026148, 35.7936200595]}, "type": "Feature", "properties": {"collection_times": [{"days": "Mon-Sat", "time": "6:00pm"}, {"days": "Sun", "time": "Closed"}], "id": "7240100128", "name": "USPS COLLECTION BOX - BLUE BOX", "address": {"city": "JONESBORO", "state": "AR", "street": "3405 MOORE RD", "postcode": "72401"}}},
{"geometry": {"type": "Point", "coordinates": [-90.6769269557, 35.8140616824]}, "type": "Feature", "properties": {"collection_times": [{"days": "Mon-Fri", "time": "5:40pm"}, {"days": "Sat", "time": "5:00pm"}, {"days": "Sun", "time": "Closed"}], "id": "7240100132", "name": "USPS COLLECTION BOX - BLUE BOX", "address": {"city": "JONESBORO", "state": "AR", "street": "2404 RACE ST", "postcode": "72401"}}},
{"geometry": {"type": "Point", "coordinates": [-90.6769269557, 35.8140616824]}, "type": "Feature", "properties": {"collection_times": [{"days": "Mon-Fri", "time": "5:10pm"}, {"days": "Sat", "time": "5:00pm"}, {"days": "Sun", "time": "Closed"}], "id": "7240100135", "name": "USPS COLLECTION BOX - PO LOBBY", "address": {"city": "JONESBORO", "state": "AR", "street": "2404 RACE ST", "postcode": "72401"}}},
{"geometry": {"type": "Point", "coordinates": [-90.6769269557, 35.8140616824]}, "type": "Feature", "properties": {"collection_times": [{"days": "Mon-Fri", "time": "5:10pm"}, {"days": "Sat", "time": "5:00pm"}, {"days": "Sun", "time": "Closed"}], "id": "7240100139", "name": "USPS COLLECTION BOX - PO LOBBY", "address": {"city": "JONESBORO", "state": "AR", "street": "2404 RACE ST", "postcode": "72401"}}},
{"geometry": {"type": "Point", "coordinates": [-90.7050527684, 35.8375662094]}, "type": "Feature", "properties": {"collection_times": [{"days": "Mon-Fri", "time": "4:30pm"}, {"days": "Sat-Sun", "time": "Closed"}], "id": "7240100141", "name": "USPS COLLECTION BOX - BLUE BOX", "address": {"city": "JONESBORO", "state": "AR", "street": "615 S MAIN ST", "postcode": "72401"}}},
{"geometry": {"type": "Point", "coordinates": [-90.7050527684, 35.8375662094]}, "type": "Feature", "properties": {"collection_times": [{"days": "Mon-Fri", "time": "4:30pm"}, {"days": "Sat-Sun", "time": "Closed"}], "id": "7240100142", "name": "USPS COLLECTION BOX - BLUE BOX", "address": {"city": "JONESBORO", "state": "AR", "street": "615 S MAIN ST", "postcode": "72401"}}},
{"geometry": {"type": "Point", "coordinates": [-90.6769269557, 35.8140616824]}, "type": "Feature", "properties": {"collection_times": [{"days": "Mon-Fri", "time": "5:10pm"}, {"days": "Sat", "time": "5:00pm"}, {"days": "Sun", "time": "Closed"}], "id": "7240100146", "name": "USPS COLLECTION BOX - APC", "address": {"city": "JONESBORO", "state": "AR", "street": "2404 RACE ST", "postcode": "72401"}}},
{"geometry": {"type": "Point", "coordinates": [-90.7342633748, 35.8198800573]}, "type": "Feature", "properties": {"collection_times": [{"days": "Mon-Fri", "time": "4:00pm"}, {"days": "Sat-Sun", "time": "Closed"}], "id": "7240100147", "name": "USPS COLLECTION BOX - BLUE BOX", "address": {"city": "JONESBORO", "state": "AR", "street": "2504 ALEXANDER DR", "postcode": "72401"}}},
{"geometry": {"type": "Point", "coordinates": [-90.6769269557, 35.8140616824]}, "type": "Feature", "properties": {"collection_times": [{"days": "Mon-Fri", "time": "5:40pm"}, {"days": "Sat", "time": "5:00pm"}, {"days": "Sun", "time": "Closed"}], "id": "7240100148", "name": "USPS COLLECTION BOX - BLUE BOX", "address": {"city": "JONESBORO", "state": "AR", "street": "2404 RACE ST", "postcode": "72401"}}},
{"geometry": {"type": "Point", "coordinates": [-90.7204344951, 35.8070988647]}, "type": "Feature", "properties": {"collection_times": [{"days": "Mon-Sat", "time": "12:00pm"}, {"days": "Sun", "time": "Closed"}], "id": "7240400009", "name": "USPS COLLECTION BOX - BLUE BOX", "address": {"city": "JONESBORO", "state": "AR", "street": "1911 W PARKER RD", "postcode": "72404"}}},
{"geometry": {"type": "Point", "coordinates": [-90.7218897216, 35.8067569681]}, "type": "Feature", "properties": {"collection_times": [{"days": "Mon-Sat", "time": "12:00pm"}, {"days": "Sun", "time": "Closed"}], "id": "7240400010", "name": "USPS COLLECTION BOX - BLUE BOX", "address": {"city": "JONESBORO", "state": "AR", "street": "3106 SOUTHWEST DR", "postcode": "72404"}}},
{"geometry": {"type": "Point", "coordinates": [-90.5636064545, 35.7438970068]}, "type": "Feature", "properties": {"collection_times": [{"days": "Mon-Fri", "time": "3:45pm"}, {"days": "Sat", "time": "9:15am"}, {"days": "Sun", "time": "Closed"}], "id": "7241100001", "name": "USPS COLLECTION BOX - BLUE BOX", "address": {"city": "BAY", "state": "AR", "street": "410 N MAIN ST", "postcode": "72411"}}},
{"geometry": {"type": "Point", "coordinates": [-90.5636064545, 35.7438970068]}, "type": "Feature", "properties": {"collection_times": [{"days": "Mon-Fri", "time": "2:00pm"}, {"days": "Sat", "time": "8:45am"}, {"days": "Sun", "time": "Closed"}], "id": "7241100002", "name": "USPS COLLECTION BOX - PO LOBBY", "address": {"city": "BAY", "state": "AR", "street": "410 N MAIN ST", "postcode": "72411"}}},
{"geometry": {"type": "Point", "coordinates": [-90.6181998457, 36.1840317896]}, "type": "Feature", "properties": {"collection_times": [{"days": "Mon-Fri", "time": "2:30pm"}, {"days": "Sat", "time": "8:30am"}, {"days": "Sun", "time": "Closed"}], "id": "7241200000", "name": "USPS COLLECTION BOX - BLUE BOX", "address": {"city": "BEECH GROVE", "state": "AR", "street": "9034 HIGHWAY 141 N", "postcode": "72412"}}},
{"geometry": {"type": "Point", "coordinates": [-90.6181998457, 36.1840317896]}, "type": "Feature", "properties": {"collection_times": [{"days": "Mon-Fri", "time": "9:30am"}, {"days": "Sat", "time": "8:30am"}, {"days": "Sun", "time": "Closed"}], "id": "7241200001", "name": "USPS COLLECTION BOX - PO LOBBY", "address": {"city": "BEECH GROVE", "state": "AR", "street": "9034 HIGHWAY 141 N", "postcode": "72412"}}},
{"geometry": {"type": "Point", "coordinates": [-90.7831863457, 36.3457303546]}, "type": "Feature", "properties": {"collection_times": [{"days": "Mon-Fri", "time": "11:00am"}, {"days": "Sat", "time": "10:00am"}, {"days": "Sun", "time": "Closed"}], "id": "7241300002", "name": "USPS COLLECTION BOX - PO LOBBY", "address": {"city": "BIGGERS", "state": "AR", "street": "3309 BIGGERS REYNO RD", "postcode": "72413"}}},
{"geometry": {"type": "Point", "coordinates": [-90.7831863457, 36.3457303546]}, "type": "Feature", "properties": {"collection_times": [{"days": "Mon-Fri", "time": "11:00am"}, {"days": "Sat", "time": "10:00am"}, {"days": "Sun", "time": "Closed"}], "id": "7241300003", "name": "USPS COLLECTION BOX - PO LOBBY", "address": {"city": "BIGGERS", "state": "AR", "street": "3309 BIGGERS REYNO RD", "postcode": "72413"}}},
{"geometry": {"type": "Point", "coordinates": [-90.3680476896, 35.8359255842]}, "type": "Feature", "properties": {"collection_times": [{"days": "Mon-Fri", "time": "4:00pm"}, {"days": "Sat", "time": "10:00am"}, {"days": "Sun", "time": "Closed"}], "id": "7241400001", "name": "USPS COLLECTION BOX - BLUE BOX", "address": {"city": "BLACK OAK", "state": "AR", "street": "200 S MAIN ST", "postcode": "72414"}}},
{"geometry": {"type": "Point", "coordinates": [-90.3680476896, 35.8359255842]}, "type": "Feature", "properties": {"collection_times": [{"days": "Mon-Fri", "time": "10:30am"}, {"days": "Sat", "time": "10:00am"}, {"days": "Sun", "time": "Closed"}], "id": "7241400002", "name": "USPS COLLECTION BOX - PO LOBBY", "address": {"city": "BLACK OAK", "state": "AR", "street": "200 S MAIN ST", "postcode": "72414"}}},
{"geometry": {"type": "Point", "coordinates": [-91.1155294826, 36.108028851]}, "type": "Feature", "properties": {"collection_times": [{"days": "Mon-Fri", "time": "4:30pm"}, {"days": "Sat", "time": "10:30am"}, {"days": "Sun", "time": "Closed"}], "id": "7241500001", "name": "USPS COLLECTION BOX - BLUE BOX", "address": {"city": "BLACK ROCK", "state": "AR", "street": "1326 ELM ST", "postcode": "72415"}}},
{"geometry": {"type": "Point", "coordinates": [-91.1155294826, 36.108028851]}, "type": "Feature", "properties": {"collection_times": [{"days": "Mon-Fri", "time": "2:30pm"}, {"days": "Sat", "time": "10:30am"}, {"days": "Sun", "time": "Closed"}], "id": "7241500002", "name": "USPS COLLECTION BOX - PO LOBBY", "address": {"city": "BLACK ROCK", "state": "AR", "street": "1326 ELM ST", "postcode": "72415"}}},
{"geometry": {"type": "Point", "coordinates": [-90.7930859975, 35.9621195275]}, "type": "Feature", "properties": {"collection_times": [{"days": "Mon-Fri", "time": "4:00pm"}, {"days": "Sat", "time": "10:30am"}, {"days": "Sun", "time": "Closed"}], "id": "7241600002", "name": "USPS COLLECTION BOX - BLUE BOX", "address": {"city": "BONO", "state": "AR", "street": "306 HIGHWAY 63 N", "postcode": "72416"}}},
{"geometry": {"type": "Point", "coordinates": [-90.7930859975, 35.9621195275]}, "type": "Feature", "properties": {"collection_times": [{"days": "Mon-Fri", "time": "2:00pm"}, {"days": "Sat", "time": "10:30am"}, {"days": "Sun", "time": "Closed"}], "id": "7241600003", "name": "USPS COLLECTION BOX - PO LOBBY", "address": {"city": "BONO", "state": "AR", "street": "306 HIGHWAY 63 N", "postcode": "72416"}}},
{"geometry": {"type": "Point", "coordinates": [-90.5817243617, 35.8995123042]}, "type": "Feature", "properties": {"collection_times": [{"days": "Mon-Fri", "time": "3:45pm"}, {"days": "Sat", "time": "9:45am"}, {"days": "Sun", "time": "Closed"}], "id": "7241700001", "name": "USPS COLLECTION BOX - BLUE BOX", "address": {"city": "BROOKLAND", "state": "AR", "street": "100 W HINKLEY ST", "postcode": "72417"}}},
{"geometry": {"type": "Point", "coordinates": [-90.5817243617, 35.8995123042]}, "type": "Feature", "properties": {"collection_times": [{"days": "Mon-Fri", "time": "4:00pm"}, {"days": "Sat", "time": "10:00am"}, {"days": "Sun", "time": "Closed"}], "id": "7241700003", "name": "USPS COLLECTION BOX - PO LOBBY", "address": {"city": "BROOKLAND", "state": "AR", "street": "100 W HINKLEY ST", "postcode": "72417"}}},
{"geometry": {"type": "Point", "coordinates": [-90.5817243617, 35.8995123042]}, "type": "Feature", "properties": {"collection_times": [{"days": "Mon-Fri", "time": "4:00pm"}, {"days": "Sat", "time": "10:00am"}, {"days": "Sun", "time": "Closed"}], "id": "7241700004", "name": "USPS COLLECTION BOX - PO LOBBY", "address": {"city": "BROOKLAND", "state": "AR", "street": "100 W HINKLEY ST", "postcode": "72417"}}},
{"geometry": {"type": "Point", "coordinates": [-90.3213765194, 35.7606445773]}, "type": "Feature", "properties": {"collection_times": [{"days": "Mon-Fri", "time": "3:00pm"}, {"days": "Sat", "time": "10:30am"}, {"days": "Sun", "time": "Closed"}], "id": "7241900001", "name": "USPS COLLECTION BOX - BLUE BOX", "address": {"city": "CARAWAY", "state": "AR", "street": "201 E KENTUCKY ST", "postcode": "72419"}}},
{"geometry": {"type": "Point", "coordinates": [-90.3213765194, 35.7606445773]}, "type": "Feature", "properties": {"collection_times": [{"days": "Mon-Fri", "time": "3:00pm"}, {"days": "Sat", "time": "10:30am"}, {"days": "Sun", "time": "Closed"}], "id": "7241900002", "name": "USPS COLLECTION BOX - PO LOBBY", "address": {"city": "CARAWAY", "state": "AR", "street": "201 E KENTUCKY ST", "postcode": "72419"}}},
{"geometry": {"type": "Point", "coordinates": [-90.3213765194, 35.7606445773]}, "type": "Feature", "properties": {"collection_times": [{"days": "Mon-Fri", "time": "3:00pm"}, {"days": "Sat", "time": "10:30am"}, {"days": "Sun", "time": "Closed"}], "id": "7241900003", "name": "USPS COLLECTION BOX - PO LOBBY", "address": {"city": "CARAWAY", "state": "AR", "street": "201 E KENTUCKY ST", "postcode": "72419"}}},
{"geometry": {"type": "Point", "coordinates": [-90.9353969145, 35.795924568]}, "type": "Feature", "properties": {"collection_times": [{"days": "Mon-Fri", "time": "3:00pm"}, {"days": "Sat", "time": "8:30am"}, {"days": "Sun", "time": "Closed"}], "id": "7242100001", "name": "USPS COLLECTION BOX - BLUE BOX", "address": {"city": "CASH", "state": "AR", "street": "4598 HIGHWAY 18", "postcode": "72421"}}},
{"geometry": {"type": "Point", "coordinates": [-90.9774428818, 35.7423482993]}, "type": "Feature", "properties": {"collection_times": [{"days": "Mon-Fri", "time": "11:00am"}, {"days": "Sat", "time": "8:30am"}, {"days": "Sun", "time": "Closed"}], "id": "7242100002", "name": "USPS COLLECTION BOX - PO LOBBY", "address": {"city": "CASH", "state": "AR", "street": "4598 HIGHWAY 18", "postcode": "72421"}}},
{"geometry": {"type": "Point", "coordinates": [-90.9774428818, 35.7423482993]}, "type": "Feature", "properties": {"collection_times": [{"days": "Mon-Fri", "time": "11:00am"}, {"days": "Sat", "time": "8:30am"}, {"days": "Sun", "time": "Closed"}], "id": "7242100003", "name": "USPS COLLECTION BOX - PO LOBBY", "address": {"city": "CASH", "state": "AR", "street": "4598 HIGHWAY 18", "postcode": "72421"}}},
{"geometry": {"type": "Point", "coordinates": [-90.5819259852, 36.4180011067]}, "type": "Feature", "properties": {"collection_times": [{"days": "Mon-Fri", "time": "4:15pm"}, {"days": "Sat", "time": "3:15pm"}, {"days": "Sun", "time": "Closed"}], "id": "7242200003", "name": "USPS COLLECTION BOX - BLUE BOX", "address": {"city": "CORNING", "state": "AR", "street": "700 BOBCAT LN", "postcode": "72422"}}},
{"geometry": {"type": "Point", "coordinates": [-90.5819259852, 36.4180011067]}, "type": "Feature", "properties": {"collection_times": [{"days": "Mon-Fri", "time": "4:15pm"}, {"days": "Sat", "time": "3:15pm"}, {"days": "Sun", "time": "Closed"}], "id": "7242200004", "name": "USPS COLLECTION BOX - PO LOBBY", "address": {"city": "CORNING", "state": "AR", "street": "700 BOBCAT LN", "postcode": "72422"}}},
{"geometry": {"type": "Point", "coordinates": [-90.5819259852, 36.4180011067]}, "type": "Feature", "properties": {"collection_times": [{"days": "Mon-Fri", "time": "4:15pm"}, {"days": "Sat", "time": "3:15pm"}, {"days": "Sun", "time": "Closed"}], "id": "7242200005", "name": "USPS COLLECTION BOX - PO LOBBY", "address": {"city": "CORNING", "state": "AR", "street": "700 BOBCAT LN", "postcode": "72422"}}},
{"geometry": {"type": "Point", "coordinates": [-90.5819259852, 36.4180011067]}, "type": "Feature", "properties": {"collection_times": [{"days": "Mon-Fri", "time": "4:15pm"}, {"days": "Sat", "time": "3:15pm"}, {"days": "Sun", "time": "Closed"}], "id": "7242200006", "name": "USPS COLLECTION BOX - BLUE BOX", "address": {"city": "CORNING", "state": "AR", "street": "700 BOBCAT LN", "postcode": "72422"}}},
{"geometry": {"type": "Point", "coordinates": [-90.5819259852, 36.4180011067]}, "type": "Feature", "properties": {"collection_times": [{"days": "Mon-Fri", "time": "4:15pm"}, {"days": "Sat", "time": "3:15pm"}, {"days": "Sun", "time": "Closed"}], "id": "7242200008", "name": "USPS COLLECTION BOX - PO LOBBY", "address": {"city": "CORNING", "state": "AR", "street": "700 BOBCAT LN", "postcode": "72422"}}},
{"geometry": {"type": "Point", "coordinates": [-90.5819259852, 36.4180011067]}, "type": "Feature", "properties": {"collection_times": [{"days": "Mon-Fri", "time": "4:15pm"}, {"days": "Sat", "time": "3:15pm"}, {"days": "Sun", "time": "Closed"}], "id": "7242200009", "name": "USPS COLLECTION BOX - PO LOBBY", "address": {"city": "CORNING", "state": "AR", "street": "700 BOBCAT LN", "postcode": "72422"}}},
{"geometry": {"type": "Point", "coordinates": [-90.7252122558, 36.3936659256]}, "type": "Feature", "properties": {"collection_times": [{"days": "Mon-Sat", "time": "11:55am"}, {"days": "Sun", "time": "Closed"}], "id": "7242400002", "name": "USPS COLLECTION BOX - PO LOBBY", "address": {"city": "DATTO", "state": "AR", "street": "300 N BILL RICE ST", "postcode": "72424"}}},
{"geometry": {"type": "Point", "coordinates": [-90.7943527373, 36.184308491]}, "type": "Feature", "properties": {"collection_times": [{"days": "Mon-Fri", "time": "11:00am"}, {"days": "Sat", "time": "8:45am"}, {"days": "Sun", "time": "Closed"}], "id": "7242500002", "name": "USPS COLLECTION BOX - PO LOBBY", "address": {"city": "DELAPLAINE", "state": "AR", "street": "3523 HIGHWAY 90", "postcode": "72425"}}},
{"geometry": {"type": "Point", "coordinates": [-90.0591652914, 35.8362706534]}, "type": "Feature", "properties": {"collection_times": [{"days": "Mon-Fri", "time": "3:30pm"}, {"days": "Sat", "time": "9:45am"}, {"days": "Sun", "time": "Closed"}], "id": "7242600001", "name": "USPS COLLECTION BOX - BLUE BOX", "address": {"city": "DELL", "state": "AR", "street": "212 MAIN ST", "postcode": "72426"}}},
{"geometry": {"type": "Point", "coordinates": [-90.0591652914, 35.8362706534]}, "type": "Feature", "properties": {"collection_times": [{"days": "Mon-Fri", "time": "11:30am"}, {"days": "Sat", "time": "9:45am"}, {"days": "Sun", "time": "Closed"}], "id": "7242600002", "name": "USPS COLLECTION BOX - PO LOBBY", "address": {"city": "DELL", "state": "AR", "street": "212 MAIN ST", "postcode": "72426"}}},
{"geometry": {"type": "Point", "coordinates": [-90.9453671559, 35.8677325167]}, "type": "Feature", "properties": {"collection_times": [{"days": "Mon-Fri", "time": "9:30am"}, {"days": "Sat", "time": "8:45am"}, {"days": "Sun", "time": "Closed"}], "id": "7242700002", "name": "USPS COLLECTION BOX - PO LOBBY", "address": {"city": "EGYPT", "state": "AR", "street": "11085 KINGS HWY 91", "postcode": "72427"}}},
{"geometry": {"type": "Point", "coordinates": [-90.9453671559, 35.8677325167]}, "type": "Feature", "properties": {"collection_times": [{"days": "Mon-Fri", "time": "9:30am"}, {"days": "Sat", "time": "8:45am"}, {"days": "Sun", "time": "Closed"}], "id": "7242700003", "name": "USPS COLLECTION BOX - PO LOBBY", "address": {"city": "EGYPT", "state": "AR", "street": "11085 KINGS HWY 91", "postcode": "72427"}}},
{"geometry": {"type": "Point", "coordinates": [-90.2412186818, 35.7259649476]}, "type": "Feature", "properties": {"collection_times": [{"days": "Mon-Fri", "time": "12:00pm"}, {"days": "Sat", "time": "10:00am"}, {"days": "Sun", "time": "Closed"}], "id": "7242800001", "name": "USPS COLLECTION BOX - BLUE BOX", "address": {"city": "ETOWAH", "state": "AR", "street": "924 S STATE HIGHWAY 136", "postcode": "72428"}}},
{"geometry": {"type": "Point", "coordinates": [-90.2412186818, 35.7259649476]}, "type": "Feature", "properties": {"collection_times": [{"days": "Mon-Fri", "time": "12:00pm"}, {"days": "Sat", "time": "10:00am"}, {"days": "Sun", "time": "Closed"}], "id": "7242800002", "name": "USPS COLLECTION BOX - PO LOBBY", "address": {"city": "ETOWAH", "state": "AR", "street": "924 S STATE HIGHWAY 136", "postcode": "72428"}}},
{"geometry": {"type": "Point", "coordinates": [-90.9729609034, 35.4913448938]}, "type": "Feature", "properties": {"collection_times": [{"days": "Mon-Fri", "time": "4:15pm"}, {"days": "Sat", "time": "11:15am"}, {"days": "Sun", "time": "Closed"}], "id": "7242900001", "name": "USPS COLLECTION BOX - BLUE BOX", "address": {"city": "FISHER", "state": "AR", "street": "103 E MAIN ST", "postcode": "72429"}}},
{"geometry": {"type": "Point", "coordinates": [-90.9729609034, 35.4913448938]}, "type": "Feature", "properties": {"collection_times": [{"days": "Mon-Fri", "time": "3:00pm"}, {"days": "Sat", "time": "11:15am"}, {"days": "Sun", "time": "Closed"}], "id": "7242900002", "name": "USPS COLLECTION BOX - PO LOBBY", "address": {"city": "FISHER", "state": "AR", "street": "103 E MAIN ST", "postcode": "72429"}}},
{"geometry": {"type": "Point", "coordinates": [-90.9729609034, 35.4913448938]}, "type": "Feature", "properties": {"collection_times": [{"days": "Mon-Fri", "time": "3:00pm"}, {"days": "Sat", "time": "11:15am"}, {"days": "Sun", "time": "Closed"}], "id": "7242900003", "name": "USPS COLLECTION BOX - PO LOBBY", "address": {"city": "FISHER", "state": "AR", "street": "103 E MAIN ST", "postcode": "72429"}}},
{"geometry": {"type": "Point", "coordinates": [-90.2205328066, 36.339683461]}, "type": "Feature", "properties": {"collection_times": [{"days": "Mon-Fri", "time": "3:40pm"}, {"days": "Sat", "time": "11:00am"}, {"days": "Sun", "time": "Closed"}], "id": "7243000001", "name": "USPS COLLECTION BOX - BLUE BOX", "address": {"city": "GREENWAY", "state": "AR", "street": "411 STATE ST", "postcode": "72430"}}},
{"geometry": {"type": "Point", "coordinates": [-90.2205328066, 36.339683461]}, "type": "Feature", "properties": {"collection_times": [{"days": "Mon-Fri", "time": "9:30am"}, {"days": "Sat", "time": "11:05am"}, {"days": "Sun", "time": "Closed"}], "id": "7243000002", "name": "USPS COLLECTION BOX - PO LOBBY", "address": {"city": "GREENWAY", "state": "AR", "street": "411 STATE ST", "postcode": "72430"}}},
{"geometry": {"type": "Point", "coordinates": [-91.0743722246, 35.6518828969]}, "type": "Feature", "properties": {"collection_times": [{"days": "Mon-Fri", "time": "12:00pm"}, {"days": "Sat", "time": "9:15am"}, {"days": "Sun", "time": "Closed"}], "id": "7243100002", "name": "USPS COLLECTION BOX - PO LOBBY", "address": {"city": "GRUBBS", "state": "AR", "street": "520 HIGHWAY 37 N", "postcode": "72431"}}},
{"geometry": {"type": "Point", "coordinates": [-90.7289780412, 35.5653476669]}, "type": "Feature", "properties": {"collection_times": [{"days": "Mon-Fri", "time": "4:45pm"}, {"days": "Sat", "time": "2:00pm"}, {"days": "Sun", "time": "Closed"}], "id": "7243200001", "name": "USPS COLLECTION BOX - BLUE BOX", "address": {"city": "HARRISBURG", "state": "AR", "street": "705 W JACKSON ST", "postcode": "72432"}}},
{"geometry": {"type": "Point", "coordinates": [-90.7174221276, 35.563670779]}, "type": "Feature", "properties": {"collection_times": [{"days": "Mon-Fri", "time": "4:00pm"}, {"days": "Sat", "time": "10:00am"}, {"days": "Sun", "time": "Closed"}], "id": "7243200002", "name": "USPS COLLECTION BOX - BLUE BOX", "address": {"city": "HARRISBURG", "state": "AR", "street": "401 MARKET ST", "postcode": "72432"}}},
{"geometry": {"type": "Point", "coordinates": [-90.7242912164, 35.5698458219]}, "type": "Feature", "properties": {"collection_times": [{"days": "Mon-Fri", "time": "4:00pm"}, {"days": "Sat", "time": "1:00pm"}, {"days": "Sun", "time": "Closed"}], "id": "7243200003", "name": "USPS COLLECTION BOX - BLUE BOX", "address": {"city": "HARRISBURG", "state": "AR", "street": "605 N ILLINOIS ST", "postcode": "72432"}}},
{"geometry": {"type": "Point", "coordinates": [-90.7289780412, 35.5653476669]}, "type": "Feature", "properties": {"collection_times": [{"days": "Mon-Fri", "time": "4:45pm"}, {"days": "Sat", "time": "2:00pm"}, {"days": "Sun", "time": "Closed"}], "id": "7243200005", "name": "USPS COLLECTION BOX - BLUE BOX", "address": {"city": "HARRISBURG", "state": "AR", "street": "705 W JACKSON ST", "postcode": "72432"}}},
{"geometry": {"type": "Point", "coordinates": [-90.7289780412, 35.5653476669]}, "type": "Feature", "properties": {"collection_times": [{"days": "Mon-Fri", "time": "4:45pm"}, {"days": "Sat", "time": "2:00pm"}, {"days": "Sun", "time": "Closed"}], "id": "7243200007", "name": "USPS COLLECTION BOX - PO LOBBY", "address": {"city": "HARRISBURG", "state": "AR", "street": "705 W JACKSON ST", "postcode": "72432"}}},
{"geometry": {"type": "Point", "coordinates": [-90.7289780412, 35.5653476669]}, "type": "Feature", "properties": {"collection_times": [{"days": "Mon-Fri", "time": "4:45pm"}, {"days": "Sat", "time": "2:00pm"}, {"days": "Sun", "time": "Closed"}], "id": "7243200008", "name": "USPS COLLECTION BOX - PO LOBBY", "address": {"city": "HARRISBURG", "state": "AR", "street": "705 W JACKSON ST", "postcode": "72432"}}},
{"geometry": {"type": "Point", "coordinates": [-90.7289780412, 35.5653476669]}, "type": "Feature", "properties": {"collection_times": [{"days": "Mon-Fri", "time": "4:45pm"}, {"days": "Sat", "time": "2:00pm"}, {"days": "Sun", "time": "Closed"}], "id": "7243200009", "name": "USPS COLLECTION BOX - PO LOBBY", "address": {"city": "HARRISBURG", "state": "AR", "street": "705 W JACKSON ST", "postcode": "72432"}}},
{"geometry": {"type": "Point", "coordinates": [-90.7289780412, 35.5653476669]}, "type": "Feature", "properties": {"collection_times": [{"days": "Mon-Fri", "time": "4:45pm"}, {"days": "Sat", "time": "2:00pm"}, {"days": "Sun", "time": "Closed"}], "id": "7243200010", "name": "USPS COLLECTION BOX - PO LOBBY", "address": {"city": "HARRISBURG", "state": "AR", "street": "705 W JACKSON ST", "postcode": "72432"}}},
{"geometry": {"type": "Point", "coordinates": [-90.9743395787, 36.0511234968]}, "type": "Feature", "properties": {"collection_times": [{"days": "Mon-Fri", "time": "4:15pm"}, {"days": "Sat", "time": "10:15am"}, {"days": "Sun", "time": "Closed"}], "id": "7243300001", "name": "USPS COLLECTION BOX - BLUE BOX", "address": {"city": "HOXIE", "state": "AR", "street": "202 SW TEXAS ST", "postcode": "72433"}}},
{"geometry": {"type": "Point", "coordinates": [-90.9743395787, 36.0511234968]}, "type": "Feature", "properties": {"collection_times": [{"days": "Mon-Fri", "time": "4:15pm"}, {"days": "Sat", "time": "10:15am"}, {"days": "Sun", "time": "Closed"}], "id": "7243300002", "name": "USPS COLLECTION BOX - PO LOBBY", "address": {"city": "HOXIE", "state": "AR", "street": "202 SW TEXAS ST", "postcode": "72433"}}},
{"geometry": {"type": "Point", "coordinates": [-91.1791244596, 36.2026071438]}, "type": "Feature", "properties": {"collection_times": [{"days": "Mon-Fri", "time": "2:30pm"}, {"days": "Sat", "time": "11:00am"}, {"days": "Sun", "time": "Closed"}], "id": "7243400002", "name": "USPS COLLECTION BOX - PO LOBBY", "address": {"city": "IMBODEN", "state": "AR", "street": "105 W 4TH", "postcode": "72434"}}},
{"geometry": {"type": "Point", "coordinates": [-91.1791244596, 36.2026071438]}, "type": "Feature", "properties": {"collection_times": [{"days": "Mon-Fri", "time": "2:30pm"}, {"days": "Sat", "time": "11:00am"}, {"days": "Sun", "time": "Closed"}], "id": "7243400003", "name": "USPS COLLECTION BOX - PO LOBBY", "address": {"city": "IMBODEN", "state": "AR", "street": "105 W 4TH", "postcode": "72434"}}},
{"geometry": {"type": "Point", "coordinates": [-91.1791244596, 36.2026071438]}, "type": "Feature", "properties": {"collection_times": [{"days": "Mon-Fri", "time": "4:00pm"}, {"days": "Sat", "time": "11:00am"}, {"days": "Sun", "time": "Closed"}], "id": "7243400010", "name": "USPS COLLECTION BOX - BLUE BOX", "address": {"city": "IMBODEN", "state": "AR", "street": "105 W 4TH", "postcode": "72434"}}},
{"geometry": {"type": "Point", "coordinates": [-90.6003799684, 36.3190432215]}, "type": "Feature", "properties": {"collection_times": [{"days": "Mon-Fri", "time": "12:00pm"}, {"days": "Sat", "time": "9:00am"}, {"days": "Sun", "time": "Closed"}], "id": "7243500002", "name": "USPS COLLECTION BOX - PO LOBBY", "address": {"city": "KNOBEL", "state": "AR", "street": "260 MAPLE ST", "postcode": "72435"}}},
{"geometry": {"type": "Point", "coordinates": [-90.4468852018, 35.8205175814]}, "type": "Feature", "properties": {"collection_times": [{"days": "Mon-Fri", "time": "4:30pm"}, {"days": "Sat", "time": "10:30am"}, {"days": "Sun", "time": "Closed"}], "id": "7243700001", "name": "USPS COLLECTION BOX - BLUE BOX", "address": {"city": "LAKE CITY", "state": "AR", "street": "125 HICKORY RD", "postcode": "72437"}}},
{"geometry": {"type": "Point", "coordinates": [-90.4468852018, 35.8205175814]}, "type": "Feature", "properties": {"collection_times": [{"days": "Mon-Fri", "time": "4:30pm"}, {"days": "Sat", "time": "10:30am"}, {"days": "Sun", "time": "Closed"}], "id": "7243700008", "name": "USPS COLLECTION BOX - PO LOBBY", "address": {"city": "LAKE CITY", "state": "AR", "street": "125 HICKORY RD", "postcode": "72437"}}},
{"geometry": {"type": "Point", "coordinates": [-90.2623049514, 35.9380444986]}, "type": "Feature", "properties": {"collection_times": [{"days": "Mon-Fri", "time": "4:00pm"}, {"days": "Sat", "time": "10:30am"}, {"days": "Sun", "time": "Closed"}], "id": "7243800006", "name": "USPS COLLECTION BOX - BLUE BOX", "address": {"city": "LEACHVILLE", "state": "AR", "street": "300 W DOC RODMAN ST", "postcode": "72438"}}},
{"geometry": {"type": "Point", "coordinates": [-90.2623049514, 35.9380444986]}, "type": "Feature", "properties": {"collection_times": [{"days": "Mon-Fri", "time": "4:00pm"}, {"days": "Sat", "time": "10:30am"}, {"days": "Sun", "time": "Closed"}], "id": "7243800008", "name": "USPS COLLECTION BOX - PO LOBBY", "address": {"city": "LEACHVILLE", "state": "AR", "street": "300 W DOC RODMAN ST", "postcode": "72438"}}},
{"geometry": {"type": "Point", "coordinates": [-90.2623049514, 35.9380444986]}, "type": "Feature", "properties": {"collection_times": [{"days": "Mon-Fri", "time": "4:00pm"}, {"days": "Sat", "time": "10:30am"}, {"days": "Sun", "time": "Closed"}], "id": "7243800009", "name": "USPS COLLECTION BOX - PO LOBBY", "address": {"city": "LEACHVILLE", "state": "AR", "street": "300 W DOC RODMAN ST", "postcode": "72438"}}},
{"geometry": {"type": "Point", "coordinates": [-91.2527466052, 36.0067963261]}, "type": "Feature", "properties": {"collection_times": [{"days": "Mon-Fri", "time": "3:45pm"}, {"days": "Sat", "time": "10:45am"}, {"days": "Sun", "time": "Closed"}], "id": "7244000001", "name": "USPS COLLECTION BOX - BLUE BOX", "address": {"city": "LYNN", "state": "AR", "street": "66 N HIGHWAY 25", "postcode": "72440"}}},
{"geometry": {"type": "Point", "coordinates": [-91.2527466052, 36.0067963261]}, "type": "Feature", "properties": {"collection_times": [{"days": "Mon-Fri", "time": "11:30am"}, {"days": "Sat", "time": "10:45am"}, {"days": "Sun", "time": "Closed"}], "id": "7244000002", "name": "USPS COLLECTION BOX - PO LOBBY", "address": {"city": "LYNN", "state": "AR", "street": "66 N HIGHWAY 25", "postcode": "72440"}}},
{"geometry": {"type": "Point", "coordinates": [-90.3914153306, 36.4344166375]}, "type": "Feature", "properties": {"collection_times": [{"days": "Mon-Fri", "time": "12:00pm"}, {"days": "Sat", "time": "10:30am"}, {"days": "Sun", "time": "Closed"}], "id": "7244100001", "name": "USPS COLLECTION BOX - BLUE BOX", "address": {"city": "MCDOUGAL", "state": "AR", "street": "251 HIGHWAY 62", "postcode": "72441"}}},
{"geometry": {"type": "Point", "coordinates": [-90.3914153306, 36.4344166375]}, "type": "Feature", "properties": {"collection_times": [{"days": "Mon-Fri", "time": "12:00pm"}, {"days": "Sat", "time": "10:30am"}, {"days": "Sun", "time": "Closed"}], "id": "7244100002", "name": "USPS COLLECTION BOX - PO LOBBY", "address": {"city": "MCDOUGAL", "state": "AR", "street": "251 HIGHWAY 62", "postcode": "72441"}}},
{"geometry": {"type": "Point", "coordinates": [-90.1640122315, 35.8789764842]}, "type": "Feature", "properties": {"collection_times": [{"days": "Mon-Fri", "time": "4:00pm"}, {"days": "Sat", "time": "10:00am"}, {"days": "Sun", "time": "Closed"}], "id": "7244200003", "name": "USPS COLLECTION BOX - PO LOBBY", "address": {"city": "MANILA", "state": "AR", "street": "100 S DUNKIN ST", "postcode": "72442"}}},
{"geometry": {"type": "Point", "coordinates": [-90.1640122315, 35.8789764842]}, "type": "Feature", "properties": {"collection_times": [{"days": "Mon-Fri", "time": "4:00pm"}, {"days": "Sat", "time": "10:00am"}, {"days": "Sun", "time": "Closed"}], "id": "7244200004", "name": "USPS COLLECTION BOX - BLUE BOX", "address": {"city": "MANILA", "state": "AR", "street": "100 S DUNKIN ST", "postcode": "72442"}}},
{"geometry": {"type": "Point", "coordinates": [-90.1640122315, 35.8789764842]}, "type": "Feature", "properties": {"collection_times": [{"days": "Mon-Fri", "time": "4:00pm"}, {"days": "Sat", "time": "10:00am"}, {"days": "Sun", "time": "Closed"}], "id": "7244200006", "name": "USPS COLLECTION BOX - PO LOBBY", "address": {"city": "MANILA", "state": "AR", "street": "100 S DUNKIN ST", "postcode": "72442"}}},
{"geometry": {"type": "Point", "coordinates": [-90.3309048127, 36.2294651027]}, "type": "Feature", "properties": {"collection_times": [{"days": "Mon-Fri", "time": "4:00pm"}, {"days": "Sat", "time": "9:00am"}, {"days": "Sun", "time": "Closed"}], "id": "7244300001", "name": "USPS COLLECTION BOX - BLUE BOX", "address": {"city": "MARMADUKE", "state": "AR", "street": "11436 HIGHWAY 49 N", "postcode": "72443"}}},
{"geometry": {"type": "Point", "coordinates": [-90.3309048127, 36.2294651027]}, "type": "Feature", "properties": {"collection_times": [{"days": "Mon-Fri", "time": "4:15pm"}, {"days": "Sat", "time": "9:00am"}, {"days": "Sun", "time": "Closed"}], "id": "7244300002", "name": "USPS COLLECTION BOX - PO LOBBY", "address": {"city": "MARMADUKE", "state": "AR", "street": "11436 HIGHWAY 49 N", "postcode": "72443"}}},
{"geometry": {"type": "Point", "coordinates": [-90.8953133022, 36.4212480004]}, "type": "Feature", "properties": {"collection_times": [{"days": "Mon-Fri", "time": "4:00pm"}, {"days": "Sat", "time": "11:00am"}, {"days": "Sun", "time": "Closed"}], "id": "7244400001", "name": "USPS COLLECTION BOX - BLUE BOX", "address": {"city": "MAYNARD", "state": "AR", "street": "132 OLD MILITARY RD", "postcode": "72444"}}},
{"geometry": {"type": "Point", "coordinates": [-90.8953133022, 36.4212480004]}, "type": "Feature", "properties": {"collection_times": [{"days": "Mon-Fri", "time": "4:00pm"}, {"days": "Sat", "time": "11:00am"}, {"days": "Sun", "time": "Closed"}], "id": "7244400002", "name": "USPS COLLECTION BOX - PO LOBBY", "address": {"city": "MAYNARD", "state": "AR", "street": "132 OLD MILITARY RD", "postcode": "72444"}}},
{"geometry": {"type": "Point", "coordinates": [-90.8953133022, 36.4212480004]}, "type": "Feature", "properties": {"collection_times": [{"days": "Mon-Fri", "time": "4:00pm"}, {"days": "Sat", "time": "11:00am"}, {"days": "Sun", "time": "Closed"}], "id": "7244400003", "name": "USPS COLLECTION BOX - PO LOBBY", "address": {"city": "MAYNARD", "state": "AR", "street": "132 OLD MILITARY RD", "postcode": "72444"}}},
{"geometry": {"type": "Point", "coordinates": [-91.0302527602, 35.9737492097]}, "type": "Feature", "properties": {"collection_times": [{"days": "Mon-Fri", "time": "3:00pm"}, {"days": "Sat", "time": "11:30am"}, {"days": "Sun", "time": "Closed"}], "id": "7244500001", "name": "USPS COLLECTION BOX - BLUE BOX", "address": {"city": "MINTURN", "state": "AR", "street": "111 W LAUREL ST", "postcode": "72445"}}},
{"geometry": {"type": "Point", "coordinates": [-91.0302527602, 35.9737492097]}, "type": "Feature", "properties": {"collection_times": [{"days": "Mon-Fri", "time": "12:30pm"}, {"days": "Sat", "time": "11:30am"}, {"days": "Sun", "time": "Closed"}], "id": "7244500002", "name": "USPS COLLECTION BOX - PO LOBBY", "address": {"city": "MINTURN", "state": "AR", "street": "111 W LAUREL ST", "postcode": "72445"}}},
{"geometry": {"type": "Point", "coordinates": [-90.3436371509, 35.8906473051]}, "type": "Feature", "properties": {"collection_times": [{"days": "Mon-Fri", "time": "4:00pm"}, {"days": "Sat", "time": "8:45am"}, {"days": "Sun", "time": "Closed"}], "id": "7244700001", "name": "USPS COLLECTION BOX - BLUE BOX", "address": {"city": "MONETTE", "state": "AR", "street": "105 N NANCE ST", "postcode": "72447"}}},
{"geometry": {"type": "Point", "coordinates": [-90.3436371509, 35.8906473051]}, "type": "Feature", "properties": {"collection_times": [{"days": "Mon-Fri", "time": "4:00pm"}, {"days": "Sat", "time": "10:00am"}, {"days": "Sun", "time": "Closed"}], "id": "7244700002", "name": "USPS COLLECTION BOX - PO LOBBY", "address": {"city": "MONETTE", "state": "AR", "street": "105 N NANCE ST", "postcode": "72447"}}},
{"geometry": {"type": "Point", "coordinates": [-90.817440601, 36.167398102]}, "type": "Feature", "properties": {"collection_times": [{"days": "Mon-Fri", "time": "2:00pm"}, {"days": "Sat", "time": "9:00am"}, {"days": "Sun", "time": "Closed"}], "id": "7244900001", "name": "USPS COLLECTION BOX - BLUE BOX", "address": {"city": "O'KEAN", "state": "AR", "street": "2233 N HIGHWAY 34", "postcode": "72449"}}},
{"geometry": {"type": "Point", "coordinates": [-90.817440601, 36.167398102]}, "type": "Feature", "properties": {"collection_times": [{"days": "Mon-Fri", "time": "2:00pm"}, {"days": "Sat", "time": "9:00am"}, {"days": "Sun", "time": "Closed"}], "id": "7244900002", "name": "USPS COLLECTION BOX - PO LOBBY", "address": {"city": "O'KEAN", "state": "AR", "street": "2233 N HIGHWAY 34", "postcode": "72449"}}},
{"geometry": {"type": "Point", "coordinates": [-90.510915232, 36.055970045]}, "type": "Feature", "properties": {"collection_times": [{"days": "Mon-Sat", "time": "2:30pm"}, {"days": "Sun", "time": "Closed"}], "id": "7245000019", "name": "USPS COLLECTION BOX - BLUE BOX", "address": {"city": "PARAGOULD", "state": "AR", "street": "1711 PARAGOULD PLZ", "postcode": "72450"}}},
{"geometry": {"type": "Point", "coordinates": [-90.520718669, 36.0769274812]}, "type": "Feature", "properties": {"collection_times": [{"days": "Mon-Sat", "time": "2:30pm"}, {"days": "Sun", "time": "Closed"}], "id": "7245000020", "name": "USPS COLLECTION BOX - BLUE BOX", "address": {"city": "PARAGOULD", "state": "AR", "street": "900 W KINGS HWY", "postcode": "72450"}}},
{"geometry": {"type": "Point", "coordinates": [-90.4873983465, 36.0561899419]}, "type": "Feature", "properties": {"collection_times": [{"days": "Mon-Fri", "time": "4:40pm"}, {"days": "Sat", "time": "4:00pm"}, {"days": "Sun", "time": "Closed"}], "id": "7245000024", "name": "USPS COLLECTION BOX - BLUE BOX", "address": {"city": "PARAGOULD", "state": "AR", "street": "201 W COURT ST", "postcode": "72450"}}},
{"geometry": {"type": "Point", "coordinates": [-90.4873983465, 36.0561899419]}, "type": "Feature", "properties": {"collection_times": [{"days": "Mon-Fri", "time": "4:40pm"}, {"days": "Sat", "time": "4:00pm"}, {"days": "Sun", "time": "Closed"}], "id": "7245000025", "name": "USPS COLLECTION BOX - PO LOBBY", "address": {"city": "PARAGOULD", "state": "AR", "street": "201 W COURT ST", "postcode": "72450"}}},
{"geometry": {"type": "Point", "coordinates": [-90.5262617317, 36.0598827602]}, "type": "Feature", "properties": {"collection_times": [{"days": "Mon-Sat", "time": "1:45pm"}, {"days": "Sun", "time": "Closed"}], "id": "7245000033", "name": "USPS COLLECTION BOX - BLUE BOX", "address": {"city": "PARAGOULD", "state": "AR", "street": "3005 W KINGSHIGHWAY", "postcode": "72450"}}},
{"geometry": {"type": "Point", "coordinates": [-90.4873983465, 36.0561899419]}, "type": "Feature", "properties": {"collection_times": [{"days": "Mon-Fri", "time": "4:40pm"}, {"days": "Sat", "time": "4:00pm"}, {"days": "Sun", "time": "Closed"}], "id": "7245000034", "name": "USPS COLLECTION BOX - BLUE BOX", "address": {"city": "PARAGOULD", "state": "AR", "street": "201 W COURT ST", "postcode": "72450"}}},
{"geometry": {"type": "Point", "coordinates": [-90.4873983465, 36.0561899419]}, "type": "Feature", "properties": {"collection_times": [{"days": "Mon-Fri", "time": "4:40pm"}, {"days": "Sat", "time": "4:00pm"}, {"days": "Sun", "time": "Closed"}], "id": "7245000035", "name": "USPS COLLECTION BOX - PO LOBBY", "address": {"city": "PARAGOULD", "state": "AR", "street": "201 W COURT ST", "postcode": "72450"}}},
{"geometry": {"type": "Point", "coordinates": [-90.7156574766, 36.2898250114]}, "type": "Feature", "properties": {"collection_times": [{"days": "Mon-Fri", "time": "9:30am"}, {"days": "Sat", "time": "10:00am"}, {"days": "Sun", "time": "Closed"}], "id": "7245300002", "name": "USPS COLLECTION BOX - PO LOBBY", "address": {"city": "PEACH ORCHARD", "state": "AR", "street": "123 SW ELM ST", "postcode": "72453"}}},
{"geometry": {"type": "Point", "coordinates": [-90.1925272661, 36.3831966925]}, "type": "Feature", "properties": {"collection_times": [{"days": "Mon-Fri", "time": "4:00pm"}, {"days": "Sat", "time": "3:15pm"}, {"days": "Sun", "time": "Closed"}], "id": "7245400001", "name": "USPS COLLECTION BOX - BLUE BOX", "address": {"city": "PIGGOTT", "state": "AR", "street": "116 N 3RD AVE", "postcode": "72454"}}},
{"geometry": {"type": "Point", "coordinates": [-90.1925272661, 36.3831966925]}, "type": "Feature", "properties": {"collection_times": [{"days": "Mon-Fri", "time": "4:00pm"}, {"days": "Sat", "time": "3:15pm"}, {"days": "Sun", "time": "Closed"}], "id": "7245400005", "name": "USPS COLLECTION BOX - BLUE BOX", "address": {"city": "PIGGOTT", "state": "AR", "street": "116 N 3RD AVE", "postcode": "72454"}}},
{"geometry": {"type": "Point", "coordinates": [-90.1925272661, 36.3831966925]}, "type": "Feature", "properties": {"collection_times": [{"days": "Mon-Fri", "time": "4:00pm"}, {"days": "Sat", "time": "3:15pm"}, {"days": "Sun", "time": "Closed"}], "id": "7245400006", "name": "USPS COLLECTION BOX - PO LOBBY", "address": {"city": "PIGGOTT", "state": "AR", "street": "116 N 3RD AVE", "postcode": "72454"}}},
{"geometry": {"type": "Point", "coordinates": [-90.9710413077, 36.2606881284]}, "type": "Feature", "properties": {"collection_times": [{"days": "Mon-Sat", "time": "10:00am"}, {"days": "Sun", "time": "Closed"}], "id": "7245500001", "name": "USPS COLLECTION BOX - BLUE BOX", "address": {"city": "POCAHONTAS", "state": "AR", "street": "201 S MARR ST", "postcode": "72455"}}},
{"geometry": {"type": "Point", "coordinates": [-90.9709484255, 36.2620564633]}, "type": "Feature", "properties": {"collection_times": [{"days": "Mon-Sat", "time": "10:00am"}, {"days": "Sun", "time": "Closed"}], "id": "7245500012", "name": "USPS COLLECTION BOX - BLUE BOX", "address": {"city": "POCAHONTAS", "state": "AR", "street": "201 W EVERETT ST", "postcode": "72455"}}},
{"geometry": {"type": "Point", "coordinates": [-90.9736273615, 36.2626374508]}, "type": "Feature", "properties": {"collection_times": [{"days": "Mon-Fri", "time": "4:45pm"}, {"days": "Sat", "time": "4:00pm"}, {"days": "Sun", "time": "Closed"}], "id": "7245500013", "name": "USPS COLLECTION BOX - BLUE BOX", "address": {"city": "POCAHONTAS", "state": "AR", "street": "501 BROADWAY ST", "postcode": "72455"}}},
{"geometry": {"type": "Point", "coordinates": [-90.9736273615, 36.2626374508]}, "type": "Feature", "properties": {"collection_times": [{"days": "Mon-Fri", "time": "4:45pm"}, {"days": "Sat", "time": "4:00pm"}, {"days": "Sun", "time": "Closed"}], "id": "7245500014", "name": "USPS COLLECTION BOX - BLUE BOX", "address": {"city": "POCAHONTAS", "state": "AR", "street": "501 BROADWAY ST", "postcode": "72455"}}},
{"geometry": {"type": "Point", "coordinates": [-90.9692799786, 36.2630405101]}, "type": "Feature", "properties": {"collection_times": [{"days": "Mon-Sat", "time": "10:00am"}, {"days": "Sun", "time": "Closed"}], "id": "7245500015", "name": "USPS COLLECTION BOX - BLUE BOX", "address": {"city": "POCAHONTAS", "state": "AR", "street": "410 N MARR ST", "postcode": "72455"}}},
{"geometry": {"type": "Point", "coordinates": [-90.9578082387, 36.2453551496]}, "type": "Feature", "properties": {"collection_times": [{"days": "Mon-Fri", "time": "2:00pm"}, {"days": "Sat", "time": "12:15pm"}, {"days": "Sun", "time": "Closed"}], "id": "7245500016", "name": "USPS COLLECTION BOX - BLUE BOX", "address": {"city": "POCAHONTAS", "state": "AR", "street": "1612 HIGHWAY 67 S", "postcode": "72455"}}},
{"geometry": {"type": "Point", "coordinates": [-90.9736273615, 36.2626374508]}, "type": "Feature", "properties": {"collection_times": [{"days": "Mon-Fri", "time": "4:45pm"}, {"days": "Sat", "time": "4:00pm"}, {"days": "Sun", "time": "Closed"}], "id": "7245500025", "name": "USPS COLLECTION BOX - PO LOBBY", "address": {"city": "POCAHONTAS", "state": "AR", "street": "501 BROADWAY ST", "postcode": "72455"}}},
{"geometry": {"type": "Point", "coordinates": [-90.9736273615, 36.2626374508]}, "type": "Feature", "properties": {"collection_times": [{"days": "Mon-Fri", "time": "4:45pm"}, {"days": "Sat", "time": "4:00pm"}, {"days": "Sun", "time": "Closed"}], "id": "7245500026", "name": "USPS COLLECTION BOX - PO LOBBY", "address": {"city": "POCAHONTAS", "state": "AR", "street": "501 BROADWAY ST", "postcode": "72455"}}},
{"geometry": {"type": "Point", "coordinates": [-90.9736273615, 36.2626374508]}, "type": "Feature", "properties": {"collection_times": [{"days": "Mon-Fri", "time": "4:45pm"}, {"days": "Sat", "time": "4:00pm"}, {"days": "Sun", "time": "Closed"}], "id": "7245500027", "name": "USPS COLLECTION BOX - PO LOBBY", "address": {"city": "POCAHONTAS", "state": "AR", "street": "501 BROADWAY ST", "postcode": "72455"}}},
{"geometry": {"type": "Point", "coordinates": [-90.2685354179, 36.4309420162]}, "type": "Feature", "properties": {"collection_times": [{"days": "Mon-Fri", "time": "2:00pm"}, {"days": "Sat", "time": "11:00am"}, {"days": "Sun", "time": "Closed"}], "id": "7245600001", "name": "USPS COLLECTION BOX - BLUE BOX", "address": {"city": "POLLARD", "state": "AR", "street": "311 FRONT ST", "postcode": "72456"}}},
{"geometry": {"type": "Point", "coordinates": [-90.2685354179, 36.4309420162]}, "type": "Feature", "properties": {"collection_times": [{"days": "Mon-Fri", "time": "9:30am"}, {"days": "Sat", "time": "11:00am"}, {"days": "Sun", "time": "Closed"}], "id": "7245600002", "name": "USPS COLLECTION BOX - PO LOBBY", "address": {"city": "POLLARD", "state": "AR", "street": "311 FRONT ST", "postcode": "72456"}}},
{"geometry": {"type": "Point", "coordinates": [-91.0672162593, 36.0864527049]}, "type": "Feature", "properties": {"collection_times": [{"days": "Mon-Fri", "time": "4:15pm"}, {"days": "Sat", "time": "9:45am"}, {"days": "Sun", "time": "Closed"}], "id": "7245700001", "name": "USPS COLLECTION BOX - BLUE BOX", "address": {"city": "PORTIA", "state": "AR", "street": "113 W FRONT ST", "postcode": "72457"}}},
{"geometry": {"type": "Point", "coordinates": [-91.0672162593, 36.0864527049]}, "type": "Feature", "properties": {"collection_times": [{"days": "Mon-Fri", "time": "11:30am"}, {"days": "Sat", "time": "9:45am"}, {"days": "Sun", "time": "Closed"}], "id": "7245700002", "name": "USPS COLLECTION BOX - PO LOBBY", "address": {"city": "PORTIA", "state": "AR", "street": "113 W FRONT ST", "postcode": "72457"}}},
{"geometry": {"type": "Point", "coordinates": [-91.1194744252, 36.0824877587]}, "type": "Feature", "properties": {"collection_times": [{"days": "Mon-Fri", "time": "3:30pm"}, {"days": "Sat", "time": "9:15am"}, {"days": "Sun", "time": "Closed"}], "id": "7245800001", "name": "USPS COLLECTION BOX - BLUE BOX", "address": {"city": "POWHATAN", "state": "AR", "street": "4399 HIGHWAY 25", "postcode": "72458"}}},
{"geometry": {"type": "Point", "coordinates": [-91.1194744252, 36.0824877587]}, "type": "Feature", "properties": {"collection_times": [{"days": "Mon-Fri", "time": "11:30am"}, {"days": "Sat", "time": "9:15am"}, {"days": "Sun", "time": "Closed"}], "id": "7245800002", "name": "USPS COLLECTION BOX - PO LOBBY", "address": {"city": "POWHATAN", "state": "AR", "street": "4399 HIGHWAY 25", "postcode": "72458"}}},
{"geometry": {"type": "Point", "coordinates": [-91.2664206427, 36.2426017838]}, "type": "Feature", "properties": {"collection_times": [{"days": "Mon-Fri", "time": "4:15pm"}, {"days": "Sat", "time": "9:30am"}, {"days": "Sun", "time": "Closed"}], "id": "7245900001", "name": "USPS COLLECTION BOX - BLUE BOX", "address": {"city": "RAVENDEN", "state": "AR", "street": "471 HIGHWAY 63 W", "postcode": "72459"}}},
{"geometry": {"type": "Point", "coordinates": [-91.2664206427, 36.2426017838]}, "type": "Feature", "properties": {"collection_times": [{"days": "Mon-Fri", "time": "11:00am"}, {"days": "Sat", "time": "9:30am"}, {"days": "Sun", "time": "Closed"}], "id": "7245900002", "name": "USPS COLLECTION BOX - PO LOBBY", "address": {"city": "RAVENDEN", "state": "AR", "street": "471 HIGHWAY 63 W", "postcode": "72459"}}},
{"geometry": {"type": "Point", "coordinates": [-91.2664206427, 36.2426017838]}, "type": "Feature", "properties": {"collection_times": [{"days": "Mon-Fri", "time": "11:00am"}, {"days": "Sat", "time": "9:30am"}, {"days": "Sun", "time": "Closed"}], "id": "7245900003", "name": "USPS COLLECTION BOX - PO LOBBY", "address": {"city": "RAVENDEN", "state": "AR", "street": "471 HIGHWAY 63 W", "postcode": "72459"}}},
{"geometry": {"type": "Point", "coordinates": [-91.225311405, 36.316399017]}, "type": "Feature", "properties": {"collection_times": [{"days": "Mon-Fri", "time": "3:30pm"}, {"days": "Sat", "time": "11:00am"}, {"days": "Sun", "time": "Closed"}], "id": "7246000001", "name": "USPS COLLECTION BOX - BLUE BOX", "address": {"city": "RAVENDEN SPRINGS", "state": "AR", "street": "19319 HIGHWAY 90 W", "postcode": "72460"}}},
{"geometry": {"type": "Point", "coordinates": [-91.225311405, 36.316399017]}, "type": "Feature", "properties": {"collection_times": [{"days": "Mon-Fri", "time": "3:00pm"}, {"days": "Sat", "time": "11:00am"}, {"days": "Sun", "time": "Closed"}], "id": "7246000002", "name": "USPS COLLECTION BOX - PO LOBBY", "address": {"city": "RAVENDEN SPRINGS", "state": "AR", "street": "19319 HIGHWAY 90 W", "postcode": "72460"}}},
{"geometry": {"type": "Point", "coordinates": [-90.2914925517, 36.2645463072]}, "type": "Feature", "properties": {"collection_times": [{"days": "Mon-Fri", "time": "4:45pm"}, {"days": "Sat", "time": "3:45pm"}, {"days": "Sun", "time": "Closed"}], "id": "7246100001", "name": "USPS COLLECTION BOX - BLUE BOX", "address": {"city": "RECTOR", "state": "AR", "street": "310 S STEWART ST", "postcode": "72461"}}},
{"geometry": {"type": "Point", "coordinates": [-90.2914925517, 36.2645463072]}, "type": "Feature", "properties": {"collection_times": [{"days": "Mon-Fri", "time": "4:45pm"}, {"days": "Sat", "time": "3:45pm"}, {"days": "Sun", "time": "Closed"}], "id": "7246100004", "name": "USPS COLLECTION BOX - PO LOBBY", "address": {"city": "RECTOR", "state": "AR", "street": "310 S STEWART ST", "postcode": "72461"}}},
{"geometry": {"type": "Point", "coordinates": [-90.2914925517, 36.2645463072]}, "type": "Feature", "properties": {"collection_times": [{"days": "Mon-Fri", "time": "4:45pm"}, {"days": "Sat", "time": "3:45pm"}, {"days": "Sun", "time": "Closed"}], "id": "7246100006", "name": "USPS COLLECTION BOX - PO LOBBY", "address": {"city": "RECTOR", "state": "AR", "street": "310 S STEWART ST", "postcode": "72461"}}},
{"geometry": {"type": "Point", "coordinates": [-90.7639818756, 36.3567744016]}, "type": "Feature", "properties": {"collection_times": [{"days": "Mon-Fri", "time": "3:30pm"}, {"days": "Sat", "time": "10:30am"}, {"days": "Sun", "time": "Closed"}], "id": "7246200001", "name": "USPS COLLECTION BOX - BLUE BOX", "address": {"city": "REYNO", "state": "AR", "street": "6720 BIGGERS REYNO RD", "postcode": "72462"}}},
{"geometry": {"type": "Point", "coordinates": [-90.7639818756, 36.3567744016]}, "type": "Feature", "properties": {"collection_times": [{"days": "Mon-Fri", "time": "11:30am"}, {"days": "Sat", "time": "10:30am"}, {"days": "Sun", "time": "Closed"}], "id": "7246200002", "name": "USPS COLLECTION BOX - PO LOBBY", "address": {"city": "REYNO", "state": "AR", "street": "6720 BIGGERS REYNO RD", "postcode": "72462"}}},
{"geometry": {"type": "Point", "coordinates": [-90.1453590993, 36.4544095184]}, "type": "Feature", "properties": {"collection_times": [{"days": "Mon-Fri", "time": "12:15pm"}, {"days": "Sat", "time": "9:45am"}, {"days": "Sun", "time": "Closed"}], "id": "7246400002", "name": "USPS COLLECTION BOX - PO LOBBY", "address": {"city": "SAINT FRANCIS", "state": "AR", "street": "108 E HIGHWAY 62", "postcode": "72464"}}},
{"geometry": {"type": "Point", "coordinates": [-90.8618579832, 35.977744423]}, "type": "Feature", "properties": {"collection_times": [{"days": "Mon-Fri", "time": "12:30pm"}, {"days": "Sat", "time": "11:45am"}, {"days": "Sun", "time": "Closed"}], "id": "7246500002", "name": "USPS COLLECTION BOX - PO LOBBY", "address": {"city": "SEDGWICK", "state": "AR", "street": "102 S MAIN ST", "postcode": "72465"}}},
{"geometry": {"type": "Point", "coordinates": [-90.8618579832, 35.977744423]}, "type": "Feature", "properties": {"collection_times": [{"days": "Mon-Sat", "time": "11:45am"}, {"days": "Sun", "time": "Closed"}], "id": "7246500003", "name": "USPS COLLECTION BOX - BLUE BOX", "address": {"city": "SEDGWICK", "state": "AR", "street": "102 S MAIN ST", "postcode": "72465"}}},
{"geometry": {"type": "Point", "coordinates": [-91.3027729333, 36.080225474]}, "type": "Feature", "properties": {"collection_times": [{"days": "Mon-Fri", "time": "3:30pm"}, {"days": "Sat", "time": "10:00am"}, {"days": "Sun", "time": "Closed"}], "id": "7246600001", "name": "USPS COLLECTION BOX - BLUE BOX", "address": {"city": "SMITHVILLE", "state": "AR", "street": "52 BRADLEY DR", "postcode": "72466"}}},
{"geometry": {"type": "Point", "coordinates": [-91.3027729333, 36.080225474]}, "type": "Feature", "properties": {"collection_times": [{"days": "Mon-Fri", "time": "10:30am"}, {"days": "Sat", "time": "10:00am"}, {"days": "Sun", "time": "Closed"}], "id": "7246600002", "name": "USPS COLLECTION BOX - PO LOBBY", "address": {"city": "SMITHVILLE", "state": "AR", "street": "52 BRADLEY DR", "postcode": "72466"}}},
{"geometry": {"type": "Point", "coordinates": [-91.3027729333, 36.080225474]}, "type": "Feature", "properties": {"collection_times": [{"days": "Mon-Fri", "time": "10:30am"}, {"days": "Sat", "time": "10:00am"}, {"days": "Sun", "time": "Closed"}], "id": "7246600003", "name": "USPS COLLECTION BOX - PO LOBBY", "address": {"city": "SMITHVILLE", "state": "AR", "street": "52 BRADLEY DR", "postcode": "72466"}}},
{"geometry": {"type": "Point", "coordinates": [-90.4509126598, 35.9541602898]}, "type": "Feature", "properties": {"collection_times": [{"days": "Mon-Fri", "time": "3:30pm"}, {"days": "Sat", "time": "10:30am"}, {"days": "Sun", "time": "Closed"}], "id": "7246700001", "name": "USPS COLLECTION BOX - BLUE BOX", "address": {"city": "STATE UNIVERSITY", "state": "AR", "street": "105 N CARAWAY", "postcode": "72467"}}},
{"geometry": {"type": "Point", "coordinates": [-90.4509126598, 35.9541602898]}, "type": "Feature", "properties": {"collection_times": [{"days": "Mon-Fri", "time": "3:30pm"}, {"days": "Sat", "time": "10:30am"}, {"days": "Sun", "time": "Closed"}], "id": "7246700003", "name": "USPS COLLECTION BOX - PO LOBBY", "address": {"city": "STATE UNIVERSITY", "state": "AR", "street": "105 N CARAWAY RD", "postcode": "72467"}}},
{"geometry": {"type": "Point", "coordinates": [-90.4509126598, 35.9541602898]}, "type": "Feature", "properties": {"collection_times": [{"days": "Mon-Fri", "time": "3:30pm"}, {"days": "Sat", "time": "10:30am"}, {"days": "Sun", "time": "Closed"}], "id": "7246700004", "name": "USPS COLLECTION BOX - PO LOBBY", "address": {"city": "STATE UNIVERSITY", "state": "AR", "street": "105 N CARAWAY RD", "postcode": "72467"}}},
{"geometry": {"type": "Point", "coordinates": [-91.3248838948, 35.9730456514]}, "type": "Feature", "properties": {"collection_times": [{"days": "Mon-Fri", "time": "3:45pm"}, {"days": "Sat", "time": "11:45am"}, {"days": "Sun", "time": "Closed"}], "id": "7246900001", "name": "USPS COLLECTION BOX - BLUE BOX", "address": {"city": "STRAWBERRY", "state": "AR", "street": "100 N MAIN ST", "postcode": "72469"}}},
{"geometry": {"type": "Point", "coordinates": [-91.3248838948, 35.9730456514]}, "type": "Feature", "properties": {"collection_times": [{"days": "Mon-Fri", "time": "11:30am"}, {"days": "Sat", "time": "11:45am"}, {"days": "Sun", "time": "Closed"}], "id": "7246900002", "name": "USPS COLLECTION BOX - PO LOBBY", "address": {"city": "STRAWBERRY", "state": "AR", "street": "100 N MAIN ST", "postcode": "72469"}}},
{"geometry": {"type": "Point", "coordinates": [-91.321604815, 35.969081311]}, "type": "Feature", "properties": {"collection_times": [{"days": "Mon-Fri", "time": "11:30am"}, {"days": "Sat", "time": "11:45am"}, {"days": "Sun", "time": "Closed"}], "id": "7246900003", "name": "USPS COLLECTION BOX - PO LOBBY", "address": {"city": "STRAWBERRY", "state": "AR", "street": "100 N MAIN ST", "postcode": "72469"}}},
{"geometry": {"type": "Point", "coordinates": [-90.7290327467, 36.4611489513]}, "type": "Feature", "properties": {"collection_times": [{"days": "Mon-Sat", "time": "11:30am"}, {"days": "Sun", "time": "Closed"}], "id": "7247000002", "name": "USPS COLLECTION BOX - PO LOBBY", "address": {"city": "SUCCESS", "state": "AR", "street": "511 FRONT ST", "postcode": "72470"}}},
{"geometry": {"type": "Point", "coordinates": [-90.7290327467, 36.4611489513]}, "type": "Feature", "properties": {"collection_times": [{"days": "Mon-Sat", "time": "11:30am"}, {"days": "Sun", "time": "Closed"}], "id": "7247000003", "name": "USPS COLLECTION BOX - PO LOBBY", "address": {"city": "SUCCESS", "state": "AR", "street": "511 FRONT ST", "postcode": "72470"}}},
{"geometry": {"type": "Point", "coordinates": [-91.1330274719, 35.8256444382]}, "type": "Feature", "properties": {"collection_times": [{"days": "Mon-Fri", "time": "3:45pm"}, {"days": "Sat", "time": "10:00am"}, {"days": "Sun", "time": "Closed"}], "id": "7247100001", "name": "USPS COLLECTION BOX - BLUE BOX", "address": {"city": "SWIFTON", "state": "AR", "street": "109 MAIN ST", "postcode": "72471"}}},
{"geometry": {"type": "Point", "coordinates": [-91.1330274719, 35.8256444382]}, "type": "Feature", "properties": {"collection_times": [{"days": "Mon-Fri", "time": "12:00pm"}, {"days": "Sat", "time": "10:00am"}, {"days": "Sun", "time": "Closed"}], "id": "7247100002", "name": "USPS COLLECTION BOX - PO LOBBY", "address": {"city": "SWIFTON", "state": "AR", "street": "109 MAIN ST", "postcode": "72471"}}},
{"geometry": {"type": "Point", "coordinates": [-91.1330274719, 35.8256444382]}, "type": "Feature", "properties": {"collection_times": [{"days": "Mon-Fri", "time": "12:00pm"}, {"days": "Sat", "time": "10:00am"}, {"days": "Sun", "time": "Closed"}], "id": "7247100003", "name": "USPS COLLECTION BOX - PO LOBBY", "address": {"city": "SWIFTON", "state": "AR", "street": "109 MAIN ST", "postcode": "72471"}}},
{"geometry": {"type": "Point", "coordinates": [-90.5153591385, 35.669527364]}, "type": "Feature", "properties": {"collection_times": [{"days": "Mon-Fri", "time": "4:30pm"}, {"days": "Sat", "time": "3:00pm"}, {"days": "Sun", "time": "Closed"}], "id": "7247200011", "name": "USPS COLLECTION BOX - PO LOBBY", "address": {"city": "TRUMANN", "state": "AR", "street": "301 HIGHWAY 463 S", "postcode": "72472"}}},
{"geometry": {"type": "Point", "coordinates": [-90.5153591385, 35.669527364]}, "type": "Feature", "properties": {"collection_times": [{"days": "Mon-Fri", "time": "4:30pm"}, {"days": "Sat", "time": "3:00pm"}, {"days": "Sun", "time": "Closed"}], "id": "7247200018", "name": "USPS COLLECTION BOX - BLUE BOX", "address": {"city": "TRUMANN", "state": "AR", "street": "301 HIGHWAY 463 S", "postcode": "72472"}}},
{"geometry": {"type": "Point", "coordinates": [-90.5153591385, 35.669527364]}, "type": "Feature", "properties": {"collection_times": [{"days": "Mon-Fri", "time": "4:30pm"}, {"days": "Sat", "time": "3:00pm"}, {"days": "Sun", "time": "Closed"}], "id": "7247200019", "name": "USPS COLLECTION BOX - BLUE BOX", "address": {"city": "TRUMANN", "state": "AR", "street": "301 HIGHWAY 463 S", "postcode": "72472"}}},
{"geometry": {"type": "Point", "coordinates": [-90.5153591385, 35.669527364]}, "type": "Feature", "properties": {"collection_times": [{"days": "Mon-Fri", "time": "4:30pm"}, {"days": "Sat", "time": "3:00pm"}, {"days": "Sun", "time": "Closed"}], "id": "7247200020", "name": "USPS COLLECTION BOX - PO LOBBY", "address": {"city": "TRUMANN", "state": "AR", "street": "301 HIGHWAY 463 S", "postcode": "72472"}}},
{"geometry": {"type": "Point", "coordinates": [-91.197560209, 35.7314533972]}, "type": "Feature", "properties": {"collection_times": [{"days": "Mon-Fri", "time": "3:45pm"}, {"days": "Sat", "time": "10:30am"}, {"days": "Sun", "time": "Closed"}], "id": "7247300002", "name": "USPS COLLECTION BOX - PO LOBBY", "address": {"city": "TUCKERMAN", "state": "AR", "street": "105 E WALNUT ST", "postcode": "72473"}}},
{"geometry": {"type": "Point", "coordinates": [-91.197560209, 35.7314533972]}, "type": "Feature", "properties": {"collection_times": [{"days": "Mon-Fri", "time": "3:45pm"}, {"days": "Sat", "time": "10:30am"}, {"days": "Sun", "time": "Closed"}], "id": "7247300003", "name": "USPS COLLECTION BOX - BLUE BOX", "address": {"city": "TUCKERMAN", "state": "AR", "street": "105 E WALNUT ST", "postcode": "72473"}}},
{"geometry": {"type": "Point", "coordinates": [-90.6707350961, 36.0428883138]}, "type": "Feature", "properties": {"collection_times": [{"days": "Mon-Fri", "time": "3:15pm"}, {"days": "Sat", "time": "9:15am"}, {"days": "Sun", "time": "Closed"}], "id": "7247400001", "name": "USPS COLLECTION BOX - BLUE BOX", "address": {"city": "WALCOTT", "state": "AR", "street": "1951 HIGHWAY 141 S", "postcode": "72474"}}},
{"geometry": {"type": "Point", "coordinates": [-90.6707350961, 36.0428883138]}, "type": "Feature", "properties": {"collection_times": [{"days": "Mon-Fri", "time": "3:15pm"}, {"days": "Sat", "time": "9:15am"}, {"days": "Sun", "time": "Closed"}], "id": "7247400002", "name": "USPS COLLECTION BOX - PO LOBBY", "address": {"city": "WALCOTT", "state": "AR", "street": "1951 HIGHWAY 141 S", "postcode": "72474"}}},
{"geometry": {"type": "Point", "coordinates": [-90.931045516, 35.5655423109]}, "type": "Feature", "properties": {"collection_times": [{"days": "Mon-Fri", "time": "4:00pm"}, {"days": "Sat", "time": "9:45am"}, {"days": "Sun", "time": "Closed"}], "id": "7247500001", "name": "USPS COLLECTION BOX - BLUE BOX", "address": {"city": "WALDENBURG", "state": "AR", "street": "5953 HIGHWAY 14 E", "postcode": "72475"}}},
{"geometry": {"type": "Point", "coordinates": [-90.931045516, 35.5655423109]}, "type": "Feature", "properties": {"collection_times": [{"days": "Mon-Fri", "time": "10:30am"}, {"days": "Sat", "time": "9:45am"}, {"days": "Sun", "time": "Closed"}], "id": "7247500002", "name": "USPS COLLECTION BOX - PO LOBBY", "address": {"city": "WALDENBURG", "state": "AR", "street": "5953 HIGHWAY 14 E", "postcode": "72475"}}},
{"geometry": {"type": "Point", "coordinates": [-90.9586243226, 36.0690651794]}, "type": "Feature", "properties": {"collection_times": [{"days": "Mon-Fri", "time": "4:15pm"}, {"days": "Sat", "time": "2:30pm"}, {"days": "Sun", "time": "Closed"}], "id": "7247600001", "name": "USPS COLLECTION BOX - BLUE BOX", "address": {"city": "WALNUT RIDGE", "state": "AR", "street": "210 SW 3RD ST", "postcode": "72476"}}},
{"geometry": {"type": "Point", "coordinates": [-90.9586243226, 36.0690651794]}, "type": "Feature", "properties": {"collection_times": [{"days": "Mon-Fri", "time": "4:15pm"}, {"days": "Sat", "time": "2:30pm"}, {"days": "Sun", "time": "Closed"}], "id": "7247600013", "name": "USPS COLLECTION BOX - PO LOBBY", "address": {"city": "WALNUT RIDGE", "state": "AR", "street": "210 SW 3RD ST", "postcode": "72476"}}},
{"geometry": {"type": "Point", "coordinates": [-90.9586243226, 36.0690651794]}, "type": "Feature", "properties": {"collection_times": [{"days": "Mon-Fri", "time": "4:15pm"}, {"days": "Sat", "time": "2:30pm"}, {"days": "Sun", "time": "Closed"}], "id": "7247600016", "name": "USPS COLLECTION BOX - BLUE BOX", "address": {"city": "WALNUT RIDGE", "state": "AR", "street": "210 SW 3RD ST", "postcode": "72476"}}},
{"geometry": {"type": "Point", "coordinates": [-91.039015063, 36.0774266598]}, "type": "Feature", "properties": {"collection_times": [{"days": "Mon-Sat", "time": "7:30am"}, {"days": "Sun", "time": "Closed"}], "id": "7247600017", "name": "USPS COLLECTION BOX - BLUE BOX", "address": {"city": "WALNUT RIDGE", "state": "AR", "street": "16898 HIGHWAY 412 W", "postcode": "72476"}}},
{"geometry": {"type": "Point", "coordinates": [-90.9586243226, 36.0690651794]}, "type": "Feature", "properties": {"collection_times": [{"days": "Mon-Fri", "time": "4:15pm"}, {"days": "Sat", "time": "2:30pm"}, {"days": "Sun", "time": "Closed"}], "id": "7247600020", "name": "USPS COLLECTION BOX - PO LOBBY", "address": {"city": "WALNUT RIDGE", "state": "AR", "street": "210 SW 3RD ST", "postcode": "72476"}}},
{"geometry": {"type": "Point", "coordinates": [-90.8998490797, 35.6197488104]}, "type": "Feature", "properties": {"collection_times": [{"days": "Mon-Fri", "time": "4:00pm"}, {"days": "Sat", "time": "11:00am"}, {"days": "Sun", "time": "Closed"}], "id": "7247900003", "name": "USPS COLLECTION BOX - BLUE BOX", "address": {"city": "WEINER", "state": "AR", "street": "117 W SECOND ST", "postcode": "72479"}}},
{"geometry": {"type": "Point", "coordinates": [-90.8998490797, 35.6197488104]}, "type": "Feature", "properties": {"collection_times": [{"days": "Mon-Fri", "time": "3:15pm"}, {"days": "Sat", "time": "11:00am"}, {"days": "Sun", "time": "Closed"}], "id": "7247900005", "name": "USPS COLLECTION BOX - PO LOBBY", "address": {"city": "WEINER", "state": "AR", "street": "117 W SECOND ST", "postcode": "72479"}}},
{"geometry": {"type": "Point", "coordinates": [-90.8998490797, 35.6197488104]}, "type": "Feature", "properties": {"collection_times": [{"days": "Mon-Fri", "time": "3:15pm"}, {"days": "Sat", "time": "11:00am"}, {"days": "Sun", "time": "Closed"}], "id": "7247900007", "name": "USPS COLLECTION BOX - PO LOBBY", "address": {"city": "WEINER", "state": "AR", "street": "117 W SECOND ST", "postcode": "72479"}}},
{"geometry": {"type": "Point", "coordinates": [-91.3760198802, 36.2458062501]}, "type": "Feature", "properties": {"collection_times": [{"days": "Mon-Fri", "time": "11:30am"}, {"days": "Sat", "time": "10:00am"}, {"days": "Sun", "time": "Closed"}], "id": "7248200001", "name": "USPS COLLECTION BOX - PO LOBBY", "address": {"city": "WILLIFORD", "state": "AR", "street": "305 W MAIN ST", "postcode": "72482"}}},
{"geometry": {"type": "Point", "coordinates": [-91.3760198802, 36.2458062501]}, "type": "Feature", "properties": {"collection_times": [{"days": "Mon-Fri", "time": "11:30am"}, {"days": "Sat", "time": "10:00am"}, {"days": "Sun", "time": "Closed"}], "id": "7248200002", "name": "USPS COLLECTION BOX - PO LOBBY", "address": {"city": "WILLIFORD", "state": "AR", "street": "305 W MAIN ST", "postcode": "72482"}}}
]}
