{"type": "FeatureCollection", "features": [
{"geometry": {"type": "Point", "coordinates": [-91.6395563065, 35.7740807168]}, "type": "Feature", "properties": {"collection_times": [{"days": "Mon-Fri", "time": "6:00pm"}, {"days": "Sat", "time": "5:00pm"}, {"days": "Sun", "time": "Closed"}], "id": "7250100001", "name": "USPS COLLECTION BOX - BLUE BOX", "address": {"city": "BATESVILLE", "state": "AR", "street": "490 E COLLEGE ST", "postcode": "72501"}}},
{"geometry": {"type": "Point", "coordinates": [-91.6532702444, 35.7705884025]}, "type": "Feature", "properties": {"collection_times": [{"days": "Mon-Sat", "time": "10:20am"}, {"days": "Sun", "time": "Closed"}], "id": "7250100002", "name": "USPS COLLECTION BOX - BLUE BOX", "address": {"city": "BATESVILLE", "state": "AR", "street": "192 E MAIN ST", "postcode": "72501"}}},
{"geometry": {"type": "Point", "coordinates": [-91.655276032, 35.7694499879]}, "type": "Feature", "properties": {"collection_times": [{"days": "Mon-Sat", "time": "10:50am"}, {"days": "Sun", "time": "Closed"}], "id": "7250100003", "name": "USPS COLLECTION BOX - BLUE BOX", "address": {"city": "BATESVILLE", "state": "AR", "street": "194 W MAIN ST", "postcode": "72501"}}},
{"geometry": {"type": "Point", "coordinates": [-91.6408741082, 35.7754032423]}, "type": "Feature", "properties": {"collection_times": [{"days": "Mon-Sat", "time": "12:15pm"}, {"days": "Sun", "time": "Closed"}], "id": "7250100006", "name": "USPS COLLECTION BOX - BLUE BOX", "address": {"city": "BATESVILLE", "state": "AR", "street": "425 S SAINT LOUIS ST", "postcode": "72501"}}},
{"geometry": {"type": "Point", "coordinates": [-91.6412390775, 35.7773183678]}, "type": "Feature", "properties": {"collection_times": [{"days": "Mon-Sat", "time": "10:30am"}, {"days": "Sun", "time": "Closed"}], "id": "7250100007", "name": "USPS COLLECTION BOX - BLUE BOX", "address": {"city": "BATESVILLE", "state": "AR", "street": "1255 E MAIN ST", "postcode": "72501"}}},
{"geometry": {"type": "Point", "coordinates": [-91.6171817372, 35.7647670851]}, "type": "Feature", "properties": {"collection_times": [{"days": "Mon-Sat", "time": "1:00pm"}, {"days": "Sun", "time": "Closed"}], "id": "7250100009", "name": "USPS COLLECTION BOX - BLUE BOX", "address": {"city": "BATESVILLE", "state": "AR", "street": "3150 HARRISON ST", "postcode": "72501"}}},
{"geometry": {"type": "Point", "coordinates": [-91.6357581258, 35.7695819836]}, "type": "Feature", "properties": {"collection_times": [{"days": "Mon-Sat", "time": "2:00pm"}, {"days": "Sun", "time": "Closed"}], "id": "7250100013", "name": "USPS COLLECTION BOX - BLUE BOX", "address": {"city": "BATESVILLE", "state": "AR", "street": "1710 HARRISON ST", "postcode": "72501"}}},
{"geometry": {"type": "Point", "coordinates": [-91.6346870876, 35.7623041921]}, "type": "Feature", "properties": {"collection_times": [{"days": "Mon-Sat", "time": "2:00pm"}, {"days": "Sun", "time": "Closed"}], "id": "7250100014", "name": "USPS COLLECTION BOX - BLUE BOX", "address": {"city": "BATESVILLE", "state": "AR", "street": "1700 MYERS ST", "postcode": "72501"}}},
{"geometry": {"type": "Point", "coordinates": [-91.6598809273, 35.7764737224]}, "type": "Feature", "properties": {"collection_times": [{"days": "Mon-Sat", "time": "2:00pm"}, {"days": "Sun", "time": "Closed"}], "id": "7250100017", "name": "USPS COLLECTION BOX - BLUE BOX", "address": {"city": "BATESVILLE", "state": "AR", "street": "945 N CENTRAL AVE", "postcode": "72501"}}},
{"geometry": {"type": "Point", "coordinates": [-91.6395563065, 35.7740807168]}, "type": "Feature", "properties": {"collection_times": [{"days": "Mon-Fri", "time": "6:00pm"}, {"days": "Sat", "time": "5:00pm"}, {"days": "Sun", "time": "Closed"}], "id": "7250100022", "name": "USPS COLLECTION BOX - PO LOBBY", "address": {"city": "BATESVILLE", "state": "AR", "street": "490 E COLLEGE ST", "postcode": "72501"}}},
{"geometry": {"type": "Point", "coordinates": [-91.6395563065, 35.7740807168]}, "type": "Feature", "properties": {"collection_times": [{"days": "Mon-Fri", "time": "6:00pm"}, {"days": "Sat", "time": "5:00pm"}, {"days": "Sun", "time": "Closed"}], "id": "7250100023", "name": "USPS COLLECTION BOX - BLUE BOX", "address": {"city": "BATESVILLE", "state": "AR", "street": "490 E COLLEGE ST", "postcode": "72501"}}},
{"geometry": {"type": "Point", "coordinates": [-91.6395563065, 35.7740807168]}, "type": "Feature", "properties": {"collection_times": [{"days": "Mon-Fri", "time": "6:00pm"}, {"days": "Sat", "time": "5:00pm"}, {"days": "Sun", "time": "Closed"}], "id": "7250100024", "name": "USPS COLLECTION BOX - BLUE BOX", "address": {"city": "BATESVILLE", "state": "AR", "street": "490 E COLLEGE ST", "postcode": "72501"}}},
{"geometry": {"type": "Point", "coordinates": [-91.6395563065, 35.7740807168]}, "type": "Feature", "properties": {"collection_times": [{"days": "Mon-Fri", "time": "6:00pm"}, {"days": "Sat", "time": "5:00pm"}, {"days": "Sun", "time": "Closed"}], "id": "7250100028", "name": "USPS COLLECTION BOX - PO LOBBY", "address": {"city": "BATESVILLE", "state": "AR", "street": "490 E COLLEGE ST", "postcode": "72501"}}},
{"geometry": {"type": "Point", "coordinates": [-91.6395563065, 35.7740807168]}, "type": "Feature", "properties": {"collection_times": [{"days": "Mon-Fri", "time": "6:00pm"}, {"days": "Sat", "time": "5:00pm"}, {"days": "Sun", "time": "Closed"}], "id": "7250100029", "name": "USPS COLLECTION BOX - PO LOBBY", "address": {"city": "BATESVILLE", "state": "AR", "street": "490 E COLLEGE ST", "postcode": "72501"}}},
{"geometry": {"type": "Point", "coordinates": [-91.6377431193, 35.7696802377]}, "type": "Feature", "properties": {"collection_times": [{"days": "Mon-Sat", "time": "2:15pm"}, {"days": "Sun", "time": "Closed"}], "id": "7250100030", "name": "USPS COLLECTION BOX - BLUE BOX", "address": {"city": "BATESVILLE", "state": "AR", "street": "1536 HARRISON ST", "postcode": "72501"}}},
{"geometry": {"type": "Point", "coordinates": [-91.6395563065, 35.7740807168]}, "type": "Feature", "properties": {"collection_times": [{"days": "Mon-Fri", "time": "6:00pm"}, {"days": "Sat", "time": "5:00pm"}, {"days": "Sun", "time": "Closed"}], "id": "7250100034", "name": "USPS COLLECTION BOX - PO LOBBY", "address": {"city": "BATESVILLE", "state": "AR", "street": "490 E COLLEGE ST", "postcode": "72501"}}},
{"geometry": {"type": "Point", "coordinates": [-91.7577428822, 36.2197362232]}, "type": "Feature", "properties": {"collection_times": [{"days": "Mon-Sat", "time": "4:00pm"}, {"days": "Sun", "time": "Closed"}], "id": "7251200001", "name": "USPS COLLECTION BOX - BLUE BOX", "address": {"city": "HORSESHOE BEND", "state": "AR", "street": "811 SECOND ST", "postcode": "72512"}}},
{"geometry": {"type": "Point", "coordinates": [-91.6058273808, 36.2243832742]}, "type": "Feature", "properties": {"collection_times": [{"days": "Mon-Fri", "time": "4:45pm"}, {"days": "Sat", "time": "9:45am"}, {"days": "Sun", "time": "Closed"}], "id": "7251300000", "name": "USPS COLLECTION BOX - BLUE BOX", "address": {"city": "ASH FLAT", "state": "AR", "street": "34 W MAIN ST", "postcode": "72513"}}},
{"geometry": {"type": "Point", "coordinates": [-91.6058273808, 36.2243832742]}, "type": "Feature", "properties": {"collection_times": [{"days": "Mon-Fri", "time": "4:45pm"}, {"days": "Sat", "time": "9:45am"}, {"days": "Sun", "time": "Closed"}], "id": "7251300001", "name": "USPS COLLECTION BOX - PO LOBBY", "address": {"city": "ASH FLAT", "state": "AR", "street": "34 W MAIN ST", "postcode": "72513"}}},
{"geometry": {"type": "Point", "coordinates": [-91.5979895341, 36.2373133334]}, "type": "Feature", "properties": {"collection_times": [{"days": "Mon-Sat", "time": "8:30am"}, {"days": "Sun", "time": "Closed"}], "id": "7251300002", "name": "USPS COLLECTION BOX - BLUE BOX", "address": {"city": "ASH FLAT", "state": "AR", "street": "219 HIGHWAY 62 412", "postcode": "72513"}}},
{"geometry": {"type": "Point", "coordinates": [-91.6259132314, 36.2040451162]}, "type": "Feature", "properties": {"collection_times": [{"days": "Mon-Sat", "time": "8:30am"}, {"days": "Sun", "time": "Closed"}], "id": "7251300003", "name": "USPS COLLECTION BOX - BLUE BOX", "address": {"city": "ASH FLAT", "state": "AR", "street": "718 ASH FLAT DR", "postcode": "72513"}}},
{"geometry": {"type": "Point", "coordinates": [-91.6058273808, 36.2243832742]}, "type": "Feature", "properties": {"collection_times": [{"days": "Mon-Fri", "time": "4:45pm"}, {"days": "Sat", "time": "9:45am"}, {"days": "Sun", "time": "Closed"}], "id": "7251300005", "name": "USPS COLLECTION BOX - PO LOBBY", "address": {"city": "ASH FLAT", "state": "AR", "street": "34 W MAIN ST", "postcode": "72513"}}},
{"geometry": {"type": "Point", "coordinates": [-91.9629887925, 36.1315609273]}, "type": "Feature", "properties": {"collection_times": [{"days": "Mon-Fri", "time": "2:45pm"}, {"days": "Sat", "time": "9:30am"}, {"days": "Sun", "time": "Closed"}], "id": "7251700000", "name": "USPS COLLECTION BOX - PO LOBBY", "address": {"city": "BROCKWELL", "state": "AR", "street": "4047 N AR 9 HWY", "postcode": "72517"}}},
{"geometry": {"type": "Point", "coordinates": [-91.9629887925, 36.1315609273]}, "type": "Feature", "properties": {"collection_times": [{"days": "Mon-Fri", "time": "4:00pm"}, {"days": "Sat", "time": "9:30am"}, {"days": "Sun", "time": "Closed"}], "id": "7251700001", "name": "USPS COLLECTION BOX - BLUE BOX", "address": {"city": "BROCKWELL", "state": "AR", "street": "4047 N AR 9 HWY", "postcode": "72517"}}},
{"geometry": {"type": "Point", "coordinates": [-92.169208132, 36.1615031322]}, "type": "Feature", "properties": {"collection_times": [{"days": "Mon-Fri", "time": "3:30pm"}, {"days": "Sat", "time": "10:45am"}, {"days": "Sun", "time": "Closed"}], "id": "7251900002", "name": "USPS COLLECTION BOX - PO LOBBY", "address": {"city": "CALICO ROCK", "state": "AR", "street": "2068 AR 56 HWY", "postcode": "72519"}}},
{"geometry": {"type": "Point", "coordinates": [-92.169208132, 36.1615031322]}, "type": "Feature", "properties": {"collection_times": [{"days": "Mon-Fri", "time": "3:30pm"}, {"days": "Sat", "time": "10:45am"}, {"days": "Sun", "time": "Closed"}], "id": "7251900006", "name": "USPS COLLECTION BOX - PO LOBBY", "address": {"city": "CALICO ROCK", "state": "AR", "street": "2068 AR 56 HWY", "postcode": "72519"}}},
{"geometry": {"type": "Point", "coordinates": [-92.169208132, 36.1615031322]}, "type": "Feature", "properties": {"collection_times": [{"days": "Mon-Fri", "time": "3:30pm"}, {"days": "Sat", "time": "10:45am"}, {"days": "Sun", "time": "Closed"}], "id": "7251900007", "name": "USPS COLLECTION BOX - BLUE BOX", "address": {"city": "CALICO ROCK", "state": "AR", "street": "2068 AR 56 HWY", "postcode": "72519"}}},
{"geometry": {"type": "Point", "coordinates": [-91.7333090781, 36.4141327096]}, "type": "Feature", "properties": {"collection_times": [{"days": "Mon-Fri", "time": "1:30pm"}, {"days": "Sat", "time": "9:45am"}, {"days": "Sun", "time": "Closed"}], "id": "7252000001", "name": "USPS COLLECTION BOX - BLUE BOX", "address": {"city": "CAMP", "state": "AR", "street": "6042 HIGHWAY 9 N", "postcode": "72520"}}},
{"geometry": {"type": "Point", "coordinates": [-91.7333090781, 36.4141327096]}, "type": "Feature", "properties": {"collection_times": [{"days": "Mon-Fri", "time": "12:30pm"}, {"days": "Sat", "time": "9:45am"}, {"days": "Sun", "time": "Closed"}], "id": "7252000002", "name": "USPS COLLECTION BOX - PO LOBBY", "address": {"city": "CAMP", "state": "AR", "street": "6042 HIGHWAY 9 N", "postcode": "72520"}}},
{"geometry": {"type": "Point", "coordinates": [-91.5482804506, 35.9416176211]}, "type": "Feature", "properties": {"collection_times": [{"days": "Mon-Fri", "time": "4:00pm"}, {"days": "Sat", "time": "11:00am"}, {"days": "Sun", "time": "Closed"}], "id": "7252100001", "name": "USPS COLLECTION BOX - BLUE BOX", "address": {"city": "CAVE CITY", "state": "AR", "street": "112 S MAIN ST", "postcode": "72521"}}},
{"geometry": {"type": "Point", "coordinates": [-91.5482804506, 35.9416176211]}, "type": "Feature", "properties": {"collection_times": [{"days": "Mon-Fri", "time": "4:00pm"}, {"days": "Sat", "time": "11:00am"}, {"days": "Sun", "time": "Closed"}], "id": "7252100002", "name": "USPS COLLECTION BOX - PO LOBBY", "address": {"city": "CAVE CITY", "state": "AR", "street": "112 S MAIN ST", "postcode": "72521"}}},
{"geometry": {"type": "Point", "coordinates": [-91.5482804506, 35.9416176211]}, "type": "Feature", "properties": {"collection_times": [{"days": "Mon-Fri", "time": "4:00pm"}, {"days": "Sat", "time": "11:00am"}, {"days": "Sun", "time": "Closed"}], "id": "7252100003", "name": "USPS COLLECTION BOX - PO LOBBY", "address": {"city": "CAVE CITY", "state": "AR", "street": "112 S MAIN ST", "postcode": "72521"}}},
{"geometry": {"type": "Point", "coordinates": [-91.8129978131, 35.6818898484]}, "type": "Feature", "properties": {"collection_times": [{"days": "Mon-Fri", "time": "3:30pm"}, {"days": "Sat", "time": "9:30am"}, {"days": "Sun", "time": "Closed"}], "id": "7252300001", "name": "USPS COLLECTION BOX - BLUE BOX", "address": {"city": "CONCORD", "state": "AR", "street": "10845 HEBER SPRINGS RD N", "postcode": "72523"}}},
{"geometry": {"type": "Point", "coordinates": [-91.8129978131, 35.6818898484]}, "type": "Feature", "properties": {"collection_times": [{"days": "Mon-Fri", "time": "1:00pm"}, {"days": "Sat", "time": "9:30am"}, {"days": "Sun", "time": "Closed"}], "id": "7252300002", "name": "USPS COLLECTION BOX - PO LOBBY", "address": {"city": "CONCORD", "state": "AR", "street": "10845 HEBER SPRINGS RD N", "postcode": "72523"}}},
{"geometry": {"type": "Point", "coordinates": [-91.3436535521, 35.8135936015]}, "type": "Feature", "properties": {"collection_times": [{"days": "Mon-Fri", "time": "3:45pm"}, {"days": "Sat", "time": "10:00am"}, {"days": "Sun", "time": "Closed"}], "id": "7252400001", "name": "USPS COLLECTION BOX - BLUE BOX", "address": {"city": "CORD", "state": "AR", "street": "8060 CORD RD", "postcode": "72524"}}},
{"geometry": {"type": "Point", "coordinates": [-91.3436535521, 35.8135936015]}, "type": "Feature", "properties": {"collection_times": [{"days": "Mon-Fri", "time": "11:30am"}, {"days": "Sat", "time": "10:30am"}, {"days": "Sun", "time": "Closed"}], "id": "7252400002", "name": "USPS COLLECTION BOX - PO LOBBY", "address": {"city": "CORD", "state": "AR", "street": "8060 CORD RD", "postcode": "72524"}}},
{"geometry": {"type": "Point", "coordinates": [-91.7528883597, 35.8746108102]}, "type": "Feature", "properties": {"collection_times": [{"days": "Mon-Fri", "time": "12:00pm"}, {"days": "Sat", "time": "8:45am"}, {"days": "Sun", "time": "Closed"}], "id": "7252600001", "name": "USPS COLLECTION BOX - PO LOBBY", "address": {"city": "CUSHMAN", "state": "AR", "street": "100 COLLIETOWN RD", "postcode": "72526"}}},
{"geometry": {"type": "Point", "coordinates": [-91.6899551158, 35.732443947]}, "type": "Feature", "properties": {"collection_times": [{"days": "Mon-Fri", "time": "11:30am"}, {"days": "Sat", "time": "10:45am"}, {"days": "Sun", "time": "Closed"}], "id": "7252700002", "name": "USPS COLLECTION BOX - PO LOBBY", "address": {"city": "DESHA", "state": "AR", "street": "20 GAINER FERRY RD", "postcode": "72527"}}},
{"geometry": {"type": "Point", "coordinates": [-92.1061783476, 36.2285309251]}, "type": "Feature", "properties": {"collection_times": [{"days": "Mon-Fri", "time": "9:30am"}, {"days": "Sat", "time": "9:45am"}, {"days": "Sun", "time": "Closed"}], "id": "7252800000", "name": "USPS COLLECTION BOX - PO LOBBY", "address": {"city": "DOLPH", "state": "AR", "street": "3715 DOLPH RD", "postcode": "72528"}}},
{"geometry": {"type": "Point", "coordinates": [-92.1061783476, 36.2285309251]}, "type": "Feature", "properties": {"collection_times": [{"days": "Mon-Fri", "time": "12:30pm"}, {"days": "Sat", "time": "9:45am"}, {"days": "Sun", "time": "Closed"}], "id": "7252800001", "name": "USPS COLLECTION BOX - BLUE BOX", "address": {"city": "DOLPH", "state": "AR", "street": "3715 DOLPH RD", "postcode": "72528"}}},
{"geometry": {"type": "Point", "coordinates": [-91.5554116166, 36.315233483]}, "type": "Feature", "properties": {"collection_times": [{"days": "Mon-Fri", "time": "4:30pm"}, {"days": "Sat", "time": "11:30am"}, {"days": "Sun", "time": "Closed"}], "id": "7252900000", "name": "USPS COLLECTION BOX - BLUE BOX", "address": {"city": "CHEROKEE VLG", "state": "AR", "street": "13 E CHEROKEE VILLAGE MALL", "postcode": "72529"}}},
{"geometry": {"type": "Point", "coordinates": [-91.9472980328, 35.6291299405]}, "type": "Feature", "properties": {"collection_times": [{"days": "Mon-Fri", "time": "4:00pm"}, {"days": "Sat", "time": "10:00am"}, {"days": "Sun", "time": "Closed"}], "id": "7253000001", "name": "USPS COLLECTION BOX - BLUE BOX", "address": {"city": "DRASCO", "state": "AR", "street": "6679 HEBER SPRINGS RD N", "postcode": "72530"}}},
{"geometry": {"type": "Point", "coordinates": [-91.9472980328, 35.6291299405]}, "type": "Feature", "properties": {"collection_times": [{"days": "Mon-Fri", "time": "3:00pm"}, {"days": "Sat", "time": "10:00am"}, {"days": "Sun", "time": "Closed"}], "id": "7253000002", "name": "USPS COLLECTION BOX - PO LOBBY", "address": {"city": "DRASCO", "state": "AR", "street": "6679 HEBER SPRINGS RD N", "postcode": "72530"}}},
{"geometry": {"type": "Point", "coordinates": [-92.0958371359, 36.3314652297]}, "type": "Feature", "properties": {"collection_times": [{"days": "Mon-Fri", "time": "2:00pm"}, {"days": "Sat", "time": "10:00am"}, {"days": "Sun", "time": "Closed"}], "id": "7253100001", "name": "USPS COLLECTION BOX - BLUE BOX", "address": {"city": "ELIZABETH", "state": "AR", "street": "4506 ELIZABETH RD", "postcode": "72531"}}},
{"geometry": {"type": "Point", "coordinates": [-92.0958371359, 36.3314652297]}, "type": "Feature", "properties": {"collection_times": [{"days": "Mon-Fri", "time": "12:00pm"}, {"days": "Sat", "time": "10:00am"}, {"days": "Sun", "time": "Closed"}], "id": "7253100002", "name": "USPS COLLECTION BOX - PO LOBBY", "address": {"city": "ELIZABETH", "state": "AR", "street": "4506 ELIZABETH RD", "postcode": "72531"}}},
{"geometry": {"type": "Point", "coordinates": [-91.614722661, 36.0691654081]}, "type": "Feature", "properties": {"collection_times": [{"days": "Mon-Fri", "time": "10:45am"}, {"days": "Sat", "time": "10:15am"}, {"days": "Sun", "time": "Closed"}], "id": "7253200003", "name": "USPS COLLECTION BOX - PO LOBBY", "address": {"city": "EVENING SHADE", "state": "AR", "street": "2095 EVENING SHADE DR", "postcode": "72532"}}},
{"geometry": {"type": "Point", "coordinates": [-91.7384607161, 35.5964293562]}, "type": "Feature", "properties": {"collection_times": [{"days": "Mon-Fri", "time": "11:00am"}, {"days": "Sat", "time": "9:00am"}, {"days": "Sun", "time": "Closed"}], "id": "7253400002", "name": "USPS COLLECTION BOX - PO LOBBY", "address": {"city": "FLORAL", "state": "AR", "street": "3845 FLORAL RD", "postcode": "72534"}}},
{"geometry": {"type": "Point", "coordinates": [-91.8478213805, 36.0979877776]}, "type": "Feature", "properties": {"collection_times": [{"days": "Mon-Fri", "time": "3:30pm"}, {"days": "Sat", "time": "10:30am"}, {"days": "Sun", "time": "Closed"}], "id": "7253600001", "name": "USPS COLLECTION BOX - BLUE BOX", "address": {"city": "FRANKLIN", "state": "AR", "street": "758 E 1ST ST", "postcode": "72536"}}},
{"geometry": {"type": "Point", "coordinates": [-91.8478213805, 36.0979877776]}, "type": "Feature", "properties": {"collection_times": [{"days": "Mon-Fri", "time": "3:30pm"}, {"days": "Sat", "time": "10:30am"}, {"days": "Sun", "time": "Closed"}], "id": "7253600002", "name": "USPS COLLECTION BOX - PO LOBBY", "address": {"city": "FRANKLIN", "state": "AR", "street": "758 E 1ST ST", "postcode": "72536"}}},
{"geometry": {"type": "Point", "coordinates": [-91.782841913, 36.16116996]}, "type": "Feature", "properties": {"collection_times": [{"days": "Mon-Fri", "time": "3:30pm"}, {"days": "Sat", "time": "10:30am"}, {"days": "Sun", "time": "Closed"}], "id": "7253600003", "name": "USPS COLLECTION BOX - PO LOBBY", "address": {"city": "FRANKLIN", "state": "AR", "street": "758 E 1ST ST", "postcode": "72536"}}},
{"geometry": {"type": "Point", "coordinates": [-92.2529276979, 36.4342913135]}, "type": "Feature", "properties": {"collection_times": [{"days": "Mon-Fri", "time": "2:30pm"}, {"days": "Sat", "time": "12:30pm"}, {"days": "Sun", "time": "Closed"}], "id": "7253700000", "name": "USPS COLLECTION BOX - BLUE BOX", "address": {"city": "GAMALIEL", "state": "AR", "street": "7621 HIGHWAY 101", "postcode": "72537"}}},
{"geometry": {"type": "Point", "coordinates": [-92.2511638308, 36.4378651806]}, "type": "Feature", "properties": {"collection_times": [{"days": "Mon-Fri", "time": "2:30pm"}, {"days": "Sat", "time": "12:30pm"}, {"days": "Sun", "time": "Closed"}], "id": "7253700001", "name": "USPS COLLECTION BOX - PO LOBBY", "address": {"city": "GAMALIEL", "state": "AR", "street": "7621 HIGHWAY 101", "postcode": "72537"}}},
{"geometry": {"type": "Point", "coordinates": [-92.1101464722, 36.4295508665]}, "type": "Feature", "properties": {"collection_times": [{"days": "Mon-Fri", "time": "3:30pm"}, {"days": "Sat", "time": "10:00am"}, {"days": "Sun", "time": "Closed"}], "id": "7253800003", "name": "USPS COLLECTION BOX - BLUE BOX", "address": {"city": "GEPP", "state": "AR", "street": "17971 HIGHWAY 62 W", "postcode": "72538"}}},
{"geometry": {"type": "Point", "coordinates": [-92.1101464722, 36.4295508665]}, "type": "Feature", "properties": {"collection_times": [{"days": "Mon-Fri", "time": "3:30pm"}, {"days": "Sat", "time": "10:00am"}, {"days": "Sun", "time": "Closed"}], "id": "7253800004", "name": "USPS COLLECTION BOX - PO LOBBY", "address": {"city": "GEPP", "state": "AR", "street": "17971 HIGHWAY 62 W", "postcode": "72538"}}},
{"geometry": {"type": "Point", "coordinates": [-91.7607457291, 36.2971676283]}, "type": "Feature", "properties": {"collection_times": [{"days": "Mon-Fri", "time": "11:30am"}, {"days": "Sat", "time": "9:00am"}, {"days": "Sun", "time": "Closed"}], "id": "7253900001", "name": "USPS COLLECTION BOX - PO LOBBY", "address": {"city": "GLENCOE", "state": "AR", "street": "32 HIGHWAY 289 S", "postcode": "72539"}}},
{"geometry": {"type": "Point", "coordinates": [-91.9417096953, 35.9761810367]}, "type": "Feature", "properties": {"collection_times": [{"days": "Mon-Fri", "time": "2:45pm"}, {"days": "Sat", "time": "9:15am"}, {"days": "Sun", "time": "Closed"}], "id": "7254000000", "name": "USPS COLLECTION BOX - BLUE BOX", "address": {"city": "GUION", "state": "AR", "street": "301 MAIN ST", "postcode": "72540"}}},
{"geometry": {"type": "Point", "coordinates": [-91.9417096953, 35.9761810367]}, "type": "Feature", "properties": {"collection_times": [{"days": "Mon-Fri", "time": "11:00am"}, {"days": "Sat", "time": "9:15am"}, {"days": "Sun", "time": "Closed"}], "id": "7254000001", "name": "USPS COLLECTION BOX - PO LOBBY", "address": {"city": "GUION", "state": "AR", "street": "301 MAIN ST", "postcode": "72540"}}},
{"geometry": {"type": "Point", "coordinates": [-91.4872306401, 36.3178004247]}, "type": "Feature", "properties": {"collection_times": [{"days": "Mon-Sat", "time": "4:30pm"}, {"days": "Sun", "time": "Closed"}], "id": "7254200001", "name": "USPS COLLECTION BOX - BLUE BOX", "address": {"city": "HARDY", "state": "AR", "street": "300 HIGHWAY 63 N", "postcode": "72542"}}},
{"geometry": {"type": "Point", "coordinates": [-91.5019639469, 36.2487316465]}, "type": "Feature", "properties": {"collection_times": [{"days": "Mon-Sat", "time": "10:30am"}, {"days": "Sun", "time": "Closed"}], "id": "7254200002", "name": "USPS COLLECTION BOX - BLUE BOX", "address": {"city": "HARDY", "state": "AR", "street": "2379 HIGHWAY 62 412", "postcode": "72542"}}},
{"geometry": {"type": "Point", "coordinates": [-91.4888216312, 36.3209557115]}, "type": "Feature", "properties": {"collection_times": [{"days": "Mon-Sat", "time": "4:45pm"}, {"days": "Sun", "time": "Closed"}], "id": "7254200008", "name": "USPS COLLECTION BOX - PO LOBBY", "address": {"city": "HARDY", "state": "AR", "street": "300 HIGHWAY 63 N", "postcode": "72542"}}},
{"geometry": {"type": "Point", "coordinates": [-91.5019639469, 36.2487316465]}, "type": "Feature", "properties": {"collection_times": [{"days": "Mon-Sat", "time": "10:15am"}, {"days": "Sun", "time": "Closed"}], "id": "7254200010", "name": "USPS COLLECTION BOX - BLUE BOX", "address": {"city": "HARDY", "state": "AR", "street": "195 HOSPITAL DR", "postcode": "72542"}}},
{"geometry": {"type": "Point", "coordinates": [-92.0173458443, 35.476430506]}, "type": "Feature", "properties": {"collection_times": [{"days": "Mon-Sat", "time": "4:45pm"}, {"days": "Sun", "time": "Closed"}], "id": "7254300001", "name": "USPS COLLECTION BOX - BLUE BOX", "address": {"city": "HEBER SPRINGS", "state": "AR", "street": "1215 HIGHWAY 25B N", "postcode": "72543"}}},
{"geometry": {"type": "Point", "coordinates": [-92.0324096271, 35.4915709865]}, "type": "Feature", "properties": {"collection_times": [{"days": "Mon-Fri", "time": "2:20pm"}, {"days": "Sat", "time": "2:05pm"}, {"days": "Sun", "time": "Closed"}], "id": "7254300004", "name": "USPS COLLECTION BOX - BLUE BOX", "address": {"city": "HEBER SPRINGS", "state": "AR", "street": "301 W MAIN ST", "postcode": "72543"}}},
{"geometry": {"type": "Point", "coordinates": [-92.0380654634, 35.4919343909]}, "type": "Feature", "properties": {"collection_times": [{"days": "Mon-Fri", "time": "2:15pm"}, {"days": "Sat", "time": "2:00pm"}, {"days": "Sun", "time": "Closed"}], "id": "7254300007", "name": "USPS COLLECTION BOX - BLUE BOX", "address": {"city": "HEBER SPRINGS", "state": "AR", "street": "821 W MAIN ST", "postcode": "72543"}}},
{"geometry": {"type": "Point", "coordinates": [-92.0173458443, 35.476430506]}, "type": "Feature", "properties": {"collection_times": [{"days": "Mon-Sat", "time": "4:45pm"}, {"days": "Sun", "time": "Closed"}], "id": "7254300010", "name": "USPS COLLECTION BOX - PO LOBBY", "address": {"city": "HEBER SPRINGS", "state": "AR", "street": "1215 HIGHWAY 25B N", "postcode": "72543"}}},
{"geometry": {"type": "Point", "coordinates": [-92.0007819012, 35.4893450605]}, "type": "Feature", "properties": {"collection_times": [{"days": "Mon-Sat", "time": "4:45pm"}, {"days": "Sun", "time": "Closed"}], "id": "7254300011", "name": "USPS COLLECTION BOX - BLUE BOX", "address": {"city": "HEBER SPRINGS", "state": "AR", "street": "1215 HIGHWAY 25B N", "postcode": "72543"}}},
{"geometry": {"type": "Point", "coordinates": [-92.0173458443, 35.476430506]}, "type": "Feature", "properties": {"collection_times": [{"days": "Mon-Sat", "time": "4:45pm"}, {"days": "Sun", "time": "Closed"}], "id": "7254300013", "name": "USPS COLLECTION BOX - PO LOBBY", "address": {"city": "HEBER SPRINGS", "state": "AR", "street": "1215 HIGHWAY 25B N", "postcode": "72543"}}},
{"geometry": {"type": "Point", "coordinates": [-92.2061750478, 36.3792021794]}, "type": "Feature", "properties": {"collection_times": [{"days": "Mon-Fri", "time": "3:00pm"}, {"days": "Sat", "time": "10:00am"}, {"days": "Sun", "time": "Closed"}], "id": "7254400001", "name": "USPS COLLECTION BOX - BLUE BOX", "address": {"city": "HENDERSON", "state": "AR", "street": "13091 HIGHWAY 62 E", "postcode": "72544"}}},
{"geometry": {"type": "Point", "coordinates": [-92.2061750478, 36.3792021794]}, "type": "Feature", "properties": {"collection_times": [{"days": "Mon-Fri", "time": "11:00am"}, {"days": "Sat", "time": "10:00am"}, {"days": "Sun", "time": "Closed"}], "id": "7254400002", "name": "USPS COLLECTION BOX - PO LOBBY", "address": {"city": "HENDERSON", "state": "AR", "street": "13091 HIGHWAY 62 E", "postcode": "72544"}}},
{"geometry": {"type": "Point", "coordinates": [-91.9317633281, 35.5778941445]}, "type": "Feature", "properties": {"collection_times": [{"days": "Mon-Fri", "time": "3:15pm"}, {"days": "Sat", "time": "11:00am"}, {"days": "Sun", "time": "Closed"}], "id": "7254600001", "name": "USPS COLLECTION BOX - PO LOBBY", "address": {"city": "IDA", "state": "AR", "street": "4420 HEBER SPRINGS RD N", "postcode": "72546"}}},
{"geometry": {"type": "Point", "coordinates": [-91.9317633281, 35.5778941445]}, "type": "Feature", "properties": {"collection_times": [{"days": "Mon-Fri", "time": "3:15pm"}, {"days": "Sat", "time": "9:45am"}, {"days": "Sun", "time": "Closed"}], "id": "7254600002", "name": "USPS COLLECTION BOX - BLUE BOX", "address": {"city": "IDA", "state": "AR", "street": "4420 HEBER SPRINGS RD N", "postcode": "72546"}}},
{"geometry": {"type": "Point", "coordinates": [-91.7171259175, 35.7378324477]}, "type": "Feature", "properties": {"collection_times": [{"days": "Mon-Fri", "time": "3:15pm"}, {"days": "Sat", "time": "9:45am"}, {"days": "Sun", "time": "Closed"}], "id": "7255000001", "name": "USPS COLLECTION BOX - BLUE BOX", "address": {"city": "LOCUST GROVE", "state": "AR", "street": "4955 HEBER SPRINGS RD", "postcode": "72550"}}},
{"geometry": {"type": "Point", "coordinates": [-91.7171259175, 35.7378324477]}, "type": "Feature", "properties": {"collection_times": [{"days": "Mon-Fri", "time": "11:30am"}, {"days": "Sat", "time": "9:45am"}, {"days": "Sun", "time": "Closed"}], "id": "7255000002", "name": "USPS COLLECTION BOX - PO LOBBY", "address": {"city": "LOCUST GROVE", "state": "AR", "street": "4955 HEBER SPRINGS RD", "postcode": "72550"}}},
{"geometry": {"type": "Point", "coordinates": [-91.4881695452, 35.6715022155]}, "type": "Feature", "properties": {"collection_times": [{"days": "Mon-Fri", "time": "2:45pm"}, {"days": "Sat", "time": "11:45am"}, {"days": "Sun", "time": "Closed"}], "id": "7255300002", "name": "USPS COLLECTION BOX - PO LOBBY", "address": {"city": "MAGNESS", "state": "AR", "street": "95 BRITTNAY ST", "postcode": "72553"}}},
{"geometry": {"type": "Point", "coordinates": [-91.5497318238, 36.4957411882]}, "type": "Feature", "properties": {"collection_times": [{"days": "Mon-Fri", "time": "3:30pm"}, {"days": "Sat", "time": "11:00am"}, {"days": "Sun", "time": "Closed"}], "id": "7255400001", "name": "USPS COLLECTION BOX - BLUE BOX", "address": {"city": "MAMMOTH SPRING", "state": "AR", "street": "1075 MAIN ST", "postcode": "72554"}}},
{"geometry": {"type": "Point", "coordinates": [-91.5497318238, 36.4957411882]}, "type": "Feature", "properties": {"collection_times": [{"days": "Mon-Fri", "time": "4:15pm"}, {"days": "Sat", "time": "11:00am"}, {"days": "Sun", "time": "Closed"}], "id": "7255400002", "name": "USPS COLLECTION BOX - PO LOBBY", "address": {"city": "MAMMOTH SPRING", "state": "AR", "street": "1075 MAIN ST", "postcode": "72554"}}},
{"geometry": {"type": "Point", "coordinates": [-91.5728980594, 36.4156142125]}, "type": "Feature", "properties": {"collection_times": [{"days": "Mon-Sat", "time": "10:45am"}, {"days": "Sun", "time": "Closed"}], "id": "7255400005", "name": "USPS COLLECTION BOX - BLUE BOX", "address": {"city": "MAMMOTH SPRING", "state": "AR", "street": "17 HIGHWAY 63 N", "postcode": "72554"}}},
{"geometry": {"type": "Point", "coordinates": [-91.9439246992, 35.7502961107]}, "type": "Feature", "properties": {"collection_times": [{"days": "Mon-Sat", "time": "2:45pm"}, {"days": "Sun", "time": "Closed"}], "id": "7255500000", "name": "USPS COLLECTION BOX - BLUE BOX", "address": {"city": "MARCELLA", "state": "AR", "street": "113 HIDDEN RD", "postcode": "72555"}}},
{"geometry": {"type": "Point", "coordinates": [-91.9439246992, 35.7502961107]}, "type": "Feature", "properties": {"collection_times": [{"days": "Mon-Sat", "time": "2:45pm"}, {"days": "Sun", "time": "Closed"}], "id": "7255500001", "name": "USPS COLLECTION BOX - PO LOBBY", "address": {"city": "MARCELLA", "state": "AR", "street": "113 HIDDEN RD", "postcode": "72555"}}},
{"geometry": {"type": "Point", "coordinates": [-91.906090191, 36.0585494102]}, "type": "Feature", "properties": {"collection_times": [{"days": "Mon-Fri", "time": "4:45pm"}, {"days": "Sat", "time": "10:00am"}, {"days": "Sun", "time": "Closed"}], "id": "7255600004", "name": "USPS COLLECTION BOX - PO LOBBY", "address": {"city": "MELBOURNE", "state": "AR", "street": "206 LUNEN ST", "postcode": "72556"}}},
{"geometry": {"type": "Point", "coordinates": [-91.906090191, 36.0585494102]}, "type": "Feature", "properties": {"collection_times": [{"days": "Mon-Fri", "time": "4:45pm"}, {"days": "Sat", "time": "10:00am"}, {"days": "Sun", "time": "Closed"}], "id": "7255600005", "name": "USPS COLLECTION BOX - PO LOBBY", "address": {"city": "MELBOURNE", "state": "AR", "street": "206 LUNEN ST", "postcode": "72556"}}},
{"geometry": {"type": "Point", "coordinates": [-91.906090191, 36.0585494102]}, "type": "Feature", "properties": {"collection_times": [{"days": "Mon-Fri", "time": "4:15pm"}, {"days": "Sat", "time": "10:00am"}, {"days": "Sun", "time": "Closed"}], "id": "7255600006", "name": "USPS COLLECTION BOX - BLUE BOX", "address": {"city": "MELBOURNE", "state": "AR", "street": "206 LUNEN ST", "postcode": "72556"}}},
{"geometry": {"type": "Point", "coordinates": [-92.1028173539, 35.8742477848]}, "type": "Feature", "properties": {"collection_times": [{"days": "Mon-Fri", "time": "4:15pm"}, {"days": "Sat", "time": "10:55am"}, {"days": "Sun", "time": "Closed"}], "id": "7256000001", "name": "USPS COLLECTION BOX - BLUE BOX", "address": {"city": "MOUNTAIN VIEW", "state": "AR", "street": "802 SYLAMORE AVE", "postcode": "72560"}}},
{"geometry": {"type": "Point", "coordinates": [-92.1159320367, 35.8648199074]}, "type": "Feature", "properties": {"collection_times": [{"days": "Mon-Fri", "time": "11:00am"}, {"days": "Sat", "time": "10:30am"}, {"days": "Sun", "time": "Closed"}], "id": "7256000003", "name": "USPS COLLECTION BOX - BLUE BOX", "address": {"city": "MOUNTAIN VIEW", "state": "AR", "street": "108 W WASHINGTON ST", "postcode": "72560"}}},
{"geometry": {"type": "Point", "coordinates": [-92.1028173539, 35.8742477848]}, "type": "Feature", "properties": {"collection_times": [{"days": "Mon-Fri", "time": "4:15pm"}, {"days": "Sat", "time": "10:55am"}, {"days": "Sun", "time": "Closed"}], "id": "7256000004", "name": "USPS COLLECTION BOX - BLUE BOX", "address": {"city": "MOUNTAIN VIEW", "state": "AR", "street": "802 SYLAMORE AVE", "postcode": "72560"}}},
{"geometry": {"type": "Point", "coordinates": [-92.1028173539, 35.8742477848]}, "type": "Feature", "properties": {"collection_times": [{"days": "Mon-Fri", "time": "4:30pm"}, {"days": "Sat", "time": "10:55am"}, {"days": "Sun", "time": "Closed"}], "id": "7256000005", "name": "USPS COLLECTION BOX - PO LOBBY", "address": {"city": "MOUNTAIN VIEW", "state": "AR", "street": "802 SYLAMORE AVE", "postcode": "72560"}}},
{"geometry": {"type": "Point", "coordinates": [-92.1028173539, 35.8742477848]}, "type": "Feature", "properties": {"collection_times": [{"days": "Mon-Fri", "time": "4:30pm"}, {"days": "Sat", "time": "10:55am"}, {"days": "Sun", "time": "Closed"}], "id": "7256000006", "name": "USPS COLLECTION BOX - PO LOBBY", "address": {"city": "MOUNTAIN VIEW", "state": "AR", "street": "802 SYLAMORE AVE", "postcode": "72560"}}},
{"geometry": {"type": "Point", "coordinates": [-91.8081431171, 35.9643785756]}, "type": "Feature", "properties": {"collection_times": [{"days": "Mon-Fri", "time": "11:30am"}, {"days": "Sat", "time": "10:15am"}, {"days": "Sun", "time": "Closed"}], "id": "7256100001", "name": "USPS COLLECTION BOX - PO LOBBY", "address": {"city": "MOUNT PLEASANT", "state": "AR", "street": "204 PEARL ST", "postcode": "72561"}}},
{"geometry": {"type": "Point", "coordinates": [-91.8081431171, 35.9643785756]}, "type": "Feature", "properties": {"collection_times": [{"days": "Mon-Fri", "time": "4:00pm"}, {"days": "Sat", "time": "10:15am"}, {"days": "Sun", "time": "Closed"}], "id": "7256100003", "name": "USPS COLLECTION BOX - BLUE BOX", "address": {"city": "MOUNT PLEASANT", "state": "AR", "street": "204 PEARL ST", "postcode": "72561"}}},
{"geometry": {"type": "Point", "coordinates": [-91.4459563931, 35.6953237777]}, "type": "Feature", "properties": {"collection_times": [{"days": "Mon-Sat", "time": "3:50pm"}, {"days": "Sun", "time": "Closed"}], "id": "7256200001", "name": "USPS COLLECTION BOX - BLUE BOX", "address": {"city": "NEWARK", "state": "AR", "street": "105 N OAK ST", "postcode": "72562"}}},
{"geometry": {"type": "Point", "coordinates": [-91.4459563931, 35.6953237777]}, "type": "Feature", "properties": {"collection_times": [{"days": "Mon-Fri", "time": "3:50pm"}, {"days": "Sat", "time": "10:00am"}, {"days": "Sun", "time": "Closed"}], "id": "7256200002", "name": "USPS COLLECTION BOX - PO LOBBY", "address": {"city": "NEWARK", "state": "AR", "street": "105 N OAK ST", "postcode": "72562"}}},
{"geometry": {"type": "Point", "coordinates": [-91.4629469659, 35.6305960102]}, "type": "Feature", "properties": {"collection_times": [{"days": "Mon-Fri", "time": "11:45am"}, {"days": "Sat", "time": "9:45am"}, {"days": "Sun", "time": "Closed"}], "id": "7256400002", "name": "USPS COLLECTION BOX - PO LOBBY", "address": {"city": "OIL TROUGH", "state": "AR", "street": "209 MAIN ST", "postcode": "72564"}}},
{"geometry": {"type": "Point", "coordinates": [-91.9198196606, 36.2145120394]}, "type": "Feature", "properties": {"collection_times": [{"days": "Mon-Fri", "time": "4:15pm"}, {"days": "Sat", "time": "9:15am"}, {"days": "Sun", "time": "Closed"}], "id": "7256500001", "name": "USPS COLLECTION BOX - BLUE BOX", "address": {"city": "OXFORD", "state": "AR", "street": "270 N 1ST ST", "postcode": "72565"}}},
{"geometry": {"type": "Point", "coordinates": [-91.9198196606, 36.2145120394]}, "type": "Feature", "properties": {"collection_times": [{"days": "Mon-Fri", "time": "11:30am"}, {"days": "Sat", "time": "9:15am"}, {"days": "Sun", "time": "Closed"}], "id": "7256500002", "name": "USPS COLLECTION BOX - PO LOBBY", "address": {"city": "OXFORD", "state": "AR", "street": "270 N 1ST ST", "postcode": "72565"}}},
{"geometry": {"type": "Point", "coordinates": [-91.9274549593, 35.8414451524]}, "type": "Feature", "properties": {"collection_times": [{"days": "Mon-Fri", "time": "3:30pm"}, {"days": "Sat", "time": "9:00am"}, {"days": "Sun", "time": "Closed"}], "id": "7256700001", "name": "USPS COLLECTION BOX - BLUE BOX", "address": {"city": "PLEASANT GROVE", "state": "AR", "street": "28433 HIGHWAY 14", "postcode": "72567"}}},
{"geometry": {"type": "Point", "coordinates": [-91.9274549593, 35.8414451524]}, "type": "Feature", "properties": {"collection_times": [{"days": "Mon-Fri", "time": "11:45am"}, {"days": "Sat", "time": "9:00am"}, {"days": "Sun", "time": "Closed"}], "id": "7256700002", "name": "USPS COLLECTION BOX - PO LOBBY", "address": {"city": "PLEASANT GROVE", "state": "AR", "street": "28433 HIGHWAY 14", "postcode": "72567"}}},
{"geometry": {"type": "Point", "coordinates": [-91.6183901747, 35.5767429591]}, "type": "Feature", "properties": {"collection_times": [{"days": "Mon-Fri", "time": "2:45pm"}, {"days": "Sat", "time": "9:00am"}, {"days": "Sun", "time": "Closed"}], "id": "7256800000", "name": "USPS COLLECTION BOX - BLUE BOX", "address": {"city": "PLEASANT PLAINS", "state": "AR", "street": "360 MAIN ST", "postcode": "72568"}}},
{"geometry": {"type": "Point", "coordinates": [-91.6183901747, 35.5767429591]}, "type": "Feature", "properties": {"collection_times": [{"days": "Mon-Fri", "time": "2:45pm"}, {"days": "Sat", "time": "9:00am"}, {"days": "Sun", "time": "Closed"}], "id": "7256800001", "name": "USPS COLLECTION BOX - PO LOBBY", "address": {"city": "PLEASANT PLAINS", "state": "AR", "street": "360 MAIN ST", "postcode": "72568"}}},
{"geometry": {"type": "Point", "coordinates": [-91.6183901747, 35.5767429591]}, "type": "Feature", "properties": {"collection_times": [{"days": "Mon-Fri", "time": "2:45pm"}, {"days": "Sat", "time": "9:00am"}, {"days": "Sun", "time": "Closed"}], "id": "7256800002", "name": "USPS COLLECTION BOX - PO LOBBY", "address": {"city": "PLEASANT PLAINS", "state": "AR", "street": "360 MAIN ST", "postcode": "72568"}}},
{"geometry": {"type": "Point", "coordinates": [-91.472980742, 36.0744234878]}, "type": "Feature", "properties": {"collection_times": [{"days": "Mon-Fri", "time": "4:00pm"}, {"days": "Sat", "time": "11:45am"}, {"days": "Sun", "time": "Closed"}], "id": "7256900000", "name": "USPS COLLECTION BOX - BLUE BOX", "address": {"city": "POUGHKEEPSIE", "state": "AR", "street": "4066 ARKANSAS HIGHWAY 58", "postcode": "72569"}}},
{"geometry": {"type": "Point", "coordinates": [-91.472980742, 36.0744234878]}, "type": "Feature", "properties": {"collection_times": [{"days": "Mon-Fri", "time": "11:30am"}, {"days": "Sat", "time": "11:45am"}, {"days": "Sun", "time": "Closed"}], "id": "7256900001", "name": "USPS COLLECTION BOX - PO LOBBY", "address": {"city": "POUGHKEEPSIE", "state": "AR", "street": "4066 ARKANSAS HIGHWAY 58", "postcode": "72569"}}},
{"geometry": {"type": "Point", "coordinates": [-91.472980742, 36.0744234878]}, "type": "Feature", "properties": {"collection_times": [{"days": "Mon-Fri", "time": "11:30am"}, {"days": "Sat", "time": "11:45am"}, {"days": "Sun", "time": "Closed"}], "id": "7256900002", "name": "USPS COLLECTION BOX - PO LOBBY", "address": {"city": "POUGHKEEPSIE", "state": "AR", "street": "4066 ARKANSAS HIGHWAY 58", "postcode": "72569"}}},
{"geometry": {"type": "Point", "coordinates": [-91.5686870535, 35.6740093079]}, "type": "Feature", "properties": {"collection_times": [{"days": "Mon-Fri", "time": "2:45pm"}, {"days": "Sat", "time": "2:00pm"}, {"days": "Sun", "time": "Closed"}], "id": "7257100000", "name": "USPS COLLECTION BOX - PO LOBBY", "address": {"city": "ROSIE", "state": "AR", "street": "39 CAPSHAW RD", "postcode": "72571"}}},
{"geometry": {"type": "Point", "coordinates": [-91.2905220921, 35.9087582752]}, "type": "Feature", "properties": {"collection_times": [{"days": "Mon-Fri", "time": "3:30pm"}, {"days": "Sat", "time": "12:00pm"}, {"days": "Sun", "time": "Closed"}], "id": "7257200001", "name": "USPS COLLECTION BOX - BLUE BOX", "address": {"city": "SAFFELL", "state": "AR", "street": "363 HIGHWAY 25", "postcode": "72572"}}},
{"geometry": {"type": "Point", "coordinates": [-91.2905220921, 35.9087582752]}, "type": "Feature", "properties": {"collection_times": [{"days": "Mon-Fri", "time": "11:30am"}, {"days": "Sat", "time": "12:00pm"}, {"days": "Sun", "time": "Closed"}], "id": "7257200002", "name": "USPS COLLECTION BOX - PO LOBBY", "address": {"city": "SAFFELL", "state": "AR", "street": "363 HIGHWAY 25", "postcode": "72572"}}},
{"geometry": {"type": "Point", "coordinates": [-91.8043723537, 36.043818928]}, "type": "Feature", "properties": {"collection_times": [{"days": "Mon-Fri", "time": "12:30pm"}, {"days": "Sat", "time": "9:30am"}, {"days": "Sun", "time": "Closed"}], "id": "7257300001", "name": "USPS COLLECTION BOX - PO LOBBY", "address": {"city": "SAGE", "state": "AR", "street": "1545 AR 69B HWY", "postcode": "72573"}}},
{"geometry": {"type": "Point", "coordinates": [-91.6018252423, 35.6959638711]}, "type": "Feature", "properties": {"collection_times": [{"days": "Mon-Fri", "time": "12:00pm"}, {"days": "Sat", "time": "9:45am"}, {"days": "Sun", "time": "Closed"}], "id": "7257500002", "name": "USPS COLLECTION BOX - PO LOBBY", "address": {"city": "SALADO", "state": "AR", "street": "959 NEWPORT RD", "postcode": "72575"}}},
{"geometry": {"type": "Point", "coordinates": [-91.8317088077, 36.3697852377]}, "type": "Feature", "properties": {"collection_times": [{"days": "Mon-Fri", "time": "4:15pm"}, {"days": "Sat", "time": "11:00am"}, {"days": "Sun", "time": "Closed"}], "id": "7257600000", "name": "USPS COLLECTION BOX - BLUE BOX", "address": {"city": "SALEM", "state": "AR", "street": "510 HIGHWAY 62 W", "postcode": "72576"}}},
{"geometry": {"type": "Point", "coordinates": [-91.8317088077, 36.3697852377]}, "type": "Feature", "properties": {"collection_times": [{"days": "Mon-Fri", "time": "4:15pm"}, {"days": "Sat", "time": "11:00am"}, {"days": "Sun", "time": "Closed"}], "id": "7257600001", "name": "USPS COLLECTION BOX - PO LOBBY", "address": {"city": "SALEM", "state": "AR", "street": "510 HIGHWAY 62 W", "postcode": "72576"}}},
{"geometry": {"type": "Point", "coordinates": [-91.8317088077, 36.3697852377]}, "type": "Feature", "properties": {"collection_times": [{"days": "Mon-Fri", "time": "4:15pm"}, {"days": "Sat", "time": "11:00am"}, {"days": "Sun", "time": "Closed"}], "id": "7257600004", "name": "USPS COLLECTION BOX - PO LOBBY", "address": {"city": "SALEM", "state": "AR", "street": "510 HIGHWAY 62 W", "postcode": "72576"}}},
{"geometry": {"type": "Point", "coordinates": [-91.8317088077, 36.3697852377]}, "type": "Feature", "properties": {"collection_times": [{"days": "Mon-Fri", "time": "4:15pm"}, {"days": "Sat", "time": "11:00am"}, {"days": "Sun", "time": "Closed"}], "id": "7257600005", "name": "USPS COLLECTION BOX - PO LOBBY", "address": {"city": "SALEM", "state": "AR", "street": "510 HIGHWAY 62 W", "postcode": "72576"}}},
{"geometry": {"type": "Point", "coordinates": [-91.8317088077, 36.3697852377]}, "type": "Feature", "properties": {"collection_times": [{"days": "Mon-Fri", "time": "4:15pm"}, {"days": "Sat", "time": "11:00am"}, {"days": "Sun", "time": "Closed"}], "id": "7257600006", "name": "USPS COLLECTION BOX - PO LOBBY", "address": {"city": "SALEM", "state": "AR", "street": "510 HIGHWAY 62 W", "postcode": "72576"}}},
{"geometry": {"type": "Point", "coordinates": [-91.6567213677, 35.9997457788]}, "type": "Feature", "properties": {"collection_times": [{"days": "Mon-Fri", "time": "3:45pm"}, {"days": "Sat", "time": "10:15am"}, {"days": "Sun", "time": "Closed"}], "id": "7257700001", "name": "USPS COLLECTION BOX - BLUE BOX", "address": {"city": "SIDNEY", "state": "AR", "street": "308 ARKANSAS HIGHWAY 58", "postcode": "72577"}}},
{"geometry": {"type": "Point", "coordinates": [-91.6567213677, 35.9997457788]}, "type": "Feature", "properties": {"collection_times": [{"days": "Mon-Fri", "time": "11:30am"}, {"days": "Sat", "time": "10:15am"}, {"days": "Sun", "time": "Closed"}], "id": "7257700002", "name": "USPS COLLECTION BOX - PO LOBBY", "address": {"city": "SIDNEY", "state": "AR", "street": "308 ARKANSAS HIGHWAY 58", "postcode": "72577"}}},
{"geometry": {"type": "Point", "coordinates": [-91.6567213677, 35.9997457788]}, "type": "Feature", "properties": {"collection_times": [{"days": "Mon-Fri", "time": "11:30am"}, {"days": "Sat", "time": "10:15am"}, {"days": "Sun", "time": "Closed"}], "id": "7257700003", "name": "USPS COLLECTION BOX - PO LOBBY", "address": {"city": "SIDNEY", "state": "AR", "street": "308 ARKANSAS HIGHWAY 58", "postcode": "72577"}}},
{"geometry": {"type": "Point", "coordinates": [-91.9830829549, 36.4704110488]}, "type": "Feature", "properties": {"collection_times": [{"days": "Mon-Fri", "time": "9:30am"}, {"days": "Sat", "time": "8:45am"}, {"days": "Sun", "time": "Closed"}], "id": "7257800003", "name": "USPS COLLECTION BOX - PO LOBBY", "address": {"city": "STURKIE", "state": "AR", "street": "5312 STURKIE RD", "postcode": "72578"}}},
{"geometry": {"type": "Point", "coordinates": [-91.5008143023, 35.7532869296]}, "type": "Feature", "properties": {"collection_times": [{"days": "Mon-Fri", "time": "4:15pm"}, {"days": "Sat", "time": "8:45am"}, {"days": "Sun", "time": "Closed"}], "id": "7257900001", "name": "USPS COLLECTION BOX - BLUE BOX", "address": {"city": "SULPHUR ROCK", "state": "AR", "street": "210 S MAIN ST", "postcode": "72579"}}},
{"geometry": {"type": "Point", "coordinates": [-91.5008143023, 35.7532869296]}, "type": "Feature", "properties": {"collection_times": [{"days": "Mon-Fri", "time": "2:30pm"}, {"days": "Sat", "time": "8:45am"}, {"days": "Sun", "time": "Closed"}], "id": "7257900002", "name": "USPS COLLECTION BOX - PO LOBBY", "address": {"city": "SULPHUR ROCK", "state": "AR", "street": "210 S MAIN ST", "postcode": "72579"}}},
{"geometry": {"type": "Point", "coordinates": [-91.9683520805, 35.5414830529]}, "type": "Feature", "properties": {"collection_times": [{"days": "Mon-Fri", "time": "3:45pm"}, {"days": "Sat", "time": "9:00am"}, {"days": "Sun", "time": "Closed"}], "id": "7258100001", "name": "USPS COLLECTION BOX - BLUE BOX", "address": {"city": "TUMBLING SHOALS", "state": "AR", "street": "2395 HEBER SPRINGS RD N", "postcode": "72581"}}},
{"geometry": {"type": "Point", "coordinates": [-91.9683520805, 35.5414830529]}, "type": "Feature", "properties": {"collection_times": [{"days": "Mon-Fri", "time": "11:00am"}, {"days": "Sat", "time": "9:00am"}, {"days": "Sun", "time": "Closed"}], "id": "7258100002", "name": "USPS COLLECTION BOX - PO LOBBY", "address": {"city": "TUMBLING SHOALS", "state": "AR", "street": "2395 HEBER SPRINGS RD N", "postcode": "72581"}}},
{"geometry": {"type": "Point", "coordinates": [-91.9859213903, 36.3967503117]}, "type": "Feature", "properties": {"collection_times": [{"days": "Mon-Fri", "time": "3:30pm"}, {"days": "Sat", "time": "11:00am"}, {"days": "Sun", "time": "Closed"}], "id": "7258300001", "name": "USPS COLLECTION BOX - BLUE BOX", "address": {"city": "VIOLA", "state": "AR", "street": "9971 HIGHWAY 62 W", "postcode": "72583"}}},
{"geometry": {"type": "Point", "coordinates": [-91.9859213903, 36.3967503117]}, "type": "Feature", "properties": {"collection_times": [{"days": "Mon-Fri", "time": "3:30pm"}, {"days": "Sat", "time": "11:00am"}, {"days": "Sun", "time": "Closed"}], "id": "7258300002", "name": "USPS COLLECTION BOX - PO LOBBY", "address": {"city": "VIOLA", "state": "AR", "street": "9971 HIGHWAY 62 W", "postcode": "72583"}}},
{"geometry": {"type": "Point", "coordinates": [-91.9859213903, 36.3967503117]}, "type": "Feature", "properties": {"collection_times": [{"days": "Mon-Fri", "time": "3:30pm"}, {"days": "Sat", "time": "11:00am"}, {"days": "Sun", "time": "Closed"}], "id": "7258300003", "name": "USPS COLLECTION BOX - PO LOBBY", "address": {"city": "VIOLA", "state": "AR", "street": "9971 HIGHWAY 62 W", "postcode": "72583"}}},
{"geometry": {"type": "Point", "coordinates": [-91.8521121509, 36.1612908536]}, "type": "Feature", "properties": {"collection_times": [{"days": "Mon-Fri", "time": "11:30am"}, {"days": "Sat", "time": "9:45am"}, {"days": "Sun", "time": "Closed"}], "id": "7258400001", "name": "USPS COLLECTION BOX - PO LOBBY", "address": {"city": "VIOLET HILL", "state": "AR", "street": "100 W HIGHWAY 56", "postcode": "72584"}}},
{"geometry": {"type": "Point", "coordinates": [-91.8558132958, 36.2251863972]}, "type": "Feature", "properties": {"collection_times": [{"days": "Mon-Fri", "time": "11:00am"}, {"days": "Sat", "time": "10:15am"}, {"days": "Sun", "time": "Closed"}], "id": "7258700001", "name": "USPS COLLECTION BOX - PO LOBBY", "address": {"city": "WISEMAN", "state": "AR", "street": "100 HIGHWAY 354 E", "postcode": "72587"}}}
]}
