{"type": "FeatureCollection", "features": [
{"geometry": {"type": "Point", "coordinates": [-93.1317906077, 36.2496348999]}, "type": "Feature", "properties": {"collection_times": [{"days": "Mon-Sat", "time": "6:00pm"}, {"days": "Sun", "time": "Closed"}], "id": "7260100001", "name": "USPS COLLECTION BOX - BLUE BOX", "address": {"city": "HARRISON", "state": "AR", "street": "215 W INDUSTRIAL PARK RD", "postcode": "72601"}}},
{"geometry": {"type": "Point", "coordinates": [-93.1059104033, 36.2332359918]}, "type": "Feature", "properties": {"collection_times": [{"days": "Mon-Fri", "time": "4:45pm"}, {"days": "Sat", "time": "5:00pm"}, {"days": "Sun", "time": "Closed"}], "id": "7260100006", "name": "USPS COLLECTION BOX - BLUE BOX", "address": {"city": "HARRISON", "state": "AR", "street": "402 N WALNUT ST", "postcode": "72601"}}},
{"geometry": {"type": "Point", "coordinates": [-93.1072044153, 36.2308324753]}, "type": "Feature", "properties": {"collection_times": [{"days": "Mon-Sat", "time": "5:00pm"}, {"days": "Sun", "time": "Closed"}], "id": "7260100007", "name": "USPS COLLECTION BOX - BLUE BOX", "address": {"city": "HARRISON", "state": "AR", "street": "113 E RUSH AVE", "postcode": "72601"}}},
{"geometry": {"type": "Point", "coordinates": [-93.108654903, 36.229885967]}, "type": "Feature", "properties": {"collection_times": [{"days": "Mon-Sat", "time": "5:00pm"}, {"days": "Sun", "time": "Closed"}], "id": "7260100008", "name": "USPS COLLECTION BOX - BLUE BOX", "address": {"city": "HARRISON", "state": "AR", "street": "200 W STEPHENSON AVE", "postcode": "72601"}}},
{"geometry": {"type": "Point", "coordinates": [-93.0964435088, 36.229482604]}, "type": "Feature", "properties": {"collection_times": [{"days": "Mon-Sat", "time": "10:00am"}, {"days": "Sun", "time": "Closed"}], "id": "7260100010", "name": "USPS COLLECTION BOX - BLUE BOX", "address": {"city": "HARRISON", "state": "AR", "street": "719 E STEPHENSON AVE", "postcode": "72601"}}},
{"geometry": {"type": "Point", "coordinates": [-93.1072396222, 36.2334217748]}, "type": "Feature", "properties": {"collection_times": [{"days": "Mon-Sat", "time": "5:00pm"}, {"days": "Sun", "time": "Closed"}], "id": "7260100017", "name": "USPS COLLECTION BOX - BLUE BOX", "address": {"city": "HARRISON", "state": "AR", "street": "300 S MAIN ST", "postcode": "72601"}}},
{"geometry": {"type": "Point", "coordinates": [-93.1317906077, 36.2496348999]}, "type": "Feature", "properties": {"collection_times": [{"days": "Mon-Sat", "time": "6:00pm"}, {"days": "Sun", "time": "Closed"}], "id": "7260100025", "name": "USPS COLLECTION BOX - PO LOBBY", "address": {"city": "HARRISON", "state": "AR", "street": "215 W INDUSTRIAL PARK RD", "postcode": "72601"}}},
{"geometry": {"type": "Point", "coordinates": [-93.1073628903, 36.2321010255]}, "type": "Feature", "properties": {"collection_times": [{"days": "Mon-Sat", "time": "5:00pm"}, {"days": "Sun", "time": "Closed"}], "id": "7260100027", "name": "USPS COLLECTION BOX - BLUE BOX", "address": {"city": "HARRISON", "state": "AR", "street": "301 N MAIN ST", "postcode": "72601"}}},
{"geometry": {"type": "Point", "coordinates": [-93.1317906077, 36.2496348999]}, "type": "Feature", "properties": {"collection_times": [{"days": "Mon-Sat", "time": "6:00pm"}, {"days": "Sun", "time": "Closed"}], "id": "7260100029", "name": "USPS COLLECTION BOX - PO LOBBY", "address": {"city": "HARRISON", "state": "AR", "street": "215 W INDUSTRIAL PARK RD", "postcode": "72601"}}},
{"geometry": {"type": "Point", "coordinates": [-93.1072277624, 36.2356535007]}, "type": "Feature", "properties": {"collection_times": [{"days": "Mon-Sat", "time": "5:00pm"}, {"days": "Sun", "time": "Closed"}], "id": "7260100036", "name": "USPS COLLECTION BOX - BLUE BOX", "address": {"city": "HARRISON", "state": "AR", "street": "609 N MAIN ST", "postcode": "72601"}}},
{"geometry": {"type": "Point", "coordinates": [-93.1373735831, 36.2527378255]}, "type": "Feature", "properties": {"collection_times": [{"days": "Mon-Sat", "time": "9:00am"}, {"days": "Sun", "time": "Closed"}], "id": "7260100038", "name": "USPS COLLECTION BOX - BLUE BOX", "address": {"city": "HARRISON", "state": "AR", "street": "1919 CLUB CIR", "postcode": "72601"}}},
{"geometry": {"type": "Point", "coordinates": [-93.1100046287, 36.2295085982]}, "type": "Feature", "properties": {"collection_times": [{"days": "Mon-Sat", "time": "5:00pm"}, {"days": "Sun", "time": "Closed"}], "id": "7260100039", "name": "USPS COLLECTION BOX - BLUE BOX", "address": {"city": "HARRISON", "state": "AR", "street": "125 S SPRING ST", "postcode": "72601"}}},
{"geometry": {"type": "Point", "coordinates": [-93.1100046287, 36.2295085982]}, "type": "Feature", "properties": {"collection_times": [{"days": "Mon-Sat", "time": "5:00pm"}, {"days": "Sun", "time": "Closed"}], "id": "7260100040", "name": "USPS COLLECTION BOX - BLUE BOX", "address": {"city": "HARRISON", "state": "AR", "street": "125 S SPRING ST", "postcode": "72601"}}},
{"geometry": {"type": "Point", "coordinates": [-93.1030869387, 36.2385821228]}, "type": "Feature", "properties": {"collection_times": [{"days": "Mon-Sat", "time": "5:00pm"}, {"days": "Sun", "time": "Closed"}], "id": "7260100042", "name": "USPS COLLECTION BOX - BLUE BOX", "address": {"city": "HARRISON", "state": "AR", "street": "800 HIGHWAY 62 65 N", "postcode": "72601"}}},
{"geometry": {"type": "Point", "coordinates": [-93.1070887677, 36.2357880361]}, "type": "Feature", "properties": {"collection_times": [{"days": "Mon-Sat", "time": "9:00am"}, {"days": "Sun", "time": "Closed"}], "id": "7260100045", "name": "USPS COLLECTION BOX - BLUE BOX", "address": {"city": "HARRISON", "state": "AR", "street": "620 N MAIN ST", "postcode": "72601"}}},
{"geometry": {"type": "Point", "coordinates": [-93.1317906077, 36.2496348999]}, "type": "Feature", "properties": {"collection_times": [{"days": "Mon-Sat", "time": "6:00pm"}, {"days": "Sun", "time": "Closed"}], "id": "7260100046", "name": "USPS COLLECTION BOX - BLUE BOX", "address": {"city": "HARRISON", "state": "AR", "street": "215 W INDUSTRIAL PARK RD", "postcode": "72601"}}},
{"geometry": {"type": "Point", "coordinates": [-93.2900397082, 36.29490394]}, "type": "Feature", "properties": {"collection_times": [{"days": "Mon-Fri", "time": "3:30pm"}, {"days": "Sat", "time": "11:30am"}, {"days": "Sun", "time": "Closed"}], "id": "7261100001", "name": "USPS COLLECTION BOX - BLUE BOX", "address": {"city": "ALPENA", "state": "AR", "street": "105 N DENTON ST", "postcode": "72611"}}},
{"geometry": {"type": "Point", "coordinates": [-93.2900397082, 36.29490394]}, "type": "Feature", "properties": {"collection_times": [{"days": "Mon-Fri", "time": "2:30pm"}, {"days": "Sat", "time": "11:30am"}, {"days": "Sun", "time": "Closed"}], "id": "7261100002", "name": "USPS COLLECTION BOX - PO LOBBY", "address": {"city": "ALPENA", "state": "AR", "street": "105 N DENTON ST", "postcode": "72611"}}},
{"geometry": {"type": "Point", "coordinates": [-93.2900397082, 36.29490394]}, "type": "Feature", "properties": {"collection_times": [{"days": "Mon-Fri", "time": "2:30pm"}, {"days": "Sat", "time": "11:30am"}, {"days": "Sun", "time": "Closed"}], "id": "7261100003", "name": "USPS COLLECTION BOX - PO LOBBY", "address": {"city": "ALPENA", "state": "AR", "street": "105 N DENTON ST", "postcode": "72611"}}},
{"geometry": {"type": "Point", "coordinates": [-93.7382198836, 36.4113902186]}, "type": "Feature", "properties": {"collection_times": [{"days": "Mon-Fri", "time": "3:30pm"}, {"days": "Sat", "time": "10:30am"}, {"days": "Sun", "time": "Closed"}], "id": "7261300001", "name": "USPS COLLECTION BOX - BLUE BOX", "address": {"city": "BEAVER", "state": "AR", "street": "306 SQUIRE BEAVER RD", "postcode": "72613"}}},
{"geometry": {"type": "Point", "coordinates": [-93.7382198836, 36.4113902186]}, "type": "Feature", "properties": {"collection_times": [{"days": "Mon-Fri", "time": "3:30pm"}, {"days": "Sat", "time": "10:30am"}, {"days": "Sun", "time": "Closed"}], "id": "7261300003", "name": "USPS COLLECTION BOX - PO LOBBY", "address": {"city": "BEAVER", "state": "AR", "street": "306 SQUIRE BEAVER RD", "postcode": "72613"}}},
{"geometry": {"type": "Point", "coordinates": [-93.0149997482, 36.3126821618]}, "type": "Feature", "properties": {"collection_times": [{"days": "Mon-Fri", "time": "3:45pm"}, {"days": "Sat", "time": "10:45am"}, {"days": "Sun", "time": "Closed"}], "id": "7261500001", "name": "USPS COLLECTION BOX - BLUE BOX", "address": {"city": "BERGMAN", "state": "AR", "street": "100 MAIN ST", "postcode": "72615"}}},
{"geometry": {"type": "Point", "coordinates": [-93.0149997482, 36.3126821618]}, "type": "Feature", "properties": {"collection_times": [{"days": "Mon-Fri", "time": "11:30am"}, {"days": "Sat", "time": "10:45am"}, {"days": "Sun", "time": "Closed"}], "id": "7261500002", "name": "USPS COLLECTION BOX - PO LOBBY", "address": {"city": "BERGMAN", "state": "AR", "street": "100 MAIN ST", "postcode": "72615"}}},
{"geometry": {"type": "Point", "coordinates": [-93.5671538379, 36.3642728776]}, "type": "Feature", "properties": {"collection_times": [{"days": "Mon-Sat", "time": "5:00pm"}, {"days": "Sun", "time": "Closed"}], "id": "7261600001", "name": "USPS COLLECTION BOX - PO LOBBY", "address": {"city": "BERRYVILLE", "state": "AR", "street": "101 E MADISON AVE", "postcode": "72616"}}},
{"geometry": {"type": "Point", "coordinates": [-93.5710111006, 36.3671334406]}, "type": "Feature", "properties": {"collection_times": [{"days": "Mon-Sat", "time": "10:30am"}, {"days": "Sun", "time": "Closed"}], "id": "7261600002", "name": "USPS COLLECTION BOX - BLUE BOX", "address": {"city": "BERRYVILLE", "state": "AR", "street": "328 EUREKA AVE", "postcode": "72616"}}},
{"geometry": {"type": "Point", "coordinates": [-93.5600743734, 36.3706041856]}, "type": "Feature", "properties": {"collection_times": [{"days": "Mon-Sat", "time": "10:00am"}, {"days": "Sun", "time": "Closed"}], "id": "7261600005", "name": "USPS COLLECTION BOX - BLUE BOX", "address": {"city": "BERRYVILLE", "state": "AR", "street": "405 SMALLEY ST", "postcode": "72616"}}},
{"geometry": {"type": "Point", "coordinates": [-93.5662115717, 36.3625117269]}, "type": "Feature", "properties": {"collection_times": [{"days": "Mon-Sat", "time": "2:00pm"}, {"days": "Sun", "time": "Closed"}], "id": "7261600009", "name": "USPS COLLECTION BOX - BLUE BOX", "address": {"city": "BERRYVILLE", "state": "AR", "street": "101 CARL ST", "postcode": "72616"}}},
{"geometry": {"type": "Point", "coordinates": [-93.5793064658, 36.3696353915]}, "type": "Feature", "properties": {"collection_times": [{"days": "Mon-Sat", "time": "11:00am"}, {"days": "Sun", "time": "Closed"}], "id": "7261600010", "name": "USPS COLLECTION BOX - BLUE BOX", "address": {"city": "BERRYVILLE", "state": "AR", "street": "1 COUNTRY CT", "postcode": "72616"}}},
{"geometry": {"type": "Point", "coordinates": [-93.5837761619, 36.3767315251]}, "type": "Feature", "properties": {"collection_times": [{"days": "Mon-Sat", "time": "1:00pm"}, {"days": "Sun", "time": "Closed"}], "id": "7261600012", "name": "USPS COLLECTION BOX - BLUE BOX", "address": {"city": "BERRYVILLE", "state": "AR", "street": "1000 W TRIMBLE AVE", "postcode": "72616"}}},
{"geometry": {"type": "Point", "coordinates": [-93.5510186711, 36.3247692188]}, "type": "Feature", "properties": {"collection_times": [{"days": "Mon-Sat", "time": "4:45pm"}, {"days": "Sun", "time": "Closed"}], "id": "7261600013", "name": "USPS COLLECTION BOX - BLUE BOX", "address": {"city": "BERRYVILLE", "state": "AR", "street": "301 PUBLIC SQ", "postcode": "72616"}}},
{"geometry": {"type": "Point", "coordinates": [-93.5510186711, 36.3247692188]}, "type": "Feature", "properties": {"collection_times": [{"days": "Mon-Sat", "time": "4:45pm"}, {"days": "Sun", "time": "Closed"}], "id": "7261600014", "name": "USPS COLLECTION BOX - BLUE BOX", "address": {"city": "BERRYVILLE", "state": "AR", "street": "301 PUBLIC SQ", "postcode": "72616"}}},
{"geometry": {"type": "Point", "coordinates": [-93.5838331225, 36.3767662975]}, "type": "Feature", "properties": {"collection_times": [{"days": "Mon-Sat", "time": "1:00pm"}, {"days": "Sun", "time": "Closed"}], "id": "7261600015", "name": "USPS COLLECTION BOX - BLUE BOX", "address": {"city": "BERRYVILLE", "state": "AR", "street": "1004 W TRIMBLE AVE", "postcode": "72616"}}},
{"geometry": {"type": "Point", "coordinates": [-93.5671538379, 36.3642728776]}, "type": "Feature", "properties": {"collection_times": [{"days": "Mon-Sat", "time": "5:00pm"}, {"days": "Sun", "time": "Closed"}], "id": "7261600016", "name": "USPS COLLECTION BOX - PO LOBBY", "address": {"city": "BERRYVILLE", "state": "AR", "street": "101 E MADISON AVE", "postcode": "72616"}}},
{"geometry": {"type": "Point", "coordinates": [-93.5671538379, 36.3642728776]}, "type": "Feature", "properties": {"collection_times": [{"days": "Mon-Sat", "time": "5:00pm"}, {"days": "Sun", "time": "Closed"}], "id": "7261600017", "name": "USPS COLLECTION BOX - PO LOBBY", "address": {"city": "BERRYVILLE", "state": "AR", "street": "101 E MADISON AVE", "postcode": "72616"}}},
{"geometry": {"type": "Point", "coordinates": [-92.5815399615, 36.3848408537]}, "type": "Feature", "properties": {"collection_times": [{"days": "Mon-Fri", "time": "3:45pm"}, {"days": "Sat", "time": "10:15am"}, {"days": "Sun", "time": "Closed"}], "id": "7261900000", "name": "USPS COLLECTION BOX - BLUE BOX", "address": {"city": "BULL SHOALS", "state": "AR", "street": "904 LAKESHORE RD", "postcode": "72619"}}},
{"geometry": {"type": "Point", "coordinates": [-92.5815399615, 36.3848408537]}, "type": "Feature", "properties": {"collection_times": [{"days": "Mon-Fri", "time": "3:45pm"}, {"days": "Sat", "time": "10:15am"}, {"days": "Sun", "time": "Closed"}], "id": "7261900001", "name": "USPS COLLECTION BOX - PO LOBBY", "address": {"city": "BULL SHOALS", "state": "AR", "street": "904 LAKESHORE RD", "postcode": "72619"}}},
{"geometry": {"type": "Point", "coordinates": [-92.5815399615, 36.3848408537]}, "type": "Feature", "properties": {"collection_times": [{"days": "Mon-Fri", "time": "3:45pm"}, {"days": "Sat", "time": "10:15am"}, {"days": "Sun", "time": "Closed"}], "id": "7261900002", "name": "USPS COLLECTION BOX - PO LOBBY", "address": {"city": "BULL SHOALS", "state": "AR", "street": "904 LAKESHORE RD", "postcode": "72619"}}},
{"geometry": {"type": "Point", "coordinates": [-92.318558712, 36.465446826]}, "type": "Feature", "properties": {"collection_times": [{"days": "Mon-Fri", "time": "11:30am"}, {"days": "Sat", "time": "10:00am"}, {"days": "Sun", "time": "Closed"}], "id": "7262300001", "name": "USPS COLLECTION BOX - PO LOBBY", "address": {"city": "CLARKRIDGE", "state": "AR", "street": "49 POSTMASTER CIR", "postcode": "72623"}}},
{"geometry": {"type": "Point", "coordinates": [-93.3085134021, 36.083708888]}, "type": "Feature", "properties": {"collection_times": [{"days": "Mon-Fri", "time": "1:45pm"}, {"days": "Sat", "time": "10:15am"}, {"days": "Sun", "time": "Closed"}], "id": "7262400000", "name": "USPS COLLECTION BOX - BLUE BOX", "address": {"city": "COMPTON", "state": "AR", "street": "1 W MAIN ST", "postcode": "72624"}}},
{"geometry": {"type": "Point", "coordinates": [-93.3085134021, 36.083708888]}, "type": "Feature", "properties": {"collection_times": [{"days": "Mon-Fri", "time": "1:45pm"}, {"days": "Sat", "time": "10:15am"}, {"days": "Sun", "time": "Closed"}], "id": "7262400001", "name": "USPS COLLECTION BOX - PO LOBBY", "address": {"city": "COMPTON", "state": "AR", "street": "1 W MAIN ST", "postcode": "72624"}}},
{"geometry": {"type": "Point", "coordinates": [-93.3085134021, 36.083708888]}, "type": "Feature", "properties": {"collection_times": [{"days": "Mon-Fri", "time": "1:45pm"}, {"days": "Sat", "time": "10:15am"}, {"days": "Sun", "time": "Closed"}], "id": "7262400002", "name": "USPS COLLECTION BOX - PO LOBBY", "address": {"city": "COMPTON", "state": "AR", "street": "1 W MAIN ST", "postcode": "72624"}}},
{"geometry": {"type": "Point", "coordinates": [-92.5383483691, 36.2665917303]}, "type": "Feature", "properties": {"collection_times": [{"days": "Mon-Fri", "time": "4:00pm"}, {"days": "Sat", "time": "10:00am"}, {"days": "Sun", "time": "Closed"}], "id": "7262600001", "name": "USPS COLLECTION BOX - BLUE BOX", "address": {"city": "COTTER", "state": "AR", "street": "510 SECOND ST", "postcode": "72626"}}},
{"geometry": {"type": "Point", "coordinates": [-92.5383483691, 36.2665917303]}, "type": "Feature", "properties": {"collection_times": [{"days": "Mon-Fri", "time": "3:00pm"}, {"days": "Sat", "time": "10:00am"}, {"days": "Sun", "time": "Closed"}], "id": "7262600002", "name": "USPS COLLECTION BOX - PO LOBBY", "address": {"city": "COTTER", "state": "AR", "street": "510 SECOND ST", "postcode": "72626"}}},
{"geometry": {"type": "Point", "coordinates": [-93.3392918678, 35.8187182754]}, "type": "Feature", "properties": {"collection_times": [{"days": "Mon-Fri", "time": "3:00pm"}, {"days": "Sat", "time": "12:00pm"}, {"days": "Sun", "time": "Closed"}], "id": "7262800001", "name": "USPS COLLECTION BOX - BLUE BOX", "address": {"city": "DEER", "state": "AR", "street": "312 HIGHWAY 16 W", "postcode": "72628"}}},
{"geometry": {"type": "Point", "coordinates": [-93.3392918678, 35.8187182754]}, "type": "Feature", "properties": {"collection_times": [{"days": "Mon-Fri", "time": "11:30am"}, {"days": "Sat", "time": "12:00pm"}, {"days": "Sun", "time": "Closed"}], "id": "7262800002", "name": "USPS COLLECTION BOX - PO LOBBY", "address": {"city": "DEER", "state": "AR", "street": "312 HIGHWAY 16 W", "postcode": "72628"}}},
{"geometry": {"type": "Point", "coordinates": [-92.5918211351, 35.7231846911]}, "type": "Feature", "properties": {"collection_times": [{"days": "Mon-Fri", "time": "3:30pm"}, {"days": "Sat", "time": "10:30am"}, {"days": "Sun", "time": "Closed"}], "id": "7262900000", "name": "USPS COLLECTION BOX - BLUE BOX", "address": {"city": "DENNARD", "state": "AR", "street": "120 POST OFFICE RD", "postcode": "72629"}}},
{"geometry": {"type": "Point", "coordinates": [-92.5918211351, 35.7231846911]}, "type": "Feature", "properties": {"collection_times": [{"days": "Mon-Fri", "time": "11:30am"}, {"days": "Sat", "time": "10:30am"}, {"days": "Sun", "time": "Closed"}], "id": "7262900001", "name": "USPS COLLECTION BOX - PO LOBBY", "address": {"city": "DENNARD", "state": "AR", "street": "120 POST OFFICE RD", "postcode": "72629"}}},
{"geometry": {"type": "Point", "coordinates": [-93.736600845, 36.4058143281]}, "type": "Feature", "properties": {"collection_times": [{"days": "Mon-Fri", "time": "4:10pm"}, {"days": "Sat", "time": "12:00pm"}, {"days": "Sun", "time": "Closed"}], "id": "7263200001", "name": "USPS COLLECTION BOX - BLUE BOX", "address": {"city": "EUREKA SPRINGS", "state": "AR", "street": "101 SPRING ST", "postcode": "72632"}}},
{"geometry": {"type": "Point", "coordinates": [-93.7396328534, 36.4005333373]}, "type": "Feature", "properties": {"collection_times": [{"days": "Mon-Sat", "time": "10:30am"}, {"days": "Sun", "time": "Closed"}], "id": "7263200003", "name": "USPS COLLECTION BOX - BLUE BOX", "address": {"city": "EUREKA SPRINGS", "state": "AR", "street": "70 S MAIN ST", "postcode": "72632"}}},
{"geometry": {"type": "Point", "coordinates": [-93.7404594513, 36.393741924]}, "type": "Feature", "properties": {"collection_times": [{"days": "Mon-Sat", "time": "11:00am"}, {"days": "Sun", "time": "Closed"}], "id": "7263200005", "name": "USPS COLLECTION BOX - BLUE BOX", "address": {"city": "EUREKA SPRINGS", "state": "AR", "street": "131 E VAN BUREN", "postcode": "72632"}}},
{"geometry": {"type": "Point", "coordinates": [-93.7426796035, 36.3938847322]}, "type": "Feature", "properties": {"collection_times": [{"days": "Mon-Sat", "time": "10:30am"}, {"days": "Sun", "time": "Closed"}], "id": "7263200006", "name": "USPS COLLECTION BOX - BLUE BOX", "address": {"city": "EUREKA SPRINGS", "state": "AR", "street": "137 W VAN BUREN", "postcode": "72632"}}},
{"geometry": {"type": "Point", "coordinates": [-93.7591718366, 36.4856826807]}, "type": "Feature", "properties": {"collection_times": [{"days": "Mon-Sat", "time": "10:30am"}, {"days": "Sun", "time": "Closed"}], "id": "7263200008", "name": "USPS COLLECTION BOX - BLUE BOX", "address": {"city": "EUREKA SPRINGS", "state": "AR", "street": "92 WOODSDALE DR", "postcode": "72632"}}},
{"geometry": {"type": "Point", "coordinates": [-93.7393601272, 36.3940148093]}, "type": "Feature", "properties": {"collection_times": [{"days": "Mon-Fri", "time": "11:00am"}, {"days": "Sat", "time": "11:45am"}, {"days": "Sun", "time": "Closed"}], "id": "7263200009", "name": "USPS COLLECTION BOX - BLUE BOX", "address": {"city": "EUREKA SPRINGS", "state": "AR", "street": "2075 E VAN BUREN", "postcode": "72632"}}},
{"geometry": {"type": "Point", "coordinates": [-93.7396136479, 36.3939257412]}, "type": "Feature", "properties": {"collection_times": [{"days": "Mon-Fri", "time": "11:00am"}, {"days": "Sat", "time": "11:45am"}, {"days": "Sun", "time": "Closed"}], "id": "7263200010", "name": "USPS COLLECTION BOX - BLUE BOX", "address": {"city": "EUREKA SPRINGS", "state": "AR", "street": "196 E VAN BUREN", "postcode": "72632"}}},
{"geometry": {"type": "Point", "coordinates": [-93.736600845, 36.4058143281]}, "type": "Feature", "properties": {"collection_times": [{"days": "Mon-Fri", "time": "4:10pm"}, {"days": "Sat", "time": "12:00pm"}, {"days": "Sun", "time": "Closed"}], "id": "7263200012", "name": "USPS COLLECTION BOX - PO LOBBY", "address": {"city": "EUREKA SPRINGS", "state": "AR", "street": "101 SPRING ST", "postcode": "72632"}}},
{"geometry": {"type": "Point", "coordinates": [-93.7406437428, 36.3712075769]}, "type": "Feature", "properties": {"collection_times": [{"days": "Mon-Fri", "time": "4:00pm"}, {"days": "Sat", "time": "12:00pm"}, {"days": "Sun", "time": "Closed"}], "id": "7263200017", "name": "USPS COLLECTION BOX - BLUE BOX", "address": {"city": "EUREKA SPRINGS", "state": "AR", "street": "7 PARKCLIFF DR", "postcode": "72632"}}},
{"geometry": {"type": "Point", "coordinates": [-93.7406437428, 36.3712075769]}, "type": "Feature", "properties": {"collection_times": [{"days": "Mon-Fri", "time": "4:00pm"}, {"days": "Sat", "time": "12:00pm"}, {"days": "Sun", "time": "Closed"}], "id": "7263200019", "name": "USPS COLLECTION BOX - PO LOBBY", "address": {"city": "EUREKA SPRINGS", "state": "AR", "street": "7 PARKCLIFF DR", "postcode": "72632"}}},
{"geometry": {"type": "Point", "coordinates": [-93.7406437428, 36.3712075769]}, "type": "Feature", "properties": {"collection_times": [{"days": "Mon-Fri", "time": "4:00pm"}, {"days": "Sat", "time": "12:00pm"}, {"days": "Sun", "time": "Closed"}], "id": "7263200020", "name": "USPS COLLECTION BOX - PO LOBBY", "address": {"city": "EUREKA SPRINGS", "state": "AR", "street": "7 PARKCLIFF DR", "postcode": "72632"}}},
{"geometry": {"type": "Point", "coordinates": [-93.7699756235, 36.4207828304]}, "type": "Feature", "properties": {"collection_times": [{"days": "Mon-Fri", "time": "1:30pm"}, {"days": "Sat", "time": "11:45am"}, {"days": "Sun", "time": "Closed"}], "id": "7263200021", "name": "USPS COLLECTION BOX - BLUE BOX", "address": {"city": "EUREKA SPRINGS", "state": "AR", "street": "14735 HIGHWAY 62 W", "postcode": "72632"}}},
{"geometry": {"type": "Point", "coordinates": [-93.7090692177, 36.3921460178]}, "type": "Feature", "properties": {"collection_times": [{"days": "Mon-Fri", "time": "12:30pm"}, {"days": "Sat", "time": "11:45am"}, {"days": "Sun", "time": "Closed"}], "id": "7263200022", "name": "USPS COLLECTION BOX - BLUE BOX", "address": {"city": "EUREKA SPRINGS", "state": "AR", "street": "105 PASSION PLAY RD", "postcode": "72632"}}},
{"geometry": {"type": "Point", "coordinates": [-92.9056782742, 36.1546183414]}, "type": "Feature", "properties": {"collection_times": [{"days": "Mon-Fri", "time": "2:15pm"}, {"days": "Sat", "time": "11:00am"}, {"days": "Sun", "time": "Closed"}], "id": "7263300001", "name": "USPS COLLECTION BOX - BLUE BOX", "address": {"city": "EVERTON", "state": "AR", "street": "12097 REICH ST", "postcode": "72633"}}},
{"geometry": {"type": "Point", "coordinates": [-92.9056782742, 36.1546183414]}, "type": "Feature", "properties": {"collection_times": [{"days": "Mon-Fri", "time": "3:30pm"}, {"days": "Sat", "time": "11:00am"}, {"days": "Sun", "time": "Closed"}], "id": "7263300002", "name": "USPS COLLECTION BOX - PO LOBBY", "address": {"city": "EVERTON", "state": "AR", "street": "12097 REICH ST", "postcode": "72633"}}},
{"geometry": {"type": "Point", "coordinates": [-92.9056782742, 36.1546183414]}, "type": "Feature", "properties": {"collection_times": [{"days": "Mon-Fri", "time": "3:30pm"}, {"days": "Sat", "time": "11:00am"}, {"days": "Sun", "time": "Closed"}], "id": "7263300003", "name": "USPS COLLECTION BOX - PO LOBBY", "address": {"city": "EVERTON", "state": "AR", "street": "12097 REICH ST", "postcode": "72633"}}},
{"geometry": {"type": "Point", "coordinates": [-92.5872845931, 36.2788719532]}, "type": "Feature", "properties": {"collection_times": [{"days": "Mon-Fri", "time": "4:00pm"}, {"days": "Sat", "time": "11:30am"}, {"days": "Sun", "time": "Closed"}], "id": "7263400005", "name": "USPS COLLECTION BOX - PO LOBBY", "address": {"city": "FLIPPIN", "state": "AR", "street": "210 N 8TH ST", "postcode": "72634"}}},
{"geometry": {"type": "Point", "coordinates": [-92.5872845931, 36.2788719532]}, "type": "Feature", "properties": {"collection_times": [{"days": "Mon-Fri", "time": "4:00pm"}, {"days": "Sat", "time": "11:30am"}, {"days": "Sun", "time": "Closed"}], "id": "7263400006", "name": "USPS COLLECTION BOX - PO LOBBY", "address": {"city": "FLIPPIN", "state": "AR", "street": "210 N 8TH ST", "postcode": "72634"}}},
{"geometry": {"type": "Point", "coordinates": [-92.5872845931, 36.2788719532]}, "type": "Feature", "properties": {"collection_times": [{"days": "Mon-Fri", "time": "4:00pm"}, {"days": "Sat", "time": "11:30am"}, {"days": "Sun", "time": "Closed"}], "id": "7263400007", "name": "USPS COLLECTION BOX - BLUE BOX", "address": {"city": "FLIPPIN", "state": "AR", "street": "210 N 8TH ST", "postcode": "72634"}}},
{"geometry": {"type": "Point", "coordinates": [-92.4817641792, 36.2884822804]}, "type": "Feature", "properties": {"collection_times": [{"days": "Mon-Fri", "time": "4:10pm"}, {"days": "Sat", "time": "11:00am"}, {"days": "Sun", "time": "Closed"}], "id": "7263500001", "name": "USPS COLLECTION BOX - BLUE BOX", "address": {"city": "GASSVILLE", "state": "AR", "street": "94 HIGHWAY 126 N", "postcode": "72635"}}},
{"geometry": {"type": "Point", "coordinates": [-92.4817888866, 36.2886401553]}, "type": "Feature", "properties": {"collection_times": [{"days": "Mon-Fri", "time": "4:10pm"}, {"days": "Sat", "time": "11:00am"}, {"days": "Sun", "time": "Closed"}], "id": "7263500002", "name": "USPS COLLECTION BOX - PO LOBBY", "address": {"city": "GASSVILLE", "state": "AR", "street": "94 HIGHWAY 126 N", "postcode": "72635"}}},
{"geometry": {"type": "Point", "coordinates": [-92.4817888866, 36.2886401553]}, "type": "Feature", "properties": {"collection_times": [{"days": "Mon-Fri", "time": "4:10pm"}, {"days": "Sat", "time": "11:00am"}, {"days": "Sun", "time": "Closed"}], "id": "7263500003", "name": "USPS COLLECTION BOX - PO LOBBY", "address": {"city": "GASSVILLE", "state": "AR", "street": "94 HIGHWAY 126 N", "postcode": "72635"}}},
{"geometry": {"type": "Point", "coordinates": [-92.7156411281, 35.9915581929]}, "type": "Feature", "properties": {"collection_times": [{"days": "Mon-Fri", "time": "11:15am"}, {"days": "Sat", "time": "9:00am"}, {"days": "Sun", "time": "Closed"}], "id": "7263600001", "name": "USPS COLLECTION BOX - BLUE BOX", "address": {"city": "GILBERT", "state": "AR", "street": "26 N FROST ST", "postcode": "72636"}}},
{"geometry": {"type": "Point", "coordinates": [-92.7156411281, 35.9915581929]}, "type": "Feature", "properties": {"collection_times": [{"days": "Mon-Fri", "time": "11:15am"}, {"days": "Sat", "time": "9:00am"}, {"days": "Sun", "time": "Closed"}], "id": "7263600002", "name": "USPS COLLECTION BOX - PO LOBBY", "address": {"city": "GILBERT", "state": "AR", "street": "26 N FROST ST", "postcode": "72636"}}},
{"geometry": {"type": "Point", "coordinates": [-93.4612546501, 36.3391807534]}, "type": "Feature", "properties": {"collection_times": [{"days": "Mon-Fri", "time": "4:30pm"}, {"days": "Sat", "time": "11:00am"}, {"days": "Sun", "time": "Closed"}], "id": "7263800001", "name": "USPS COLLECTION BOX - BLUE BOX", "address": {"city": "GREEN FOREST", "state": "AR", "street": "701 W MAIN ST", "postcode": "72638"}}},
{"geometry": {"type": "Point", "coordinates": [-93.4612546501, 36.3391807534]}, "type": "Feature", "properties": {"collection_times": [{"days": "Mon-Fri", "time": "4:30pm"}, {"days": "Sat", "time": "11:00am"}, {"days": "Sun", "time": "Closed"}], "id": "7263800002", "name": "USPS COLLECTION BOX - PO LOBBY", "address": {"city": "GREEN FOREST", "state": "AR", "street": "701 W MAIN ST", "postcode": "72638"}}},
{"geometry": {"type": "Point", "coordinates": [-93.4612546501, 36.3391807534]}, "type": "Feature", "properties": {"collection_times": [{"days": "Mon-Fri", "time": "4:30pm"}, {"days": "Sat", "time": "11:00am"}, {"days": "Sun", "time": "Closed"}], "id": "7263800004", "name": "USPS COLLECTION BOX - PO LOBBY", "address": {"city": "GREEN FOREST", "state": "AR", "street": "701 W MAIN ST", "postcode": "72638"}}},
{"geometry": {"type": "Point", "coordinates": [-93.4342087442, 36.3353316854]}, "type": "Feature", "properties": {"collection_times": [{"days": "Mon-Sat", "time": "2:00pm"}, {"days": "Sun", "time": "Closed"}], "id": "7263800005", "name": "USPS COLLECTION BOX - BLUE BOX", "address": {"city": "GREEN FOREST", "state": "AR", "street": "201 E MAIN ST", "postcode": "72638"}}},
{"geometry": {"type": "Point", "coordinates": [-92.4927014895, 35.9848222512]}, "type": "Feature", "properties": {"collection_times": [{"days": "Mon-Sat", "time": "11:30am"}, {"days": "Sun", "time": "Closed"}], "id": "7263900001", "name": "USPS COLLECTION BOX - PO LOBBY", "address": {"city": "HARRIET", "state": "AR", "street": "100 E HIGHWAY 14", "postcode": "72639"}}},
{"geometry": {"type": "Point", "coordinates": [-93.0438325205, 36.0148562255]}, "type": "Feature", "properties": {"collection_times": [{"days": "Mon-Fri", "time": "2:45pm"}, {"days": "Sat", "time": "9:15am"}, {"days": "Sun", "time": "Closed"}], "id": "7264000000", "name": "USPS COLLECTION BOX - BLUE BOX", "address": {"city": "HASTY", "state": "AR", "street": "100 HASTY MOUNTAIN RD", "postcode": "72640"}}},
{"geometry": {"type": "Point", "coordinates": [-93.0438325205, 36.0148562255]}, "type": "Feature", "properties": {"collection_times": [{"days": "Mon-Fri", "time": "9:30am"}, {"days": "Sat", "time": "9:15am"}, {"days": "Sun", "time": "Closed"}], "id": "7264000001", "name": "USPS COLLECTION BOX - PO LOBBY", "address": {"city": "HASTY", "state": "AR", "street": "100 HASTY MOUNTAIN RD", "postcode": "72640"}}},
{"geometry": {"type": "Point", "coordinates": [-93.189228209, 36.0075797648]}, "type": "Feature", "properties": {"collection_times": [{"days": "Mon-Fri", "time": "3:40pm"}, {"days": "Sat", "time": "10:30am"}, {"days": "Sun", "time": "Closed"}], "id": "7264100001", "name": "USPS COLLECTION BOX - BLUE BOX", "address": {"city": "JASPER", "state": "AR", "street": "412 W COURT ST", "postcode": "72641"}}},
{"geometry": {"type": "Point", "coordinates": [-93.189228209, 36.0075797648]}, "type": "Feature", "properties": {"collection_times": [{"days": "Mon-Fri", "time": "3:40pm"}, {"days": "Sat", "time": "10:30am"}, {"days": "Sun", "time": "Closed"}], "id": "7264100002", "name": "USPS COLLECTION BOX - PO LOBBY", "address": {"city": "JASPER", "state": "AR", "street": "412 W COURT ST", "postcode": "72641"}}},
{"geometry": {"type": "Point", "coordinates": [-93.189228209, 36.0075797648]}, "type": "Feature", "properties": {"collection_times": [{"days": "Mon-Fri", "time": "3:40pm"}, {"days": "Sat", "time": "10:30am"}, {"days": "Sun", "time": "Closed"}], "id": "7264100004", "name": "USPS COLLECTION BOX - PO LOBBY", "address": {"city": "JASPER", "state": "AR", "street": "412 W COURT ST", "postcode": "72641"}}},
{"geometry": {"type": "Point", "coordinates": [-92.5448477356, 36.3688275426]}, "type": "Feature", "properties": {"collection_times": [{"days": "Mon-Fri", "time": "3:30pm"}, {"days": "Sat", "time": "10:10am"}, {"days": "Sun", "time": "Closed"}], "id": "7264200001", "name": "USPS COLLECTION BOX - BLUE BOX", "address": {"city": "LAKEVIEW", "state": "AR", "street": "5774 HIGHWAY 178 W", "postcode": "72642"}}},
{"geometry": {"type": "Point", "coordinates": [-92.5448477356, 36.3688275426]}, "type": "Feature", "properties": {"collection_times": [{"days": "Mon-Fri", "time": "3:15pm"}, {"days": "Sat", "time": "10:10am"}, {"days": "Sun", "time": "Closed"}], "id": "7264200002", "name": "USPS COLLECTION BOX - PO LOBBY", "address": {"city": "LAKEVIEW", "state": "AR", "street": "5774 HIGHWAY 178 W", "postcode": "72642"}}},
{"geometry": {"type": "Point", "coordinates": [-92.5448477356, 36.3688275426]}, "type": "Feature", "properties": {"collection_times": [{"days": "Mon-Fri", "time": "3:15pm"}, {"days": "Sat", "time": "10:10am"}, {"days": "Sun", "time": "Closed"}], "id": "7264200003", "name": "USPS COLLECTION BOX - PO LOBBY", "address": {"city": "LAKEVIEW", "state": "AR", "street": "5774 HIGHWAY 178 W", "postcode": "72642"}}},
{"geometry": {"type": "Point", "coordinates": [-93.0256069488, 36.4492175801]}, "type": "Feature", "properties": {"collection_times": [{"days": "Mon-Fri", "time": "3:45pm"}, {"days": "Sat", "time": "10:00am"}, {"days": "Sun", "time": "Closed"}], "id": "7264400000", "name": "USPS COLLECTION BOX - BLUE BOX", "address": {"city": "LEAD HILL", "state": "AR", "street": "165 HIGHWAY 14", "postcode": "72644"}}},
{"geometry": {"type": "Point", "coordinates": [-93.0256069488, 36.4492175801]}, "type": "Feature", "properties": {"collection_times": [{"days": "Mon-Fri", "time": "4:00pm"}, {"days": "Sat", "time": "10:00am"}, {"days": "Sun", "time": "Closed"}], "id": "7264400001", "name": "USPS COLLECTION BOX - PO LOBBY", "address": {"city": "LEAD HILL", "state": "AR", "street": "165 HIGHWAY 14", "postcode": "72644"}}},
{"geometry": {"type": "Point", "coordinates": [-93.0256069488, 36.4492175801]}, "type": "Feature", "properties": {"collection_times": [{"days": "Mon-Fri", "time": "4:00pm"}, {"days": "Sat", "time": "10:00am"}, {"days": "Sun", "time": "Closed"}], "id": "7264400002", "name": "USPS COLLECTION BOX - PO LOBBY", "address": {"city": "LEAD HILL", "state": "AR", "street": "165 HIGHWAY 14", "postcode": "72644"}}},
{"geometry": {"type": "Point", "coordinates": [-92.9167656847, 36.4654092131]}, "type": "Feature", "properties": {"collection_times": [{"days": "Mon-Fri", "time": "10:00am"}, {"days": "Sat", "time": "9:30am"}, {"days": "Sun", "time": "Closed"}], "id": "7264400005", "name": "USPS COLLECTION BOX - BLUE BOX", "address": {"city": "LEAD HILL", "state": "AR", "street": "230 GRAND AVE", "postcode": "72644"}}},
{"geometry": {"type": "Point", "coordinates": [-92.5601980839, 35.8294987229]}, "type": "Feature", "properties": {"collection_times": [{"days": "Mon-Fri", "time": "4:00pm"}, {"days": "Sat", "time": "10:45am"}, {"days": "Sun", "time": "Closed"}], "id": "7264500000", "name": "USPS COLLECTION BOX - BLUE BOX", "address": {"city": "LESLIE", "state": "AR", "street": "311 MAIN ST", "postcode": "72645"}}},
{"geometry": {"type": "Point", "coordinates": [-92.5601980839, 35.8294987229]}, "type": "Feature", "properties": {"collection_times": [{"days": "Mon-Fri", "time": "2:00pm"}, {"days": "Sat", "time": "10:45am"}, {"days": "Sun", "time": "Closed"}], "id": "7264500001", "name": "USPS COLLECTION BOX - PO LOBBY", "address": {"city": "LESLIE", "state": "AR", "street": "311 MAIN ST", "postcode": "72645"}}},
{"geometry": {"type": "Point", "coordinates": [-93.1510676901, 36.083841021]}, "type": "Feature", "properties": {"collection_times": [{"days": "Mon-Fri", "time": "4:00pm"}, {"days": "Sat", "time": "9:30am"}, {"days": "Sun", "time": "Closed"}], "id": "7264800000", "name": "USPS COLLECTION BOX - BLUE BOX", "address": {"city": "MARBLE FALLS", "state": "AR", "street": "5 DOGPATCH BLVD", "postcode": "72648"}}},
{"geometry": {"type": "Point", "coordinates": [-93.1510676901, 36.083841021]}, "type": "Feature", "properties": {"collection_times": [{"days": "Mon-Fri", "time": "10:30am"}, {"days": "Sat", "time": "9:30am"}, {"days": "Sun", "time": "Closed"}], "id": "7264800001", "name": "USPS COLLECTION BOX - PO LOBBY", "address": {"city": "MARBLE FALLS", "state": "AR", "street": "5 DOGPATCH BLVD", "postcode": "72648"}}},
{"geometry": {"type": "Point", "coordinates": [-93.1510676901, 36.083841021]}, "type": "Feature", "properties": {"collection_times": [{"days": "Mon-Fri", "time": "10:30am"}, {"days": "Sat", "time": "9:30am"}, {"days": "Sun", "time": "Closed"}], "id": "7264800002", "name": "USPS COLLECTION BOX - PO LOBBY", "address": {"city": "MARBLE FALLS", "state": "AR", "street": "5 DOGPATCH BLVD", "postcode": "72648"}}},
{"geometry": {"type": "Point", "coordinates": [-92.6323192209, 35.9093727913]}, "type": "Feature", "properties": {"collection_times": [{"days": "Mon-Fri", "time": "4:30pm"}, {"days": "Sat", "time": "11:15am"}, {"days": "Sun", "time": "Closed"}], "id": "7265000000", "name": "USPS COLLECTION BOX - BLUE BOX", "address": {"city": "MARSHALL", "state": "AR", "street": "200 S GLADE ST", "postcode": "72650"}}},
{"geometry": {"type": "Point", "coordinates": [-92.6323192209, 35.9093727913]}, "type": "Feature", "properties": {"collection_times": [{"days": "Mon-Fri", "time": "4:30pm"}, {"days": "Sat", "time": "11:15am"}, {"days": "Sun", "time": "Closed"}], "id": "7265000001", "name": "USPS COLLECTION BOX - PO LOBBY", "address": {"city": "MARSHALL", "state": "AR", "street": "200 S GLADE ST", "postcode": "72650"}}},
{"geometry": {"type": "Point", "coordinates": [-92.6323192209, 35.9093727913]}, "type": "Feature", "properties": {"collection_times": [{"days": "Mon-Fri", "time": "4:30pm"}, {"days": "Sat", "time": "11:15am"}, {"days": "Sun", "time": "Closed"}], "id": "7265000002", "name": "USPS COLLECTION BOX - PO LOBBY", "address": {"city": "MARSHALL", "state": "AR", "street": "200 S GLADE ST", "postcode": "72650"}}},
{"geometry": {"type": "Point", "coordinates": [-92.4659831595, 36.3858650036]}, "type": "Feature", "properties": {"collection_times": [{"days": "Mon-Fri", "time": "3:15pm"}, {"days": "Sat", "time": "10:15am"}, {"days": "Sun", "time": "Closed"}], "id": "7265100001", "name": "USPS COLLECTION BOX - BLUE BOX", "address": {"city": "MIDWAY", "state": "AR", "street": "323 HIGHWAY 178 W", "postcode": "72651"}}},
{"geometry": {"type": "Point", "coordinates": [-92.4659831595, 36.3858650036]}, "type": "Feature", "properties": {"collection_times": [{"days": "Mon-Fri", "time": "3:15pm"}, {"days": "Sat", "time": "10:15am"}, {"days": "Sun", "time": "Closed"}], "id": "7265100002", "name": "USPS COLLECTION BOX - PO LOBBY", "address": {"city": "MIDWAY", "state": "AR", "street": "323 HIGHWAY 178 W", "postcode": "72651"}}},
{"geometry": {"type": "Point", "coordinates": [-92.4659831595, 36.3858650036]}, "type": "Feature", "properties": {"collection_times": [{"days": "Mon-Fri", "time": "3:15pm"}, {"days": "Sat", "time": "10:15am"}, {"days": "Sun", "time": "Closed"}], "id": "7265100004", "name": "USPS COLLECTION BOX - PO LOBBY", "address": {"city": "MIDWAY", "state": "AR", "street": "323 HIGHWAY 178 W", "postcode": "72651"}}},
{"geometry": {"type": "Point", "coordinates": [-92.1852676354, 34.2957035725]}, "type": "Feature", "properties": {"collection_times": [{"days": "Mon-Sat", "time": "1:45pm"}, {"days": "Sun", "time": "Closed"}], "id": "7265100006", "name": "USPS COLLECTION BOX - BLUE BOX", "address": {"city": "MIDWAY", "state": "AR", "street": "6132 HIGHWAY 5 N", "postcode": "72651"}}},
{"geometry": {"type": "Point", "coordinates": [-92.372988315, 36.3507272607]}, "type": "Feature", "properties": {"collection_times": [{"days": "Mon-Fri", "time": "4:15pm"}, {"days": "Sat", "time": "3:15pm"}, {"days": "Sun", "time": "Closed"}], "id": "7265300001", "name": "USPS COLLECTION BOX - PO LOBBY", "address": {"city": "MOUNTAIN HOME", "state": "AR", "street": "975 COLEY DR", "postcode": "72653"}}},
{"geometry": {"type": "Point", "coordinates": [-92.3953719308, 36.342772499]}, "type": "Feature", "properties": {"collection_times": [{"days": "Mon-Sat", "time": "9:00am"}, {"days": "Sun", "time": "Closed"}], "id": "7265300004", "name": "USPS COLLECTION BOX - BLUE BOX", "address": {"city": "MOUNTAIN HOME", "state": "AR", "street": "624 HOSPITAL DR", "postcode": "72653"}}},
{"geometry": {"type": "Point", "coordinates": [-92.3953759343, 36.3427364674]}, "type": "Feature", "properties": {"collection_times": [{"days": "Mon-Sat", "time": "9:00am"}, {"days": "Sun", "time": "Closed"}], "id": "7265300010", "name": "USPS COLLECTION BOX - BLUE BOX", "address": {"city": "MOUNTAIN HOME", "state": "AR", "street": "628 HOSPITAL DR", "postcode": "72653"}}},
{"geometry": {"type": "Point", "coordinates": [-92.3853185586, 36.3376139324]}, "type": "Feature", "properties": {"collection_times": [{"days": "Mon-Fri", "time": "2:30pm"}, {"days": "Sat", "time": "2:00pm"}, {"days": "Sun", "time": "Closed"}], "id": "7265300018", "name": "USPS COLLECTION BOX - BLUE BOX", "address": {"city": "MOUNTAIN HOME", "state": "AR", "street": "307 S MAIN ST", "postcode": "72653"}}},
{"geometry": {"type": "Point", "coordinates": [-92.3729883152, 36.3507272605]}, "type": "Feature", "properties": {"collection_times": [{"days": "Mon-Fri", "time": "4:15pm"}, {"days": "Sat", "time": "3:15pm"}, {"days": "Sun", "time": "Closed"}], "id": "7265300022", "name": "USPS COLLECTION BOX - BLUE BOX", "address": {"city": "MOUNTAIN HOME", "state": "AR", "street": "975 COLEY DR", "postcode": "72653"}}},
{"geometry": {"type": "Point", "coordinates": [-92.375455287, 36.350841348]}, "type": "Feature", "properties": {"collection_times": [{"days": "Mon-Fri", "time": "4:15pm"}, {"days": "Sat", "time": "3:15pm"}, {"days": "Sun", "time": "Closed"}], "id": "7265300023", "name": "USPS COLLECTION BOX - BLUE BOX", "address": {"city": "MOUNTAIN HOME", "state": "AR", "street": "975 COLEY DR", "postcode": "72653"}}},
{"geometry": {"type": "Point", "coordinates": [-92.372988315, 36.3507272607]}, "type": "Feature", "properties": {"collection_times": [{"days": "Mon-Fri", "time": "4:15pm"}, {"days": "Sat", "time": "3:15pm"}, {"days": "Sun", "time": "Closed"}], "id": "7265300024", "name": "USPS COLLECTION BOX - BLUE BOX", "address": {"city": "MOUNTAIN HOME", "state": "AR", "street": "975 COLEY DR", "postcode": "72653"}}},
{"geometry": {"type": "Point", "coordinates": [-92.372988315, 36.3507272607]}, "type": "Feature", "properties": {"collection_times": [{"days": "Mon-Fri", "time": "4:15pm"}, {"days": "Sat", "time": "3:15pm"}, {"days": "Sun", "time": "Closed"}], "id": "7265300030", "name": "USPS COLLECTION BOX - BLUE BOX", "address": {"city": "MOUNTAIN HOME", "state": "AR", "street": "975 COLEY DR", "postcode": "72653"}}},
{"geometry": {"type": "Point", "coordinates": [-92.3839401967, 36.334794865]}, "type": "Feature", "properties": {"collection_times": [{"days": "Mon-Fri", "time": "2:30pm"}, {"days": "Sat", "time": "2:00pm"}, {"days": "Sun", "time": "Closed"}], "id": "7265300035", "name": "USPS COLLECTION BOX - BLUE BOX", "address": {"city": "MOUNTAIN HOME", "state": "AR", "street": "100 E 7TH ST", "postcode": "72653"}}},
{"geometry": {"type": "Point", "coordinates": [-92.3839401967, 36.334794865]}, "type": "Feature", "properties": {"collection_times": [{"days": "Mon-Fri", "time": "2:30pm"}, {"days": "Sat", "time": "2:00pm"}, {"days": "Sun", "time": "Closed"}], "id": "7265300036", "name": "USPS COLLECTION BOX - BLUE BOX", "address": {"city": "MOUNTAIN HOME", "state": "AR", "street": "100 E 7TH ST", "postcode": "72653"}}},
{"geometry": {"type": "Point", "coordinates": [-92.3867777046, 36.3423770076]}, "type": "Feature", "properties": {"collection_times": [{"days": "Mon-Sat", "time": "9:00am"}, {"days": "Sun", "time": "Closed"}], "id": "7265300037", "name": "USPS COLLECTION BOX - BLUE BOX", "address": {"city": "MOUNTAIN HOME", "state": "AR", "street": "65 WAL MART DR", "postcode": "72653"}}},
{"geometry": {"type": "Point", "coordinates": [-92.3822851952, 36.3198558221]}, "type": "Feature", "properties": {"collection_times": [{"days": "Mon-Fri", "time": "9:00am"}, {"days": "Sat-Sun", "time": "Closed"}], "id": "7265300038", "name": "USPS COLLECTION BOX - BLUE BOX", "address": {"city": "MOUNTAIN HOME", "state": "AR", "street": "1600 S COLLEGE ST", "postcode": "72653"}}},
{"geometry": {"type": "Point", "coordinates": [-92.372988315, 36.3507272607]}, "type": "Feature", "properties": {"collection_times": [{"days": "Mon-Fri", "time": "4:15pm"}, {"days": "Sat", "time": "3:15pm"}, {"days": "Sun", "time": "Closed"}], "id": "7265300039", "name": "USPS COLLECTION BOX - APC", "address": {"city": "MOUNTAIN HOME", "state": "AR", "street": "975 COLEY DR", "postcode": "72653"}}},
{"geometry": {"type": "Point", "coordinates": [-92.372988315, 36.3507272607]}, "type": "Feature", "properties": {"collection_times": [{"days": "Mon-Fri", "time": "4:15pm"}, {"days": "Sat", "time": "3:15pm"}, {"days": "Sun", "time": "Closed"}], "id": "7265300040", "name": "USPS COLLECTION BOX - PO LOBBY", "address": {"city": "MOUNTAIN HOME", "state": "AR", "street": "975 COLEY DR", "postcode": "72653"}}},
{"geometry": {"type": "Point", "coordinates": [-93.046235068, 35.8315294938]}, "type": "Feature", "properties": {"collection_times": [{"days": "Mon-Fri", "time": "12:00pm"}, {"days": "Sat", "time": "10:00am"}, {"days": "Sun", "time": "Closed"}], "id": "7265500001", "name": "USPS COLLECTION BOX - PO LOBBY", "address": {"city": "MOUNT JUDEA", "state": "AR", "street": "1 S MAIN ST", "postcode": "72655"}}},
{"geometry": {"type": "Point", "coordinates": [-92.2628050568, 36.2027984323]}, "type": "Feature", "properties": {"collection_times": [{"days": "Mon-Fri", "time": "3:30pm"}, {"days": "Sat", "time": "11:30am"}, {"days": "Sun", "time": "Closed"}], "id": "7265800001", "name": "USPS COLLECTION BOX - BLUE BOX", "address": {"city": "NORFORK", "state": "AR", "street": "13862 HIGHWAY 5 S", "postcode": "72658"}}},
{"geometry": {"type": "Point", "coordinates": [-92.2628050568, 36.2027984323]}, "type": "Feature", "properties": {"collection_times": [{"days": "Mon-Fri", "time": "3:30pm"}, {"days": "Sat", "time": "11:30am"}, {"days": "Sun", "time": "Closed"}], "id": "7265800002", "name": "USPS COLLECTION BOX - PO LOBBY", "address": {"city": "NORFORK", "state": "AR", "street": "13862 HIGHWAY 5 S", "postcode": "72658"}}},
{"geometry": {"type": "Point", "coordinates": [-92.2628050568, 36.2027984323]}, "type": "Feature", "properties": {"collection_times": [{"days": "Mon-Fri", "time": "3:30pm"}, {"days": "Sat", "time": "11:30am"}, {"days": "Sun", "time": "Closed"}], "id": "7265800003", "name": "USPS COLLECTION BOX - PO LOBBY", "address": {"city": "NORFORK", "state": "AR", "street": "13862 HIGHWAY 5 S", "postcode": "72658"}}},
{"geometry": {"type": "Point", "coordinates": [-93.4626028531, 36.4532771957]}, "type": "Feature", "properties": {"collection_times": [{"days": "Mon-Fri", "time": "12:00pm"}, {"days": "Sat", "time": "11:45am"}, {"days": "Sun", "time": "Closed"}], "id": "7266000001", "name": "USPS COLLECTION BOX - BLUE BOX", "address": {"city": "OAKGROVE", "state": "AR", "street": "10516 HIGHWAY 21 N", "postcode": "72660"}}},
{"geometry": {"type": "Point", "coordinates": [-93.4626028531, 36.4532771957]}, "type": "Feature", "properties": {"collection_times": [{"days": "Mon-Fri", "time": "12:00pm"}, {"days": "Sat", "time": "11:45am"}, {"days": "Sun", "time": "Closed"}], "id": "7266000002", "name": "USPS COLLECTION BOX - PO LOBBY", "address": {"city": "OAKGROVE", "state": "AR", "street": "10516 HIGHWAY 21 N", "postcode": "72660"}}},
{"geometry": {"type": "Point", "coordinates": [-92.5851338647, 36.4569274898]}, "type": "Feature", "properties": {"collection_times": [{"days": "Mon-Fri", "time": "12:00pm"}, {"days": "Sat", "time": "10:30am"}, {"days": "Sun", "time": "Closed"}], "id": "7266100000", "name": "USPS COLLECTION BOX - BLUE BOX", "address": {"city": "OAKLAND", "state": "AR", "street": "6093 OAKLAND RD", "postcode": "72661"}}},
{"geometry": {"type": "Point", "coordinates": [-92.5851338647, 36.4569274898]}, "type": "Feature", "properties": {"collection_times": [{"days": "Mon-Fri", "time": "12:00pm"}, {"days": "Sat", "time": "10:30am"}, {"days": "Sun", "time": "Closed"}], "id": "7266100001", "name": "USPS COLLECTION BOX - PO LOBBY", "address": {"city": "OAKLAND", "state": "AR", "street": "6093 OAKLAND RD", "postcode": "72661"}}},
{"geometry": {"type": "Point", "coordinates": [-92.5851338647, 36.4569274898]}, "type": "Feature", "properties": {"collection_times": [{"days": "Mon-Fri", "time": "12:00pm"}, {"days": "Sat", "time": "10:30am"}, {"days": "Sun", "time": "Closed"}], "id": "7266100002", "name": "USPS COLLECTION BOX - PO LOBBY", "address": {"city": "OAKLAND", "state": "AR", "street": "6093 OAKLAND RD", "postcode": "72661"}}},
{"geometry": {"type": "Point", "coordinates": [-93.1899495386, 36.4503007952]}, "type": "Feature", "properties": {"collection_times": [{"days": "Mon-Fri", "time": "4:00pm"}, {"days": "Sat", "time": "12:30pm"}, {"days": "Sun", "time": "Closed"}], "id": "7266200000", "name": "USPS COLLECTION BOX - BLUE BOX", "address": {"city": "OMAHA", "state": "AR", "street": "23620 OLD HIGHWAY 65", "postcode": "72662"}}},
{"geometry": {"type": "Point", "coordinates": [-93.1899495386, 36.4503007952]}, "type": "Feature", "properties": {"collection_times": [{"days": "Mon-Fri", "time": "4:00pm"}, {"days": "Sat", "time": "12:30pm"}, {"days": "Sun", "time": "Closed"}], "id": "7266200001", "name": "USPS COLLECTION BOX - PO LOBBY", "address": {"city": "OMAHA", "state": "AR", "street": "23620 OLD HIGHWAY 65", "postcode": "72662"}}},
{"geometry": {"type": "Point", "coordinates": [-92.3328476881, 35.9205445078]}, "type": "Feature", "properties": {"collection_times": [{"days": "Mon-Fri", "time": "2:15pm"}, {"days": "Sat", "time": "1:15pm"}, {"days": "Sun", "time": "Closed"}], "id": "7266300000", "name": "USPS COLLECTION BOX - BLUE BOX", "address": {"city": "ONIA", "state": "AR", "street": "27284 HIGHWAY 263", "postcode": "72663"}}},
{"geometry": {"type": "Point", "coordinates": [-92.3328476881, 35.9205445078]}, "type": "Feature", "properties": {"collection_times": [{"days": "Mon-Fri", "time": "2:15pm"}, {"days": "Sat", "time": "1:15pm"}, {"days": "Sun", "time": "Closed"}], "id": "7266300001", "name": "USPS COLLECTION BOX - PO LOBBY", "address": {"city": "ONIA", "state": "AR", "street": "27284 HIGHWAY 263", "postcode": "72663"}}},
{"geometry": {"type": "Point", "coordinates": [-93.2066109177, 35.9451372602]}, "type": "Feature", "properties": {"collection_times": [{"days": "Mon-Fri", "time": "2:15pm"}, {"days": "Sat", "time": "1:30pm"}, {"days": "Sun", "time": "Closed"}], "id": "7266600000", "name": "USPS COLLECTION BOX - BLUE BOX", "address": {"city": "PARTHENON", "state": "AR", "street": "100 COUNTY ROAD 22", "postcode": "72666"}}},
{"geometry": {"type": "Point", "coordinates": [-93.2066109177, 35.9451372602]}, "type": "Feature", "properties": {"collection_times": [{"days": "Mon-Fri", "time": "2:15pm"}, {"days": "Sat", "time": "1:30pm"}, {"days": "Sun", "time": "Closed"}], "id": "7266600001", "name": "USPS COLLECTION BOX - PO LOBBY", "address": {"city": "PARTHENON", "state": "AR", "street": "100 COUNTY ROAD 22", "postcode": "72666"}}},
{"geometry": {"type": "Point", "coordinates": [-92.7745804959, 36.4533953518]}, "type": "Feature", "properties": {"collection_times": [{"days": "Mon-Sat", "time": "11:45am"}, {"days": "Sun", "time": "Closed"}], "id": "7266800000", "name": "USPS COLLECTION BOX - BLUE BOX", "address": {"city": "PEEL", "state": "AR", "street": "7576 HIGHWAY 125 NW", "postcode": "72668"}}},
{"geometry": {"type": "Point", "coordinates": [-92.7745804959, 36.4533953518]}, "type": "Feature", "properties": {"collection_times": [{"days": "Mon-Sat", "time": "11:45am"}, {"days": "Sun", "time": "Closed"}], "id": "7266800001", "name": "USPS COLLECTION BOX - PO LOBBY", "address": {"city": "PEEL", "state": "AR", "street": "7576 HIGHWAY 125 NW", "postcode": "72668"}}},
{"geometry": {"type": "Point", "coordinates": [-92.8913595561, 36.0722772518]}, "type": "Feature", "properties": {"collection_times": [{"days": "Mon-Fri", "time": "3:30pm"}, {"days": "Sat", "time": "10:45am"}, {"days": "Sun", "time": "Closed"}], "id": "7266900000", "name": "USPS COLLECTION BOX - BLUE BOX", "address": {"city": "PINDALL", "state": "AR", "street": "21838 N HIGHWAY 65", "postcode": "72669"}}},
{"geometry": {"type": "Point", "coordinates": [-92.8913595561, 36.0722772518]}, "type": "Feature", "properties": {"collection_times": [{"days": "Mon-Fri", "time": "3:30pm"}, {"days": "Sat", "time": "10:45am"}, {"days": "Sun", "time": "Closed"}], "id": "7266900001", "name": "USPS COLLECTION BOX - PO LOBBY", "address": {"city": "PINDALL", "state": "AR", "street": "21838 N HIGHWAY 65", "postcode": "72669"}}},
{"geometry": {"type": "Point", "coordinates": [-93.3968421855, 36.0485259888]}, "type": "Feature", "properties": {"collection_times": [{"days": "Mon-Sat", "time": "11:45am"}, {"days": "Sun", "time": "Closed"}], "id": "7267000000", "name": "USPS COLLECTION BOX - BLUE BOX", "address": {"city": "PONCA", "state": "AR", "street": "1 MAIN ST", "postcode": "72670"}}},
{"geometry": {"type": "Point", "coordinates": [-93.3968421855, 36.0485259888]}, "type": "Feature", "properties": {"collection_times": [{"days": "Mon-Sat", "time": "11:45am"}, {"days": "Sun", "time": "Closed"}], "id": "7267000001", "name": "USPS COLLECTION BOX - PO LOBBY", "address": {"city": "PONCA", "state": "AR", "street": "1 MAIN ST", "postcode": "72670"}}},
{"geometry": {"type": "Point", "coordinates": [-92.8441852313, 36.2528703932]}, "type": "Feature", "properties": {"collection_times": [{"days": "Mon-Fri", "time": "4:15pm"}, {"days": "Sat", "time": "10:00am"}, {"days": "Sun", "time": "Closed"}], "id": "7267200001", "name": "USPS COLLECTION BOX - BLUE BOX", "address": {"city": "PYATT", "state": "AR", "street": "676 FOSTER ST", "postcode": "72672"}}},
{"geometry": {"type": "Point", "coordinates": [-92.8441852313, 36.2528703932]}, "type": "Feature", "properties": {"collection_times": [{"days": "Mon-Fri", "time": "12:00pm"}, {"days": "Sat", "time": "10:00am"}, {"days": "Sun", "time": "Closed"}], "id": "7267200002", "name": "USPS COLLECTION BOX - PO LOBBY", "address": {"city": "PYATT", "state": "AR", "street": "676 FOSTER ST", "postcode": "72672"}}},
{"geometry": {"type": "Point", "coordinates": [-92.8532583644, 35.9333827298]}, "type": "Feature", "properties": {"collection_times": [{"days": "Mon-Fri", "time": "3:15pm"}, {"days": "Sat", "time": "10:45am"}, {"days": "Sun", "time": "Closed"}], "id": "7267500000", "name": "USPS COLLECTION BOX - BLUE BOX", "address": {"city": "SAINT JOE", "state": "AR", "street": "1 HIGHWAY 65 S", "postcode": "72675"}}},
{"geometry": {"type": "Point", "coordinates": [-92.8532583644, 35.9333827298]}, "type": "Feature", "properties": {"collection_times": [{"days": "Mon-Fri", "time": "10:30am"}, {"days": "Sat", "time": "10:45am"}, {"days": "Sun", "time": "Closed"}], "id": "7267500001", "name": "USPS COLLECTION BOX - PO LOBBY", "address": {"city": "SAINT JOE", "state": "AR", "street": "1 HIGHWAY 65 S", "postcode": "72675"}}},
{"geometry": {"type": "Point", "coordinates": [-92.6908100685, 36.2498270717]}, "type": "Feature", "properties": {"collection_times": [{"days": "Mon-Fri", "time": "2:00pm"}, {"days": "Sat", "time": "10:30am"}, {"days": "Sun", "time": "Closed"}], "id": "7267700000", "name": "USPS COLLECTION BOX - PO LOBBY", "address": {"city": "SUMMIT", "state": "AR", "street": "112 S MAIN ST", "postcode": "72677"}}},
{"geometry": {"type": "Point", "coordinates": [-92.6908100685, 36.2498270717]}, "type": "Feature", "properties": {"collection_times": [{"days": "Mon-Fri", "time": "2:00pm"}, {"days": "Sat", "time": "10:30am"}, {"days": "Sun", "time": "Closed"}], "id": "7267700001", "name": "USPS COLLECTION BOX - PO LOBBY", "address": {"city": "SUMMIT", "state": "AR", "street": "112 S MAIN ST", "postcode": "72677"}}},
{"geometry": {"type": "Point", "coordinates": [-92.830952262, 35.7212456856]}, "type": "Feature", "properties": {"collection_times": [{"days": "Mon-Fri", "time": "12:30pm"}, {"days": "Sat", "time": "12:15pm"}, {"days": "Sun", "time": "Closed"}], "id": "7267900001", "name": "USPS COLLECTION BOX - BLUE BOX", "address": {"city": "TILLY", "state": "AR", "street": "36386 HIGHWAY 27", "postcode": "72679"}}},
{"geometry": {"type": "Point", "coordinates": [-92.830952262, 35.7212456856]}, "type": "Feature", "properties": {"collection_times": [{"days": "Mon-Fri", "time": "12:30pm"}, {"days": "Sat", "time": "12:15pm"}, {"days": "Sun", "time": "Closed"}], "id": "7267900002", "name": "USPS COLLECTION BOX - PO LOBBY", "address": {"city": "TILLY", "state": "AR", "street": "36386 HIGHWAY 27", "postcode": "72679"}}},
{"geometry": {"type": "Point", "coordinates": [-92.3082409713, 35.8800436189]}, "type": "Feature", "properties": {"collection_times": [{"days": "Mon-Sat", "time": "11:15am"}, {"days": "Sun", "time": "Closed"}], "id": "7268000000", "name": "USPS COLLECTION BOX - BLUE BOX", "address": {"city": "TIMBO", "state": "AR", "street": "7127 HIGHWAY 66", "postcode": "72680"}}},
{"geometry": {"type": "Point", "coordinates": [-92.3082409713, 35.8800436189]}, "type": "Feature", "properties": {"collection_times": [{"days": "Mon-Sat", "time": "11:15am"}, {"days": "Sun", "time": "Closed"}], "id": "7268000001", "name": "USPS COLLECTION BOX - PO LOBBY", "address": {"city": "TIMBO", "state": "AR", "street": "7127 HIGHWAY 66", "postcode": "72680"}}},
{"geometry": {"type": "Point", "coordinates": [-92.7471811346, 36.1404678285]}, "type": "Feature", "properties": {"collection_times": [{"days": "Mon-Fri", "time": "4:00pm"}, {"days": "Sat", "time": "11:00am"}, {"days": "Sun", "time": "Closed"}], "id": "7268200001", "name": "USPS COLLECTION BOX - BLUE BOX", "address": {"city": "VALLEY SPRINGS", "state": "AR", "street": "7729 HIGHWAY 65 S", "postcode": "72682"}}},
{"geometry": {"type": "Point", "coordinates": [-92.7471811346, 36.1404678285]}, "type": "Feature", "properties": {"collection_times": [{"days": "Mon-Fri", "time": "1:30pm"}, {"days": "Sat", "time": "11:00am"}, {"days": "Sun", "time": "Closed"}], "id": "7268200002", "name": "USPS COLLECTION BOX - PO LOBBY", "address": {"city": "VALLEY SPRINGS", "state": "AR", "street": "7729 HIGHWAY 65 S", "postcode": "72682"}}},
{"geometry": {"type": "Point", "coordinates": [-92.7471811346, 36.1404678285]}, "type": "Feature", "properties": {"collection_times": [{"days": "Mon-Fri", "time": "1:30pm"}, {"days": "Sat", "time": "11:00am"}, {"days": "Sun", "time": "Closed"}], "id": "7268200005", "name": "USPS COLLECTION BOX - PO LOBBY", "address": {"city": "VALLEY SPRINGS", "state": "AR", "street": "7729 HIGHWAY 65 S", "postcode": "72682"}}},
{"geometry": {"type": "Point", "coordinates": [-93.1174178179, 35.9316124317]}, "type": "Feature", "properties": {"collection_times": [{"days": "Mon-Fri", "time": "12:00pm"}, {"days": "Sat", "time": "10:30am"}, {"days": "Sun", "time": "Closed"}], "id": "7268300002", "name": "USPS COLLECTION BOX - PO LOBBY", "address": {"city": "VENDOR", "state": "AR", "street": "1 MAIN ST", "postcode": "72683"}}},
{"geometry": {"type": "Point", "coordinates": [-93.1174178179, 35.9316124317]}, "type": "Feature", "properties": {"collection_times": [{"days": "Mon-Fri", "time": "2:00pm"}, {"days": "Sat", "time": "10:30am"}, {"days": "Sun", "time": "Closed"}], "id": "7268300003", "name": "USPS COLLECTION BOX - BLUE BOX", "address": {"city": "VENDOR", "state": "AR", "street": "1 MAIN ST", "postcode": "72683"}}},
{"geometry": {"type": "Point", "coordinates": [-92.9691574808, 36.0362205696]}, "type": "Feature", "properties": {"collection_times": [{"days": "Mon-Fri", "time": "4:45pm"}, {"days": "Sat", "time": "11:15am"}, {"days": "Sun", "time": "Closed"}], "id": "7268500001", "name": "USPS COLLECTION BOX - BLUE BOX", "address": {"city": "WESTERN GROVE", "state": "AR", "street": "101 HIGHWAY 65", "postcode": "72685"}}},
{"geometry": {"type": "Point", "coordinates": [-92.969157481, 36.0362205698]}, "type": "Feature", "properties": {"collection_times": [{"days": "Mon-Fri", "time": "10:30am"}, {"days": "Sat", "time": "11:15am"}, {"days": "Sun", "time": "Closed"}], "id": "7268500003", "name": "USPS COLLECTION BOX - PO LOBBY", "address": {"city": "WESTERN GROVE", "state": "AR", "street": "101 HIGHWAY 65", "postcode": "72685"}}},
{"geometry": {"type": "Point", "coordinates": [-92.8342013751, 35.7888917356]}, "type": "Feature", "properties": {"collection_times": [{"days": "Mon-Fri", "time": "10:30am"}, {"days": "Sat", "time": "11:00am"}, {"days": "Sun", "time": "Closed"}], "id": "7268600001", "name": "USPS COLLECTION BOX - BLUE BOX", "address": {"city": "WITTS SPRINGS", "state": "AR", "street": "387 W HIGHWAY 16", "postcode": "72686"}}},
{"geometry": {"type": "Point", "coordinates": [-92.8342013751, 35.7888917356]}, "type": "Feature", "properties": {"collection_times": [{"days": "Mon-Fri", "time": "10:30am"}, {"days": "Sat", "time": "11:00am"}, {"days": "Sun", "time": "Closed"}], "id": "7268600002", "name": "USPS COLLECTION BOX - PO LOBBY", "address": {"city": "WITTS SPRINGS", "state": "AR", "street": "387 W HIGHWAY 16", "postcode": "72686"}}},
{"geometry": {"type": "Point", "coordinates": [-92.6877008112, 36.2282571228]}, "type": "Feature", "properties": {"collection_times": [{"days": "Mon-Fri", "time": "4:30pm"}, {"days": "Sat", "time": "11:30am"}, {"days": "Sun", "time": "Closed"}], "id": "7268700001", "name": "USPS COLLECTION BOX - BLUE BOX", "address": {"city": "YELLVILLE", "state": "AR", "street": "408 W 4TH ST", "postcode": "72687"}}},
{"geometry": {"type": "Point", "coordinates": [-92.6849481355, 36.2252734013]}, "type": "Feature", "properties": {"collection_times": [{"days": "Mon-Fri", "time": "2:45pm"}, {"days": "Sat-Sun", "time": "Closed"}], "id": "7268700002", "name": "USPS COLLECTION BOX - BLUE BOX", "address": {"city": "YELLVILLE", "state": "AR", "street": "300 OLD MAIN ST", "postcode": "72687"}}},
{"geometry": {"type": "Point", "coordinates": [-92.6877008112, 36.2282571228]}, "type": "Feature", "properties": {"collection_times": [{"days": "Mon-Fri", "time": "4:30pm"}, {"days": "Sat", "time": "11:30am"}, {"days": "Sun", "time": "Closed"}], "id": "7268700004", "name": "USPS COLLECTION BOX - PO LOBBY", "address": {"city": "YELLVILLE", "state": "AR", "street": "408 W 4TH ST", "postcode": "72687"}}},
{"geometry": {"type": "Point", "coordinates": [-92.6877008112, 36.2282571228]}, "type": "Feature", "properties": {"collection_times": [{"days": "Mon-Fri", "time": "4:30pm"}, {"days": "Sat", "time": "11:30am"}, {"days": "Sun", "time": "Closed"}], "id": "7268700005", "name": "USPS COLLECTION BOX - PO LOBBY", "address": {"city": "YELLVILLE", "state": "AR", "street": "408 W 4TH ST", "postcode": "72687"}}}
]}
