{"type": "FeatureCollection", "features": [
{"geometry": {"type": "Point", "coordinates": [-94.159717383, 36.0636808599]}, "type": "Feature", "properties": {"collection_times": [{"days": "Mon-Fri", "time": "4:15pm"}, {"days": "Sat", "time": "1:30pm"}, {"days": "Sun", "time": "Closed"}], "id": "7270100108", "name": "USPS COLLECTION BOX - BLUE BOX", "address": {"city": "FAYETTEVILLE", "state": "AR", "street": "101 N EAST AVE", "postcode": "72701"}}},
{"geometry": {"type": "Point", "coordinates": [-94.1607130392, 36.0668040884]}, "type": "Feature", "properties": {"collection_times": [{"days": "Mon-Fri", "time": "5:00pm"}, {"days": "Sat", "time": "1:30pm"}, {"days": "Sun", "time": "Closed"}], "id": "7270100109", "name": "USPS COLLECTION BOX - BLUE BOX", "address": {"city": "FAYETTEVILLE", "state": "AR", "street": "310 N SAINT CHARLES AVE", "postcode": "72701"}}},
{"geometry": {"type": "Point", "coordinates": [-94.1607130392, 36.0668040884]}, "type": "Feature", "properties": {"collection_times": [{"days": "Mon-Fri", "time": "5:00pm"}, {"days": "Sat", "time": "1:30pm"}, {"days": "Sun", "time": "Closed"}], "id": "7270100110", "name": "USPS COLLECTION BOX - BLUE BOX", "address": {"city": "FAYETTEVILLE", "state": "AR", "street": "310 N SAINT CHARLES AVE", "postcode": "72701"}}},
{"geometry": {"type": "Point", "coordinates": [-94.1283147851, 36.0645571083]}, "type": "Feature", "properties": {"collection_times": [{"days": "Mon-Fri", "time": "2:00pm"}, {"days": "Sat", "time": "11:15am"}, {"days": "Sun", "time": "Closed"}], "id": "7270100112", "name": "USPS COLLECTION BOX - BLUE BOX", "address": {"city": "FAYETTEVILLE", "state": "AR", "street": "2400 E CLIFFS BLVD", "postcode": "72701"}}},
{"geometry": {"type": "Point", "coordinates": [-94.1592404579, 36.0663553461]}, "type": "Feature", "properties": {"collection_times": [{"days": "Mon-Fri", "time": "5:00pm"}, {"days": "Sat", "time": "1:30pm"}, {"days": "Sun", "time": "Closed"}], "id": "7270100113", "name": "USPS COLLECTION BOX - PO LOBBY", "address": {"city": "FAYETTEVILLE", "state": "AR", "street": "12 W DICKSON ST", "postcode": "72701"}}},
{"geometry": {"type": "Point", "coordinates": [-94.1592404579, 36.0663553461]}, "type": "Feature", "properties": {"collection_times": [{"days": "Mon-Fri", "time": "5:00pm"}, {"days": "Sat", "time": "1:30pm"}, {"days": "Sun", "time": "Closed"}], "id": "7270100117", "name": "USPS COLLECTION BOX - APC", "address": {"city": "FAYETTEVILLE", "state": "AR", "street": "12 W DICKSON ST", "postcode": "72701"}}},
{"geometry": {"type": "Point", "coordinates": [-94.1500717498, 36.0377878109]}, "type": "Feature", "properties": {"collection_times": [{"days": "Mon-Fri", "time": "7:00pm"}, {"days": "Sat", "time": "5:45pm"}, {"days": "Sun", "time": "Closed"}], "id": "7270100119", "name": "USPS COLLECTION BOX - BLUE BOX", "address": {"city": "FAYETTEVILLE", "state": "AR", "street": "2300 S CITY LAKE RD", "postcode": "72701"}}},
{"geometry": {"type": "Point", "coordinates": [-94.1591155393, 36.0618196288]}, "type": "Feature", "properties": {"collection_times": [{"days": "Mon-Fri", "time": "4:15pm"}, {"days": "Sat-Sun", "time": "Closed"}], "id": "7270100121", "name": "USPS COLLECTION BOX - BLUE BOX", "address": {"city": "FAYETTEVILLE", "state": "AR", "street": "35 E MOUNTAIN ST", "postcode": "72701"}}},
{"geometry": {"type": "Point", "coordinates": [-94.1567445587, 36.080104177]}, "type": "Feature", "properties": {"collection_times": [{"days": "Mon-Fri", "time": "2:30pm"}, {"days": "Sat", "time": "1:00pm"}, {"days": "Sun", "time": "Closed"}], "id": "7270300062", "name": "USPS COLLECTION BOX - BLUE BOX", "address": {"city": "FAYETTEVILLE", "state": "AR", "street": "1300 N COLLEGE AVE", "postcode": "72703"}}},
{"geometry": {"type": "Point", "coordinates": [-94.1452298091, 36.1090784521]}, "type": "Feature", "properties": {"collection_times": [{"days": "Mon-Fri", "time": "3:15pm"}, {"days": "Sat", "time": "1:00pm"}, {"days": "Sun", "time": "Closed"}], "id": "7270300063", "name": "USPS COLLECTION BOX - BLUE BOX", "address": {"city": "FAYETTEVILLE", "state": "AR", "street": "3181 N COLLEGE AVE", "postcode": "72703"}}},
{"geometry": {"type": "Point", "coordinates": [-94.1626435492, 36.1108956681]}, "type": "Feature", "properties": {"collection_times": [{"days": "Mon-Fri", "time": "2:15pm"}, {"days": "Sat", "time": "1:00pm"}, {"days": "Sun", "time": "Closed"}], "id": "7270300064", "name": "USPS COLLECTION BOX - BLUE BOX", "address": {"city": "FAYETTEVILLE", "state": "AR", "street": "3390 N FUTRALL DR", "postcode": "72703"}}},
{"geometry": {"type": "Point", "coordinates": [-94.1572267926, 36.0951303764]}, "type": "Feature", "properties": {"collection_times": [{"days": "Mon-Fri", "time": "2:30pm"}, {"days": "Sat", "time": "12:45pm"}, {"days": "Sun", "time": "Closed"}], "id": "7270300065", "name": "USPS COLLECTION BOX - BLUE BOX", "address": {"city": "FAYETTEVILLE", "state": "AR", "street": "2386 N GREEN ACRES RD", "postcode": "72703"}}},
{"geometry": {"type": "Point", "coordinates": [-94.1439738505, 36.1060909244]}, "type": "Feature", "properties": {"collection_times": [{"days": "Mon-Fri", "time": "3:10pm"}, {"days": "Sat", "time": "1:00pm"}, {"days": "Sun", "time": "Closed"}], "id": "7270300066", "name": "USPS COLLECTION BOX - BLUE BOX", "address": {"city": "FAYETTEVILLE", "state": "AR", "street": "3009 N MARKET AVE", "postcode": "72703"}}},
{"geometry": {"type": "Point", "coordinates": [-94.1499328377, 36.1225313883]}, "type": "Feature", "properties": {"collection_times": [{"days": "Mon-Fri", "time": "2:15pm"}, {"days": "Sat", "time": "1:00pm"}, {"days": "Sun", "time": "Closed"}], "id": "7270300067", "name": "USPS COLLECTION BOX - BLUE BOX", "address": {"city": "FAYETTEVILLE", "state": "AR", "street": "3919 N MALL AVE", "postcode": "72703"}}},
{"geometry": {"type": "Point", "coordinates": [-94.1341710722, 36.1201505886]}, "type": "Feature", "properties": {"collection_times": [{"days": "Mon-Fri", "time": "5:00pm"}, {"days": "Sat", "time": "2:00pm"}, {"days": "Sun", "time": "Closed"}], "id": "7270300068", "name": "USPS COLLECTION BOX - BLUE BOX", "address": {"city": "FAYETTEVILLE", "state": "AR", "street": "1590 E JOYCE BLVD", "postcode": "72703"}}},
{"geometry": {"type": "Point", "coordinates": [-94.1341710722, 36.1201505886]}, "type": "Feature", "properties": {"collection_times": [{"days": "Mon-Fri", "time": "5:00pm"}, {"days": "Sat", "time": "2:00pm"}, {"days": "Sun", "time": "Closed"}], "id": "7270300069", "name": "USPS COLLECTION BOX - PO LOBBY", "address": {"city": "FAYETTEVILLE", "state": "AR", "street": "1590 E JOYCE BLVD", "postcode": "72703"}}},
{"geometry": {"type": "Point", "coordinates": [-94.1341710722, 36.1201505886]}, "type": "Feature", "properties": {"collection_times": [{"days": "Mon-Fri", "time": "5:00pm"}, {"days": "Sat", "time": "2:00pm"}, {"days": "Sun", "time": "Closed"}], "id": "7270300070", "name": "USPS COLLECTION BOX - PO LOBBY", "address": {"city": "FAYETTEVILLE", "state": "AR", "street": "1590 E JOYCE BLVD", "postcode": "72703"}}},
{"geometry": {"type": "Point", "coordinates": [-94.1341710722, 36.1201505886]}, "type": "Feature", "properties": {"collection_times": [{"days": "Mon-Fri", "time": "5:00pm"}, {"days": "Sat", "time": "2:00pm"}, {"days": "Sun", "time": "Closed"}], "id": "7270300072", "name": "USPS COLLECTION BOX - APC", "address": {"city": "FAYETTEVILLE", "state": "AR", "street": "1590 E JOYCE BLVD", "postcode": "72703"}}},
{"geometry": {"type": "Point", "coordinates": [-94.2011835412, 36.0520994285]}, "type": "Feature", "properties": {"collection_times": [{"days": "Mon-Fri", "time": "3:45pm"}, {"days": "Sat", "time": "10:30am"}, {"days": "Sun", "time": "Closed"}], "id": "7270400005", "name": "USPS COLLECTION BOX - BLUE BOX", "address": {"city": "FAYETTEVILLE", "state": "AR", "street": "2875 W MARTIN LUTHER KING BLVD", "postcode": "72704"}}},
{"geometry": {"type": "Point", "coordinates": [-94.2976511407, 36.102728937]}, "type": "Feature", "properties": {"collection_times": [{"days": "Mon-Fri", "time": "3:15pm"}, {"days": "Sat-Sun", "time": "Closed"}], "id": "7270400007", "name": "USPS COLLECTION BOX - BLUE BOX", "address": {"city": "FAYETTEVILLE", "state": "AR", "street": "3475 BLACK FOREST DR", "postcode": "72704"}}},
{"geometry": {"type": "Point", "coordinates": [-94.0761920733, 36.3982458395]}, "type": "Feature", "properties": {"collection_times": [{"days": "Mon-Fri", "time": "3:45pm"}, {"days": "Sat", "time": "11:00am"}, {"days": "Sun", "time": "Closed"}], "id": "7271100001", "name": "USPS COLLECTION BOX - BLUE BOX", "address": {"city": "AVOCA", "state": "AR", "street": "280 HIGHWAY 62 N", "postcode": "72711"}}},
{"geometry": {"type": "Point", "coordinates": [-94.0761920733, 36.3982458395]}, "type": "Feature", "properties": {"collection_times": [{"days": "Mon-Fri", "time": "11:30am"}, {"days": "Sat", "time": "11:00am"}, {"days": "Sun", "time": "Closed"}], "id": "7271100002", "name": "USPS COLLECTION BOX - PO LOBBY", "address": {"city": "AVOCA", "state": "AR", "street": "280 HIGHWAY 62 N", "postcode": "72711"}}},
{"geometry": {"type": "Point", "coordinates": [-94.20884, 36.37386]}, "type": "Feature", "properties": {"collection_times": [{"days": "Mon-Sat", "time": "10:00am"}, {"days": "Sun", "time": "Closed"}], "id": "7271200003", "name": "USPS COLLECTION BOX - BLUE BOX", "address": {"city": "BENTONVILLE", "state": "AR", "street": "216 N MAIN ST", "postcode": "72712"}}},
{"geometry": {"type": "Point", "coordinates": [-94.2217829764, 36.3686039411]}, "type": "Feature", "properties": {"collection_times": [{"days": "Mon-Sat", "time": "1:00pm"}, {"days": "Sun", "time": "Closed"}], "id": "7271200006", "name": "USPS COLLECTION BOX - BLUE BOX", "address": {"city": "BENTONVILLE", "state": "AR", "street": "406 S WALTON BLVD", "postcode": "72712"}}},
{"geometry": {"type": "Point", "coordinates": [-94.2165799643, 36.3648717946]}, "type": "Feature", "properties": {"collection_times": [{"days": "Mon-Fri", "time": "10:00am"}, {"days": "Sat-Sun", "time": "Closed"}], "id": "7271200007", "name": "USPS COLLECTION BOX - BLUE BOX", "address": {"city": "BENTONVILLE", "state": "AR", "street": "706 SW F ST", "postcode": "72712"}}},
{"geometry": {"type": "Point", "coordinates": [-94.1713003863, 36.3821994749]}, "type": "Feature", "properties": {"collection_times": [{"days": "Mon-Fri", "time": "10:00am"}, {"days": "Sat-Sun", "time": "Closed"}], "id": "7271200022", "name": "USPS COLLECTION BOX - BLUE BOX", "address": {"city": "BENTONVILLE", "state": "AR", "street": "1005 BEAU TERRE DR", "postcode": "72712"}}},
{"geometry": {"type": "Point", "coordinates": [-94.2108128244, 36.3527526269]}, "type": "Feature", "properties": {"collection_times": [{"days": "Mon-Fri", "time": "5:00pm"}, {"days": "Sat", "time": "4:00pm"}, {"days": "Sun", "time": "Closed"}], "id": "7271200030", "name": "USPS COLLECTION BOX - BLUE BOX", "address": {"city": "BENTONVILLE", "state": "AR", "street": "1706 S WALTON BLVD", "postcode": "72712"}}},
{"geometry": {"type": "Point", "coordinates": [-94.2108128244, 36.3527526269]}, "type": "Feature", "properties": {"collection_times": [{"days": "Mon-Fri", "time": "5:00pm"}, {"days": "Sat", "time": "4:00pm"}, {"days": "Sun", "time": "Closed"}], "id": "7271200033", "name": "USPS COLLECTION BOX - PO LOBBY", "address": {"city": "BENTONVILLE", "state": "AR", "street": "1706 S WALTON BLVD", "postcode": "72712"}}},
{"geometry": {"type": "Point", "coordinates": [-94.2108128244, 36.3527526269]}, "type": "Feature", "properties": {"collection_times": [{"days": "Mon-Fri", "time": "5:00pm"}, {"days": "Sat", "time": "4:00pm"}, {"days": "Sun", "time": "Closed"}], "id": "7271200034", "name": "USPS COLLECTION BOX - PO LOBBY", "address": {"city": "BENTONVILLE", "state": "AR", "street": "1706 S WALTON BLVD", "postcode": "72712"}}},
{"geometry": {"type": "Point", "coordinates": [-94.2108128244, 36.3527526269]}, "type": "Feature", "properties": {"collection_times": [{"days": "Mon-Fri", "time": "5:00pm"}, {"days": "Sat", "time": "4:00pm"}, {"days": "Sun", "time": "Closed"}], "id": "7271200035", "name": "USPS COLLECTION BOX - PO LOBBY", "address": {"city": "BENTONVILLE", "state": "AR", "street": "1706 S WALTON BLVD", "postcode": "72712"}}},
{"geometry": {"type": "Point", "coordinates": [-94.2108128244, 36.3527526269]}, "type": "Feature", "properties": {"collection_times": [{"days": "Mon-Fri", "time": "5:00pm"}, {"days": "Sat", "time": "4:00pm"}, {"days": "Sun", "time": "Closed"}], "id": "7271200037", "name": "USPS COLLECTION BOX - APC", "address": {"city": "BENTONVILLE", "state": "AR", "street": "1706 S WALTON BLVD", "postcode": "72712"}}},
{"geometry": {"type": "Point", "coordinates": [-94.2471535998, 36.3294222897]}, "type": "Feature", "properties": {"collection_times": [{"days": "Mon-Fri", "time": "10:00am"}, {"days": "Sat-Sun", "time": "Closed"}], "id": "7271200038", "name": "USPS COLLECTION BOX - BLUE BOX", "address": {"city": "BENTONVILLE", "state": "AR", "street": "1 COLLEGE DR", "postcode": "72712"}}},
{"geometry": {"type": "Point", "coordinates": [-94.2243088334, 36.3606608043]}, "type": "Feature", "properties": {"collection_times": [{"days": "Mon-Fri", "time": "10:00am"}, {"days": "Sat-Sun", "time": "Closed"}], "id": "7271200039", "name": "USPS COLLECTION BOX - BLUE BOX", "address": {"city": "BENTONVILLE", "state": "AR", "street": "609 SW 8TH ST", "postcode": "72712"}}},
{"geometry": {"type": "Point", "coordinates": [-94.2457175662, 36.4767902527]}, "type": "Feature", "properties": {"collection_times": [{"days": "Mon-Fri", "time": "4:30pm"}, {"days": "Sat", "time": "3:45pm"}, {"days": "Sun", "time": "Closed"}], "id": "7271400001", "name": "USPS COLLECTION BOX - BLUE BOX", "address": {"city": "BELLA VISTA", "state": "AR", "street": "555 MEMORIAL DR", "postcode": "72714"}}},
{"geometry": {"type": "Point", "coordinates": [-94.2457175662, 36.4767902527]}, "type": "Feature", "properties": {"collection_times": [{"days": "Mon-Fri", "time": "4:30pm"}, {"days": "Sat", "time": "3:45pm"}, {"days": "Sun", "time": "Closed"}], "id": "7271400005", "name": "USPS COLLECTION BOX - BLUE BOX", "address": {"city": "BELLA VISTA", "state": "AR", "street": "555 MEMORIAL DR", "postcode": "72714"}}},
{"geometry": {"type": "Point", "coordinates": [-94.2457175662, 36.4767902527]}, "type": "Feature", "properties": {"collection_times": [{"days": "Mon-Fri", "time": "4:30pm"}, {"days": "Sat", "time": "3:45pm"}, {"days": "Sun", "time": "Closed"}], "id": "7271400006", "name": "USPS COLLECTION BOX - PO LOBBY", "address": {"city": "BELLA VISTA", "state": "AR", "street": "555 MEMORIAL DR", "postcode": "72714"}}},
{"geometry": {"type": "Point", "coordinates": [-94.2457175662, 36.4767902527]}, "type": "Feature", "properties": {"collection_times": [{"days": "Mon-Fri", "time": "4:30pm"}, {"days": "Sat", "time": "3:45pm"}, {"days": "Sun", "time": "Closed"}], "id": "7271400008", "name": "USPS COLLECTION BOX - PO LOBBY", "address": {"city": "BELLA VISTA", "state": "AR", "street": "555 MEMORIAL DR", "postcode": "72714"}}},
{"geometry": {"type": "Point", "coordinates": [-94.29671698, 36.4687811418]}, "type": "Feature", "properties": {"collection_times": [{"days": "Mon-Sat", "time": "4:00pm"}, {"days": "Sun", "time": "Closed"}], "id": "7271500000", "name": "USPS COLLECTION BOX - BLUE BOX", "address": {"city": "BELLA VISTA", "state": "AR", "street": "1750 FOREST HILLS BLVD", "postcode": "72715"}}},
{"geometry": {"type": "Point", "coordinates": [-94.29671698, 36.4687811418]}, "type": "Feature", "properties": {"collection_times": [{"days": "Mon-Sat", "time": "4:00pm"}, {"days": "Sun", "time": "Closed"}], "id": "7271500002", "name": "USPS COLLECTION BOX - BLUE BOX", "address": {"city": "BELLA VISTA", "state": "AR", "street": "1750 FOREST HILLS BLVD", "postcode": "72715"}}},
{"geometry": {"type": "Point", "coordinates": [-94.29671698, 36.4687811418]}, "type": "Feature", "properties": {"collection_times": [{"days": "Mon-Sat", "time": "4:00pm"}, {"days": "Sun", "time": "Closed"}], "id": "7271500003", "name": "USPS COLLECTION BOX - PO LOBBY", "address": {"city": "BELLA VISTA", "state": "AR", "street": "1750 FOREST HILLS BLVD", "postcode": "72715"}}},
{"geometry": {"type": "Point", "coordinates": [-94.29671698, 36.4687811418]}, "type": "Feature", "properties": {"collection_times": [{"days": "Mon-Sat", "time": "4:00pm"}, {"days": "Sun", "time": "Closed"}], "id": "7271500004", "name": "USPS COLLECTION BOX - PO LOBBY", "address": {"city": "BELLA VISTA", "state": "AR", "street": "1750 FOREST HILLS BLVD", "postcode": "72715"}}},
{"geometry": {"type": "Point", "coordinates": [-94.396553631, 35.9090144421]}, "type": "Feature", "properties": {"collection_times": [{"days": "Mon-Fri", "time": "2:00pm"}, {"days": "Sat", "time": "11:30am"}, {"days": "Sun", "time": "Closed"}], "id": "7271700001", "name": "USPS COLLECTION BOX - BLUE BOX", "address": {"city": "CANEHILL", "state": "AR", "street": "14311 HIGHWAY 45", "postcode": "72717"}}},
{"geometry": {"type": "Point", "coordinates": [-94.396553631, 35.9090144421]}, "type": "Feature", "properties": {"collection_times": [{"days": "Mon-Fri", "time": "11:00am"}, {"days": "Sat", "time": "11:30am"}, {"days": "Sun", "time": "Closed"}], "id": "7271700002", "name": "USPS COLLECTION BOX - PO LOBBY", "address": {"city": "CANEHILL", "state": "AR", "street": "14311 HIGHWAY 45", "postcode": "72717"}}},
{"geometry": {"type": "Point", "coordinates": [-94.2319362732, 36.2632501056]}, "type": "Feature", "properties": {"collection_times": [{"days": "Mon-Fri", "time": "4:00pm"}, {"days": "Sat", "time": "11:30am"}, {"days": "Sun", "time": "Closed"}], "id": "7271800001", "name": "USPS COLLECTION BOX - BLUE BOX", "address": {"city": "CAVE SPRINGS", "state": "AR", "street": "115 E MIDWAY ST", "postcode": "72718"}}},
{"geometry": {"type": "Point", "coordinates": [-94.2319362732, 36.2632501056]}, "type": "Feature", "properties": {"collection_times": [{"days": "Mon-Fri", "time": "4:00pm"}, {"days": "Sat", "time": "11:30am"}, {"days": "Sun", "time": "Closed"}], "id": "7271800002", "name": "USPS COLLECTION BOX - PO LOBBY", "address": {"city": "CAVE SPRINGS", "state": "AR", "street": "115 E MIDWAY ST", "postcode": "72718"}}},
{"geometry": {"type": "Point", "coordinates": [-94.3015114136, 36.3690962904]}, "type": "Feature", "properties": {"collection_times": [{"days": "Mon-Fri", "time": "4:00pm"}, {"days": "Sat", "time": "10:45am"}, {"days": "Sun", "time": "Closed"}], "id": "7271900001", "name": "USPS COLLECTION BOX - BLUE BOX", "address": {"city": "CENTERTON", "state": "AR", "street": "100 MONROE ST", "postcode": "72719"}}},
{"geometry": {"type": "Point", "coordinates": [-94.3015114136, 36.3690962904]}, "type": "Feature", "properties": {"collection_times": [{"days": "Mon-Fri", "time": "4:00pm"}, {"days": "Sat", "time": "10:45am"}, {"days": "Sun", "time": "Closed"}], "id": "7271900002", "name": "USPS COLLECTION BOX - PO LOBBY", "address": {"city": "CENTERTON", "state": "AR", "street": "100 MONROE ST", "postcode": "72719"}}},
{"geometry": {"type": "Point", "coordinates": [-94.3015114136, 36.3690962904]}, "type": "Feature", "properties": {"collection_times": [{"days": "Mon-Fri", "time": "4:00pm"}, {"days": "Sat", "time": "10:45am"}, {"days": "Sun", "time": "Closed"}], "id": "7271900003", "name": "USPS COLLECTION BOX - PO LOBBY", "address": {"city": "CENTERTON", "state": "AR", "street": "100 MONROE ST", "postcode": "72719"}}},
{"geometry": {"type": "Point", "coordinates": [-94.2889219286, 36.3584857639]}, "type": "Feature", "properties": {"collection_times": [{"days": "Mon-Fri", "time": "12:00pm"}, {"days": "Sat", "time": "11:00am"}, {"days": "Sun", "time": "Closed"}], "id": "7271900005", "name": "USPS COLLECTION BOX - BLUE BOX", "address": {"city": "CENTERTON", "state": "AR", "street": "413 W CENTERTON BLVD", "postcode": "72719"}}},
{"geometry": {"type": "Point", "coordinates": [-93.8374427565, 35.8260213665]}, "type": "Feature", "properties": {"collection_times": [{"days": "Mon-Fri", "time": "2:45pm"}, {"days": "Sat", "time": "12:45pm"}, {"days": "Sun", "time": "Closed"}], "id": "7272100000", "name": "USPS COLLECTION BOX - BLUE BOX", "address": {"city": "COMBS", "state": "AR", "street": "10208 HIGHWAY 16", "postcode": "72721"}}},
{"geometry": {"type": "Point", "coordinates": [-93.8374427565, 35.8260213665]}, "type": "Feature", "properties": {"collection_times": [{"days": "Mon-Fri", "time": "12:15pm"}, {"days": "Sat", "time": "12:45pm"}, {"days": "Sun", "time": "Closed"}], "id": "7272100001", "name": "USPS COLLECTION BOX - PO LOBBY", "address": {"city": "COMBS", "state": "AR", "street": "10208 HIGHWAY 16", "postcode": "72721"}}},
{"geometry": {"type": "Point", "coordinates": [-94.4537656906, 36.33567092]}, "type": "Feature", "properties": {"collection_times": [{"days": "Mon-Fri", "time": "4:00pm"}, {"days": "Sat", "time": "11:30am"}, {"days": "Sun", "time": "Closed"}], "id": "7272200000", "name": "USPS COLLECTION BOX - BLUE BOX", "address": {"city": "DECATUR", "state": "AR", "street": "750 E ROLLER AVE", "postcode": "72722"}}},
{"geometry": {"type": "Point", "coordinates": [-94.4537656906, 36.33567092]}, "type": "Feature", "properties": {"collection_times": [{"days": "Mon-Fri", "time": "2:00pm"}, {"days": "Sat", "time": "11:30am"}, {"days": "Sun", "time": "Closed"}], "id": "7272200001", "name": "USPS COLLECTION BOX - PO LOBBY", "address": {"city": "DECATUR", "state": "AR", "street": "750 E ROLLER AVE", "postcode": "72722"}}},
{"geometry": {"type": "Point", "coordinates": [-94.4537656906, 36.33567092]}, "type": "Feature", "properties": {"collection_times": [{"days": "Mon-Fri", "time": "2:00pm"}, {"days": "Sat", "time": "11:30am"}, {"days": "Sun", "time": "Closed"}], "id": "7272200003", "name": "USPS COLLECTION BOX - PO LOBBY", "address": {"city": "DECATUR", "state": "AR", "street": "750 E ROLLER AVE", "postcode": "72722"}}},
{"geometry": {"type": "Point", "coordinates": [-94.008770951, 36.0057995868]}, "type": "Feature", "properties": {"collection_times": [{"days": "Mon-Fri", "time": "4:35pm"}, {"days": "Sat", "time": "10:30am"}, {"days": "Sun", "time": "Closed"}], "id": "7272700001", "name": "USPS COLLECTION BOX - BLUE BOX", "address": {"city": "ELKINS", "state": "AR", "street": "455 N CENTER ST", "postcode": "72727"}}},
{"geometry": {"type": "Point", "coordinates": [-94.008770951, 36.0057995868]}, "type": "Feature", "properties": {"collection_times": [{"days": "Mon-Fri", "time": "4:35pm"}, {"days": "Sat", "time": "10:30am"}, {"days": "Sun", "time": "Closed"}], "id": "7272700002", "name": "USPS COLLECTION BOX - PO LOBBY", "address": {"city": "ELKINS", "state": "AR", "street": "455 N CENTER ST", "postcode": "72727"}}},
{"geometry": {"type": "Point", "coordinates": [-94.008770951, 36.0057995868]}, "type": "Feature", "properties": {"collection_times": [{"days": "Mon-Fri", "time": "4:35pm"}, {"days": "Sat", "time": "10:30am"}, {"days": "Sun", "time": "Closed"}], "id": "7272700003", "name": "USPS COLLECTION BOX - PO LOBBY", "address": {"city": "ELKINS", "state": "AR", "street": "455 N CENTER ST", "postcode": "72727"}}},
{"geometry": {"type": "Point", "coordinates": [-94.2336718747, 36.20591737]}, "type": "Feature", "properties": {"collection_times": [{"days": "Mon-Fri", "time": "4:00pm"}, {"days": "Sat", "time": "11:00am"}, {"days": "Sun", "time": "Closed"}], "id": "7272800001", "name": "USPS COLLECTION BOX - BLUE BOX", "address": {"city": "ELM SPRINGS", "state": "AR", "street": "210 SCHOOL AVE", "postcode": "72728"}}},
{"geometry": {"type": "Point", "coordinates": [-94.2336718747, 36.20591737]}, "type": "Feature", "properties": {"collection_times": [{"days": "Mon-Fri", "time": "11:45am"}, {"days": "Sat", "time": "11:00am"}, {"days": "Sun", "time": "Closed"}], "id": "7272800002", "name": "USPS COLLECTION BOX - PO LOBBY", "address": {"city": "ELM SPRINGS", "state": "AR", "street": "210 SCHOOL AVE", "postcode": "72728"}}},
{"geometry": {"type": "Point", "coordinates": [-94.4957863255, 35.7968174428]}, "type": "Feature", "properties": {"collection_times": [{"days": "Mon-Sat", "time": "12:30pm"}, {"days": "Sun", "time": "Closed"}], "id": "7272900000", "name": "USPS COLLECTION BOX - BLUE BOX", "address": {"city": "EVANSVILLE", "state": "AR", "street": "20740 S HIGHWAY 59", "postcode": "72729"}}},
{"geometry": {"type": "Point", "coordinates": [-94.4957863255, 35.7968174428]}, "type": "Feature", "properties": {"collection_times": [{"days": "Mon-Sat", "time": "12:30pm"}, {"days": "Sun", "time": "Closed"}], "id": "7272900001", "name": "USPS COLLECTION BOX - PO LOBBY", "address": {"city": "EVANSVILLE", "state": "AR", "street": "20740 S HIGHWAY 59", "postcode": "72729"}}},
{"geometry": {"type": "Point", "coordinates": [-94.2514064128, 36.0388877512]}, "type": "Feature", "properties": {"collection_times": [{"days": "Mon-Fri", "time": "5:00pm"}, {"days": "Sat", "time": "11:00am"}, {"days": "Sun", "time": "Closed"}], "id": "7273000001", "name": "USPS COLLECTION BOX - BLUE BOX", "address": {"city": "FARMINGTON", "state": "AR", "street": "190 W CIMARRON PL", "postcode": "72730"}}},
{"geometry": {"type": "Point", "coordinates": [-94.2514064128, 36.0388877512]}, "type": "Feature", "properties": {"collection_times": [{"days": "Mon-Fri", "time": "5:00pm"}, {"days": "Sat", "time": "11:00am"}, {"days": "Sun", "time": "Closed"}], "id": "7273000002", "name": "USPS COLLECTION BOX - PO LOBBY", "address": {"city": "FARMINGTON", "state": "AR", "street": "190 W CIMARRON PL", "postcode": "72730"}}},
{"geometry": {"type": "Point", "coordinates": [-94.2514064128, 36.0388877512]}, "type": "Feature", "properties": {"collection_times": [{"days": "Mon-Fri", "time": "5:00pm"}, {"days": "Sat", "time": "11:00am"}, {"days": "Sun", "time": "Closed"}], "id": "7273000003", "name": "USPS COLLECTION BOX - PO LOBBY", "address": {"city": "FARMINGTON", "state": "AR", "street": "190 W CIMARRON PL", "postcode": "72730"}}},
{"geometry": {"type": "Point", "coordinates": [-94.2514064128, 36.0388877512]}, "type": "Feature", "properties": {"collection_times": [{"days": "Mon-Fri", "time": "5:00pm"}, {"days": "Sat", "time": "11:00am"}, {"days": "Sun", "time": "Closed"}], "id": "7273000004", "name": "USPS COLLECTION BOX - BLUE BOX", "address": {"city": "FARMINGTON", "state": "AR", "street": "190 W CIMARRON PL", "postcode": "72730"}}},
{"geometry": {"type": "Point", "coordinates": [-93.9910812301, 36.4373900703]}, "type": "Feature", "properties": {"collection_times": [{"days": "Mon-Fri", "time": "4:15pm"}, {"days": "Sat", "time": "11:00am"}, {"days": "Sun", "time": "Closed"}], "id": "7273200001", "name": "USPS COLLECTION BOX - BLUE BOX", "address": {"city": "GARFIELD", "state": "AR", "street": "14700 ALVIN SEAMSTER RD", "postcode": "72732"}}},
{"geometry": {"type": "Point", "coordinates": [-93.9910812301, 36.4373900703]}, "type": "Feature", "properties": {"collection_times": [{"days": "Mon-Fri", "time": "4:15pm"}, {"days": "Sat", "time": "11:00am"}, {"days": "Sun", "time": "Closed"}], "id": "7273200002", "name": "USPS COLLECTION BOX - PO LOBBY", "address": {"city": "GARFIELD", "state": "AR", "street": "14700 ALVIN SEAMSTER RD", "postcode": "72732"}}},
{"geometry": {"type": "Point", "coordinates": [-93.9315645705, 36.4902508907]}, "type": "Feature", "properties": {"collection_times": [{"days": "Mon-Fri", "time": "3:15pm"}, {"days": "Sat", "time": "9:30am"}, {"days": "Sun", "time": "Closed"}], "id": "7273300000", "name": "USPS COLLECTION BOX - BLUE BOX", "address": {"city": "GATEWAY", "state": "AR", "street": "17260 HIGHWAY 37 N", "postcode": "72733"}}},
{"geometry": {"type": "Point", "coordinates": [-93.9315645705, 36.4902508907]}, "type": "Feature", "properties": {"collection_times": [{"days": "Mon-Fri", "time": "11:30am"}, {"days": "Sat", "time": "9:30am"}, {"days": "Sun", "time": "Closed"}], "id": "7273300001", "name": "USPS COLLECTION BOX - PO LOBBY", "address": {"city": "GATEWAY", "state": "AR", "street": "17260 HIGHWAY 37 N", "postcode": "72733"}}},
{"geometry": {"type": "Point", "coordinates": [-94.4942619302, 36.2676055251]}, "type": "Feature", "properties": {"collection_times": [{"days": "Mon-Fri", "time": "4:30pm"}, {"days": "Sat", "time": "11:30am"}, {"days": "Sun", "time": "Closed"}], "id": "7273400001", "name": "USPS COLLECTION BOX - PO LOBBY", "address": {"city": "GENTRY", "state": "AR", "street": "899 W MAIN ST", "postcode": "72734"}}},
{"geometry": {"type": "Point", "coordinates": [-94.4942619302, 36.2676055251]}, "type": "Feature", "properties": {"collection_times": [{"days": "Mon-Fri", "time": "4:30pm"}, {"days": "Sat", "time": "11:30am"}, {"days": "Sun", "time": "Closed"}], "id": "7273400002", "name": "USPS COLLECTION BOX - PO LOBBY", "address": {"city": "GENTRY", "state": "AR", "street": "899 W MAIN ST", "postcode": "72734"}}},
{"geometry": {"type": "Point", "coordinates": [-94.4942619302, 36.2676055251]}, "type": "Feature", "properties": {"collection_times": [{"days": "Mon-Fri", "time": "4:30pm"}, {"days": "Sat", "time": "11:30am"}, {"days": "Sun", "time": "Closed"}], "id": "7273400003", "name": "USPS COLLECTION BOX - BLUE BOX", "address": {"city": "GENTRY", "state": "AR", "street": "899 W MAIN ST", "postcode": "72734"}}},
{"geometry": {"type": "Point", "coordinates": [-93.9926967304, 36.1003448105]}, "type": "Feature", "properties": {"collection_times": [{"days": "Mon-Fri", "time": "4:25pm"}, {"days": "Sat", "time": "11:30am"}, {"days": "Sun", "time": "Closed"}], "id": "7273500001", "name": "USPS COLLECTION BOX - BLUE BOX", "address": {"city": "GOSHEN", "state": "AR", "street": "188 W BOWEN BLVD", "postcode": "72735"}}},
{"geometry": {"type": "Point", "coordinates": [-93.9926967304, 36.1003448105]}, "type": "Feature", "properties": {"collection_times": [{"days": "Mon-Sat", "time": "11:30am"}, {"days": "Sun", "time": "Closed"}], "id": "7273500002", "name": "USPS COLLECTION BOX - PO LOBBY", "address": {"city": "GOSHEN", "state": "AR", "street": "188 W BOWEN BLVD", "postcode": "72735"}}},
{"geometry": {"type": "Point", "coordinates": [-94.4590282441, 36.4222722613]}, "type": "Feature", "properties": {"collection_times": [{"days": "Mon-Fri", "time": "4:30pm"}, {"days": "Sat", "time": "11:30am"}, {"days": "Sun", "time": "Closed"}], "id": "7273600002", "name": "USPS COLLECTION BOX - PO LOBBY", "address": {"city": "GRAVETTE", "state": "AR", "street": "613 MAIN ST SW", "postcode": "72736"}}},
{"geometry": {"type": "Point", "coordinates": [-94.4590282441, 36.4222722613]}, "type": "Feature", "properties": {"collection_times": [{"days": "Mon-Fri", "time": "4:00pm"}, {"days": "Sat", "time": "11:00am"}, {"days": "Sun", "time": "Closed"}], "id": "7273600003", "name": "USPS COLLECTION BOX - BLUE BOX", "address": {"city": "GRAVETTE", "state": "AR", "street": "613 MAIN ST SW", "postcode": "72736"}}},
{"geometry": {"type": "Point", "coordinates": [-94.4590282441, 36.4222722613]}, "type": "Feature", "properties": {"collection_times": [{"days": "Mon-Fri", "time": "4:30pm"}, {"days": "Sat", "time": "11:30am"}, {"days": "Sun", "time": "Closed"}], "id": "7273600004", "name": "USPS COLLECTION BOX - PO LOBBY", "address": {"city": "GRAVETTE", "state": "AR", "street": "613 MAIN ST SW", "postcode": "72736"}}},
{"geometry": {"type": "Point", "coordinates": [-94.1740101666, 35.9939578988]}, "type": "Feature", "properties": {"collection_times": [{"days": "Mon-Fri", "time": "4:45pm"}, {"days": "Sat", "time": "11:45am"}, {"days": "Sun", "time": "Closed"}], "id": "7273700001", "name": "USPS COLLECTION BOX - BLUE BOX", "address": {"city": "GREENLAND", "state": "AR", "street": "4500 S SCHOOL AVE", "postcode": "72737"}}},
{"geometry": {"type": "Point", "coordinates": [-94.1740101666, 35.9939578988]}, "type": "Feature", "properties": {"collection_times": [{"days": "Mon-Fri", "time": "4:45pm"}, {"days": "Sat", "time": "11:45am"}, {"days": "Sun", "time": "Closed"}], "id": "7273700002", "name": "USPS COLLECTION BOX - PO LOBBY", "address": {"city": "GREENLAND", "state": "AR", "street": "4500 S SCHOOL AVE", "postcode": "72737"}}},
{"geometry": {"type": "Point", "coordinates": [-93.887606903, 36.1660987901]}, "type": "Feature", "properties": {"collection_times": [{"days": "Mon-Fri", "time": "11:00am"}, {"days": "Sat", "time": "12:00pm"}, {"days": "Sun", "time": "Closed"}], "id": "7273800002", "name": "USPS COLLECTION BOX - PO LOBBY", "address": {"city": "HINDSVILLE", "state": "AR", "street": "143 E VALLEY RD", "postcode": "72738"}}},
{"geometry": {"type": "Point", "coordinates": [-93.887606903, 36.1660987901]}, "type": "Feature", "properties": {"collection_times": [{"days": "Mon-Fri", "time": "4:00pm"}, {"days": "Sat", "time": "12:00pm"}, {"days": "Sun", "time": "Closed"}], "id": "7273800004", "name": "USPS COLLECTION BOX - BLUE BOX", "address": {"city": "HINDSVILLE", "state": "AR", "street": "143 E VALLEY RD", "postcode": "72738"}}},
{"geometry": {"type": "Point", "coordinates": [-94.3387762447, 36.4318840588]}, "type": "Feature", "properties": {"collection_times": [{"days": "Mon-Fri", "time": "4:00pm"}, {"days": "Sat", "time": "11:30am"}, {"days": "Sun", "time": "Closed"}], "id": "7273900000", "name": "USPS COLLECTION BOX - BLUE BOX", "address": {"city": "HIWASSE", "state": "AR", "street": "13902 W HIGHWAY 72", "postcode": "72739"}}},
{"geometry": {"type": "Point", "coordinates": [-94.3387762447, 36.4318840588]}, "type": "Feature", "properties": {"collection_times": [{"days": "Mon-Fri", "time": "11:00am"}, {"days": "Sat", "time": "11:30am"}, {"days": "Sun", "time": "Closed"}], "id": "7273900001", "name": "USPS COLLECTION BOX - PO LOBBY", "address": {"city": "HIWASSE", "state": "AR", "street": "13902 W HIGHWAY 72", "postcode": "72739"}}},
{"geometry": {"type": "Point", "coordinates": [-93.7384481026, 36.085488107]}, "type": "Feature", "properties": {"collection_times": [{"days": "Mon-Fri", "time": "4:30pm"}, {"days": "Sat", "time": "4:00pm"}, {"days": "Sun", "time": "Closed"}], "id": "7274000001", "name": "USPS COLLECTION BOX - BLUE BOX", "address": {"city": "HUNTSVILLE", "state": "AR", "street": "208 LOCUST ST", "postcode": "72740"}}},
{"geometry": {"type": "Point", "coordinates": [-93.7384481026, 36.085488107]}, "type": "Feature", "properties": {"collection_times": [{"days": "Mon-Fri", "time": "4:30pm"}, {"days": "Sat", "time": "4:00pm"}, {"days": "Sun", "time": "Closed"}], "id": "7274000002", "name": "USPS COLLECTION BOX - BLUE BOX", "address": {"city": "HUNTSVILLE", "state": "AR", "street": "208 LOCUST ST", "postcode": "72740"}}},
{"geometry": {"type": "Point", "coordinates": [-93.7402979795, 36.0866971333]}, "type": "Feature", "properties": {"collection_times": [{"days": "Mon-Fri", "time": "4:45pm"}, {"days": "Sat", "time": "4:15pm"}, {"days": "Sun", "time": "Closed"}], "id": "7274000003", "name": "USPS COLLECTION BOX - PO LOBBY", "address": {"city": "HUNTSVILLE", "state": "AR", "street": "401 CHURCH AVE", "postcode": "72740"}}},
{"geometry": {"type": "Point", "coordinates": [-93.7402979795, 36.0866971333]}, "type": "Feature", "properties": {"collection_times": [{"days": "Mon-Fri", "time": "4:45pm"}, {"days": "Sat", "time": "4:15pm"}, {"days": "Sun", "time": "Closed"}], "id": "7274000005", "name": "USPS COLLECTION BOX - PO LOBBY", "address": {"city": "HUNTSVILLE", "state": "AR", "street": "401 CHURCH AVE", "postcode": "72740"}}},
{"geometry": {"type": "Point", "coordinates": [-93.7402979795, 36.0866971333]}, "type": "Feature", "properties": {"collection_times": [{"days": "Mon-Fri", "time": "4:45pm"}, {"days": "Sat", "time": "4:15pm"}, {"days": "Sun", "time": "Closed"}], "id": "7274000008", "name": "USPS COLLECTION BOX - PO LOBBY", "address": {"city": "HUNTSVILLE", "state": "AR", "street": "401 CHURCH AVE", "postcode": "72740"}}},
{"geometry": {"type": "Point", "coordinates": [-93.4970430485, 36.0312378767]}, "type": "Feature", "properties": {"collection_times": [{"days": "Mon-Fri", "time": "3:00pm"}, {"days": "Sat", "time": "9:45am"}, {"days": "Sun", "time": "Closed"}], "id": "7274200001", "name": "USPS COLLECTION BOX - BLUE BOX", "address": {"city": "KINGSTON", "state": "AR", "street": "5103 HIGHWAY 21", "postcode": "72742"}}},
{"geometry": {"type": "Point", "coordinates": [-93.4970430485, 36.0312378767]}, "type": "Feature", "properties": {"collection_times": [{"days": "Mon-Fri", "time": "3:00pm"}, {"days": "Sat", "time": "9:45am"}, {"days": "Sun", "time": "Closed"}], "id": "7274200002", "name": "USPS COLLECTION BOX - PO LOBBY", "address": {"city": "KINGSTON", "state": "AR", "street": "5103 HIGHWAY 21", "postcode": "72742"}}},
{"geometry": {"type": "Point", "coordinates": [-94.4244143189, 35.9479301639]}, "type": "Feature", "properties": {"collection_times": [{"days": "Mon-Fri", "time": "4:30pm"}, {"days": "Sat", "time": "3:30pm"}, {"days": "Sun", "time": "Closed"}], "id": "7274400001", "name": "USPS COLLECTION BOX - BLUE BOX", "address": {"city": "LINCOLN", "state": "AR", "street": "304 W PRIDEMORE DR", "postcode": "72744"}}},
{"geometry": {"type": "Point", "coordinates": [-94.4244143189, 35.9479301639]}, "type": "Feature", "properties": {"collection_times": [{"days": "Mon-Fri", "time": "4:45pm"}, {"days": "Sat", "time": "3:30pm"}, {"days": "Sun", "time": "Closed"}], "id": "7274400002", "name": "USPS COLLECTION BOX - PO LOBBY", "address": {"city": "LINCOLN", "state": "AR", "street": "304 W PRIDEMORE DR", "postcode": "72744"}}},
{"geometry": {"type": "Point", "coordinates": [-94.4244143189, 35.9479301639]}, "type": "Feature", "properties": {"collection_times": [{"days": "Mon-Fri", "time": "4:45pm"}, {"days": "Sat", "time": "3:30pm"}, {"days": "Sun", "time": "Closed"}], "id": "7274400003", "name": "USPS COLLECTION BOX - PO LOBBY", "address": {"city": "LINCOLN", "state": "AR", "street": "304 W PRIDEMORE DR", "postcode": "72744"}}},
{"geometry": {"type": "Point", "coordinates": [-94.1324603773, 36.2519284096]}, "type": "Feature", "properties": {"collection_times": [{"days": "Mon-Fri", "time": "4:30pm"}, {"days": "Sat", "time": "2:00pm"}, {"days": "Sun", "time": "Closed"}], "id": "7274500001", "name": "USPS COLLECTION BOX - BLUE BOX", "address": {"city": "LOWELL", "state": "AR", "street": "202 S LINCOLN ST", "postcode": "72745"}}},
{"geometry": {"type": "Point", "coordinates": [-94.1324603773, 36.2519284096]}, "type": "Feature", "properties": {"collection_times": [{"days": "Mon-Fri", "time": "4:30pm"}, {"days": "Sat", "time": "2:00pm"}, {"days": "Sun", "time": "Closed"}], "id": "7274500002", "name": "USPS COLLECTION BOX - PO LOBBY", "address": {"city": "LOWELL", "state": "AR", "street": "202 S LINCOLN ST", "postcode": "72745"}}},
{"geometry": {"type": "Point", "coordinates": [-94.1544199193, 36.2545383627]}, "type": "Feature", "properties": {"collection_times": [{"days": "Mon-Sat", "time": "10:30am"}, {"days": "Sun", "time": "Closed"}], "id": "7274500003", "name": "USPS COLLECTION BOX - BLUE BOX", "address": {"city": "LOWELL", "state": "AR", "street": "816 W MONROE AVE", "postcode": "72745"}}},
{"geometry": {"type": "Point", "coordinates": [-94.1324603773, 36.2519284096]}, "type": "Feature", "properties": {"collection_times": [{"days": "Mon-Fri", "time": "4:30pm"}, {"days": "Sat", "time": "2:00pm"}, {"days": "Sun", "time": "Closed"}], "id": "7274500004", "name": "USPS COLLECTION BOX - BLUE BOX", "address": {"city": "LOWELL", "state": "AR", "street": "202 S LINCOLN ST", "postcode": "72745"}}},
{"geometry": {"type": "Point", "coordinates": [-94.1324603773, 36.2519284096]}, "type": "Feature", "properties": {"collection_times": [{"days": "Mon-Fri", "time": "4:30pm"}, {"days": "Sat", "time": "2:00pm"}, {"days": "Sun", "time": "Closed"}], "id": "7274500005", "name": "USPS COLLECTION BOX - PO LOBBY", "address": {"city": "LOWELL", "state": "AR", "street": "202 S LINCOLN ST", "postcode": "72745"}}},
{"geometry": {"type": "Point", "coordinates": [-94.6012340371, 36.4059825362]}, "type": "Feature", "properties": {"collection_times": [{"days": "Mon-Fri", "time": "4:00pm"}, {"days": "Sat", "time": "10:00am"}, {"days": "Sun", "time": "Closed"}], "id": "7274700000", "name": "USPS COLLECTION BOX - BLUE BOX", "address": {"city": "MAYSVILLE", "state": "AR", "street": "11776 N HIGHWAY 43", "postcode": "72747"}}},
{"geometry": {"type": "Point", "coordinates": [-94.6012340371, 36.4059825362]}, "type": "Feature", "properties": {"collection_times": [{"days": "Mon-Fri", "time": "2:45pm"}, {"days": "Sat", "time": "12:45pm"}, {"days": "Sun", "time": "Closed"}], "id": "7274700001", "name": "USPS COLLECTION BOX - PO LOBBY", "address": {"city": "MAYSVILLE", "state": "AR", "street": "11776 N HIGHWAY 43", "postcode": "72747"}}},
{"geometry": {"type": "Point", "coordinates": [-94.4426209395, 35.8688364667]}, "type": "Feature", "properties": {"collection_times": [{"days": "Mon-Sat", "time": "1:30pm"}, {"days": "Sun", "time": "Closed"}], "id": "7274900000", "name": "USPS COLLECTION BOX - BLUE BOX", "address": {"city": "MORROW", "state": "AR", "street": "17149 HALE MOUNTAIN RD", "postcode": "72749"}}},
{"geometry": {"type": "Point", "coordinates": [-94.4426209395, 35.8688364667]}, "type": "Feature", "properties": {"collection_times": [{"days": "Mon-Sat", "time": "1:30pm"}, {"days": "Sun", "time": "Closed"}], "id": "7274900001", "name": "USPS COLLECTION BOX - PO LOBBY", "address": {"city": "MORROW", "state": "AR", "street": "17149 HALE MOUNTAIN RD", "postcode": "72749"}}},
{"geometry": {"type": "Point", "coordinates": [-94.1157789944, 36.4456648737]}, "type": "Feature", "properties": {"collection_times": [{"days": "Mon-Fri", "time": "4:30pm"}, {"days": "Sat", "time": "11:00am"}, {"days": "Sun", "time": "Closed"}], "id": "7275100000", "name": "USPS COLLECTION BOX - BLUE BOX", "address": {"city": "PEA RIDGE", "state": "AR", "street": "468 N CURTIS AVE", "postcode": "72751"}}},
{"geometry": {"type": "Point", "coordinates": [-94.1157789944, 36.4456648737]}, "type": "Feature", "properties": {"collection_times": [{"days": "Mon-Fri", "time": "4:30pm"}, {"days": "Sat", "time": "11:00am"}, {"days": "Sun", "time": "Closed"}], "id": "7275100001", "name": "USPS COLLECTION BOX - PO LOBBY", "address": {"city": "PEA RIDGE", "state": "AR", "street": "468 N CURTIS AVE", "postcode": "72751"}}},
{"geometry": {"type": "Point", "coordinates": [-94.1157789944, 36.4456648737]}, "type": "Feature", "properties": {"collection_times": [{"days": "Mon-Fri", "time": "4:30pm"}, {"days": "Sat", "time": "11:00am"}, {"days": "Sun", "time": "Closed"}], "id": "7275100003", "name": "USPS COLLECTION BOX - PO LOBBY", "address": {"city": "PEA RIDGE", "state": "AR", "street": "468 N CURTIS AVE", "postcode": "72751"}}},
{"geometry": {"type": "Point", "coordinates": [-94.1157789944, 36.4456648737]}, "type": "Feature", "properties": {"collection_times": [{"days": "Mon-Fri", "time": "4:30pm"}, {"days": "Sat", "time": "11:00am"}, {"days": "Sun", "time": "Closed"}], "id": "7275100004", "name": "USPS COLLECTION BOX - PO LOBBY", "address": {"city": "PEA RIDGE", "state": "AR", "street": "468 N CURTIS AVE", "postcode": "72751"}}},
{"geometry": {"type": "Point", "coordinates": [-94.1157789944, 36.4456648737]}, "type": "Feature", "properties": {"collection_times": [{"days": "Mon-Fri", "time": "4:30pm"}, {"days": "Sat", "time": "11:00am"}, {"days": "Sun", "time": "Closed"}], "id": "7275100005", "name": "USPS COLLECTION BOX - PO LOBBY", "address": {"city": "PEA RIDGE", "state": "AR", "street": "468 N CURTIS AVE", "postcode": "72751"}}},
{"geometry": {"type": "Point", "coordinates": [-93.6496400057, 35.8167987841]}, "type": "Feature", "properties": {"collection_times": [{"days": "Mon-Fri", "time": "2:15pm"}, {"days": "Sat", "time": "12:15pm"}, {"days": "Sun", "time": "Closed"}], "id": "7275200001", "name": "USPS COLLECTION BOX - BLUE BOX", "address": {"city": "PETTIGREW", "state": "AR", "street": "23170 HIGHWAY 16", "postcode": "72752"}}},
{"geometry": {"type": "Point", "coordinates": [-93.6496400057, 35.8167987841]}, "type": "Feature", "properties": {"collection_times": [{"days": "Mon-Fri", "time": "2:15pm"}, {"days": "Sat", "time": "12:15pm"}, {"days": "Sun", "time": "Closed"}], "id": "7275200002", "name": "USPS COLLECTION BOX - PO LOBBY", "address": {"city": "PETTIGREW", "state": "AR", "street": "23170 HIGHWAY 16", "postcode": "72752"}}},
{"geometry": {"type": "Point", "coordinates": [-94.3189439706, 35.9756497778]}, "type": "Feature", "properties": {"collection_times": [{"days": "Mon-Fri", "time": "4:30pm"}, {"days": "Sat", "time": "1:00pm"}, {"days": "Sun", "time": "Closed"}], "id": "7275300001", "name": "USPS COLLECTION BOX - BLUE BOX", "address": {"city": "PRAIRIE GROVE", "state": "AR", "street": "221 W BUCHANAN ST", "postcode": "72753"}}},
{"geometry": {"type": "Point", "coordinates": [-94.3189439706, 35.9756497778]}, "type": "Feature", "properties": {"collection_times": [{"days": "Mon-Fri", "time": "4:30pm"}, {"days": "Sat", "time": "1:00pm"}, {"days": "Sun", "time": "Closed"}], "id": "7275300002", "name": "USPS COLLECTION BOX - PO LOBBY", "address": {"city": "PRAIRIE GROVE", "state": "AR", "street": "221 W BUCHANAN ST", "postcode": "72753"}}},
{"geometry": {"type": "Point", "coordinates": [-94.3189439706, 35.9756497778]}, "type": "Feature", "properties": {"collection_times": [{"days": "Mon-Fri", "time": "4:30pm"}, {"days": "Sat", "time": "1:00pm"}, {"days": "Sun", "time": "Closed"}], "id": "7275300003", "name": "USPS COLLECTION BOX - BLUE BOX", "address": {"city": "PRAIRIE GROVE", "state": "AR", "street": "221 W BUCHANAN ST", "postcode": "72753"}}},
{"geometry": {"type": "Point", "coordinates": [-94.3189439706, 35.9756497778]}, "type": "Feature", "properties": {"collection_times": [{"days": "Mon-Fri", "time": "4:30pm"}, {"days": "Sat", "time": "1:00pm"}, {"days": "Sun", "time": "Closed"}], "id": "7275300004", "name": "USPS COLLECTION BOX - PO LOBBY", "address": {"city": "PRAIRIE GROVE", "state": "AR", "street": "221 W BUCHANAN ST", "postcode": "72753"}}},
{"geometry": {"type": "Point", "coordinates": [-94.1263891987, 36.3117301561]}, "type": "Feature", "properties": {"collection_times": [{"days": "Mon-Sat", "time": "2:00pm"}, {"days": "Sun", "time": "Closed"}], "id": "7275600002", "name": "USPS COLLECTION BOX - BLUE BOX", "address": {"city": "ROGERS", "state": "AR", "street": "1618 S 8TH ST", "postcode": "72756"}}},
{"geometry": {"type": "Point", "coordinates": [-94.0913517361, 36.3652473838]}, "type": "Feature", "properties": {"collection_times": [{"days": "Mon-Sat", "time": "3:00pm"}, {"days": "Sun", "time": "Closed"}], "id": "7275600008", "name": "USPS COLLECTION BOX - BLUE BOX", "address": {"city": "ROGERS", "state": "AR", "street": "5 HALSTED CIR", "postcode": "72756"}}},
{"geometry": {"type": "Point", "coordinates": [-94.148027473, 36.3391291789]}, "type": "Feature", "properties": {"collection_times": [{"days": "Mon-Sat", "time": "9:00am"}, {"days": "Sun", "time": "Closed"}], "id": "7275600010", "name": "USPS COLLECTION BOX - BLUE BOX", "address": {"city": "ROGERS", "state": "AR", "street": "2200 W LOCUST ST", "postcode": "72756"}}},
{"geometry": {"type": "Point", "coordinates": [-94.118639073, 36.3333144567]}, "type": "Feature", "properties": {"collection_times": [{"days": "Mon-Sat", "time": "12:00pm"}, {"days": "Sun", "time": "Closed"}], "id": "7275600011", "name": "USPS COLLECTION BOX - BLUE BOX", "address": {"city": "ROGERS", "state": "AR", "street": "109 N 3RD ST", "postcode": "72756"}}},
{"geometry": {"type": "Point", "coordinates": [-94.118404405, 36.335584731]}, "type": "Feature", "properties": {"collection_times": [{"days": "Mon-Sat", "time": "12:00pm"}, {"days": "Sun", "time": "Closed"}], "id": "7275600012", "name": "USPS COLLECTION BOX - BLUE BOX", "address": {"city": "ROGERS", "state": "AR", "street": "306 N 3RD ST", "postcode": "72756"}}},
{"geometry": {"type": "Point", "coordinates": [-94.1625289129, 36.338440751]}, "type": "Feature", "properties": {"collection_times": [{"days": "Mon-Sat", "time": "10:00am"}, {"days": "Sun", "time": "Closed"}], "id": "7275600014", "name": "USPS COLLECTION BOX - BLUE BOX", "address": {"city": "ROGERS", "state": "AR", "street": "2300 W BEECHWOOD DR", "postcode": "72756"}}},
{"geometry": {"type": "Point", "coordinates": [-94.143668793, 36.3340791394]}, "type": "Feature", "properties": {"collection_times": [{"days": "Mon-Sat", "time": "3:00pm"}, {"days": "Sun", "time": "Closed"}], "id": "7275600015", "name": "USPS COLLECTION BOX - BLUE BOX", "address": {"city": "ROGERS", "state": "AR", "street": "100 N DIXIELAND RD", "postcode": "72756"}}},
{"geometry": {"type": "Point", "coordinates": [-94.1218196345, 36.3480393832]}, "type": "Feature", "properties": {"collection_times": [{"days": "Mon-Sat", "time": "10:30am"}, {"days": "Sun", "time": "Closed"}], "id": "7275600016", "name": "USPS COLLECTION BOX - BLUE BOX", "address": {"city": "ROGERS", "state": "AR", "street": "601 W EASY ST", "postcode": "72756"}}},
{"geometry": {"type": "Point", "coordinates": [-94.1162367566, 36.3545702515]}, "type": "Feature", "properties": {"collection_times": [{"days": "Mon-Sat", "time": "2:00pm"}, {"days": "Sun", "time": "Closed"}], "id": "7275600017", "name": "USPS COLLECTION BOX - BLUE BOX", "address": {"city": "ROGERS", "state": "AR", "street": "2403 N 2ND ST", "postcode": "72756"}}},
{"geometry": {"type": "Point", "coordinates": [-94.155255595, 36.3624685536]}, "type": "Feature", "properties": {"collection_times": [{"days": "Mon-Sat", "time": "12:00pm"}, {"days": "Sun", "time": "Closed"}], "id": "7275600024", "name": "USPS COLLECTION BOX - BLUE BOX", "address": {"city": "ROGERS", "state": "AR", "street": "3101 N WOODS LN", "postcode": "72756"}}},
{"geometry": {"type": "Point", "coordinates": [-94.0617774989, 36.3420069015]}, "type": "Feature", "properties": {"collection_times": [{"days": "Mon-Sat", "time": "11:00am"}, {"days": "Sun", "time": "Closed"}], "id": "7275600026", "name": "USPS COLLECTION BOX - BLUE BOX", "address": {"city": "ROGERS", "state": "AR", "street": "14442 E HIGHWAY 12", "postcode": "72756"}}},
{"geometry": {"type": "Point", "coordinates": [-94.1478121266, 36.3583797109]}, "type": "Feature", "properties": {"collection_times": [{"days": "Mon-Sat", "time": "10:00am"}, {"days": "Sun", "time": "Closed"}], "id": "7275600028", "name": "USPS COLLECTION BOX - BLUE BOX", "address": {"city": "ROGERS", "state": "AR", "street": "2900 N 22ND ST", "postcode": "72756"}}},
{"geometry": {"type": "Point", "coordinates": [-94.1652355311, 36.3462305841]}, "type": "Feature", "properties": {"collection_times": [{"days": "Mon-Sat", "time": "9:00am"}, {"days": "Sun", "time": "Closed"}], "id": "7275600029", "name": "USPS COLLECTION BOX - BLUE BOX", "address": {"city": "ROGERS", "state": "AR", "street": "1100 N 31ST ST", "postcode": "72756"}}},
{"geometry": {"type": "Point", "coordinates": [-94.12563847, 36.3360005314]}, "type": "Feature", "properties": {"collection_times": [{"days": "Mon-Fri", "time": "5:15pm"}, {"days": "Sat", "time": "4:15pm"}, {"days": "Sun", "time": "Closed"}], "id": "7275600032", "name": "USPS COLLECTION BOX - BLUE BOX", "address": {"city": "ROGERS", "state": "AR", "street": "401 N 8TH ST", "postcode": "72756"}}},
{"geometry": {"type": "Point", "coordinates": [-94.12563847, 36.3360005314]}, "type": "Feature", "properties": {"collection_times": [{"days": "Mon-Fri", "time": "5:15pm"}, {"days": "Sat", "time": "4:15pm"}, {"days": "Sun", "time": "Closed"}], "id": "7275600033", "name": "USPS COLLECTION BOX - BLUE BOX", "address": {"city": "ROGERS", "state": "AR", "street": "401 N 8TH ST", "postcode": "72756"}}},
{"geometry": {"type": "Point", "coordinates": [-94.1173834105, 36.3328680827]}, "type": "Feature", "properties": {"collection_times": [{"days": "Mon-Sat", "time": "12:00pm"}, {"days": "Sun", "time": "Closed"}], "id": "7275600040", "name": "USPS COLLECTION BOX - BLUE BOX", "address": {"city": "ROGERS", "state": "AR", "street": "123 S 2ND ST", "postcode": "72756"}}},
{"geometry": {"type": "Point", "coordinates": [-94.0940194985, 36.343041807]}, "type": "Feature", "properties": {"collection_times": [{"days": "Mon-Fri", "time": "3:00pm"}, {"days": "Sat", "time": "10:00am"}, {"days": "Sun", "time": "Closed"}], "id": "7275600048", "name": "USPS COLLECTION BOX - BLUE BOX", "address": {"city": "ROGERS", "state": "AR", "street": "901 N 47TH ST", "postcode": "72756"}}},
{"geometry": {"type": "Point", "coordinates": [-92.4388840948, 34.8999269099]}, "type": "Feature", "properties": {"collection_times": [{"days": "Mon-Sat", "time": "3:00pm"}, {"days": "Sun", "time": "Closed"}], "id": "7275600058", "name": "USPS COLLECTION BOX - BLUE BOX", "address": {"city": "ROGERS", "state": "AR", "street": "5305 W VILLAGE PKWY", "postcode": "72756"}}},
{"geometry": {"type": "Point", "coordinates": [-94.1429878419, 36.3637003771]}, "type": "Feature", "properties": {"collection_times": [{"days": "Mon-Sat", "time": "12:00pm"}, {"days": "Sun", "time": "Closed"}], "id": "7275600059", "name": "USPS COLLECTION BOX - BLUE BOX", "address": {"city": "ROGERS", "state": "AR", "street": "2900 N DIXIELAND RD", "postcode": "72756"}}},
{"geometry": {"type": "Point", "coordinates": [-94.1087179842, 36.3223804478]}, "type": "Feature", "properties": {"collection_times": [{"days": "Mon-Sat", "time": "1:30pm"}, {"days": "Sun", "time": "Closed"}], "id": "7275600060", "name": "USPS COLLECTION BOX - BLUE BOX", "address": {"city": "ROGERS", "state": "AR", "street": "1203 MONTE NE RD", "postcode": "72756"}}},
{"geometry": {"type": "Point", "coordinates": [-94.12563847, 36.3360005314]}, "type": "Feature", "properties": {"collection_times": [{"days": "Mon-Fri", "time": "5:15pm"}, {"days": "Sat", "time": "4:15pm"}, {"days": "Sun", "time": "Closed"}], "id": "7275600061", "name": "USPS COLLECTION BOX - PO LOBBY", "address": {"city": "ROGERS", "state": "AR", "street": "401 N 8TH ST", "postcode": "72756"}}},
{"geometry": {"type": "Point", "coordinates": [-94.12563847, 36.3360005314]}, "type": "Feature", "properties": {"collection_times": [{"days": "Mon-Fri", "time": "5:15pm"}, {"days": "Sat", "time": "4:15pm"}, {"days": "Sun", "time": "Closed"}], "id": "7275600062", "name": "USPS COLLECTION BOX - PO LOBBY", "address": {"city": "ROGERS", "state": "AR", "street": "401 N 8TH ST", "postcode": "72756"}}},
{"geometry": {"type": "Point", "coordinates": [-94.12563847, 36.3360005314]}, "type": "Feature", "properties": {"collection_times": [{"days": "Mon-Fri", "time": "5:15pm"}, {"days": "Sat", "time": "4:15pm"}, {"days": "Sun", "time": "Closed"}], "id": "7275600063", "name": "USPS COLLECTION BOX - PO LOBBY", "address": {"city": "ROGERS", "state": "AR", "street": "401 N 8TH ST", "postcode": "72756"}}},
{"geometry": {"type": "Point", "coordinates": [-94.1866032705, 36.3119744461]}, "type": "Feature", "properties": {"collection_times": [{"days": "Mon-Fri", "time": "3:00pm"}, {"days": "Sat", "time": "2:00pm"}, {"days": "Sun", "time": "Closed"}], "id": "7275600065", "name": "USPS COLLECTION BOX - BLUE BOX", "address": {"city": "ROGERS", "state": "AR", "street": "5417 PINNACLE POINT DR", "postcode": "72756"}}},
{"geometry": {"type": "Point", "coordinates": [-94.1263074712, 36.309696981]}, "type": "Feature", "properties": {"collection_times": [{"days": "Mon-Sat", "time": "2:00pm"}, {"days": "Sun", "time": "Closed"}], "id": "7275600066", "name": "USPS COLLECTION BOX - BLUE BOX", "address": {"city": "ROGERS", "state": "AR", "street": "1817 S 8TH ST", "postcode": "72756"}}},
{"geometry": {"type": "Point", "coordinates": [-94.12563847, 36.3360005314]}, "type": "Feature", "properties": {"collection_times": [{"days": "Mon-Fri", "time": "5:15pm"}, {"days": "Sat", "time": "4:15pm"}, {"days": "Sun", "time": "Closed"}], "id": "7275600069", "name": "USPS COLLECTION BOX - APC", "address": {"city": "ROGERS", "state": "AR", "street": "401 N 8TH ST", "postcode": "72756"}}},
{"geometry": {"type": "Point", "coordinates": [-94.143530162, 36.3341966682]}, "type": "Feature", "properties": {"collection_times": [{"days": "Mon-Sat", "time": "1:00pm"}, {"days": "Sun", "time": "Closed"}], "id": "7275600070", "name": "USPS COLLECTION BOX - BLUE BOX", "address": {"city": "ROGERS", "state": "AR", "street": "215 S 8TH ST", "postcode": "72756"}}},
{"geometry": {"type": "Point", "coordinates": [-94.12563847, 36.3360005314]}, "type": "Feature", "properties": {"collection_times": [{"days": "Mon-Fri", "time": "5:15pm"}, {"days": "Sat", "time": "4:15pm"}, {"days": "Sun", "time": "Closed"}], "id": "7275600072", "name": "USPS COLLECTION BOX - PO LOBBY", "address": {"city": "ROGERS", "state": "AR", "street": "401 N 8TH ST", "postcode": "72756"}}},
{"geometry": {"type": "Point", "coordinates": [-94.12563847, 36.3360005314]}, "type": "Feature", "properties": {"collection_times": [{"days": "Mon-Fri", "time": "5:15pm"}, {"days": "Sat", "time": "4:15pm"}, {"days": "Sun", "time": "Closed"}], "id": "7275600073", "name": "USPS COLLECTION BOX - PO LOBBY", "address": {"city": "ROGERS", "state": "AR", "street": "401 N 8TH ST", "postcode": "72756"}}},
{"geometry": {"type": "Point", "coordinates": [-94.12563847, 36.3360005314]}, "type": "Feature", "properties": {"collection_times": [{"days": "Mon-Fri", "time": "5:15pm"}, {"days": "Sat", "time": "4:15pm"}, {"days": "Sun", "time": "Closed"}], "id": "7275600074", "name": "USPS COLLECTION BOX - PO LOBBY", "address": {"city": "ROGERS", "state": "AR", "street": "401 N 8TH ST", "postcode": "72756"}}},
{"geometry": {"type": "Point", "coordinates": [-94.138601394, 36.3338625952]}, "type": "Feature", "properties": {"collection_times": [{"days": "Mon-Sat", "time": "10:00am"}, {"days": "Sun", "time": "Closed"}], "id": "7275600075", "name": "USPS COLLECTION BOX - BLUE BOX", "address": {"city": "ROGERS", "state": "AR", "street": "1428 W WALNUT ST", "postcode": "72756"}}},
{"geometry": {"type": "Point", "coordinates": [-94.1397204614, 36.3120422333]}, "type": "Feature", "properties": {"collection_times": [{"days": "Mon-Sat", "time": "9:00am"}, {"days": "Sun", "time": "Closed"}], "id": "7275800000", "name": "USPS COLLECTION BOX - BLUE BOX", "address": {"city": "ROGERS", "state": "AR", "street": "1900 S 17TH ST", "postcode": "72758"}}},
{"geometry": {"type": "Point", "coordinates": [-94.1457936009, 36.3340044584]}, "type": "Feature", "properties": {"collection_times": [{"days": "Mon-Fri", "time": "1:30pm"}, {"days": "Sat", "time": "12:00pm"}, {"days": "Sun", "time": "Closed"}], "id": "7275800008", "name": "USPS COLLECTION BOX - BLUE BOX", "address": {"city": "ROGERS", "state": "AR", "street": "100 S 20TH ST", "postcode": "72758"}}},
{"geometry": {"type": "Point", "coordinates": [-94.148988163, 36.3039411025]}, "type": "Feature", "properties": {"collection_times": [{"days": "Mon-Sat", "time": "10:00am"}, {"days": "Sun", "time": "Closed"}], "id": "7275800009", "name": "USPS COLLECTION BOX - BLUE BOX", "address": {"city": "ROGERS", "state": "AR", "street": "2807 W AJAX AVE", "postcode": "72758"}}},
{"geometry": {"type": "Point", "coordinates": [-94.1395746002, 36.2997193582]}, "type": "Feature", "properties": {"collection_times": [{"days": "Mon-Sat", "time": "12:00pm"}, {"days": "Sun", "time": "Closed"}], "id": "7275800011", "name": "USPS COLLECTION BOX - BLUE BOX", "address": {"city": "ROGERS", "state": "AR", "street": "2400 W PLEASANT GROVE RD", "postcode": "72758"}}},
{"geometry": {"type": "Point", "coordinates": [-93.766604624, 35.8240851023]}, "type": "Feature", "properties": {"collection_times": [{"days": "Mon-Fri", "time": "2:35pm"}, {"days": "Sat", "time": "11:45am"}, {"days": "Sun", "time": "Closed"}], "id": "7276000001", "name": "USPS COLLECTION BOX - BLUE BOX", "address": {"city": "SAINT PAUL", "state": "AR", "street": "190 5TH ST", "postcode": "72760"}}},
{"geometry": {"type": "Point", "coordinates": [-93.766604624, 35.8240851023]}, "type": "Feature", "properties": {"collection_times": [{"days": "Mon-Fri", "time": "1:30pm"}, {"days": "Sat", "time": "11:45am"}, {"days": "Sun", "time": "Closed"}], "id": "7276000002", "name": "USPS COLLECTION BOX - PO LOBBY", "address": {"city": "SAINT PAUL", "state": "AR", "street": "190 5TH ST", "postcode": "72760"}}},
{"geometry": {"type": "Point", "coordinates": [-94.5407235178, 36.1850844765]}, "type": "Feature", "properties": {"collection_times": [{"days": "Mon-Fri", "time": "2:00pm"}, {"days": "Sat", "time": "1:00pm"}, {"days": "Sun", "time": "Closed"}], "id": "7276100001", "name": "USPS COLLECTION BOX - BLUE BOX", "address": {"city": "SILOAM SPRINGS", "state": "AR", "street": "101 S BROADWAY ST", "postcode": "72761"}}},
{"geometry": {"type": "Point", "coordinates": [-94.52374405, 36.1958021551]}, "type": "Feature", "properties": {"collection_times": [{"days": "Mon-Fri", "time": "2:00pm"}, {"days": "Sat", "time": "1:00pm"}, {"days": "Sun", "time": "Closed"}], "id": "7276100008", "name": "USPS COLLECTION BOX - BLUE BOX", "address": {"city": "SILOAM SPRINGS", "state": "AR", "street": "1720 CHERI WHITLOCK DR", "postcode": "72761"}}},
{"geometry": {"type": "Point", "coordinates": [-94.5400206635, 36.1724831975]}, "type": "Feature", "properties": {"collection_times": [{"days": "Mon-Fri", "time": "2:00pm"}, {"days": "Sat", "time": "1:00pm"}, {"days": "Sun", "time": "Closed"}], "id": "7276100009", "name": "USPS COLLECTION BOX - BLUE BOX", "address": {"city": "SILOAM SPRINGS", "state": "AR", "street": "1099 S MAXWELL ST", "postcode": "72761"}}},
{"geometry": {"type": "Point", "coordinates": [-94.5501027986, 36.1784930676]}, "type": "Feature", "properties": {"collection_times": [{"days": "Mon-Fri", "time": "5:00pm"}, {"days": "Sat", "time": "4:00pm"}, {"days": "Sun", "time": "Closed"}], "id": "7276100014", "name": "USPS COLLECTION BOX - BLUE BOX", "address": {"city": "SILOAM SPRINGS", "state": "AR", "street": "828 S CARL ST", "postcode": "72761"}}},
{"geometry": {"type": "Point", "coordinates": [-94.5501027986, 36.1784930676]}, "type": "Feature", "properties": {"collection_times": [{"days": "Mon-Fri", "time": "5:00pm"}, {"days": "Sat", "time": "4:00pm"}, {"days": "Sun", "time": "Closed"}], "id": "7276100015", "name": "USPS COLLECTION BOX - PO LOBBY", "address": {"city": "SILOAM SPRINGS", "state": "AR", "street": "828 S CARL ST", "postcode": "72761"}}},
{"geometry": {"type": "Point", "coordinates": [-94.5501027986, 36.1784930676]}, "type": "Feature", "properties": {"collection_times": [{"days": "Mon-Fri", "time": "5:00pm"}, {"days": "Sat", "time": "4:00pm"}, {"days": "Sun", "time": "Closed"}], "id": "7276100016", "name": "USPS COLLECTION BOX - PO LOBBY", "address": {"city": "SILOAM SPRINGS", "state": "AR", "street": "828 S CARL ST", "postcode": "72761"}}},
{"geometry": {"type": "Point", "coordinates": [-94.5501027986, 36.1784930676]}, "type": "Feature", "properties": {"collection_times": [{"days": "Mon-Fri", "time": "5:00pm"}, {"days": "Sat", "time": "4:00pm"}, {"days": "Sun", "time": "Closed"}], "id": "7276100017", "name": "USPS COLLECTION BOX - BLUE BOX", "address": {"city": "SILOAM SPRINGS", "state": "AR", "street": "828 S CARL ST", "postcode": "72761"}}},
{"geometry": {"type": "Point", "coordinates": [-94.5127242266, 36.1811724995]}, "type": "Feature", "properties": {"collection_times": [{"days": "Mon-Fri", "time": "2:00pm"}, {"days": "Sat", "time": "1:00pm"}, {"days": "Sun", "time": "Closed"}], "id": "7276100019", "name": "USPS COLLECTION BOX - BLUE BOX", "address": {"city": "SILOAM SPRINGS", "state": "AR", "street": "2901 HIGHWAY 412 E", "postcode": "72761"}}},
{"geometry": {"type": "Point", "coordinates": [-94.15482967, 36.189163738]}, "type": "Feature", "properties": {"collection_times": [{"days": "Mon-Sat", "time": "10:00am"}, {"days": "Sun", "time": "Closed"}], "id": "7276200000", "name": "USPS COLLECTION BOX - BLUE BOX", "address": {"city": "SPRINGDALE", "state": "AR", "street": "1902 W HUNTSVILLE AVE", "postcode": "72762"}}},
{"geometry": {"type": "Point", "coordinates": [-94.1619026677, 36.1750542348]}, "type": "Feature", "properties": {"collection_times": [{"days": "Mon-Sat", "time": "3:00pm"}, {"days": "Sun", "time": "Closed"}], "id": "7276200001", "name": "USPS COLLECTION BOX - BLUE BOX", "address": {"city": "SPRINGDALE", "state": "AR", "street": "2804 W SUNSET AVE", "postcode": "72762"}}},
{"geometry": {"type": "Point", "coordinates": [-94.1931949579, 36.1756242092]}, "type": "Feature", "properties": {"collection_times": [{"days": "Mon-Sat", "time": "8:00am"}, {"days": "Sun", "time": "Closed"}], "id": "7276200006", "name": "USPS COLLECTION BOX - BLUE BOX", "address": {"city": "SPRINGDALE", "state": "AR", "street": "5660 W SUNSET AVE", "postcode": "72762"}}},
{"geometry": {"type": "Point", "coordinates": [-94.1380497275, 36.2080316805]}, "type": "Feature", "properties": {"collection_times": [{"days": "Mon-Sat", "time": "12:00pm"}, {"days": "Sun", "time": "Closed"}], "id": "7276400003", "name": "USPS COLLECTION BOX - BLUE BOX", "address": {"city": "SPRINGDALE", "state": "AR", "street": "2600 S OLD MISSOURI RD", "postcode": "72764"}}},
{"geometry": {"type": "Point", "coordinates": [-94.116041315, 36.184685971]}, "type": "Feature", "properties": {"collection_times": [{"days": "Mon-Sat", "time": "11:00am"}, {"days": "Sun", "time": "Closed"}], "id": "7276400005", "name": "USPS COLLECTION BOX - BLUE BOX", "address": {"city": "SPRINGDALE", "state": "AR", "street": "1116 E EMMA ST", "postcode": "72764"}}},
{"geometry": {"type": "Point", "coordinates": [-94.1298685057, 36.1851396238]}, "type": "Feature", "properties": {"collection_times": [{"days": "Mon-Sat", "time": "3:15pm"}, {"days": "Sun", "time": "Closed"}], "id": "7276400006", "name": "USPS COLLECTION BOX - BLUE BOX", "address": {"city": "SPRINGDALE", "state": "AR", "street": "206 E EMMA", "postcode": "72764"}}},
{"geometry": {"type": "Point", "coordinates": [-94.1297594339, 36.1864127804]}, "type": "Feature", "properties": {"collection_times": [{"days": "Mon-Sat", "time": "3:20pm"}, {"days": "Sun", "time": "Closed"}], "id": "7276400007", "name": "USPS COLLECTION BOX - BLUE BOX", "address": {"city": "SPRINGDALE", "state": "AR", "street": "201 SPRING ST", "postcode": "72764"}}},
{"geometry": {"type": "Point", "coordinates": [-94.139094151, 36.170741711]}, "type": "Feature", "properties": {"collection_times": [{"days": "Mon-Sat", "time": "3:00pm"}, {"days": "Sun", "time": "Closed"}], "id": "7276400011", "name": "USPS COLLECTION BOX - BLUE BOX", "address": {"city": "SPRINGDALE", "state": "AR", "street": "1300 N THOMPSON ST", "postcode": "72764"}}},
{"geometry": {"type": "Point", "coordinates": [-94.1420089528, 36.1814643189]}, "type": "Feature", "properties": {"collection_times": [{"days": "Mon-Sat", "time": "12:00pm"}, {"days": "Sun", "time": "Closed"}], "id": "7276400013", "name": "USPS COLLECTION BOX - BLUE BOX", "address": {"city": "SPRINGDALE", "state": "AR", "street": "1205 W MAPLE AVE", "postcode": "72764"}}},
{"geometry": {"type": "Point", "coordinates": [-94.1436859938, 36.167300769]}, "type": "Feature", "properties": {"collection_times": [{"days": "Mon-Sat", "time": "10:00am"}, {"days": "Sun", "time": "Closed"}], "id": "7276400017", "name": "USPS COLLECTION BOX - BLUE BOX", "address": {"city": "SPRINGDALE", "state": "AR", "street": "2004 S PLEASANT ST", "postcode": "72764"}}},
{"geometry": {"type": "Point", "coordinates": [-94.1389511125, 36.1745035506]}, "type": "Feature", "properties": {"collection_times": [{"days": "Mon-Sat", "time": "10:00am"}, {"days": "Sun", "time": "Closed"}], "id": "7276400018", "name": "USPS COLLECTION BOX - BLUE BOX", "address": {"city": "SPRINGDALE", "state": "AR", "street": "1101 S THOMPSON ST", "postcode": "72764"}}},
{"geometry": {"type": "Point", "coordinates": [-94.1313017323, 36.1819966174]}, "type": "Feature", "properties": {"collection_times": [{"days": "Mon-Fri", "time": "5:00pm"}, {"days": "Sat", "time": "4:30pm"}, {"days": "Sun", "time": "Closed"}], "id": "7276400037", "name": "USPS COLLECTION BOX - BLUE BOX", "address": {"city": "SPRINGDALE", "state": "AR", "street": "429 HOLCOMB ST", "postcode": "72764"}}},
{"geometry": {"type": "Point", "coordinates": [-94.1313017323, 36.1819966174]}, "type": "Feature", "properties": {"collection_times": [{"days": "Mon-Fri", "time": "5:00pm"}, {"days": "Sat", "time": "4:30pm"}, {"days": "Sun", "time": "Closed"}], "id": "7276400038", "name": "USPS COLLECTION BOX - PO LOBBY", "address": {"city": "SPRINGDALE", "state": "AR", "street": "429 HOLCOMB ST", "postcode": "72764"}}},
{"geometry": {"type": "Point", "coordinates": [-94.1147860912, 36.1669222968]}, "type": "Feature", "properties": {"collection_times": [{"days": "Mon-Sat", "time": "11:30am"}, {"days": "Sun", "time": "Closed"}], "id": "7276400043", "name": "USPS COLLECTION BOX - BLUE BOX", "address": {"city": "SPRINGDALE", "state": "AR", "street": "2012 E ROBINSON AVE", "postcode": "72764"}}},
{"geometry": {"type": "Point", "coordinates": [-94.1360382097, 36.1813369205]}, "type": "Feature", "properties": {"collection_times": [{"days": "Mon-Sat", "time": "12:00pm"}, {"days": "Sun", "time": "Closed"}], "id": "7276400044", "name": "USPS COLLECTION BOX - BLUE BOX", "address": {"city": "SPRINGDALE", "state": "AR", "street": "609 W MAPLE AVE", "postcode": "72764"}}},
{"geometry": {"type": "Point", "coordinates": [-94.1313017323, 36.1819966174]}, "type": "Feature", "properties": {"collection_times": [{"days": "Mon-Fri", "time": "5:00pm"}, {"days": "Sat", "time": "4:30pm"}, {"days": "Sun", "time": "Closed"}], "id": "7276400045", "name": "USPS COLLECTION BOX - BLUE BOX", "address": {"city": "SPRINGDALE", "state": "AR", "street": "429 HOLCOMB ST", "postcode": "72764"}}},
{"geometry": {"type": "Point", "coordinates": [-94.1437407843, 36.1556467235]}, "type": "Feature", "properties": {"collection_times": [{"days": "Mon-Sat", "time": "9:45am"}, {"days": "Sun", "time": "Closed"}], "id": "7276400047", "name": "USPS COLLECTION BOX - BLUE BOX", "address": {"city": "SPRINGDALE", "state": "AR", "street": "3291 S THOMPSON ST", "postcode": "72764"}}},
{"geometry": {"type": "Point", "coordinates": [-94.1419444988, 36.1670482565]}, "type": "Feature", "properties": {"collection_times": [{"days": "Mon-Sat", "time": "10:00am"}, {"days": "Sun", "time": "Closed"}], "id": "7276400051", "name": "USPS COLLECTION BOX - BLUE BOX", "address": {"city": "SPRINGDALE", "state": "AR", "street": "2012 S THOMPSON ST", "postcode": "72764"}}},
{"geometry": {"type": "Point", "coordinates": [-94.1220154775, 36.1669635876]}, "type": "Feature", "properties": {"collection_times": [{"days": "Mon-Sat", "time": "8:00am"}, {"days": "Sun", "time": "Closed"}], "id": "7276400056", "name": "USPS COLLECTION BOX - BLUE BOX", "address": {"city": "SPRINGDALE", "state": "AR", "street": "1301 E ROBINSON AVE", "postcode": "72764"}}},
{"geometry": {"type": "Point", "coordinates": [-94.1313017323, 36.1819966174]}, "type": "Feature", "properties": {"collection_times": [{"days": "Mon-Fri", "time": "5:00pm"}, {"days": "Sat", "time": "4:30pm"}, {"days": "Sun", "time": "Closed"}], "id": "7276400060", "name": "USPS COLLECTION BOX - PO LOBBY", "address": {"city": "SPRINGDALE", "state": "AR", "street": "429 HOLCOMB ST", "postcode": "72764"}}},
{"geometry": {"type": "Point", "coordinates": [-94.1313017323, 36.1819966174]}, "type": "Feature", "properties": {"collection_times": [{"days": "Mon-Fri", "time": "5:00pm"}, {"days": "Sat", "time": "4:30pm"}, {"days": "Sun", "time": "Closed"}], "id": "7276400061", "name": "USPS COLLECTION BOX - PO LOBBY", "address": {"city": "SPRINGDALE", "state": "AR", "street": "429 HOLCOMB ST", "postcode": "72764"}}},
{"geometry": {"type": "Point", "coordinates": [-94.1622936737, 36.1728288386]}, "type": "Feature", "properties": {"collection_times": [{"days": "Mon-Sat", "time": "5:00pm"}, {"days": "Sun", "time": "Closed"}], "id": "7276400062", "name": "USPS COLLECTION BOX - PO LOBBY", "address": {"city": "SPRINGDALE", "state": "AR", "street": "2811 SPRINGDALE AVE", "postcode": "72764"}}},
{"geometry": {"type": "Point", "coordinates": [-94.1622936737, 36.1728288386]}, "type": "Feature", "properties": {"collection_times": [{"days": "Mon-Sat", "time": "5:00pm"}, {"days": "Sun", "time": "Closed"}], "id": "7276400063", "name": "USPS COLLECTION BOX - PO LOBBY", "address": {"city": "SPRINGDALE", "state": "AR", "street": "2811 SPRINGDALE AVE", "postcode": "72764"}}},
{"geometry": {"type": "Point", "coordinates": [-94.1622936737, 36.1728288386]}, "type": "Feature", "properties": {"collection_times": [{"days": "Mon-Sat", "time": "5:00pm"}, {"days": "Sun", "time": "Closed"}], "id": "7276400064", "name": "USPS COLLECTION BOX - PO LOBBY", "address": {"city": "SPRINGDALE", "state": "AR", "street": "2811 SPRINGDALE AVE", "postcode": "72764"}}},
{"geometry": {"type": "Point", "coordinates": [-94.1622936737, 36.1728288386]}, "type": "Feature", "properties": {"collection_times": [{"days": "Mon-Sat", "time": "5:00pm"}, {"days": "Sun", "time": "Closed"}], "id": "7276400065", "name": "USPS COLLECTION BOX - BLUE BOX", "address": {"city": "SPRINGDALE", "state": "AR", "street": "2811 SPRINGDALE AVE", "postcode": "72764"}}},
{"geometry": {"type": "Point", "coordinates": [-94.1622936737, 36.1728288386]}, "type": "Feature", "properties": {"collection_times": [{"days": "Mon-Sat", "time": "5:00pm"}, {"days": "Sun", "time": "Closed"}], "id": "7276400066", "name": "USPS COLLECTION BOX - BLUE BOX", "address": {"city": "SPRINGDALE", "state": "AR", "street": "2811 SPRINGDALE AVE", "postcode": "72764"}}},
{"geometry": {"type": "Point", "coordinates": [-94.1173120733, 36.1731979077]}, "type": "Feature", "properties": {"collection_times": [{"days": "Mon-Sat", "time": "3:30pm"}, {"days": "Sun", "time": "Closed"}], "id": "7276400067", "name": "USPS COLLECTION BOX - BLUE BOX", "address": {"city": "SPRINGDALE", "state": "AR", "street": "1201 ESI DR", "postcode": "72764"}}},
{"geometry": {"type": "Point", "coordinates": [-94.1622936737, 36.1728288386]}, "type": "Feature", "properties": {"collection_times": [{"days": "Mon-Sat", "time": "5:00pm"}, {"days": "Sun", "time": "Closed"}], "id": "7276400068", "name": "USPS COLLECTION BOX - BLUE BOX", "address": {"city": "SPRINGDALE", "state": "AR", "street": "2811 SPRINGDALE AVE", "postcode": "72764"}}},
{"geometry": {"type": "Point", "coordinates": [-94.1186054702, 36.1568394171]}, "type": "Feature", "properties": {"collection_times": [{"days": "Mon-Fri", "time": "3:30pm"}, {"days": "Sat", "time": "2:30pm"}, {"days": "Sun", "time": "Closed"}], "id": "7276400069", "name": "USPS COLLECTION BOX - BLUE BOX", "address": {"city": "SPRINGDALE", "state": "AR", "street": "3138 S OLD MISSOURI RD", "postcode": "72764"}}},
{"geometry": {"type": "Point", "coordinates": [-94.4585547848, 36.480569497]}, "type": "Feature", "properties": {"collection_times": [{"days": "Mon-Fri", "time": "4:00pm"}, {"days": "Sat", "time": "11:30am"}, {"days": "Sun", "time": "Closed"}], "id": "7276800000", "name": "USPS COLLECTION BOX - BLUE BOX", "address": {"city": "SULPHUR SPRINGS", "state": "AR", "street": "205 S HIBLER ST", "postcode": "72768"}}},
{"geometry": {"type": "Point", "coordinates": [-94.4585516212, 36.4806549132]}, "type": "Feature", "properties": {"collection_times": [{"days": "Mon-Fri", "time": "11:00am"}, {"days": "Sat", "time": "11:30am"}, {"days": "Sun", "time": "Closed"}], "id": "7276800001", "name": "USPS COLLECTION BOX - PO LOBBY", "address": {"city": "SULPHUR SPRINGS", "state": "AR", "street": "205 S HIBLER ST", "postcode": "72768"}}},
{"geometry": {"type": "Point", "coordinates": [-94.4585516212, 36.4806549132]}, "type": "Feature", "properties": {"collection_times": [{"days": "Mon-Fri", "time": "11:00am"}, {"days": "Sat", "time": "11:30am"}, {"days": "Sun", "time": "Closed"}], "id": "7276800002", "name": "USPS COLLECTION BOX - PO LOBBY", "address": {"city": "SULPHUR SPRINGS", "state": "AR", "street": "205 S HIBLER ST", "postcode": "72768"}}},
{"geometry": {"type": "Point", "coordinates": [-94.4913278381, 36.0034438703]}, "type": "Feature", "properties": {"collection_times": [{"days": "Mon-Fri", "time": "4:20pm"}, {"days": "Sat", "time": "11:00am"}, {"days": "Sun", "time": "Closed"}], "id": "7276900001", "name": "USPS COLLECTION BOX - BLUE BOX", "address": {"city": "SUMMERS", "state": "AR", "street": "10591 S HIGHWAY 59", "postcode": "72769"}}},
{"geometry": {"type": "Point", "coordinates": [-94.4913278381, 36.0034438703]}, "type": "Feature", "properties": {"collection_times": [{"days": "Mon-Fri", "time": "4:20pm"}, {"days": "Sat", "time": "11:00am"}, {"days": "Sun", "time": "Closed"}], "id": "7276900002", "name": "USPS COLLECTION BOX - PO LOBBY", "address": {"city": "SUMMERS", "state": "AR", "street": "10591 S HIGHWAY 59", "postcode": "72769"}}},
{"geometry": {"type": "Point", "coordinates": [-94.2349453239, 36.1785528931]}, "type": "Feature", "properties": {"collection_times": [{"days": "Mon-Fri", "time": "4:30pm"}, {"days": "Sat", "time": "11:30am"}, {"days": "Sun", "time": "Closed"}], "id": "7277000003", "name": "USPS COLLECTION BOX - PO LOBBY", "address": {"city": "TONTITOWN", "state": "AR", "street": "246 N BARRINGTON RD", "postcode": "72770"}}},
{"geometry": {"type": "Point", "coordinates": [-94.2349453239, 36.1785528931]}, "type": "Feature", "properties": {"collection_times": [{"days": "Mon-Fri", "time": "4:30pm"}, {"days": "Sat", "time": "11:30am"}, {"days": "Sun", "time": "Closed"}], "id": "7277000005", "name": "USPS COLLECTION BOX - PO LOBBY", "address": {"city": "TONTITOWN", "state": "AR", "street": "246 N BARRINGTON RD", "postcode": "72770"}}},
{"geometry": {"type": "Point", "coordinates": [-94.2349453239, 36.1785528931]}, "type": "Feature", "properties": {"collection_times": [{"days": "Mon-Fri", "time": "4:30pm"}, {"days": "Sat", "time": "11:30am"}, {"days": "Sun", "time": "Closed"}], "id": "7277000007", "name": "USPS COLLECTION BOX - BLUE BOX", "address": {"city": "TONTITOWN", "state": "AR", "street": "246 N BARRINGTON RD", "postcode": "72770"}}},
{"geometry": {"type": "Point", "coordinates": [-93.906031643, 35.9657254798]}, "type": "Feature", "properties": {"collection_times": [{"days": "Mon-Fri", "time": "2:45pm"}, {"days": "Sat", "time": "11:45am"}, {"days": "Sun", "time": "Closed"}], "id": "7277300001", "name": "USPS COLLECTION BOX - BLUE BOX", "address": {"city": "WESLEY", "state": "AR", "street": "1611 HIGHWAY 74", "postcode": "72773"}}},
{"geometry": {"type": "Point", "coordinates": [-94.1871886492, 35.9275080778]}, "type": "Feature", "properties": {"collection_times": [{"days": "Mon-Fri", "time": "4:30pm"}, {"days": "Sat", "time": "1:00pm"}, {"days": "Sun", "time": "Closed"}], "id": "7277400001", "name": "USPS COLLECTION BOX - BLUE BOX", "address": {"city": "WEST FORK", "state": "AR", "street": "207 WEBBER ST", "postcode": "72774"}}},
{"geometry": {"type": "Point", "coordinates": [-94.1871886492, 35.9275080778]}, "type": "Feature", "properties": {"collection_times": [{"days": "Mon-Fri", "time": "4:30pm"}, {"days": "Sat", "time": "1:00pm"}, {"days": "Sun", "time": "Closed"}], "id": "7277400003", "name": "USPS COLLECTION BOX - PO LOBBY", "address": {"city": "WEST FORK", "state": "AR", "street": "207 WEBBER ST", "postcode": "72774"}}},
{"geometry": {"type": "Point", "coordinates": [-94.1871886492, 35.9275080778]}, "type": "Feature", "properties": {"collection_times": [{"days": "Mon-Fri", "time": "4:30pm"}, {"days": "Sat", "time": "1:00pm"}, {"days": "Sun", "time": "Closed"}], "id": "7277400005", "name": "USPS COLLECTION BOX - PO LOBBY", "address": {"city": "WEST FORK", "state": "AR", "street": "207 WEBBER ST", "postcode": "72774"}}},
{"geometry": {"type": "Point", "coordinates": [-93.6065614196, 35.9401868692]}, "type": "Feature", "properties": {"collection_times": [{"days": "Mon-Fri", "time": "11:30am"}, {"days": "Sat", "time": "10:45am"}, {"days": "Sun", "time": "Closed"}], "id": "7277600002", "name": "USPS COLLECTION BOX - PO LOBBY", "address": {"city": "WITTER", "state": "AR", "street": "16734 HIGHWAY 23", "postcode": "72776"}}}
]}
