{"type": "FeatureCollection", "features": [
{"geometry": {"type": "Point", "coordinates": [-93.1583055948, 35.2853925454]}, "type": "Feature", "properties": {"collection_times": [{"days": "Mon-Sat", "time": "11:30am"}, {"days": "Sun", "time": "Closed"}], "id": "7280100002", "name": "USPS COLLECTION BOX - BLUE BOX", "address": {"city": "RUSSELLVILLE", "state": "AR", "street": "500 W MAIN ST", "postcode": "72801"}}},
{"geometry": {"type": "Point", "coordinates": [-93.1337132316, 35.2802721067]}, "type": "Feature", "properties": {"collection_times": [{"days": "Mon-Sat", "time": "10:30am"}, {"days": "Sun", "time": "Closed"}], "id": "7280100004", "name": "USPS COLLECTION BOX - BLUE BOX", "address": {"city": "RUSSELLVILLE", "state": "AR", "street": "401 N ARKANSAS AVE", "postcode": "72801"}}},
{"geometry": {"type": "Point", "coordinates": [-93.1342681548, 35.2665568287]}, "type": "Feature", "properties": {"collection_times": [{"days": "Mon-Sat", "time": "9:00am"}, {"days": "Sun", "time": "Closed"}], "id": "7280100005", "name": "USPS COLLECTION BOX - BLUE BOX", "address": {"city": "RUSSELLVILLE", "state": "AR", "street": "1319 S ARKANSAS AVE", "postcode": "72801"}}},
{"geometry": {"type": "Point", "coordinates": [-93.1706328445, 35.2838056787]}, "type": "Feature", "properties": {"collection_times": [{"days": "Mon-Sat", "time": "3:00pm"}, {"days": "Sun", "time": "Closed"}], "id": "7280100006", "name": "USPS COLLECTION BOX - BLUE BOX", "address": {"city": "RUSSELLVILLE", "state": "AR", "street": "100 SKYLINE DR", "postcode": "72801"}}},
{"geometry": {"type": "Point", "coordinates": [-93.1352583503, 35.2785440713]}, "type": "Feature", "properties": {"collection_times": [{"days": "Mon-Sat", "time": "11:00am"}, {"days": "Sun", "time": "Closed"}], "id": "7280100009", "name": "USPS COLLECTION BOX - BLUE BOX", "address": {"city": "RUSSELLVILLE", "state": "AR", "street": "300 W MAIN ST", "postcode": "72801"}}},
{"geometry": {"type": "Point", "coordinates": [-93.1639670859, 35.2875356846]}, "type": "Feature", "properties": {"collection_times": [{"days": "Mon-Sat", "time": "12:00pm"}, {"days": "Sun", "time": "Closed"}], "id": "7280100016", "name": "USPS COLLECTION BOX - BLUE BOX", "address": {"city": "RUSSELLVILLE", "state": "AR", "street": "3079 E MAIN ST", "postcode": "72801"}}},
{"geometry": {"type": "Point", "coordinates": [-93.150945218, 35.2831158945]}, "type": "Feature", "properties": {"collection_times": [{"days": "Mon-Sat", "time": "3:00pm"}, {"days": "Sun", "time": "Closed"}], "id": "7280100021", "name": "USPS COLLECTION BOX - BLUE BOX", "address": {"city": "RUSSELLVILLE", "state": "AR", "street": "1907 W MAIN ST", "postcode": "72801"}}},
{"geometry": {"type": "Point", "coordinates": [-93.1321271815, 35.2769747446]}, "type": "Feature", "properties": {"collection_times": [{"days": "Mon-Fri", "time": "6:30pm"}, {"days": "Sat", "time": "6:00pm"}, {"days": "Sun", "time": "Closed"}], "id": "7280100022", "name": "USPS COLLECTION BOX - PO LOBBY", "address": {"city": "RUSSELLVILLE", "state": "AR", "street": "203 S BOSTON AVE", "postcode": "72801"}}},
{"geometry": {"type": "Point", "coordinates": [-93.1321271815, 35.2769747446]}, "type": "Feature", "properties": {"collection_times": [{"days": "Mon-Fri", "time": "6:30pm"}, {"days": "Sat", "time": "6:00pm"}, {"days": "Sun", "time": "Closed"}], "id": "7280100025", "name": "USPS COLLECTION BOX - BLUE BOX", "address": {"city": "RUSSELLVILLE", "state": "AR", "street": "203 S BOSTON AVE", "postcode": "72801"}}},
{"geometry": {"type": "Point", "coordinates": [-93.1321271815, 35.2769747446]}, "type": "Feature", "properties": {"collection_times": [{"days": "Mon-Fri", "time": "6:30pm"}, {"days": "Sat", "time": "6:00pm"}, {"days": "Sun", "time": "Closed"}], "id": "7280100028", "name": "USPS COLLECTION BOX - BLUE BOX", "address": {"city": "RUSSELLVILLE", "state": "AR", "street": "203 S BOSTON AVE", "postcode": "72801"}}},
{"geometry": {"type": "Point", "coordinates": [-93.1706328445, 35.2838056787]}, "type": "Feature", "properties": {"collection_times": [{"days": "Mon-Sat", "time": "3:00pm"}, {"days": "Sun", "time": "Closed"}], "id": "7280100030", "name": "USPS COLLECTION BOX - BLUE BOX", "address": {"city": "RUSSELLVILLE", "state": "AR", "street": "100 SKYLINE DR", "postcode": "72801"}}},
{"geometry": {"type": "Point", "coordinates": [-93.1337132316, 35.2802721067]}, "type": "Feature", "properties": {"collection_times": [{"days": "Mon-Sat", "time": "10:30am"}, {"days": "Sun", "time": "Closed"}], "id": "7280100031", "name": "USPS COLLECTION BOX - BLUE BOX", "address": {"city": "RUSSELLVILLE", "state": "AR", "street": "401 N ARKANSAS AVE", "postcode": "72801"}}},
{"geometry": {"type": "Point", "coordinates": [-93.1017242278, 35.2828508263]}, "type": "Feature", "properties": {"collection_times": [{"days": "Mon-Fri", "time": "5:00pm"}, {"days": "Sat", "time": "4:00pm"}, {"days": "Sun", "time": "Closed"}], "id": "7280200000", "name": "USPS COLLECTION BOX - PO LOBBY", "address": {"city": "RUSSELLVILLE", "state": "AR", "street": "414 N ELMIRA AVE", "postcode": "72802"}}},
{"geometry": {"type": "Point", "coordinates": [-93.1017242278, 35.2828508263]}, "type": "Feature", "properties": {"collection_times": [{"days": "Mon-Fri", "time": "5:00pm"}, {"days": "Sat", "time": "4:00pm"}, {"days": "Sun", "time": "Closed"}], "id": "7280200001", "name": "USPS COLLECTION BOX - PO LOBBY", "address": {"city": "RUSSELLVILLE", "state": "AR", "street": "414 N ELMIRA AVE", "postcode": "72802"}}},
{"geometry": {"type": "Point", "coordinates": [-93.1017242278, 35.2828508263]}, "type": "Feature", "properties": {"collection_times": [{"days": "Mon-Fri", "time": "4:45pm"}, {"days": "Sat", "time": "4:30pm"}, {"days": "Sun", "time": "Closed"}], "id": "7280200002", "name": "USPS COLLECTION BOX - BLUE BOX", "address": {"city": "RUSSELLVILLE", "state": "AR", "street": "414 N ELMIRA AVE", "postcode": "72802"}}},
{"geometry": {"type": "Point", "coordinates": [-93.1017242278, 35.2828508263]}, "type": "Feature", "properties": {"collection_times": [{"days": "Mon-Fri", "time": "4:45pm"}, {"days": "Sat", "time": "4:30pm"}, {"days": "Sun", "time": "Closed"}], "id": "7280200003", "name": "USPS COLLECTION BOX - BLUE BOX", "address": {"city": "RUSSELLVILLE", "state": "AR", "street": "414 N ELMIRA AVE", "postcode": "72802"}}},
{"geometry": {"type": "Point", "coordinates": [-93.0932696966, 35.2915358433]}, "type": "Feature", "properties": {"collection_times": [{"days": "Mon-Sat", "time": "12:00pm"}, {"days": "Sun", "time": "Closed"}], "id": "7280200005", "name": "USPS COLLECTION BOX - BLUE BOX", "address": {"city": "RUSSELLVILLE", "state": "AR", "street": "43 BRADLEY COVE RD", "postcode": "72802"}}},
{"geometry": {"type": "Point", "coordinates": [-93.7278069502, 35.3935540435]}, "type": "Feature", "properties": {"collection_times": [{"days": "Mon-Fri", "time": "10:30am"}, {"days": "Sat", "time": "11:15am"}, {"days": "Sun", "time": "Closed"}], "id": "7282000003", "name": "USPS COLLECTION BOX - PO LOBBY", "address": {"city": "ALIX", "state": "AR", "street": "3229 HIGHWAY 186", "postcode": "72820"}}},
{"geometry": {"type": "Point", "coordinates": [-93.7603701201, 35.4457770903]}, "type": "Feature", "properties": {"collection_times": [{"days": "Mon-Fri", "time": "3:00pm"}, {"days": "Sat", "time": "10:00am"}, {"days": "Sun", "time": "Closed"}], "id": "7282100001", "name": "USPS COLLECTION BOX - BLUE BOX", "address": {"city": "ALTUS", "state": "AR", "street": "21 E MAIN ST", "postcode": "72821"}}},
{"geometry": {"type": "Point", "coordinates": [-93.7603701201, 35.4457770903]}, "type": "Feature", "properties": {"collection_times": [{"days": "Mon-Fri", "time": "2:30pm"}, {"days": "Sat", "time": "10:00am"}, {"days": "Sun", "time": "Closed"}], "id": "7282100002", "name": "USPS COLLECTION BOX - PO LOBBY", "address": {"city": "ALTUS", "state": "AR", "street": "21 E MAIN ST", "postcode": "72821"}}},
{"geometry": {"type": "Point", "coordinates": [-93.7603701201, 35.4457770903]}, "type": "Feature", "properties": {"collection_times": [{"days": "Mon-Fri", "time": "2:30pm"}, {"days": "Sat", "time": "10:00am"}, {"days": "Sun", "time": "Closed"}], "id": "7282100004", "name": "USPS COLLECTION BOX - PO LOBBY", "address": {"city": "ALTUS", "state": "AR", "street": "21 E MAIN ST", "postcode": "72821"}}},
{"geometry": {"type": "Point", "coordinates": [-92.9375771285, 35.248295605]}, "type": "Feature", "properties": {"collection_times": [{"days": "Mon-Fri", "time": "4:30pm"}, {"days": "Sat", "time": "10:15am"}, {"days": "Sun", "time": "Closed"}], "id": "7282300001", "name": "USPS COLLECTION BOX - PO LOBBY", "address": {"city": "ATKINS", "state": "AR", "street": "705 N CHURCH ST", "postcode": "72823"}}},
{"geometry": {"type": "Point", "coordinates": [-92.9375771285, 35.248295605]}, "type": "Feature", "properties": {"collection_times": [{"days": "Mon-Fri", "time": "4:30pm"}, {"days": "Sat", "time": "10:15am"}, {"days": "Sun", "time": "Closed"}], "id": "7282300004", "name": "USPS COLLECTION BOX - BLUE BOX", "address": {"city": "ATKINS", "state": "AR", "street": "705 N CHURCH ST", "postcode": "72823"}}},
{"geometry": {"type": "Point", "coordinates": [-92.9375771285, 35.248295605]}, "type": "Feature", "properties": {"collection_times": [{"days": "Mon-Fri", "time": "4:30pm"}, {"days": "Sat", "time": "10:15am"}, {"days": "Sun", "time": "Closed"}], "id": "7282300005", "name": "USPS COLLECTION BOX - PO LOBBY", "address": {"city": "ATKINS", "state": "AR", "street": "705 N CHURCH ST", "postcode": "72823"}}},
{"geometry": {"type": "Point", "coordinates": [-92.9375771285, 35.248295605]}, "type": "Feature", "properties": {"collection_times": [{"days": "Mon-Fri", "time": "4:30pm"}, {"days": "Sat", "time": "10:15am"}, {"days": "Sun", "time": "Closed"}], "id": "7282300006", "name": "USPS COLLECTION BOX - PO LOBBY", "address": {"city": "ATKINS", "state": "AR", "street": "705 N CHURCH ST", "postcode": "72823"}}},
{"geometry": {"type": "Point", "coordinates": [-92.9375771285, 35.248295605]}, "type": "Feature", "properties": {"collection_times": [{"days": "Mon-Fri", "time": "4:30pm"}, {"days": "Sat", "time": "10:15am"}, {"days": "Sun", "time": "Closed"}], "id": "7282300007", "name": "USPS COLLECTION BOX - PO LOBBY", "address": {"city": "ATKINS", "state": "AR", "street": "705 N CHURCH ST", "postcode": "72823"}}},
{"geometry": {"type": "Point", "coordinates": [-93.4484662841, 35.0924336603]}, "type": "Feature", "properties": {"collection_times": [{"days": "Mon-Fri", "time": "3:30pm"}, {"days": "Sat", "time": "9:45am"}, {"days": "Sun", "time": "Closed"}], "id": "7282400001", "name": "USPS COLLECTION BOX - BLUE BOX", "address": {"city": "BELLEVILLE", "state": "AR", "street": "109 N MAIN ST", "postcode": "72824"}}},
{"geometry": {"type": "Point", "coordinates": [-93.4484662841, 35.0924336603]}, "type": "Feature", "properties": {"collection_times": [{"days": "Mon-Fri", "time": "11:00am"}, {"days": "Sat", "time": "9:45am"}, {"days": "Sun", "time": "Closed"}], "id": "7282400002", "name": "USPS COLLECTION BOX - PO LOBBY", "address": {"city": "BELLEVILLE", "state": "AR", "street": "109 N MAIN ST", "postcode": "72824"}}},
{"geometry": {"type": "Point", "coordinates": [-93.7098688324, 35.130045095]}, "type": "Feature", "properties": {"collection_times": [{"days": "Mon-Fri", "time": "10:00am"}, {"days": "Sat", "time": "10:30am"}, {"days": "Sun", "time": "Closed"}], "id": "7282600002", "name": "USPS COLLECTION BOX - PO LOBBY", "address": {"city": "BLUE MOUNTAIN", "state": "AR", "street": "297 LOGAN ST", "postcode": "72826"}}},
{"geometry": {"type": "Point", "coordinates": [-93.5958827995, 34.9048352565]}, "type": "Feature", "properties": {"collection_times": [{"days": "Mon-Fri", "time": "1:00pm"}, {"days": "Sat", "time": "11:15am"}, {"days": "Sun", "time": "Closed"}], "id": "7282700001", "name": "USPS COLLECTION BOX - BLUE BOX", "address": {"city": "BLUFFTON", "state": "AR", "street": "22263 W HIGHWAY 28", "postcode": "72827"}}},
{"geometry": {"type": "Point", "coordinates": [-93.5958827995, 34.9048352565]}, "type": "Feature", "properties": {"collection_times": [{"days": "Mon-Fri", "time": "10:00am"}, {"days": "Sat", "time": "11:15am"}, {"days": "Sun", "time": "Closed"}], "id": "7282700002", "name": "USPS COLLECTION BOX - PO LOBBY", "address": {"city": "BLUFFTON", "state": "AR", "street": "22263 W HIGHWAY 28", "postcode": "72827"}}},
{"geometry": {"type": "Point", "coordinates": [-93.155172338, 35.2239790899]}, "type": "Feature", "properties": {"collection_times": [{"days": "Mon-Fri", "time": "3:30pm"}, {"days": "Sat", "time": "9:30am"}, {"days": "Sun", "time": "Closed"}], "id": "7282900001", "name": "USPS COLLECTION BOX - BLUE BOX", "address": {"city": "CENTERVILLE", "state": "AR", "street": "16931 N STATE HIGHWAY 7", "postcode": "72829"}}},
{"geometry": {"type": "Point", "coordinates": [-93.155172338, 35.2239790899]}, "type": "Feature", "properties": {"collection_times": [{"days": "Mon-Fri", "time": "11:00am"}, {"days": "Sat", "time": "9:30am"}, {"days": "Sun", "time": "Closed"}], "id": "7282900002", "name": "USPS COLLECTION BOX - PO LOBBY", "address": {"city": "CENTERVILLE", "state": "AR", "street": "16931 N STATE HIGHWAY 7", "postcode": "72829"}}},
{"geometry": {"type": "Point", "coordinates": [-93.155172338, 35.2239790899]}, "type": "Feature", "properties": {"collection_times": [{"days": "Mon-Fri", "time": "11:00am"}, {"days": "Sat", "time": "9:30am"}, {"days": "Sun", "time": "Closed"}], "id": "7282900003", "name": "USPS COLLECTION BOX - PO LOBBY", "address": {"city": "CENTERVILLE", "state": "AR", "street": "16931 N STATE HIGHWAY 7", "postcode": "72829"}}},
{"geometry": {"type": "Point", "coordinates": [-93.4641719309, 35.4703154265]}, "type": "Feature", "properties": {"collection_times": [{"days": "Mon-Sat", "time": "4:30pm"}, {"days": "Sun", "time": "Closed"}], "id": "7283000001", "name": "USPS COLLECTION BOX - BLUE BOX", "address": {"city": "CLARKSVILLE", "state": "AR", "street": "200 W SEVIER ST", "postcode": "72830"}}},
{"geometry": {"type": "Point", "coordinates": [-93.4609301996, 35.4589913906]}, "type": "Feature", "properties": {"collection_times": [{"days": "Mon-Sat", "time": "9:00am"}, {"days": "Sun", "time": "Closed"}], "id": "7283000008", "name": "USPS COLLECTION BOX - BLUE BOX", "address": {"city": "CLARKSVILLE", "state": "AR", "street": "1121 S ROGERS ST", "postcode": "72830"}}},
{"geometry": {"type": "Point", "coordinates": [-93.4815151689, 35.4718963953]}, "type": "Feature", "properties": {"collection_times": [{"days": "Mon-Sat", "time": "1:25pm"}, {"days": "Sun", "time": "Closed"}], "id": "7283000011", "name": "USPS COLLECTION BOX - BLUE BOX", "address": {"city": "CLARKSVILLE", "state": "AR", "street": "1320 W MAIN ST", "postcode": "72830"}}},
{"geometry": {"type": "Point", "coordinates": [-93.4789272315, 35.4673948023]}, "type": "Feature", "properties": {"collection_times": [{"days": "Mon-Sat", "time": "8:00am"}, {"days": "Sun", "time": "Closed"}], "id": "7283000012", "name": "USPS COLLECTION BOX - BLUE BOX", "address": {"city": "CLARKSVILLE", "state": "AR", "street": "502 S CRAWFORD ST", "postcode": "72830"}}},
{"geometry": {"type": "Point", "coordinates": [-93.4641719309, 35.4703154265]}, "type": "Feature", "properties": {"collection_times": [{"days": "Mon-Sat", "time": "4:30pm"}, {"days": "Sun", "time": "Closed"}], "id": "7283000013", "name": "USPS COLLECTION BOX - PO LOBBY", "address": {"city": "CLARKSVILLE", "state": "AR", "street": "200 W SEVIER ST", "postcode": "72830"}}},
{"geometry": {"type": "Point", "coordinates": [-93.4641719309, 35.4703154265]}, "type": "Feature", "properties": {"collection_times": [{"days": "Mon-Sat", "time": "4:30pm"}, {"days": "Sun", "time": "Closed"}], "id": "7283000018", "name": "USPS COLLECTION BOX - BLUE BOX", "address": {"city": "CLARKSVILLE", "state": "AR", "street": "200 W SEVIER ST", "postcode": "72830"}}},
{"geometry": {"type": "Point", "coordinates": [-93.4595993233, 35.4605440037]}, "type": "Feature", "properties": {"collection_times": [{"days": "Mon-Sat", "time": "1:30pm"}, {"days": "Sun", "time": "Closed"}], "id": "7283000020", "name": "USPS COLLECTION BOX - BLUE BOX", "address": {"city": "CLARKSVILLE", "state": "AR", "street": "1100 S ROGERS ST", "postcode": "72830"}}},
{"geometry": {"type": "Point", "coordinates": [-93.4641719309, 35.4703154265]}, "type": "Feature", "properties": {"collection_times": [{"days": "Mon-Sat", "time": "4:30pm"}, {"days": "Sun", "time": "Closed"}], "id": "7283000021", "name": "USPS COLLECTION BOX - PO LOBBY", "address": {"city": "CLARKSVILLE", "state": "AR", "street": "200 W SEVIER ST", "postcode": "72830"}}},
{"geometry": {"type": "Point", "coordinates": [-93.435685027, 35.5149288656]}, "type": "Feature", "properties": {"collection_times": [{"days": "Mon-Sat", "time": "12:00pm"}, {"days": "Sun", "time": "Closed"}], "id": "7283000022", "name": "USPS COLLECTION BOX - BLUE BOX", "address": {"city": "CLARKSVILLE", "state": "AR", "street": "230 E MARKET ST", "postcode": "72830"}}},
{"geometry": {"type": "Point", "coordinates": [-93.4641719309, 35.4703154265]}, "type": "Feature", "properties": {"collection_times": [{"days": "Mon-Sat", "time": "4:30pm"}, {"days": "Sun", "time": "Closed"}], "id": "7283000023", "name": "USPS COLLECTION BOX - PO LOBBY", "address": {"city": "CLARKSVILLE", "state": "AR", "street": "200 W SEVIER ST", "postcode": "72830"}}},
{"geometry": {"type": "Point", "coordinates": [-93.4641719309, 35.4703154265]}, "type": "Feature", "properties": {"collection_times": [{"days": "Mon-Sat", "time": "4:30pm"}, {"days": "Sun", "time": "Closed"}], "id": "7283000024", "name": "USPS COLLECTION BOX - PO LOBBY", "address": {"city": "CLARKSVILLE", "state": "AR", "street": "200 W SEVIER ST", "postcode": "72830"}}},
{"geometry": {"type": "Point", "coordinates": [-93.6699423672, 35.4375227559]}, "type": "Feature", "properties": {"collection_times": [{"days": "Mon-Fri", "time": "3:45pm"}, {"days": "Sat", "time": "11:00am"}, {"days": "Sun", "time": "Closed"}], "id": "7283200001", "name": "USPS COLLECTION BOX - BLUE BOX", "address": {"city": "COAL HILL", "state": "AR", "street": "506 E HIGHWAY 64", "postcode": "72832"}}},
{"geometry": {"type": "Point", "coordinates": [-93.68308866, 35.4379588459]}, "type": "Feature", "properties": {"collection_times": [{"days": "Mon-Sat", "time": "11:00am"}, {"days": "Sun", "time": "Closed"}], "id": "7283200002", "name": "USPS COLLECTION BOX - PO LOBBY", "address": {"city": "COAL HILL", "state": "AR", "street": "506 E HIGHWAY 64", "postcode": "72832"}}},
{"geometry": {"type": "Point", "coordinates": [-93.68308866, 35.4379588459]}, "type": "Feature", "properties": {"collection_times": [{"days": "Mon-Sat", "time": "11:00am"}, {"days": "Sun", "time": "Closed"}], "id": "7283200003", "name": "USPS COLLECTION BOX - PO LOBBY", "address": {"city": "COAL HILL", "state": "AR", "street": "506 E HIGHWAY 64", "postcode": "72832"}}},
{"geometry": {"type": "Point", "coordinates": [-93.3895467728, 35.0541879595]}, "type": "Feature", "properties": {"collection_times": [{"days": "Mon-Fri", "time": "4:00pm"}, {"days": "Sat", "time": "11:30am"}, {"days": "Sun", "time": "Closed"}], "id": "7283300000", "name": "USPS COLLECTION BOX - BLUE BOX", "address": {"city": "DANVILLE", "state": "AR", "street": "407 E 8TH ST", "postcode": "72833"}}},
{"geometry": {"type": "Point", "coordinates": [-93.3895467728, 35.0541879595]}, "type": "Feature", "properties": {"collection_times": [{"days": "Mon-Fri", "time": "4:00pm"}, {"days": "Sat", "time": "11:30am"}, {"days": "Sun", "time": "Closed"}], "id": "7283300001", "name": "USPS COLLECTION BOX - PO LOBBY", "address": {"city": "DANVILLE", "state": "AR", "street": "407 E 8TH ST", "postcode": "72833"}}},
{"geometry": {"type": "Point", "coordinates": [-93.3939882692, 35.0567807416]}, "type": "Feature", "properties": {"collection_times": [{"days": "Mon-Fri", "time": "2:00pm"}, {"days": "Sat-Sun", "time": "Closed"}], "id": "7283300002", "name": "USPS COLLECTION BOX - BLUE BOX", "address": {"city": "DANVILLE", "state": "AR", "street": "100 E 5TH ST", "postcode": "72833"}}},
{"geometry": {"type": "Point", "coordinates": [-93.3895467728, 35.0541879595]}, "type": "Feature", "properties": {"collection_times": [{"days": "Mon-Fri", "time": "4:00pm"}, {"days": "Sat", "time": "11:30am"}, {"days": "Sun", "time": "Closed"}], "id": "7283300003", "name": "USPS COLLECTION BOX - PO LOBBY", "address": {"city": "DANVILLE", "state": "AR", "street": "407 E 8TH ST", "postcode": "72833"}}},
{"geometry": {"type": "Point", "coordinates": [-93.3895467728, 35.0541879595]}, "type": "Feature", "properties": {"collection_times": [{"days": "Mon-Fri", "time": "4:00pm"}, {"days": "Sat", "time": "11:30am"}, {"days": "Sun", "time": "Closed"}], "id": "7283300004", "name": "USPS COLLECTION BOX - PO LOBBY", "address": {"city": "DANVILLE", "state": "AR", "street": "407 E 8TH ST", "postcode": "72833"}}},
{"geometry": {"type": "Point", "coordinates": [-93.3895467728, 35.0541879595]}, "type": "Feature", "properties": {"collection_times": [{"days": "Mon-Fri", "time": "4:00pm"}, {"days": "Sat", "time": "11:30am"}, {"days": "Sun", "time": "Closed"}], "id": "7283300005", "name": "USPS COLLECTION BOX - PO LOBBY", "address": {"city": "DANVILLE", "state": "AR", "street": "407 E 8TH ST", "postcode": "72833"}}},
{"geometry": {"type": "Point", "coordinates": [-93.1551862605, 35.223926127]}, "type": "Feature", "properties": {"collection_times": [{"days": "Mon-Fri", "time": "4:30pm"}, {"days": "Sat", "time": "10:00am"}, {"days": "Sun", "time": "Closed"}], "id": "7283400001", "name": "USPS COLLECTION BOX - BLUE BOX", "address": {"city": "DARDANELLE", "state": "AR", "street": "103 N FRONT ST", "postcode": "72834"}}},
{"geometry": {"type": "Point", "coordinates": [-93.1551862605, 35.223926127]}, "type": "Feature", "properties": {"collection_times": [{"days": "Mon-Fri", "time": "4:30pm"}, {"days": "Sat", "time": "10:00am"}, {"days": "Sun", "time": "Closed"}], "id": "7283400006", "name": "USPS COLLECTION BOX - BLUE BOX", "address": {"city": "DARDANELLE", "state": "AR", "street": "103 N FRONT ST", "postcode": "72834"}}},
{"geometry": {"type": "Point", "coordinates": [-93.1551862605, 35.223926127]}, "type": "Feature", "properties": {"collection_times": [{"days": "Mon-Fri", "time": "4:30pm"}, {"days": "Sat", "time": "10:00am"}, {"days": "Sun", "time": "Closed"}], "id": "7283400007", "name": "USPS COLLECTION BOX - PO LOBBY", "address": {"city": "DARDANELLE", "state": "AR", "street": "103 N FRONT ST", "postcode": "72834"}}},
{"geometry": {"type": "Point", "coordinates": [-93.1551862605, 35.223926127]}, "type": "Feature", "properties": {"collection_times": [{"days": "Mon-Fri", "time": "4:30pm"}, {"days": "Sat", "time": "10:00am"}, {"days": "Sun", "time": "Closed"}], "id": "7283400008", "name": "USPS COLLECTION BOX - PO LOBBY", "address": {"city": "DARDANELLE", "state": "AR", "street": "103 N FRONT ST", "postcode": "72834"}}},
{"geometry": {"type": "Point", "coordinates": [-93.160621616, 35.221964424]}, "type": "Feature", "properties": {"collection_times": [{"days": "Mon-Sat", "time": "2:15pm"}, {"days": "Sun", "time": "Closed"}], "id": "7283400009", "name": "USPS COLLECTION BOX - BLUE BOX", "address": {"city": "DARDANELLE", "state": "AR", "street": "415 UNION ST", "postcode": "72834"}}},
{"geometry": {"type": "Point", "coordinates": [-93.160650755, 35.220833869]}, "type": "Feature", "properties": {"collection_times": [{"days": "Mon-Sat", "time": "9:00am"}, {"days": "Sun", "time": "Closed"}], "id": "7283400010", "name": "USPS COLLECTION BOX - BLUE BOX", "address": {"city": "DARDANELLE", "state": "AR", "street": "501 HARRISON ST", "postcode": "72834"}}},
{"geometry": {"type": "Point", "coordinates": [-93.2968558564, 35.2830366956]}, "type": "Feature", "properties": {"collection_times": [{"days": "Mon-Fri", "time": "4:00pm"}, {"days": "Sat", "time": "10:00am"}, {"days": "Sun", "time": "Closed"}], "id": "7283500001", "name": "USPS COLLECTION BOX - BLUE BOX", "address": {"city": "DELAWARE", "state": "AR", "street": "53 E STATE HIGHWAY 393", "postcode": "72835"}}},
{"geometry": {"type": "Point", "coordinates": [-93.2968558564, 35.2830366956]}, "type": "Feature", "properties": {"collection_times": [{"days": "Mon-Fri", "time": "11:00am"}, {"days": "Sat", "time": "10:00am"}, {"days": "Sun", "time": "Closed"}], "id": "7283500002", "name": "USPS COLLECTION BOX - PO LOBBY", "address": {"city": "DELAWARE", "state": "AR", "street": "53 E STATE HIGHWAY 393", "postcode": "72835"}}},
{"geometry": {"type": "Point", "coordinates": [-93.2968558564, 35.2830366956]}, "type": "Feature", "properties": {"collection_times": [{"days": "Mon-Fri", "time": "11:00am"}, {"days": "Sat", "time": "10:00am"}, {"days": "Sun", "time": "Closed"}], "id": "7283500003", "name": "USPS COLLECTION BOX - PO LOBBY", "address": {"city": "DELAWARE", "state": "AR", "street": "53 E STATE HIGHWAY 393", "postcode": "72835"}}},
{"geometry": {"type": "Point", "coordinates": [-93.1347002468, 35.5060930036]}, "type": "Feature", "properties": {"collection_times": [{"days": "Mon-Fri", "time": "4:30pm"}, {"days": "Sat", "time": "11:30am"}, {"days": "Sun", "time": "Closed"}], "id": "7283700000", "name": "USPS COLLECTION BOX - BLUE BOX", "address": {"city": "DOVER", "state": "AR", "street": "10115 W CAMP ST", "postcode": "72837"}}},
{"geometry": {"type": "Point", "coordinates": [-93.1347002468, 35.5060930036]}, "type": "Feature", "properties": {"collection_times": [{"days": "Mon-Fri", "time": "4:30pm"}, {"days": "Sat", "time": "11:30am"}, {"days": "Sun", "time": "Closed"}], "id": "7283700001", "name": "USPS COLLECTION BOX - PO LOBBY", "address": {"city": "DOVER", "state": "AR", "street": "10115 W CAMP ST", "postcode": "72837"}}},
{"geometry": {"type": "Point", "coordinates": [-93.1347002468, 35.5060930036]}, "type": "Feature", "properties": {"collection_times": [{"days": "Mon-Fri", "time": "4:30pm"}, {"days": "Sat", "time": "11:30am"}, {"days": "Sun", "time": "Closed"}], "id": "7283700003", "name": "USPS COLLECTION BOX - PO LOBBY", "address": {"city": "DOVER", "state": "AR", "street": "10115 W CAMP ST", "postcode": "72837"}}},
{"geometry": {"type": "Point", "coordinates": [-93.6734278247, 34.8901954877]}, "type": "Feature", "properties": {"collection_times": [{"days": "Mon-Fri", "time": "12:30pm"}, {"days": "Sat", "time": "11:30am"}, {"days": "Sun", "time": "Closed"}], "id": "7283800000", "name": "USPS COLLECTION BOX - PO LOBBY", "address": {"city": "GRAVELLY", "state": "AR", "street": "28634 W HIGHWAY 28", "postcode": "72838"}}},
{"geometry": {"type": "Point", "coordinates": [-93.6734278247, 34.8901954877]}, "type": "Feature", "properties": {"collection_times": [{"days": "Mon-Fri", "time": "12:30pm"}, {"days": "Sat", "time": "11:30am"}, {"days": "Sun", "time": "Closed"}], "id": "7283800002", "name": "USPS COLLECTION BOX - PO LOBBY", "address": {"city": "GRAVELLY", "state": "AR", "street": "28634 W HIGHWAY 28", "postcode": "72838"}}},
{"geometry": {"type": "Point", "coordinates": [-93.3283691882, 35.5162691194]}, "type": "Feature", "properties": {"collection_times": [{"days": "Mon-Fri", "time": "3:00pm"}, {"days": "Sat", "time": "10:00am"}, {"days": "Sun", "time": "Closed"}], "id": "7283900002", "name": "USPS COLLECTION BOX - BLUE BOX", "address": {"city": "HAGARVILLE", "state": "AR", "street": "12083 HIGHWAY 123", "postcode": "72839"}}},
{"geometry": {"type": "Point", "coordinates": [-93.3283691882, 35.5162691194]}, "type": "Feature", "properties": {"collection_times": [{"days": "Mon-Fri", "time": "10:30am"}, {"days": "Sat", "time": "10:00am"}, {"days": "Sun", "time": "Closed"}], "id": "7283900003", "name": "USPS COLLECTION BOX - PO LOBBY", "address": {"city": "HAGARVILLE", "state": "AR", "street": "12083 HIGHWAY 123", "postcode": "72839"}}},
{"geometry": {"type": "Point", "coordinates": [-93.614660263, 35.4258946591]}, "type": "Feature", "properties": {"collection_times": [{"days": "Mon-Sat", "time": "4:00pm"}, {"days": "Sun", "time": "Closed"}], "id": "7284000000", "name": "USPS COLLECTION BOX - BLUE BOX", "address": {"city": "HARTMAN", "state": "AR", "street": "212 MAIN ST", "postcode": "72840"}}},
{"geometry": {"type": "Point", "coordinates": [-93.614660263, 35.4258946591]}, "type": "Feature", "properties": {"collection_times": [{"days": "Mon-Fri", "time": "11:15am"}, {"days": "Sat", "time": "4:00pm"}, {"days": "Sun", "time": "Closed"}], "id": "7284000001", "name": "USPS COLLECTION BOX - PO LOBBY", "address": {"city": "HARTMAN", "state": "AR", "street": "212 MAIN ST", "postcode": "72840"}}},
{"geometry": {"type": "Point", "coordinates": [-93.614660263, 35.4258946591]}, "type": "Feature", "properties": {"collection_times": [{"days": "Mon-Fri", "time": "11:15am"}, {"days": "Sat", "time": "4:00pm"}, {"days": "Sun", "time": "Closed"}], "id": "7284000002", "name": "USPS COLLECTION BOX - PO LOBBY", "address": {"city": "HARTMAN", "state": "AR", "street": "212 MAIN ST", "postcode": "72840"}}},
{"geometry": {"type": "Point", "coordinates": [-93.7628847114, 34.8641127164]}, "type": "Feature", "properties": {"collection_times": [{"days": "Mon-Sat", "time": "11:45am"}, {"days": "Sun", "time": "Closed"}], "id": "7284100002", "name": "USPS COLLECTION BOX - PO LOBBY", "address": {"city": "HARVEY", "state": "AR", "street": "26396 E HIGHWAY 28", "postcode": "72841"}}},
{"geometry": {"type": "Point", "coordinates": [-93.7628847114, 34.8641127164]}, "type": "Feature", "properties": {"collection_times": [{"days": "Mon-Sat", "time": "11:45am"}, {"days": "Sun", "time": "Closed"}], "id": "7284100003", "name": "USPS COLLECTION BOX - PO LOBBY", "address": {"city": "HARVEY", "state": "AR", "street": "26396 E HIGHWAY 28", "postcode": "72841"}}},
{"geometry": {"type": "Point", "coordinates": [-93.6103776482, 35.0993506702]}, "type": "Feature", "properties": {"collection_times": [{"days": "Mon-Fri", "time": "3:30pm"}, {"days": "Sat", "time": "10:30am"}, {"days": "Sun", "time": "Closed"}], "id": "7284200001", "name": "USPS COLLECTION BOX - BLUE BOX", "address": {"city": "HAVANA", "state": "AR", "street": "311 W BROADWAY", "postcode": "72842"}}},
{"geometry": {"type": "Point", "coordinates": [-93.6103776482, 35.0993506702]}, "type": "Feature", "properties": {"collection_times": [{"days": "Mon-Fri", "time": "11:00am"}, {"days": "Sat", "time": "10:30am"}, {"days": "Sun", "time": "Closed"}], "id": "7284200002", "name": "USPS COLLECTION BOX - PO LOBBY", "address": {"city": "HAVANA", "state": "AR", "street": "311 W BROADWAY", "postcode": "72842"}}},
{"geometry": {"type": "Point", "coordinates": [-92.9849579985, 35.4649807242]}, "type": "Feature", "properties": {"collection_times": [{"days": "Mon-Fri", "time": "4:00pm"}, {"days": "Sat", "time": "11:00am"}, {"days": "Sun", "time": "Closed"}], "id": "7284300001", "name": "USPS COLLECTION BOX - BLUE BOX", "address": {"city": "HECTOR", "state": "AR", "street": "59 ELM ST", "postcode": "72843"}}},
{"geometry": {"type": "Point", "coordinates": [-92.9849579985, 35.4649807242]}, "type": "Feature", "properties": {"collection_times": [{"days": "Mon-Fri", "time": "11:30am"}, {"days": "Sat", "time": "11:00am"}, {"days": "Sun", "time": "Closed"}], "id": "7284300002", "name": "USPS COLLECTION BOX - PO LOBBY", "address": {"city": "HECTOR", "state": "AR", "street": "59 ELM ST", "postcode": "72843"}}},
{"geometry": {"type": "Point", "coordinates": [-92.9849579985, 35.4649807242]}, "type": "Feature", "properties": {"collection_times": [{"days": "Mon-Fri", "time": "11:30am"}, {"days": "Sat", "time": "11:00am"}, {"days": "Sun", "time": "Closed"}], "id": "7284300003", "name": "USPS COLLECTION BOX - PO LOBBY", "address": {"city": "HECTOR", "state": "AR", "street": "59 ELM ST", "postcode": "72843"}}},
{"geometry": {"type": "Point", "coordinates": [-93.3639294563, 35.3823592365]}, "type": "Feature", "properties": {"collection_times": [{"days": "Mon-Fri", "time": "3:45pm"}, {"days": "Sat", "time": "11:40am"}, {"days": "Sun", "time": "Closed"}], "id": "7284500000", "name": "USPS COLLECTION BOX - BLUE BOX", "address": {"city": "KNOXVILLE", "state": "AR", "street": "100 HIGHWAY 315", "postcode": "72845"}}},
{"geometry": {"type": "Point", "coordinates": [-93.3639294563, 35.3823592365]}, "type": "Feature", "properties": {"collection_times": [{"days": "Mon-Fri", "time": "11:00am"}, {"days": "Sat", "time": "11:45am"}, {"days": "Sun", "time": "Closed"}], "id": "7284500001", "name": "USPS COLLECTION BOX - PO LOBBY", "address": {"city": "KNOXVILLE", "state": "AR", "street": "100 HIGHWAY 315", "postcode": "72845"}}},
{"geometry": {"type": "Point", "coordinates": [-93.3864250197, 35.4375703216]}, "type": "Feature", "properties": {"collection_times": [{"days": "Mon-Fri", "time": "4:30pm"}, {"days": "Sat", "time": "10:00am"}, {"days": "Sun", "time": "Closed"}], "id": "7284600000", "name": "USPS COLLECTION BOX - BLUE BOX", "address": {"city": "LAMAR", "state": "AR", "street": "251 W MAIN ST", "postcode": "72846"}}},
{"geometry": {"type": "Point", "coordinates": [-93.3864250197, 35.4375703216]}, "type": "Feature", "properties": {"collection_times": [{"days": "Mon-Fri", "time": "4:30pm"}, {"days": "Sat", "time": "10:00am"}, {"days": "Sun", "time": "Closed"}], "id": "7284600001", "name": "USPS COLLECTION BOX - PO LOBBY", "address": {"city": "LAMAR", "state": "AR", "street": "251 W MAIN ST", "postcode": "72846"}}},
{"geometry": {"type": "Point", "coordinates": [-93.3864250197, 35.4375703216]}, "type": "Feature", "properties": {"collection_times": [{"days": "Mon-Fri", "time": "4:30pm"}, {"days": "Sat", "time": "10:00am"}, {"days": "Sun", "time": "Closed"}], "id": "7284600004", "name": "USPS COLLECTION BOX - PO LOBBY", "address": {"city": "LAMAR", "state": "AR", "street": "251 W MAIN ST", "postcode": "72846"}}},
{"geometry": {"type": "Point", "coordinates": [-93.2556219348, 35.3315059459]}, "type": "Feature", "properties": {"collection_times": [{"days": "Mon-Fri", "time": "2:30pm"}, {"days": "Sat", "time": "11:00am"}, {"days": "Sun", "time": "Closed"}], "id": "7284700001", "name": "USPS COLLECTION BOX - PO LOBBY", "address": {"city": "LONDON", "state": "AR", "street": "10518 US HIGHWAY 64 W", "postcode": "72847"}}},
{"geometry": {"type": "Point", "coordinates": [-93.3894742342, 35.2863296366]}, "type": "Feature", "properties": {"collection_times": [{"days": "Mon-Fri", "time": "9:00am"}, {"days": "Sat", "time": "10:00am"}, {"days": "Sun", "time": "Closed"}], "id": "7285100002", "name": "USPS COLLECTION BOX - PO LOBBY", "address": {"city": "NEW BLAINE", "state": "AR", "street": "19809 E STATE HIGHWAY 22", "postcode": "72851"}}},
{"geometry": {"type": "Point", "coordinates": [-93.3894742342, 35.2863296366]}, "type": "Feature", "properties": {"collection_times": [{"days": "Mon-Fri", "time": "9:00am"}, {"days": "Sat", "time": "10:00am"}, {"days": "Sun", "time": "Closed"}], "id": "7285100003", "name": "USPS COLLECTION BOX - PO LOBBY", "address": {"city": "NEW BLAINE", "state": "AR", "street": "19809 E STATE HIGHWAY 22", "postcode": "72851"}}},
{"geometry": {"type": "Point", "coordinates": [-93.3894742342, 35.2863296366]}, "type": "Feature", "properties": {"collection_times": [{"days": "Mon-Fri", "time": "3:45pm"}, {"days": "Sat", "time": "10:00am"}, {"days": "Sun", "time": "Closed"}], "id": "7285100004", "name": "USPS COLLECTION BOX - BLUE BOX", "address": {"city": "NEW BLAINE", "state": "AR", "street": "19809 E STATE HIGHWAY 22", "postcode": "72851"}}},
{"geometry": {"type": "Point", "coordinates": [-93.5264518775, 35.7057346096]}, "type": "Feature", "properties": {"collection_times": [{"days": "Mon-Sat", "time": "11:30am"}, {"days": "Sun", "time": "Closed"}], "id": "7285200001", "name": "USPS COLLECTION BOX - PO LOBBY", "address": {"city": "OARK", "state": "AR", "street": "100 HIGHWAY 215", "postcode": "72852"}}},
{"geometry": {"type": "Point", "coordinates": [-93.2293648473, 35.0324962971]}, "type": "Feature", "properties": {"collection_times": [{"days": "Mon-Fri", "time": "3:30pm"}, {"days": "Sat", "time": "12:00pm"}, {"days": "Sun", "time": "Closed"}], "id": "7285300000", "name": "USPS COLLECTION BOX - BLUE BOX", "address": {"city": "OLA", "state": "AR", "street": "310 E PENNINGTON ST", "postcode": "72853"}}},
{"geometry": {"type": "Point", "coordinates": [-93.2293648473, 35.0324962971]}, "type": "Feature", "properties": {"collection_times": [{"days": "Mon-Fri", "time": "1:30pm"}, {"days": "Sat", "time": "12:00pm"}, {"days": "Sun", "time": "Closed"}], "id": "7285300001", "name": "USPS COLLECTION BOX - PO LOBBY", "address": {"city": "OLA", "state": "AR", "street": "310 E PENNINGTON ST", "postcode": "72853"}}},
{"geometry": {"type": "Point", "coordinates": [-93.4426939032, 35.6400418007]}, "type": "Feature", "properties": {"collection_times": [{"days": "Mon-Fri", "time": "3:00pm"}, {"days": "Sat", "time": "10:45am"}, {"days": "Sun", "time": "Closed"}], "id": "7285400000", "name": "USPS COLLECTION BOX - BLUE BOX", "address": {"city": "OZONE", "state": "AR", "street": "101 HIGHWAY 21 N", "postcode": "72854"}}},
{"geometry": {"type": "Point", "coordinates": [-93.4426939032, 35.6400418007]}, "type": "Feature", "properties": {"collection_times": [{"days": "Mon-Fri", "time": "11:30am"}, {"days": "Sat", "time": "10:45am"}, {"days": "Sun", "time": "Closed"}], "id": "7285400001", "name": "USPS COLLECTION BOX - PO LOBBY", "address": {"city": "OZONE", "state": "AR", "street": "101 HIGHWAY 21 N", "postcode": "72854"}}},
{"geometry": {"type": "Point", "coordinates": [-93.7297999729, 35.2935648429]}, "type": "Feature", "properties": {"collection_times": [{"days": "Mon-Fri", "time": "4:15pm"}, {"days": "Sat", "time": "9:00am"}, {"days": "Sun", "time": "Closed"}], "id": "7285500001", "name": "USPS COLLECTION BOX - BLUE BOX", "address": {"city": "PARIS", "state": "AR", "street": "206 N ELM ST", "postcode": "72855"}}},
{"geometry": {"type": "Point", "coordinates": [-93.7296086292, 35.3021477201]}, "type": "Feature", "properties": {"collection_times": [{"days": "Mon-Sat", "time": "3:15pm"}, {"days": "Sun", "time": "Closed"}], "id": "7285500010", "name": "USPS COLLECTION BOX - BLUE BOX", "address": {"city": "PARIS", "state": "AR", "street": "1201 LOGAN DR", "postcode": "72855"}}},
{"geometry": {"type": "Point", "coordinates": [-93.7297999729, 35.2935648429]}, "type": "Feature", "properties": {"collection_times": [{"days": "Mon-Fri", "time": "4:15pm"}, {"days": "Sat", "time": "9:00am"}, {"days": "Sun", "time": "Closed"}], "id": "7285500011", "name": "USPS COLLECTION BOX - PO LOBBY", "address": {"city": "PARIS", "state": "AR", "street": "206 N ELM ST", "postcode": "72855"}}},
{"geometry": {"type": "Point", "coordinates": [-93.7297999729, 35.2935648429]}, "type": "Feature", "properties": {"collection_times": [{"days": "Mon-Fri", "time": "4:15pm"}, {"days": "Sat", "time": "9:00am"}, {"days": "Sun", "time": "Closed"}], "id": "7285500012", "name": "USPS COLLECTION BOX - BLUE BOX", "address": {"city": "PARIS", "state": "AR", "street": "206 N ELM ST", "postcode": "72855"}}},
{"geometry": {"type": "Point", "coordinates": [-93.7297999729, 35.2935648429]}, "type": "Feature", "properties": {"collection_times": [{"days": "Mon-Fri", "time": "4:15pm"}, {"days": "Sat", "time": "9:00am"}, {"days": "Sun", "time": "Closed"}], "id": "7285500013", "name": "USPS COLLECTION BOX - PO LOBBY", "address": {"city": "PARIS", "state": "AR", "street": "206 N ELM ST", "postcode": "72855"}}},
{"geometry": {"type": "Point", "coordinates": [-93.0554445964, 35.6907723226]}, "type": "Feature", "properties": {"collection_times": [{"days": "Mon-Fri", "time": "12:30pm"}, {"days": "Sat", "time": "10:30am"}, {"days": "Sun", "time": "Closed"}], "id": "7285600002", "name": "USPS COLLECTION BOX - PO LOBBY", "address": {"city": "PELSOR", "state": "AR", "street": "38501 SR 7 N", "postcode": "72856"}}},
{"geometry": {"type": "Point", "coordinates": [-93.2983788765, 34.9889302837]}, "type": "Feature", "properties": {"collection_times": [{"days": "Mon-Fri", "time": "3:30pm"}, {"days": "Sat", "time": "10:30am"}, {"days": "Sun", "time": "Closed"}], "id": "7285700001", "name": "USPS COLLECTION BOX - BLUE BOX", "address": {"city": "PLAINVIEW", "state": "AR", "street": "405 W MAIN ST", "postcode": "72857"}}},
{"geometry": {"type": "Point", "coordinates": [-93.2983788765, 34.9889302837]}, "type": "Feature", "properties": {"collection_times": [{"days": "Mon-Fri", "time": "2:15pm"}, {"days": "Sat", "time": "10:30am"}, {"days": "Sun", "time": "Closed"}], "id": "7285700002", "name": "USPS COLLECTION BOX - PO LOBBY", "address": {"city": "PLAINVIEW", "state": "AR", "street": "405 W MAIN ST", "postcode": "72857"}}},
{"geometry": {"type": "Point", "coordinates": [-93.2983788765, 34.9889302837]}, "type": "Feature", "properties": {"collection_times": [{"days": "Mon-Fri", "time": "2:15pm"}, {"days": "Sat", "time": "10:30am"}, {"days": "Sun", "time": "Closed"}], "id": "7285700003", "name": "USPS COLLECTION BOX - PO LOBBY", "address": {"city": "PLAINVIEW", "state": "AR", "street": "405 W MAIN ST", "postcode": "72857"}}},
{"geometry": {"type": "Point", "coordinates": [-93.0675488558, 35.2639877703]}, "type": "Feature", "properties": {"collection_times": [{"days": "Mon-Fri", "time": "4:00pm"}, {"days": "Sat", "time": "10:00am"}, {"days": "Sun", "time": "Closed"}], "id": "7285800001", "name": "USPS COLLECTION BOX - BLUE BOX", "address": {"city": "POTTSVILLE", "state": "AR", "street": "5580 US HIGHWAY 64 E", "postcode": "72858"}}},
{"geometry": {"type": "Point", "coordinates": [-93.0675488558, 35.2639877703]}, "type": "Feature", "properties": {"collection_times": [{"days": "Mon-Fri", "time": "4:00pm"}, {"days": "Sat", "time": "10:00am"}, {"days": "Sun", "time": "Closed"}], "id": "7285800002", "name": "USPS COLLECTION BOX - PO LOBBY", "address": {"city": "POTTSVILLE", "state": "AR", "street": "5580 US HIGHWAY 64 E", "postcode": "72858"}}},
{"geometry": {"type": "Point", "coordinates": [-93.0675488558, 35.2639877703]}, "type": "Feature", "properties": {"collection_times": [{"days": "Mon-Fri", "time": "4:00pm"}, {"days": "Sat", "time": "10:00am"}, {"days": "Sun", "time": "Closed"}], "id": "7285800003", "name": "USPS COLLECTION BOX - PO LOBBY", "address": {"city": "POTTSVILLE", "state": "AR", "street": "5580 US HIGHWAY 64 E", "postcode": "72858"}}},
{"geometry": {"type": "Point", "coordinates": [-93.4054535635, 34.9355270543]}, "type": "Feature", "properties": {"collection_times": [{"days": "Mon-Fri", "time": "2:15pm"}, {"days": "Sat", "time": "9:15am"}, {"days": "Sun", "time": "Closed"}], "id": "7286000001", "name": "USPS COLLECTION BOX - BLUE BOX", "address": {"city": "ROVER", "state": "AR", "street": "19623 S HIGHWAY 27", "postcode": "72860"}}},
{"geometry": {"type": "Point", "coordinates": [-93.4054535635, 34.9355270543]}, "type": "Feature", "properties": {"collection_times": [{"days": "Mon-Fri", "time": "11:00am"}, {"days": "Sat", "time": "9:15am"}, {"days": "Sun", "time": "Closed"}], "id": "7286000002", "name": "USPS COLLECTION BOX - PO LOBBY", "address": {"city": "ROVER", "state": "AR", "street": "19623 S HIGHWAY 27", "postcode": "72860"}}},
{"geometry": {"type": "Point", "coordinates": [-93.4054535635, 34.9355270543]}, "type": "Feature", "properties": {"collection_times": [{"days": "Mon-Fri", "time": "11:00am"}, {"days": "Sat", "time": "9:15am"}, {"days": "Sun", "time": "Closed"}], "id": "7286000003", "name": "USPS COLLECTION BOX - PO LOBBY", "address": {"city": "ROVER", "state": "AR", "street": "19623 S HIGHWAY 27", "postcode": "72860"}}},
{"geometry": {"type": "Point", "coordinates": [-93.5379575544, 35.3620163772]}, "type": "Feature", "properties": {"collection_times": [{"days": "Mon-Fri", "time": "3:00pm"}, {"days": "Sat", "time": "9:30am"}, {"days": "Sun", "time": "Closed"}], "id": "7286300001", "name": "USPS COLLECTION BOX - BLUE BOX", "address": {"city": "SCRANTON", "state": "AR", "street": "508 MAGNOLIA ST", "postcode": "72863"}}},
{"geometry": {"type": "Point", "coordinates": [-93.5379575544, 35.3620163772]}, "type": "Feature", "properties": {"collection_times": [{"days": "Mon-Fri", "time": "3:00pm"}, {"days": "Sat", "time": "9:30am"}, {"days": "Sun", "time": "Closed"}], "id": "7286300002", "name": "USPS COLLECTION BOX - PO LOBBY", "address": {"city": "SCRANTON", "state": "AR", "street": "508 MAGNOLIA ST", "postcode": "72863"}}},
{"geometry": {"type": "Point", "coordinates": [-93.5379575544, 35.3620163772]}, "type": "Feature", "properties": {"collection_times": [{"days": "Mon-Fri", "time": "3:00pm"}, {"days": "Sat", "time": "9:30am"}, {"days": "Sun", "time": "Closed"}], "id": "7286300003", "name": "USPS COLLECTION BOX - PO LOBBY", "address": {"city": "SCRANTON", "state": "AR", "street": "508 MAGNOLIA ST", "postcode": "72863"}}},
{"geometry": {"type": "Point", "coordinates": [-93.6365309984, 35.2934541251]}, "type": "Feature", "properties": {"collection_times": [{"days": "Mon-Fri", "time": "3:30pm"}, {"days": "Sat", "time": "11:30am"}, {"days": "Sun", "time": "Closed"}], "id": "7286500000", "name": "USPS COLLECTION BOX - BLUE BOX", "address": {"city": "SUBIACO", "state": "AR", "street": "283 CONRAD ST", "postcode": "72865"}}},
{"geometry": {"type": "Point", "coordinates": [-93.6365309984, 35.2934541251]}, "type": "Feature", "properties": {"collection_times": [{"days": "Mon-Fri", "time": "11:00am"}, {"days": "Sat", "time": "11:30am"}, {"days": "Sun", "time": "Closed"}], "id": "7286500001", "name": "USPS COLLECTION BOX - PO LOBBY", "address": {"city": "SUBIACO", "state": "AR", "street": "283 CONRAD ST", "postcode": "72865"}}}
]}
