{"type": "FeatureCollection", "features": [
{"geometry": {"type": "Point", "coordinates": [-94.4214661201, 35.3846353459]}, "type": "Feature", "properties": {"collection_times": [{"days": "Mon-Fri", "time": "5:15pm"}, {"days": "Sat", "time": "4:30pm"}, {"days": "Sun", "time": "Closed"}], "id": "7290100001", "name": "USPS COLLECTION BOX - BLUE BOX", "address": {"city": "FORT SMITH", "state": "AR", "street": "1020 GARRISON AVE", "postcode": "72901"}}},
{"geometry": {"type": "Point", "coordinates": [-94.4259856982, 35.3876575924]}, "type": "Feature", "properties": {"collection_times": [{"days": "Mon-Fri", "time": "3:05pm"}, {"days": "Sat-Sun", "time": "Closed"}], "id": "7290100002", "name": "USPS COLLECTION BOX - BLUE BOX", "address": {"city": "FORT SMITH", "state": "AR", "street": "524 GARRISON AVE", "postcode": "72901"}}},
{"geometry": {"type": "Point", "coordinates": [-94.4259202269, 35.38775522]}, "type": "Feature", "properties": {"collection_times": [{"days": "Mon-Fri", "time": "4:05pm"}, {"days": "Sat-Sun", "time": "Closed"}], "id": "7290100011", "name": "USPS COLLECTION BOX - BLUE BOX", "address": {"city": "FORT SMITH", "state": "AR", "street": "523 GARRISON AVE", "postcode": "72901"}}},
{"geometry": {"type": "Point", "coordinates": [-94.4258662973, 35.386303677]}, "type": "Feature", "properties": {"collection_times": [{"days": "Mon-Fri", "time": "4:20pm"}, {"days": "Sat-Sun", "time": "Closed"}], "id": "7290100015", "name": "USPS COLLECTION BOX - BLUE BOX", "address": {"city": "FORT SMITH", "state": "AR", "street": "619 ROGERS AVE", "postcode": "72901"}}},
{"geometry": {"type": "Point", "coordinates": [-94.4214661201, 35.3846353459]}, "type": "Feature", "properties": {"collection_times": [{"days": "Mon-Fri", "time": "5:15pm"}, {"days": "Sat", "time": "4:30pm"}, {"days": "Sun", "time": "Closed"}], "id": "7290100044", "name": "USPS COLLECTION BOX - BLUE BOX", "address": {"city": "FORT SMITH", "state": "AR", "street": "1020 GARRISON AVE", "postcode": "72901"}}},
{"geometry": {"type": "Point", "coordinates": [-94.4269249519, 35.387019741]}, "type": "Feature", "properties": {"collection_times": [{"days": "Mon-Fri", "time": "4:15pm"}, {"days": "Sat-Sun", "time": "Closed"}], "id": "7290100055", "name": "USPS COLLECTION BOX - BLUE BOX", "address": {"city": "FORT SMITH", "state": "AR", "street": "505 ROGERS AVE", "postcode": "72901"}}},
{"geometry": {"type": "Point", "coordinates": [-94.4258662973, 35.386303677]}, "type": "Feature", "properties": {"collection_times": [{"days": "Mon-Fri", "time": "4:20pm"}, {"days": "Sat-Sun", "time": "Closed"}], "id": "7290100057", "name": "USPS COLLECTION BOX - BLUE BOX", "address": {"city": "FORT SMITH", "state": "AR", "street": "619 ROGERS AVE", "postcode": "72901"}}},
{"geometry": {"type": "Point", "coordinates": [-94.4258662973, 35.386303677]}, "type": "Feature", "properties": {"collection_times": [{"days": "Mon-Fri", "time": "4:20pm"}, {"days": "Sat-Sun", "time": "Closed"}], "id": "7290100058", "name": "USPS COLLECTION BOX - BLUE BOX", "address": {"city": "FORT SMITH", "state": "AR", "street": "619 ROGERS AVE", "postcode": "72901"}}},
{"geometry": {"type": "Point", "coordinates": [-94.4226678753, 35.3403609701]}, "type": "Feature", "properties": {"collection_times": [{"days": "Mon-Sat", "time": "1:45pm"}, {"days": "Sun", "time": "Closed"}], "id": "7290100061", "name": "USPS COLLECTION BOX - BLUE BOX", "address": {"city": "FORT SMITH", "state": "AR", "street": "4600 TOWSON AVE", "postcode": "72901"}}},
{"geometry": {"type": "Point", "coordinates": [-94.4032645609, 35.3786860661]}, "type": "Feature", "properties": {"collection_times": [{"days": "Mon-Fri", "time": "12:00pm"}, {"days": "Sat", "time": "10:45am"}, {"days": "Sun", "time": "Closed"}], "id": "7290100063", "name": "USPS COLLECTION BOX - BLUE BOX", "address": {"city": "FORT SMITH", "state": "AR", "street": "2712 PARK AVE", "postcode": "72901"}}},
{"geometry": {"type": "Point", "coordinates": [-94.4214661201, 35.3846353459]}, "type": "Feature", "properties": {"collection_times": [{"days": "Mon-Sat", "time": "4:30pm"}, {"days": "Sun", "time": "Closed"}], "id": "7290100065", "name": "USPS COLLECTION BOX - PO LOBBY", "address": {"city": "FORT SMITH", "state": "AR", "street": "1020 GARRISON AVE", "postcode": "72901"}}},
{"geometry": {"type": "Point", "coordinates": [-94.415271321, 35.3820028642]}, "type": "Feature", "properties": {"collection_times": [{"days": "Mon-Sat", "time": "8:00am"}, {"days": "Sun", "time": "Closed"}], "id": "7290100068", "name": "USPS COLLECTION BOX - BLUE BOX", "address": {"city": "FORT SMITH", "state": "AR", "street": "1601 N A ST", "postcode": "72901"}}},
{"geometry": {"type": "Point", "coordinates": [-94.4214661201, 35.3846353459]}, "type": "Feature", "properties": {"collection_times": [{"days": "Mon-Sat", "time": "4:30pm"}, {"days": "Sun", "time": "Closed"}], "id": "7290100071", "name": "USPS COLLECTION BOX - PO LOBBY", "address": {"city": "FORT SMITH", "state": "AR", "street": "1020 GARRISON AVE", "postcode": "72901"}}},
{"geometry": {"type": "Point", "coordinates": [-94.4214661201, 35.3846353459]}, "type": "Feature", "properties": {"collection_times": [{"days": "Mon-Fri", "time": "5:15pm"}, {"days": "Sat", "time": "4:30pm"}, {"days": "Sun", "time": "Closed"}], "id": "7290100073", "name": "USPS COLLECTION BOX - BLUE BOX", "address": {"city": "FORT SMITH", "state": "AR", "street": "1020 GARRISON AVE", "postcode": "72901"}}},
{"geometry": {"type": "Point", "coordinates": [-94.3975112009, 35.3858427179]}, "type": "Feature", "properties": {"collection_times": [{"days": "Mon-Fri", "time": "2:55pm"}, {"days": "Sat", "time": "1:30pm"}, {"days": "Sun", "time": "Closed"}], "id": "7290300004", "name": "USPS COLLECTION BOX - BLUE BOX", "address": {"city": "FORT SMITH", "state": "AR", "street": "3200 GRAND AVE", "postcode": "72903"}}},
{"geometry": {"type": "Point", "coordinates": [-94.3761644498, 35.364812088]}, "type": "Feature", "properties": {"collection_times": [{"days": "Mon-Fri", "time": "2:10pm"}, {"days": "Sat", "time": "1:00pm"}, {"days": "Sun", "time": "Closed"}], "id": "7290300026", "name": "USPS COLLECTION BOX - BLUE BOX", "address": {"city": "FORT SMITH", "state": "AR", "street": "5111 ROGERS AVE", "postcode": "72903"}}},
{"geometry": {"type": "Point", "coordinates": [-94.3781141326, 35.3665952775]}, "type": "Feature", "properties": {"collection_times": [{"days": "Mon-Fri", "time": "2:15pm"}, {"days": "Sat-Sun", "time": "Closed"}], "id": "7290300040", "name": "USPS COLLECTION BOX - BLUE BOX", "address": {"city": "FORT SMITH", "state": "AR", "street": "4900 ROGERS AVE", "postcode": "72903"}}},
{"geometry": {"type": "Point", "coordinates": [-94.3947518751, 35.3729340994]}, "type": "Feature", "properties": {"collection_times": [{"days": "Mon-Fri", "time": "4:30pm"}, {"days": "Sat", "time": "8:30am"}, {"days": "Sun", "time": "Closed"}], "id": "7290300044", "name": "USPS COLLECTION BOX - BLUE BOX", "address": {"city": "FORT SMITH", "state": "AR", "street": "3400 ROGERS AVE", "postcode": "72903"}}},
{"geometry": {"type": "Point", "coordinates": [-94.3892394862, 35.3349568164]}, "type": "Feature", "properties": {"collection_times": [{"days": "Mon-Fri", "time": "10:00am"}, {"days": "Sat", "time": "9:45am"}, {"days": "Sun", "time": "Closed"}], "id": "7290300052", "name": "USPS COLLECTION BOX - BLUE BOX", "address": {"city": "FORT SMITH", "state": "AR", "street": "4903 OLD GREENWOOD RD", "postcode": "72903"}}},
{"geometry": {"type": "Point", "coordinates": [-94.3930965854, 35.3492313485]}, "type": "Feature", "properties": {"collection_times": [{"days": "Mon-Fri", "time": "1:30pm"}, {"days": "Sat", "time": "11:00am"}, {"days": "Sun", "time": "Closed"}], "id": "7290300066", "name": "USPS COLLECTION BOX - BLUE BOX", "address": {"city": "FORT SMITH", "state": "AR", "street": "3501 OLD GREENWOOD RD", "postcode": "72903"}}},
{"geometry": {"type": "Point", "coordinates": [-94.3410101556, 35.3484937083]}, "type": "Feature", "properties": {"collection_times": [{"days": "Mon-Sat", "time": "12:00pm"}, {"days": "Sun", "time": "Closed"}], "id": "7290300069", "name": "USPS COLLECTION BOX - BLUE BOX", "address": {"city": "FORT SMITH", "state": "AR", "street": "8365 ROGERS AVE", "postcode": "72903"}}},
{"geometry": {"type": "Point", "coordinates": [-94.3742132028, 35.3853061344]}, "type": "Feature", "properties": {"collection_times": [{"days": "Mon-Fri", "time": "11:15am"}, {"days": "Sat", "time": "9:45am"}, {"days": "Sun", "time": "Closed"}], "id": "7290300074", "name": "USPS COLLECTION BOX - BLUE BOX", "address": {"city": "FORT SMITH", "state": "AR", "street": "5210 GRAND AVE", "postcode": "72903"}}},
{"geometry": {"type": "Point", "coordinates": [-94.3872235144, 35.3929224748]}, "type": "Feature", "properties": {"collection_times": [{"days": "Mon-Fri", "time": "2:50pm"}, {"days": "Sat", "time": "9:00am"}, {"days": "Sun", "time": "Closed"}], "id": "7290400004", "name": "USPS COLLECTION BOX - BLUE BOX", "address": {"city": "FORT SMITH", "state": "AR", "street": "4000 N O ST", "postcode": "72904"}}},
{"geometry": {"type": "Point", "coordinates": [-94.3968558561, 35.4068915995]}, "type": "Feature", "properties": {"collection_times": [{"days": "Mon-Fri", "time": "4:30pm"}, {"days": "Sat", "time": "2:30pm"}, {"days": "Sun", "time": "Closed"}], "id": "7290400007", "name": "USPS COLLECTION BOX - BLUE BOX", "address": {"city": "FORT SMITH", "state": "AR", "street": "3100 WIRSING AVE", "postcode": "72904"}}},
{"geometry": {"type": "Point", "coordinates": [-94.3968558561, 35.4068915995]}, "type": "Feature", "properties": {"collection_times": [{"days": "Mon-Fri", "time": "4:30pm"}, {"days": "Sat", "time": "2:30pm"}, {"days": "Sun", "time": "Closed"}], "id": "7290400010", "name": "USPS COLLECTION BOX - PO LOBBY", "address": {"city": "FORT SMITH", "state": "AR", "street": "3100 WIRSING AVE", "postcode": "72904"}}},
{"geometry": {"type": "Point", "coordinates": [-94.3968558561, 35.4068915995]}, "type": "Feature", "properties": {"collection_times": [{"days": "Mon-Fri", "time": "4:30pm"}, {"days": "Sat", "time": "2:30pm"}, {"days": "Sun", "time": "Closed"}], "id": "7290400011", "name": "USPS COLLECTION BOX - PO LOBBY", "address": {"city": "FORT SMITH", "state": "AR", "street": "3100 WIRSING AVE", "postcode": "72904"}}},
{"geometry": {"type": "Point", "coordinates": [-94.3968558561, 35.4068915995]}, "type": "Feature", "properties": {"collection_times": [{"days": "Mon-Fri", "time": "4:30pm"}, {"days": "Sat", "time": "2:30pm"}, {"days": "Sun", "time": "Closed"}], "id": "7290400012", "name": "USPS COLLECTION BOX - PO LOBBY", "address": {"city": "FORT SMITH", "state": "AR", "street": "3100 WIRSING AVE", "postcode": "72904"}}},
{"geometry": {"type": "Point", "coordinates": [-94.3968558561, 35.4068915995]}, "type": "Feature", "properties": {"collection_times": [{"days": "Mon-Fri", "time": "4:30pm"}, {"days": "Sat", "time": "2:30pm"}, {"days": "Sun", "time": "Closed"}], "id": "7290400013", "name": "USPS COLLECTION BOX - PO LOBBY", "address": {"city": "FORT SMITH", "state": "AR", "street": "3100 WIRSING AVE", "postcode": "72904"}}},
{"geometry": {"type": "Point", "coordinates": [-94.4065526288, 35.3017587356]}, "type": "Feature", "properties": {"collection_times": [{"days": "Mon-Fri", "time": "4:30pm"}, {"days": "Sat", "time": "2:30pm"}, {"days": "Sun", "time": "Closed"}], "id": "7290800000", "name": "USPS COLLECTION BOX - BLUE BOX", "address": {"city": "FORT SMITH", "state": "AR", "street": "2712 MARKET TRCE", "postcode": "72908"}}},
{"geometry": {"type": "Point", "coordinates": [-94.4065526288, 35.3017587356]}, "type": "Feature", "properties": {"collection_times": [{"days": "Mon-Fri", "time": "4:30pm"}, {"days": "Sat", "time": "2:30pm"}, {"days": "Sun", "time": "Closed"}], "id": "7290800001", "name": "USPS COLLECTION BOX - BLUE BOX", "address": {"city": "FORT SMITH", "state": "AR", "street": "2712 MARKET TRCE", "postcode": "72908"}}},
{"geometry": {"type": "Point", "coordinates": [-94.4229219999, 35.3043492125]}, "type": "Feature", "properties": {"collection_times": [{"days": "Mon-Sat", "time": "10:25am"}, {"days": "Sun", "time": "Closed"}], "id": "7290800005", "name": "USPS COLLECTION BOX - BLUE BOX", "address": {"city": "FORT SMITH", "state": "AR", "street": "8501 HIGHWAY 271 S", "postcode": "72908"}}},
{"geometry": {"type": "Point", "coordinates": [-94.4091958371, 35.3014093755]}, "type": "Feature", "properties": {"collection_times": [{"days": "Mon-Sat", "time": "2:00pm"}, {"days": "Sun", "time": "Closed"}], "id": "7290800007", "name": "USPS COLLECTION BOX - BLUE BOX", "address": {"city": "FORT SMITH", "state": "AR", "street": "8901 JENNY LIND RD", "postcode": "72908"}}},
{"geometry": {"type": "Point", "coordinates": [-94.3934851999, 35.2941563618]}, "type": "Feature", "properties": {"collection_times": [{"days": "Mon-Sat", "time": "1:00pm"}, {"days": "Sun", "time": "Closed"}], "id": "7290800010", "name": "USPS COLLECTION BOX - BLUE BOX", "address": {"city": "FORT SMITH", "state": "AR", "street": "3913 BROOKEN HILL DR", "postcode": "72908"}}},
{"geometry": {"type": "Point", "coordinates": [-94.4065526288, 35.3017587356]}, "type": "Feature", "properties": {"collection_times": [{"days": "Mon-Fri", "time": "4:30pm"}, {"days": "Sat", "time": "2:30pm"}, {"days": "Sun", "time": "Closed"}], "id": "7290800015", "name": "USPS COLLECTION BOX - PO LOBBY", "address": {"city": "FORT SMITH", "state": "AR", "street": "2712 MARKET TRCE", "postcode": "72908"}}},
{"geometry": {"type": "Point", "coordinates": [-94.4065526288, 35.3017587356]}, "type": "Feature", "properties": {"collection_times": [{"days": "Mon-Fri", "time": "4:30pm"}, {"days": "Sat", "time": "2:30pm"}, {"days": "Sun", "time": "Closed"}], "id": "7290800016", "name": "USPS COLLECTION BOX - PO LOBBY", "address": {"city": "FORT SMITH", "state": "AR", "street": "2712 MARKET TRCE", "postcode": "72908"}}},
{"geometry": {"type": "Point", "coordinates": [-94.3511438614, 35.3525280009]}, "type": "Feature", "properties": {"collection_times": [{"days": "Mon-Fri", "time": "7:00pm"}, {"days": "Sat", "time": "6:00pm"}, {"days": "Sun", "time": "Closed"}], "id": "7291700001", "name": "USPS COLLECTION BOX - PO LOBBY", "address": {"city": "FORT SMITH", "state": "AR", "street": "3318 S 74TH ST", "postcode": "72917"}}},
{"geometry": {"type": "Point", "coordinates": [-94.3511438614, 35.3525280009]}, "type": "Feature", "properties": {"collection_times": [{"days": "Mon-Fri", "time": "7:00pm"}, {"days": "Sat", "time": "6:00pm"}, {"days": "Sun", "time": "Closed"}], "id": "7291700003", "name": "USPS COLLECTION BOX - BLUE BOX", "address": {"city": "FORT SMITH", "state": "AR", "street": "3318 S 74TH ST", "postcode": "72917"}}},
{"geometry": {"type": "Point", "coordinates": [-94.3511438614, 35.3525280009]}, "type": "Feature", "properties": {"collection_times": [{"days": "Mon-Fri", "time": "7:00pm"}, {"days": "Sat", "time": "6:00pm"}, {"days": "Sun", "time": "Closed"}], "id": "7291700004", "name": "USPS COLLECTION BOX - BLUE BOX", "address": {"city": "FORT SMITH", "state": "AR", "street": "3318 S 74TH ST", "postcode": "72917"}}},
{"geometry": {"type": "Point", "coordinates": [-94.3511438614, 35.3525280009]}, "type": "Feature", "properties": {"collection_times": [{"days": "Mon-Fri", "time": "7:00pm"}, {"days": "Sat", "time": "6:00pm"}, {"days": "Sun", "time": "Closed"}], "id": "7291700006", "name": "USPS COLLECTION BOX - BLUE BOX", "address": {"city": "FORT SMITH", "state": "AR", "street": "3318 S 74TH ST", "postcode": "72917"}}},
{"geometry": {"type": "Point", "coordinates": [-94.3511438614, 35.3525280009]}, "type": "Feature", "properties": {"collection_times": [{"days": "Mon-Fri", "time": "7:00pm"}, {"days": "Sat", "time": "6:00pm"}, {"days": "Sun", "time": "Closed"}], "id": "7291700007", "name": "USPS COLLECTION BOX - APC", "address": {"city": "FORT SMITH", "state": "AR", "street": "3318 S 74TH ST", "postcode": "72917"}}},
{"geometry": {"type": "Point", "coordinates": [-94.2310548115, 35.4813806825]}, "type": "Feature", "properties": {"collection_times": [{"days": "Mon-Fri", "time": "4:45pm"}, {"days": "Sat", "time": "2:15pm"}, {"days": "Sun", "time": "Closed"}], "id": "7292100001", "name": "USPS COLLECTION BOX - BLUE BOX", "address": {"city": "ALMA", "state": "AR", "street": "524 HIGHWAY 64 E", "postcode": "72921"}}},
{"geometry": {"type": "Point", "coordinates": [-94.2310548115, 35.4813806825]}, "type": "Feature", "properties": {"collection_times": [{"days": "Mon-Fri", "time": "4:45pm"}, {"days": "Sat", "time": "2:15pm"}, {"days": "Sun", "time": "Closed"}], "id": "7292100002", "name": "USPS COLLECTION BOX - PO LOBBY", "address": {"city": "ALMA", "state": "AR", "street": "524 HIGHWAY 64 E", "postcode": "72921"}}},
{"geometry": {"type": "Point", "coordinates": [-94.225144274, 35.483604949]}, "type": "Feature", "properties": {"collection_times": [{"days": "Mon-Sat", "time": "11:00am"}, {"days": "Sun", "time": "Closed"}], "id": "7292100004", "name": "USPS COLLECTION BOX - BLUE BOX", "address": {"city": "ALMA", "state": "AR", "street": "25 HIGHWAY 64 W", "postcode": "72921"}}},
{"geometry": {"type": "Point", "coordinates": [-94.2310548115, 35.4813806825]}, "type": "Feature", "properties": {"collection_times": [{"days": "Mon-Fri", "time": "4:45pm"}, {"days": "Sat", "time": "2:15pm"}, {"days": "Sun", "time": "Closed"}], "id": "7292100005", "name": "USPS COLLECTION BOX - BLUE BOX", "address": {"city": "ALMA", "state": "AR", "street": "524 HIGHWAY 64 E", "postcode": "72921"}}},
{"geometry": {"type": "Point", "coordinates": [-94.2310548115, 35.4813806825]}, "type": "Feature", "properties": {"collection_times": [{"days": "Mon-Fri", "time": "4:45pm"}, {"days": "Sat", "time": "2:15pm"}, {"days": "Sun", "time": "Closed"}], "id": "7292100006", "name": "USPS COLLECTION BOX - PO LOBBY", "address": {"city": "ALMA", "state": "AR", "street": "524 HIGHWAY 64 E", "postcode": "72921"}}},
{"geometry": {"type": "Point", "coordinates": [-94.3035560626, 35.3267505832]}, "type": "Feature", "properties": {"collection_times": [{"days": "Mon-Fri", "time": "4:30pm"}, {"days": "Sat", "time": "12:45pm"}, {"days": "Sun", "time": "Closed"}], "id": "7292300001", "name": "USPS COLLECTION BOX - BLUE BOX", "address": {"city": "BARLING", "state": "AR", "street": "609 FORT ST", "postcode": "72923"}}},
{"geometry": {"type": "Point", "coordinates": [-94.3035560626, 35.3267505832]}, "type": "Feature", "properties": {"collection_times": [{"days": "Mon-Fri", "time": "4:30pm"}, {"days": "Sat", "time": "12:45pm"}, {"days": "Sun", "time": "Closed"}], "id": "7292300002", "name": "USPS COLLECTION BOX - PO LOBBY", "address": {"city": "BARLING", "state": "AR", "street": "609 FORT ST", "postcode": "72923"}}},
{"geometry": {"type": "Point", "coordinates": [-94.0976827541, 34.7589703632]}, "type": "Feature", "properties": {"collection_times": [{"days": "Mon-Fri", "time": "3:00pm"}, {"days": "Sat", "time": "10:00am"}, {"days": "Sun", "time": "Closed"}], "id": "7292600001", "name": "USPS COLLECTION BOX - BLUE BOX", "address": {"city": "BOLES", "state": "AR", "street": "11992 HIGHWAY 71 S", "postcode": "72926"}}},
{"geometry": {"type": "Point", "coordinates": [-94.0976827541, 34.7589703632]}, "type": "Feature", "properties": {"collection_times": [{"days": "Mon-Fri", "time": "11:00am"}, {"days": "Sat", "time": "10:00am"}, {"days": "Sun", "time": "Closed"}], "id": "7292600002", "name": "USPS COLLECTION BOX - PO LOBBY", "address": {"city": "BOLES", "state": "AR", "street": "11992 HIGHWAY 71 S", "postcode": "72926"}}},
{"geometry": {"type": "Point", "coordinates": [-93.9221904399, 35.1373857397]}, "type": "Feature", "properties": {"collection_times": [{"days": "Mon-Fri", "time": "4:45pm"}, {"days": "Sat", "time": "3:30pm"}, {"days": "Sun", "time": "Closed"}], "id": "7292700004", "name": "USPS COLLECTION BOX - BLUE BOX", "address": {"city": "BOONEVILLE", "state": "AR", "street": "111 S BROADWAY AVE", "postcode": "72927"}}},
{"geometry": {"type": "Point", "coordinates": [-93.9221904399, 35.1373857397]}, "type": "Feature", "properties": {"collection_times": [{"days": "Mon-Fri", "time": "4:30pm"}, {"days": "Sat", "time": "3:30pm"}, {"days": "Sun", "time": "Closed"}], "id": "7292700006", "name": "USPS COLLECTION BOX - PO LOBBY", "address": {"city": "BOONEVILLE", "state": "AR", "street": "111 S BROADWAY AVE", "postcode": "72927"}}},
{"geometry": {"type": "Point", "coordinates": [-93.9221904399, 35.1373857397]}, "type": "Feature", "properties": {"collection_times": [{"days": "Mon-Fri", "time": "4:30pm"}, {"days": "Sat", "time": "3:30pm"}, {"days": "Sun", "time": "Closed"}], "id": "7292700007", "name": "USPS COLLECTION BOX - PO LOBBY", "address": {"city": "BOONEVILLE", "state": "AR", "street": "111 S BROADWAY AVE", "postcode": "72927"}}},
{"geometry": {"type": "Point", "coordinates": [-93.9221904399, 35.1373857397]}, "type": "Feature", "properties": {"collection_times": [{"days": "Mon-Fri", "time": "4:45pm"}, {"days": "Sat", "time": "3:30pm"}, {"days": "Sun", "time": "Closed"}], "id": "7292700009", "name": "USPS COLLECTION BOX - BLUE BOX", "address": {"city": "BOONEVILLE", "state": "AR", "street": "111 S BROADWAY AVE", "postcode": "72927"}}},
{"geometry": {"type": "Point", "coordinates": [-93.9385606488, 35.3063088124]}, "type": "Feature", "properties": {"collection_times": [{"days": "Mon-Fri", "time": "4:20pm"}, {"days": "Sat", "time": "11:20am"}, {"days": "Sun", "time": "Closed"}], "id": "7292800001", "name": "USPS COLLECTION BOX - BLUE BOX", "address": {"city": "BRANCH", "state": "AR", "street": "510 HIGHWAY 22 W", "postcode": "72928"}}},
{"geometry": {"type": "Point", "coordinates": [-93.9385606488, 35.3063088124]}, "type": "Feature", "properties": {"collection_times": [{"days": "Mon-Fri", "time": "11:00am"}, {"days": "Sat", "time": "11:20am"}, {"days": "Sun", "time": "Closed"}], "id": "7292800002", "name": "USPS COLLECTION BOX - PO LOBBY", "address": {"city": "BRANCH", "state": "AR", "street": "510 HIGHWAY 22 W", "postcode": "72928"}}},
{"geometry": {"type": "Point", "coordinates": [-93.9385606488, 35.3063088124]}, "type": "Feature", "properties": {"collection_times": [{"days": "Mon-Fri", "time": "11:00am"}, {"days": "Sat", "time": "11:20am"}, {"days": "Sun", "time": "Closed"}], "id": "7292800003", "name": "USPS COLLECTION BOX - PO LOBBY", "address": {"city": "BRANCH", "state": "AR", "street": "510 HIGHWAY 22 W", "postcode": "72928"}}},
{"geometry": {"type": "Point", "coordinates": [-93.9451626006, 35.4387597225]}, "type": "Feature", "properties": {"collection_times": [{"days": "Mon-Sat", "time": "11:45am"}, {"days": "Sun", "time": "Closed"}], "id": "7293000002", "name": "USPS COLLECTION BOX - PO LOBBY", "address": {"city": "CECIL", "state": "AR", "street": "21 W HIGHWAY 96", "postcode": "72930"}}},
{"geometry": {"type": "Point", "coordinates": [-93.9451626006, 35.4387597225]}, "type": "Feature", "properties": {"collection_times": [{"days": "Mon-Sat", "time": "11:45am"}, {"days": "Sun", "time": "Closed"}], "id": "7293000003", "name": "USPS COLLECTION BOX - PO LOBBY", "address": {"city": "CECIL", "state": "AR", "street": "21 W HIGHWAY 96", "postcode": "72930"}}},
{"geometry": {"type": "Point", "coordinates": [-94.3749153706, 35.5540897923]}, "type": "Feature", "properties": {"collection_times": [{"days": "Mon-Fri", "time": "2:20pm"}, {"days": "Sat", "time": "11:15am"}, {"days": "Sun", "time": "Closed"}], "id": "7293200001", "name": "USPS COLLECTION BOX - BLUE BOX", "address": {"city": "CEDARVILLE", "state": "AR", "street": "8904 N HIGHWAY 59", "postcode": "72932"}}},
{"geometry": {"type": "Point", "coordinates": [-94.3749153706, 35.5540897923]}, "type": "Feature", "properties": {"collection_times": [{"days": "Mon-Fri", "time": "2:20pm"}, {"days": "Sat", "time": "11:15am"}, {"days": "Sun", "time": "Closed"}], "id": "7293200002", "name": "USPS COLLECTION BOX - PO LOBBY", "address": {"city": "CEDARVILLE", "state": "AR", "street": "8904 N HIGHWAY 59", "postcode": "72932"}}},
{"geometry": {"type": "Point", "coordinates": [-94.3749153706, 35.5540897923]}, "type": "Feature", "properties": {"collection_times": [{"days": "Mon-Fri", "time": "2:20pm"}, {"days": "Sat", "time": "11:15am"}, {"days": "Sun", "time": "Closed"}], "id": "7293200003", "name": "USPS COLLECTION BOX - PO LOBBY", "address": {"city": "CEDARVILLE", "state": "AR", "street": "8904 N HIGHWAY 59", "postcode": "72932"}}},
{"geometry": {"type": "Point", "coordinates": [-94.0411785759, 35.2972115372]}, "type": "Feature", "properties": {"collection_times": [{"days": "Mon-Fri", "time": "4:30pm"}, {"days": "Sat", "time": "1:00pm"}, {"days": "Sun", "time": "Closed"}], "id": "7293300001", "name": "USPS COLLECTION BOX - BLUE BOX", "address": {"city": "CHARLESTON", "state": "AR", "street": "215 E MAIN ST", "postcode": "72933"}}},
{"geometry": {"type": "Point", "coordinates": [-94.0411785759, 35.2972115372]}, "type": "Feature", "properties": {"collection_times": [{"days": "Mon-Fri", "time": "4:30pm"}, {"days": "Sat", "time": "1:00pm"}, {"days": "Sun", "time": "Closed"}], "id": "7293300002", "name": "USPS COLLECTION BOX - PO LOBBY", "address": {"city": "CHARLESTON", "state": "AR", "street": "215 E MAIN ST", "postcode": "72933"}}},
{"geometry": {"type": "Point", "coordinates": [-94.0411785759, 35.2972115372]}, "type": "Feature", "properties": {"collection_times": [{"days": "Mon-Fri", "time": "4:30pm"}, {"days": "Sat", "time": "1:00pm"}, {"days": "Sun", "time": "Closed"}], "id": "7293300003", "name": "USPS COLLECTION BOX - PO LOBBY", "address": {"city": "CHARLESTON", "state": "AR", "street": "215 E MAIN ST", "postcode": "72933"}}},
{"geometry": {"type": "Point", "coordinates": [-94.0411785759, 35.2972115372]}, "type": "Feature", "properties": {"collection_times": [{"days": "Mon-Fri", "time": "4:30pm"}, {"days": "Sat", "time": "1:00pm"}, {"days": "Sun", "time": "Closed"}], "id": "7293300004", "name": "USPS COLLECTION BOX - PO LOBBY", "address": {"city": "CHARLESTON", "state": "AR", "street": "215 E MAIN ST", "postcode": "72933"}}},
{"geometry": {"type": "Point", "coordinates": [-94.0411785759, 35.2972115372]}, "type": "Feature", "properties": {"collection_times": [{"days": "Mon-Fri", "time": "4:30pm"}, {"days": "Sat", "time": "1:00pm"}, {"days": "Sun", "time": "Closed"}], "id": "7293300005", "name": "USPS COLLECTION BOX - PO LOBBY", "address": {"city": "CHARLESTON", "state": "AR", "street": "215 E MAIN ST", "postcode": "72933"}}},
{"geometry": {"type": "Point", "coordinates": [-94.1746165157, 35.6791599525]}, "type": "Feature", "properties": {"collection_times": [{"days": "Mon-Fri", "time": "3:10pm"}, {"days": "Sat", "time": "10:00am"}, {"days": "Sun", "time": "Closed"}], "id": "7293400001", "name": "USPS COLLECTION BOX - BLUE BOX", "address": {"city": "CHESTER", "state": "AR", "street": "405 E FRONT AVE", "postcode": "72934"}}},
{"geometry": {"type": "Point", "coordinates": [-94.138743441, 35.4905751897]}, "type": "Feature", "properties": {"collection_times": [{"days": "Mon-Sat", "time": "11:30am"}, {"days": "Sun", "time": "Closed"}], "id": "7293500002", "name": "USPS COLLECTION BOX - PO LOBBY", "address": {"city": "DYER", "state": "AR", "street": "107 N MAIN ST", "postcode": "72935"}}},
{"geometry": {"type": "Point", "coordinates": [-94.138743441, 35.4905751897]}, "type": "Feature", "properties": {"collection_times": [{"days": "Mon-Sat", "time": "11:30am"}, {"days": "Sun", "time": "Closed"}], "id": "7293500003", "name": "USPS COLLECTION BOX - PO LOBBY", "address": {"city": "DYER", "state": "AR", "street": "107 N MAIN ST", "postcode": "72935"}}},
{"geometry": {"type": "Point", "coordinates": [-94.2536577716, 35.2133547218]}, "type": "Feature", "properties": {"collection_times": [{"days": "Mon-Fri", "time": "5:00pm"}, {"days": "Sat", "time": "2:00pm"}, {"days": "Sun", "time": "Closed"}], "id": "7293600001", "name": "USPS COLLECTION BOX - BLUE BOX", "address": {"city": "GREENWOOD", "state": "AR", "street": "450 E ATLANTA ST", "postcode": "72936"}}},
{"geometry": {"type": "Point", "coordinates": [-94.2723066186, 35.2178512589]}, "type": "Feature", "properties": {"collection_times": [{"days": "Mon-Sat", "time": "12:40pm"}, {"days": "Sun", "time": "Closed"}], "id": "7293600015", "name": "USPS COLLECTION BOX - BLUE BOX", "address": {"city": "GREENWOOD", "state": "AR", "street": "1245 W CENTER ST", "postcode": "72936"}}},
{"geometry": {"type": "Point", "coordinates": [-94.2496677447, 35.2118572383]}, "type": "Feature", "properties": {"collection_times": [{"days": "Mon-Sat", "time": "11:00am"}, {"days": "Sun", "time": "Closed"}], "id": "7293600016", "name": "USPS COLLECTION BOX - BLUE BOX", "address": {"city": "GREENWOOD", "state": "AR", "street": "301 E CENTER ST", "postcode": "72936"}}},
{"geometry": {"type": "Point", "coordinates": [-94.2300666776, 35.2089885085]}, "type": "Feature", "properties": {"collection_times": [{"days": "Mon-Sat", "time": "9:30am"}, {"days": "Sun", "time": "Closed"}], "id": "7293600017", "name": "USPS COLLECTION BOX - BLUE BOX", "address": {"city": "GREENWOOD", "state": "AR", "street": "220 SUGARBERRY DR", "postcode": "72936"}}},
{"geometry": {"type": "Point", "coordinates": [-94.2313363658, 35.2070830401]}, "type": "Feature", "properties": {"collection_times": [{"days": "Mon-Sat", "time": "9:00am"}, {"days": "Sun", "time": "Closed"}], "id": "7293600021", "name": "USPS COLLECTION BOX - BLUE BOX", "address": {"city": "GREENWOOD", "state": "AR", "street": "1580 WHIPPOORWILL DR", "postcode": "72936"}}},
{"geometry": {"type": "Point", "coordinates": [-94.2536577714, 35.2133547222]}, "type": "Feature", "properties": {"collection_times": [{"days": "Mon-Fri", "time": "5:00pm"}, {"days": "Sat", "time": "2:00pm"}, {"days": "Sun", "time": "Closed"}], "id": "7293600025", "name": "USPS COLLECTION BOX - PO LOBBY", "address": {"city": "GREENWOOD", "state": "AR", "street": "450 E ATLANTA ST", "postcode": "72936"}}},
{"geometry": {"type": "Point", "coordinates": [-94.2536577714, 35.2133547222]}, "type": "Feature", "properties": {"collection_times": [{"days": "Mon-Fri", "time": "5:00pm"}, {"days": "Sat", "time": "2:00pm"}, {"days": "Sun", "time": "Closed"}], "id": "7293600026", "name": "USPS COLLECTION BOX - PO LOBBY", "address": {"city": "GREENWOOD", "state": "AR", "street": "450 E ATLANTA ST", "postcode": "72936"}}},
{"geometry": {"type": "Point", "coordinates": [-94.2599865355, 35.2126543684]}, "type": "Feature", "properties": {"collection_times": [{"days": "Mon-Sat", "time": "12:40pm"}, {"days": "Sun", "time": "Closed"}], "id": "7293600027", "name": "USPS COLLECTION BOX - BLUE BOX", "address": {"city": "GREENWOOD", "state": "AR", "street": "301 W CENTER ST", "postcode": "72936"}}},
{"geometry": {"type": "Point", "coordinates": [-94.2953579865, 35.2218598173]}, "type": "Feature", "properties": {"collection_times": [{"days": "Mon-Sat", "time": "12:30pm"}, {"days": "Sun", "time": "Closed"}], "id": "7293600028", "name": "USPS COLLECTION BOX - BLUE BOX", "address": {"city": "GREENWOOD", "state": "AR", "street": "551 LIBERTY DR", "postcode": "72936"}}},
{"geometry": {"type": "Point", "coordinates": [-94.4136235416, 35.1894754009]}, "type": "Feature", "properties": {"collection_times": [{"days": "Mon-Fri", "time": "4:00pm"}, {"days": "Sat", "time": "11:00am"}, {"days": "Sun", "time": "Closed"}], "id": "7293700001", "name": "USPS COLLECTION BOX - BLUE BOX", "address": {"city": "HACKETT", "state": "AR", "street": "402 N MAIN ST", "postcode": "72937"}}},
{"geometry": {"type": "Point", "coordinates": [-94.4136235416, 35.1894754009]}, "type": "Feature", "properties": {"collection_times": [{"days": "Mon-Fri", "time": "4:00pm"}, {"days": "Sat", "time": "11:00am"}, {"days": "Sun", "time": "Closed"}], "id": "7293700003", "name": "USPS COLLECTION BOX - PO LOBBY", "address": {"city": "HACKETT", "state": "AR", "street": "402 N MAIN ST", "postcode": "72937"}}},
{"geometry": {"type": "Point", "coordinates": [-94.4136235416, 35.1894754009]}, "type": "Feature", "properties": {"collection_times": [{"days": "Mon-Fri", "time": "4:00pm"}, {"days": "Sat", "time": "11:00am"}, {"days": "Sun", "time": "Closed"}], "id": "7293700004", "name": "USPS COLLECTION BOX - PO LOBBY", "address": {"city": "HACKETT", "state": "AR", "street": "402 N MAIN ST", "postcode": "72937"}}},
{"geometry": {"type": "Point", "coordinates": [-94.3814109095, 35.0249363436]}, "type": "Feature", "properties": {"collection_times": [{"days": "Mon-Fri", "time": "4:00pm"}, {"days": "Sat", "time": "10:30am"}, {"days": "Sun", "time": "Closed"}], "id": "7293800000", "name": "USPS COLLECTION BOX - BLUE BOX", "address": {"city": "HARTFORD", "state": "AR", "street": "203 N BROADWAY ST", "postcode": "72938"}}},
{"geometry": {"type": "Point", "coordinates": [-94.3814109095, 35.0249363436]}, "type": "Feature", "properties": {"collection_times": [{"days": "Mon-Fri", "time": "11:30am"}, {"days": "Sat", "time": "10:30am"}, {"days": "Sun", "time": "Closed"}], "id": "7293800001", "name": "USPS COLLECTION BOX - PO LOBBY", "address": {"city": "HARTFORD", "state": "AR", "street": "203 N BROADWAY ST", "postcode": "72938"}}},
{"geometry": {"type": "Point", "coordinates": [-94.26346384, 35.0822450395]}, "type": "Feature", "properties": {"collection_times": [{"days": "Mon-Fri", "time": "4:15pm"}, {"days": "Sat", "time": "11:15am"}, {"days": "Sun", "time": "Closed"}], "id": "7294000001", "name": "USPS COLLECTION BOX - BLUE BOX", "address": {"city": "HUNTINGTON", "state": "AR", "street": "101 HIGHWAY 71 SW", "postcode": "72940"}}},
{"geometry": {"type": "Point", "coordinates": [-94.26346384, 35.0822450395]}, "type": "Feature", "properties": {"collection_times": [{"days": "Mon-Fri", "time": "1:30pm"}, {"days": "Sat", "time": "11:15am"}, {"days": "Sun", "time": "Closed"}], "id": "7294000002", "name": "USPS COLLECTION BOX - PO LOBBY", "address": {"city": "HUNTINGTON", "state": "AR", "street": "101 HIGHWAY 71 SW", "postcode": "72940"}}},
{"geometry": {"type": "Point", "coordinates": [-94.1781515637, 35.336344756]}, "type": "Feature", "properties": {"collection_times": [{"days": "Mon-Fri", "time": "4:45pm"}, {"days": "Sat", "time": "11:30am"}, {"days": "Sun", "time": "Closed"}], "id": "7294100001", "name": "USPS COLLECTION BOX - BLUE BOX", "address": {"city": "LAVACA", "state": "AR", "street": "504 W MAIN ST", "postcode": "72941"}}},
{"geometry": {"type": "Point", "coordinates": [-94.1781515637, 35.336344756]}, "type": "Feature", "properties": {"collection_times": [{"days": "Mon-Fri", "time": "4:45pm"}, {"days": "Sat", "time": "11:30am"}, {"days": "Sun", "time": "Closed"}], "id": "7294100002", "name": "USPS COLLECTION BOX - PO LOBBY", "address": {"city": "LAVACA", "state": "AR", "street": "504 W MAIN ST", "postcode": "72941"}}},
{"geometry": {"type": "Point", "coordinates": [-94.1781515637, 35.336344756]}, "type": "Feature", "properties": {"collection_times": [{"days": "Mon-Fri", "time": "4:45pm"}, {"days": "Sat", "time": "11:30am"}, {"days": "Sun", "time": "Closed"}], "id": "7294100003", "name": "USPS COLLECTION BOX - PO LOBBY", "address": {"city": "LAVACA", "state": "AR", "street": "504 W MAIN ST", "postcode": "72941"}}},
{"geometry": {"type": "Point", "coordinates": [-93.8099873421, 35.1511970848]}, "type": "Feature", "properties": {"collection_times": [{"days": "Mon-Fri", "time": "4:15pm"}, {"days": "Sat", "time": "11:00am"}, {"days": "Sun", "time": "Closed"}], "id": "7294300001", "name": "USPS COLLECTION BOX - BLUE BOX", "address": {"city": "MAGAZINE", "state": "AR", "street": "60 N STATE HIGHWAY 109", "postcode": "72943"}}},
{"geometry": {"type": "Point", "coordinates": [-93.8099873421, 35.1511970848]}, "type": "Feature", "properties": {"collection_times": [{"days": "Mon-Fri", "time": "2:45pm"}, {"days": "Sat", "time": "11:00am"}, {"days": "Sun", "time": "Closed"}], "id": "7294300002", "name": "USPS COLLECTION BOX - PO LOBBY", "address": {"city": "MAGAZINE", "state": "AR", "street": "60 N STATE HIGHWAY 109", "postcode": "72943"}}},
{"geometry": {"type": "Point", "coordinates": [-94.2482645045, 35.0596562768]}, "type": "Feature", "properties": {"collection_times": [{"days": "Mon-Fri", "time": "4:15pm"}, {"days": "Sat", "time": "11:00am"}, {"days": "Sun", "time": "Closed"}], "id": "7294400001", "name": "USPS COLLECTION BOX - BLUE BOX", "address": {"city": "MANSFIELD", "state": "AR", "street": "310 E HOWARD ST", "postcode": "72944"}}},
{"geometry": {"type": "Point", "coordinates": [-94.2482645045, 35.0596562768]}, "type": "Feature", "properties": {"collection_times": [{"days": "Mon-Fri", "time": "4:15pm"}, {"days": "Sat", "time": "11:00am"}, {"days": "Sun", "time": "Closed"}], "id": "7294400002", "name": "USPS COLLECTION BOX - PO LOBBY", "address": {"city": "MANSFIELD", "state": "AR", "street": "310 E HOWARD ST", "postcode": "72944"}}},
{"geometry": {"type": "Point", "coordinates": [-94.2482645045, 35.0596562768]}, "type": "Feature", "properties": {"collection_times": [{"days": "Mon-Fri", "time": "4:15pm"}, {"days": "Sat", "time": "11:00am"}, {"days": "Sun", "time": "Closed"}], "id": "7294400003", "name": "USPS COLLECTION BOX - PO LOBBY", "address": {"city": "MANSFIELD", "state": "AR", "street": "310 E HOWARD ST", "postcode": "72944"}}},
{"geometry": {"type": "Point", "coordinates": [-94.3546672433, 35.0934203135]}, "type": "Feature", "properties": {"collection_times": [{"days": "Mon-Fri", "time": "12:00pm"}, {"days": "Sat", "time": "9:20am"}, {"days": "Sun", "time": "Closed"}], "id": "7294500002", "name": "USPS COLLECTION BOX - PO LOBBY", "address": {"city": "MIDLAND", "state": "AR", "street": "403 N 3RD ST", "postcode": "72945"}}},
{"geometry": {"type": "Point", "coordinates": [-94.3546672433, 35.0934203135]}, "type": "Feature", "properties": {"collection_times": [{"days": "Mon-Fri", "time": "12:00pm"}, {"days": "Sat", "time": "9:20am"}, {"days": "Sun", "time": "Closed"}], "id": "7294500003", "name": "USPS COLLECTION BOX - PO LOBBY", "address": {"city": "MIDLAND", "state": "AR", "street": "403 N 3RD ST", "postcode": "72945"}}},
{"geometry": {"type": "Point", "coordinates": [-94.1693087645, 35.6331033675]}, "type": "Feature", "properties": {"collection_times": [{"days": "Mon-Fri", "time": "4:45pm"}, {"days": "Sat", "time": "10:45am"}, {"days": "Sun", "time": "Closed"}], "id": "7294600001", "name": "USPS COLLECTION BOX - BLUE BOX", "address": {"city": "MOUNTAINBURG", "state": "AR", "street": "6 HICKORY ST", "postcode": "72946"}}},
{"geometry": {"type": "Point", "coordinates": [-94.1693087645, 35.6331033675]}, "type": "Feature", "properties": {"collection_times": [{"days": "Mon-Fri", "time": "4:45pm"}, {"days": "Sat", "time": "10:45am"}, {"days": "Sun", "time": "Closed"}], "id": "7294600002", "name": "USPS COLLECTION BOX - PO LOBBY", "address": {"city": "MOUNTAINBURG", "state": "AR", "street": "6 HICKORY ST", "postcode": "72946"}}},
{"geometry": {"type": "Point", "coordinates": [-94.0512941094, 35.517843982]}, "type": "Feature", "properties": {"collection_times": [{"days": "Mon-Fri", "time": "4:15pm"}, {"days": "Sat", "time": "11:00am"}, {"days": "Sun", "time": "Closed"}], "id": "7294700001", "name": "USPS COLLECTION BOX - BLUE BOX", "address": {"city": "MULBERRY", "state": "AR", "street": "221 N MAIN ST", "postcode": "72947"}}},
{"geometry": {"type": "Point", "coordinates": [-94.0512941094, 35.517843982]}, "type": "Feature", "properties": {"collection_times": [{"days": "Mon-Fri", "time": "4:15pm"}, {"days": "Sat", "time": "11:00am"}, {"days": "Sun", "time": "Closed"}], "id": "7294700002", "name": "USPS COLLECTION BOX - PO LOBBY", "address": {"city": "MULBERRY", "state": "AR", "street": "221 N MAIN ST", "postcode": "72947"}}},
{"geometry": {"type": "Point", "coordinates": [-94.0512941094, 35.517843982]}, "type": "Feature", "properties": {"collection_times": [{"days": "Mon-Fri", "time": "4:15pm"}, {"days": "Sat", "time": "11:00am"}, {"days": "Sun", "time": "Closed"}], "id": "7294700003", "name": "USPS COLLECTION BOX - PO LOBBY", "address": {"city": "MULBERRY", "state": "AR", "street": "221 N MAIN ST", "postcode": "72947"}}},
{"geometry": {"type": "Point", "coordinates": [-94.3943195572, 35.6506535861]}, "type": "Feature", "properties": {"collection_times": [{"days": "Mon-Fri", "time": "2:00pm"}, {"days": "Sat", "time": "12:00pm"}, {"days": "Sun", "time": "Closed"}], "id": "7294800001", "name": "USPS COLLECTION BOX - BLUE BOX", "address": {"city": "NATURAL DAM", "state": "AR", "street": "14510 N HIGHWAY 59", "postcode": "72948"}}},
{"geometry": {"type": "Point", "coordinates": [-94.3943195572, 35.6506535861]}, "type": "Feature", "properties": {"collection_times": [{"days": "Mon-Fri", "time": "12:30pm"}, {"days": "Sat", "time": "12:00pm"}, {"days": "Sun", "time": "Closed"}], "id": "7294800002", "name": "USPS COLLECTION BOX - PO LOBBY", "address": {"city": "NATURAL DAM", "state": "AR", "street": "14510 N HIGHWAY 59", "postcode": "72948"}}},
{"geometry": {"type": "Point", "coordinates": [-94.3943195572, 35.6506535861]}, "type": "Feature", "properties": {"collection_times": [{"days": "Mon-Fri", "time": "12:30pm"}, {"days": "Sat", "time": "12:00pm"}, {"days": "Sun", "time": "Closed"}], "id": "7294800003", "name": "USPS COLLECTION BOX - PO LOBBY", "address": {"city": "NATURAL DAM", "state": "AR", "street": "14510 N HIGHWAY 59", "postcode": "72948"}}},
{"geometry": {"type": "Point", "coordinates": [-93.8271899766, 35.4853293796]}, "type": "Feature", "properties": {"collection_times": [{"days": "Mon-Fri", "time": "4:50pm"}, {"days": "Sat", "time": "4:30pm"}, {"days": "Sun", "time": "Closed"}], "id": "7294900002", "name": "USPS COLLECTION BOX - PO LOBBY", "address": {"city": "OZARK", "state": "AR", "street": "106 E RIVER ST", "postcode": "72949"}}},
{"geometry": {"type": "Point", "coordinates": [-93.8271899766, 35.4853293796]}, "type": "Feature", "properties": {"collection_times": [{"days": "Mon-Fri", "time": "4:50pm"}, {"days": "Sat", "time": "4:30pm"}, {"days": "Sun", "time": "Closed"}], "id": "7294900004", "name": "USPS COLLECTION BOX - BLUE BOX", "address": {"city": "OZARK", "state": "AR", "street": "106 E RIVER ST", "postcode": "72949"}}},
{"geometry": {"type": "Point", "coordinates": [-93.8271899766, 35.4853293796]}, "type": "Feature", "properties": {"collection_times": [{"days": "Mon-Fri", "time": "4:50pm"}, {"days": "Sat", "time": "4:30pm"}, {"days": "Sun", "time": "Closed"}], "id": "7294900011", "name": "USPS COLLECTION BOX - BLUE BOX", "address": {"city": "OZARK", "state": "AR", "street": "106 E RIVER ST", "postcode": "72949"}}},
{"geometry": {"type": "Point", "coordinates": [-93.8271899766, 35.4853293796]}, "type": "Feature", "properties": {"collection_times": [{"days": "Mon-Fri", "time": "4:50pm"}, {"days": "Sat", "time": "4:30pm"}, {"days": "Sun", "time": "Closed"}], "id": "7294900012", "name": "USPS COLLECTION BOX - PO LOBBY", "address": {"city": "OZARK", "state": "AR", "street": "106 E RIVER ST", "postcode": "72949"}}},
{"geometry": {"type": "Point", "coordinates": [-93.8271899766, 35.4853293796]}, "type": "Feature", "properties": {"collection_times": [{"days": "Mon-Fri", "time": "4:50pm"}, {"days": "Sat", "time": "4:30pm"}, {"days": "Sun", "time": "Closed"}], "id": "7294900013", "name": "USPS COLLECTION BOX - PO LOBBY", "address": {"city": "OZARK", "state": "AR", "street": "106 E RIVER ST", "postcode": "72949"}}},
{"geometry": {"type": "Point", "coordinates": [-93.8271899766, 35.4853293796]}, "type": "Feature", "properties": {"collection_times": [{"days": "Mon-Fri", "time": "4:50pm"}, {"days": "Sat", "time": "4:30pm"}, {"days": "Sun", "time": "Closed"}], "id": "7294900014", "name": "USPS COLLECTION BOX - PO LOBBY", "address": {"city": "OZARK", "state": "AR", "street": "106 E RIVER ST", "postcode": "72949"}}},
{"geometry": {"type": "Point", "coordinates": [-93.8762917711, 34.7957260714]}, "type": "Feature", "properties": {"collection_times": [{"days": "Mon-Fri", "time": "3:45pm"}, {"days": "Sat", "time": "10:15am"}, {"days": "Sun", "time": "Closed"}], "id": "7295000001", "name": "USPS COLLECTION BOX - BLUE BOX", "address": {"city": "PARKS", "state": "AR", "street": "10009 E HIGHWAY 28", "postcode": "72950"}}},
{"geometry": {"type": "Point", "coordinates": [-93.8762917711, 34.7957260714]}, "type": "Feature", "properties": {"collection_times": [{"days": "Mon-Fri", "time": "11:30am"}, {"days": "Sat", "time": "10:15am"}, {"days": "Sun", "time": "Closed"}], "id": "7295000002", "name": "USPS COLLECTION BOX - PO LOBBY", "address": {"city": "PARKS", "state": "AR", "street": "10009 E HIGHWAY 28", "postcode": "72950"}}},
{"geometry": {"type": "Point", "coordinates": [-93.8797768589, 35.3063145495]}, "type": "Feature", "properties": {"collection_times": [{"days": "Mon-Fri", "time": "4:40pm"}, {"days": "Sat", "time": "11:40am"}, {"days": "Sun", "time": "Closed"}], "id": "7295100001", "name": "USPS COLLECTION BOX - BLUE BOX", "address": {"city": "RATCLIFF", "state": "AR", "street": "9901 W STATE HIGHWAY 22", "postcode": "72951"}}},
{"geometry": {"type": "Point", "coordinates": [-93.8797768589, 35.3063145495]}, "type": "Feature", "properties": {"collection_times": [{"days": "Mon-Fri", "time": "2:15pm"}, {"days": "Sat", "time": "11:40am"}, {"days": "Sun", "time": "Closed"}], "id": "7295100002", "name": "USPS COLLECTION BOX - PO LOBBY", "address": {"city": "RATCLIFF", "state": "AR", "street": "9901 W STATE HIGHWAY 22", "postcode": "72951"}}},
{"geometry": {"type": "Point", "coordinates": [-93.8797768589, 35.3063145495]}, "type": "Feature", "properties": {"collection_times": [{"days": "Mon-Fri", "time": "2:15pm"}, {"days": "Sat", "time": "11:40am"}, {"days": "Sun", "time": "Closed"}], "id": "7295100003", "name": "USPS COLLECTION BOX - PO LOBBY", "address": {"city": "RATCLIFF", "state": "AR", "street": "9901 W STATE HIGHWAY 22", "postcode": "72951"}}},
{"geometry": {"type": "Point", "coordinates": [-94.272537653, 35.5279288802]}, "type": "Feature", "properties": {"collection_times": [{"days": "Mon-Fri", "time": "3:45pm"}, {"days": "Sat", "time": "10:45am"}, {"days": "Sun", "time": "Closed"}], "id": "7295200001", "name": "USPS COLLECTION BOX - BLUE BOX", "address": {"city": "RUDY", "state": "AR", "street": "224 N RAILROAD AVE", "postcode": "72952"}}},
{"geometry": {"type": "Point", "coordinates": [-94.272537653, 35.5279288802]}, "type": "Feature", "properties": {"collection_times": [{"days": "Mon-Fri", "time": "11:00am"}, {"days": "Sat", "time": "10:45am"}, {"days": "Sun", "time": "Closed"}], "id": "7295200002", "name": "USPS COLLECTION BOX - PO LOBBY", "address": {"city": "RUDY", "state": "AR", "street": "224 N RAILROAD AVE", "postcode": "72952"}}},
{"geometry": {"type": "Point", "coordinates": [-94.272537653, 35.5279288802]}, "type": "Feature", "properties": {"collection_times": [{"days": "Mon-Fri", "time": "11:00am"}, {"days": "Sat", "time": "10:45am"}, {"days": "Sun", "time": "Closed"}], "id": "7295200003", "name": "USPS COLLECTION BOX - PO LOBBY", "address": {"city": "RUDY", "state": "AR", "street": "224 N RAILROAD AVE", "postcode": "72952"}}},
{"geometry": {"type": "Point", "coordinates": [-94.4436472691, 35.5827057128]}, "type": "Feature", "properties": {"collection_times": [{"days": "Mon-Fri", "time": "1:05pm"}, {"days": "Sat", "time": "10:45am"}, {"days": "Sun", "time": "Closed"}], "id": "7295500001", "name": "USPS COLLECTION BOX - BLUE BOX", "address": {"city": "UNIONTOWN", "state": "AR", "street": "9929 UNIONTOWN HWY", "postcode": "72955"}}},
{"geometry": {"type": "Point", "coordinates": [-94.4436472691, 35.5827057128]}, "type": "Feature", "properties": {"collection_times": [{"days": "Mon-Fri", "time": "1:05pm"}, {"days": "Sat", "time": "10:45am"}, {"days": "Sun", "time": "Closed"}], "id": "7295500002", "name": "USPS COLLECTION BOX - PO LOBBY", "address": {"city": "UNIONTOWN", "state": "AR", "street": "9929 UNIONTOWN HWY", "postcode": "72955"}}},
{"geometry": {"type": "Point", "coordinates": [-94.4436472691, 35.5827057128]}, "type": "Feature", "properties": {"collection_times": [{"days": "Mon-Fri", "time": "1:05pm"}, {"days": "Sat", "time": "10:45am"}, {"days": "Sun", "time": "Closed"}], "id": "7295500003", "name": "USPS COLLECTION BOX - PO LOBBY", "address": {"city": "UNIONTOWN", "state": "AR", "street": "9929 UNIONTOWN HWY", "postcode": "72955"}}},
{"geometry": {"type": "Point", "coordinates": [-94.3532616513, 35.4359904167]}, "type": "Feature", "properties": {"collection_times": [{"days": "Mon-Fri", "time": "4:45pm"}, {"days": "Sat", "time": "3:30pm"}, {"days": "Sun", "time": "Closed"}], "id": "7295600001", "name": "USPS COLLECTION BOX - BLUE BOX", "address": {"city": "VAN BUREN", "state": "AR", "street": "22 S 7TH ST", "postcode": "72956"}}},
{"geometry": {"type": "Point", "coordinates": [-94.3544061913, 35.4588823191]}, "type": "Feature", "properties": {"collection_times": [{"days": "Mon-Sat", "time": "9:30am"}, {"days": "Sun", "time": "Closed"}], "id": "7295600003", "name": "USPS COLLECTION BOX - BLUE BOX", "address": {"city": "VAN BUREN", "state": "AR", "street": "601 E POINTER TRL", "postcode": "72956"}}},
{"geometry": {"type": "Point", "coordinates": [-94.3496689898, 35.4367364832]}, "type": "Feature", "properties": {"collection_times": [{"days": "Mon-Sat", "time": "9:00am"}, {"days": "Sun", "time": "Closed"}], "id": "7295600004", "name": "USPS COLLECTION BOX - BLUE BOX", "address": {"city": "VAN BUREN", "state": "AR", "street": "1000 MAIN ST", "postcode": "72956"}}},
{"geometry": {"type": "Point", "coordinates": [-94.358675189, 35.4591104862]}, "type": "Feature", "properties": {"collection_times": [{"days": "Mon-Sat", "time": "11:00am"}, {"days": "Sun", "time": "Closed"}], "id": "7295600008", "name": "USPS COLLECTION BOX - BLUE BOX", "address": {"city": "VAN BUREN", "state": "AR", "street": "102 POINTER TRL W", "postcode": "72956"}}},
{"geometry": {"type": "Point", "coordinates": [-94.3275700976, 35.4414016824]}, "type": "Feature", "properties": {"collection_times": [{"days": "Mon-Sat", "time": "10:00am"}, {"days": "Sun", "time": "Closed"}], "id": "7295600009", "name": "USPS COLLECTION BOX - BLUE BOX", "address": {"city": "VAN BUREN", "state": "AR", "street": "120 CLOVERLEAF PLZ", "postcode": "72956"}}},
{"geometry": {"type": "Point", "coordinates": [-94.3285957232, 35.4419131742]}, "type": "Feature", "properties": {"collection_times": [{"days": "Mon-Sat", "time": "12:30pm"}, {"days": "Sun", "time": "Closed"}], "id": "7295600010", "name": "USPS COLLECTION BOX - BLUE BOX", "address": {"city": "VAN BUREN", "state": "AR", "street": "2805 ALMA HWY", "postcode": "72956"}}},
{"geometry": {"type": "Point", "coordinates": [-94.3196684609, 35.4215984406]}, "type": "Feature", "properties": {"collection_times": [{"days": "Mon-Sat", "time": "10:00am"}, {"days": "Sun", "time": "Closed"}], "id": "7295600015", "name": "USPS COLLECTION BOX - BLUE BOX", "address": {"city": "VAN BUREN", "state": "AR", "street": "2205 INDUSTRIAL PARK RD", "postcode": "72956"}}},
{"geometry": {"type": "Point", "coordinates": [-94.325559596, 35.443871108]}, "type": "Feature", "properties": {"collection_times": [{"days": "Mon-Sat", "time": "12:30pm"}, {"days": "Sun", "time": "Closed"}], "id": "7295600017", "name": "USPS COLLECTION BOX - BLUE BOX", "address": {"city": "VAN BUREN", "state": "AR", "street": "2925 ALMA HWY", "postcode": "72956"}}},
{"geometry": {"type": "Point", "coordinates": [-94.3532616513, 35.4359904167]}, "type": "Feature", "properties": {"collection_times": [{"days": "Mon-Fri", "time": "4:45pm"}, {"days": "Sat", "time": "10:30am"}, {"days": "Sun", "time": "Closed"}], "id": "7295600020", "name": "USPS COLLECTION BOX - PO LOBBY", "address": {"city": "VAN BUREN", "state": "AR", "street": "22 S 7TH ST", "postcode": "72956"}}},
{"geometry": {"type": "Point", "coordinates": [-94.3246904985, 35.4440175231]}, "type": "Feature", "properties": {"collection_times": [{"days": "Mon-Sat", "time": "10:00am"}, {"days": "Sun", "time": "Closed"}], "id": "7295600021", "name": "USPS COLLECTION BOX - BLUE BOX", "address": {"city": "VAN BUREN", "state": "AR", "street": "715 CLOVERLEAF CIR", "postcode": "72956"}}},
{"geometry": {"type": "Point", "coordinates": [-94.3532616513, 35.4359904167]}, "type": "Feature", "properties": {"collection_times": [{"days": "Mon-Fri", "time": "4:45pm"}, {"days": "Sat", "time": "3:30pm"}, {"days": "Sun", "time": "Closed"}], "id": "7295600022", "name": "USPS COLLECTION BOX - BLUE BOX", "address": {"city": "VAN BUREN", "state": "AR", "street": "22 S 7TH ST", "postcode": "72956"}}},
{"geometry": {"type": "Point", "coordinates": [-94.3532616513, 35.4359904167]}, "type": "Feature", "properties": {"collection_times": [{"days": "Mon-Fri", "time": "4:45pm"}, {"days": "Sat", "time": "10:30am"}, {"days": "Sun", "time": "Closed"}], "id": "7295600024", "name": "USPS COLLECTION BOX - PO LOBBY", "address": {"city": "VAN BUREN", "state": "AR", "street": "22 S 7TH ST", "postcode": "72956"}}},
{"geometry": {"type": "Point", "coordinates": [-94.3562051391, 35.4763574086]}, "type": "Feature", "properties": {"collection_times": [{"days": "Mon-Sat", "time": "5:20pm"}, {"days": "Sun", "time": "Closed"}], "id": "7295600025", "name": "USPS COLLECTION BOX - BLUE BOX", "address": {"city": "VAN BUREN", "state": "AR", "street": "2741 FAYETTEVILLE RD", "postcode": "72956"}}},
{"geometry": {"type": "Point", "coordinates": [-94.3532616513, 35.4359904167]}, "type": "Feature", "properties": {"collection_times": [{"days": "Mon-Fri", "time": "4:45pm"}, {"days": "Sat", "time": "10:30am"}, {"days": "Sun", "time": "Closed"}], "id": "7295600026", "name": "USPS COLLECTION BOX - PO LOBBY", "address": {"city": "VAN BUREN", "state": "AR", "street": "22 S 7TH ST", "postcode": "72956"}}},
{"geometry": {"type": "Point", "coordinates": [-94.3532616513, 35.4359904167]}, "type": "Feature", "properties": {"collection_times": [{"days": "Mon-Fri", "time": "4:45pm"}, {"days": "Sat", "time": "10:30am"}, {"days": "Sun", "time": "Closed"}], "id": "7295600027", "name": "USPS COLLECTION BOX - PO LOBBY", "address": {"city": "VAN BUREN", "state": "AR", "street": "22 S 7TH ST", "postcode": "72956"}}},
{"geometry": {"type": "Point", "coordinates": [-94.3532616513, 35.4359904167]}, "type": "Feature", "properties": {"collection_times": [{"days": "Mon-Fri", "time": "4:45pm"}, {"days": "Sat", "time": "10:30am"}, {"days": "Sun", "time": "Closed"}], "id": "7295600028", "name": "USPS COLLECTION BOX - PO LOBBY", "address": {"city": "VAN BUREN", "state": "AR", "street": "22 S 7TH ST", "postcode": "72956"}}},
{"geometry": {"type": "Point", "coordinates": [-94.3562051391, 35.4763574086]}, "type": "Feature", "properties": {"collection_times": [{"days": "Mon-Sat", "time": "5:20pm"}, {"days": "Sun", "time": "Closed"}], "id": "7295600029", "name": "USPS COLLECTION BOX - BLUE BOX", "address": {"city": "VAN BUREN", "state": "AR", "street": "2741 FAYETTEVILLE RD", "postcode": "72956"}}},
{"geometry": {"type": "Point", "coordinates": [-94.3562051391, 35.4763574086]}, "type": "Feature", "properties": {"collection_times": [{"days": "Mon-Sat", "time": "5:20pm"}, {"days": "Sun", "time": "Closed"}], "id": "7295600030", "name": "USPS COLLECTION BOX - BLUE BOX", "address": {"city": "VAN BUREN", "state": "AR", "street": "2741 FAYETTEVILLE RD", "postcode": "72956"}}},
{"geometry": {"type": "Point", "coordinates": [-94.3562051391, 35.4763574086]}, "type": "Feature", "properties": {"collection_times": [{"days": "Mon-Sat", "time": "5:20pm"}, {"days": "Sun", "time": "Closed"}], "id": "7295600031", "name": "USPS COLLECTION BOX - BLUE BOX", "address": {"city": "VAN BUREN", "state": "AR", "street": "2741 FAYETTEVILLE RD", "postcode": "72956"}}},
{"geometry": {"type": "Point", "coordinates": [-94.3562051391, 35.4763574086]}, "type": "Feature", "properties": {"collection_times": [{"days": "Mon-Sat", "time": "5:30pm"}, {"days": "Sun", "time": "Closed"}], "id": "7295600032", "name": "USPS COLLECTION BOX - PO LOBBY", "address": {"city": "VAN BUREN", "state": "AR", "street": "2741 FAYETTEVILLE RD", "postcode": "72956"}}},
{"geometry": {"type": "Point", "coordinates": [-94.3562051391, 35.4763574086]}, "type": "Feature", "properties": {"collection_times": [{"days": "Mon-Sat", "time": "5:30pm"}, {"days": "Sun", "time": "Closed"}], "id": "7295600033", "name": "USPS COLLECTION BOX - PO LOBBY", "address": {"city": "VAN BUREN", "state": "AR", "street": "2741 FAYETTEVILLE RD", "postcode": "72956"}}},
{"geometry": {"type": "Point", "coordinates": [-94.3562051391, 35.4763574086]}, "type": "Feature", "properties": {"collection_times": [{"days": "Mon-Sat", "time": "5:30pm"}, {"days": "Sun", "time": "Closed"}], "id": "7295600034", "name": "USPS COLLECTION BOX - PO LOBBY", "address": {"city": "VAN BUREN", "state": "AR", "street": "2741 FAYETTEVILLE RD", "postcode": "72956"}}},
{"geometry": {"type": "Point", "coordinates": [-94.3562051391, 35.4763574086]}, "type": "Feature", "properties": {"collection_times": [{"days": "Mon-Sat", "time": "5:30pm"}, {"days": "Sun", "time": "Closed"}], "id": "7295600035", "name": "USPS COLLECTION BOX - PO LOBBY", "address": {"city": "VAN BUREN", "state": "AR", "street": "2741 FAYETTEVILLE RD", "postcode": "72956"}}},
{"geometry": {"type": "Point", "coordinates": [-94.3562051391, 35.4763574086]}, "type": "Feature", "properties": {"collection_times": [{"days": "Mon-Sat", "time": "5:30pm"}, {"days": "Sun", "time": "Closed"}], "id": "7295600036", "name": "USPS COLLECTION BOX - PO LOBBY", "address": {"city": "VAN BUREN", "state": "AR", "street": "2741 FAYETTEVILLE RD", "postcode": "72956"}}},
{"geometry": {"type": "Point", "coordinates": [-94.3562051391, 35.4763574086]}, "type": "Feature", "properties": {"collection_times": [{"days": "Mon-Sat", "time": "5:30pm"}, {"days": "Sun", "time": "Closed"}], "id": "7295600037", "name": "USPS COLLECTION BOX - PO LOBBY", "address": {"city": "VAN BUREN", "state": "AR", "street": "2741 FAYETTEVILLE RD", "postcode": "72956"}}},
{"geometry": {"type": "Point", "coordinates": [-94.3562280159, 35.4704145908]}, "type": "Feature", "properties": {"collection_times": [{"days": "Mon-Sat", "time": "11:00am"}, {"days": "Sun", "time": "Closed"}], "id": "7295600038", "name": "USPS COLLECTION BOX - BLUE BOX", "address": {"city": "VAN BUREN", "state": "AR", "street": "2214 FAYETTEVILLE RD", "postcode": "72956"}}},
{"geometry": {"type": "Point", "coordinates": [-94.0921600288, 34.8972515239]}, "type": "Feature", "properties": {"collection_times": [{"days": "Mon-Fri", "time": "4:30pm"}, {"days": "Sat", "time": "3:00pm"}, {"days": "Sun", "time": "Closed"}], "id": "7295800002", "name": "USPS COLLECTION BOX - PO LOBBY", "address": {"city": "WALDRON", "state": "AR", "street": "368 WASHINGTON ST", "postcode": "72958"}}},
{"geometry": {"type": "Point", "coordinates": [-94.1066397417, 34.9003436838]}, "type": "Feature", "properties": {"collection_times": [{"days": "Mon-Sat", "time": "2:30pm"}, {"days": "Sun", "time": "Closed"}], "id": "7295800004", "name": "USPS COLLECTION BOX - BLUE BOX", "address": {"city": "WALDRON", "state": "AR", "street": "1359 W 2ND ST", "postcode": "72958"}}},
{"geometry": {"type": "Point", "coordinates": [-94.0930428275, 34.9004853284]}, "type": "Feature", "properties": {"collection_times": [{"days": "Mon-Fri", "time": "2:00pm"}, {"days": "Sat", "time": "12:00pm"}, {"days": "Sun", "time": "Closed"}], "id": "7295800005", "name": "USPS COLLECTION BOX - BLUE BOX", "address": {"city": "WALDRON", "state": "AR", "street": "190 W 1ST ST", "postcode": "72958"}}},
{"geometry": {"type": "Point", "coordinates": [-94.0921600288, 34.8972515239]}, "type": "Feature", "properties": {"collection_times": [{"days": "Mon-Fri", "time": "4:30pm"}, {"days": "Sat", "time": "3:00pm"}, {"days": "Sun", "time": "Closed"}], "id": "7295800006", "name": "USPS COLLECTION BOX - BLUE BOX", "address": {"city": "WALDRON", "state": "AR", "street": "368 WASHINGTON ST", "postcode": "72958"}}},
{"geometry": {"type": "Point", "coordinates": [-94.0734683151, 34.9205477179]}, "type": "Feature", "properties": {"collection_times": [{"days": "Mon-Fri", "time": "11:00am"}, {"days": "Sat", "time": "10:00am"}, {"days": "Sun", "time": "Closed"}], "id": "7295800008", "name": "USPS COLLECTION BOX - BLUE BOX", "address": {"city": "WALDRON", "state": "AR", "street": "809 BRISTOL SQUARE ST", "postcode": "72958"}}},
{"geometry": {"type": "Point", "coordinates": [-94.0987467886, 34.8923185433]}, "type": "Feature", "properties": {"collection_times": [{"days": "Mon-Fri", "time": "12:00pm"}, {"days": "Sat", "time": "11:00am"}, {"days": "Sun", "time": "Closed"}], "id": "7295800009", "name": "USPS COLLECTION BOX - BLUE BOX", "address": {"city": "WALDRON", "state": "AR", "street": "849 ELM ST", "postcode": "72958"}}},
{"geometry": {"type": "Point", "coordinates": [-94.0734683151, 34.9205477179]}, "type": "Feature", "properties": {"collection_times": [{"days": "Mon-Fri", "time": "11:30am"}, {"days": "Sat", "time": "10:30am"}, {"days": "Sun", "time": "Closed"}], "id": "7295800010", "name": "USPS COLLECTION BOX - BLUE BOX", "address": {"city": "WALDRON", "state": "AR", "street": "1092 SHIPLEY CIR", "postcode": "72958"}}},
{"geometry": {"type": "Point", "coordinates": [-94.0945102714, 34.892876623]}, "type": "Feature", "properties": {"collection_times": [{"days": "Mon-Fri", "time": "11:45am"}, {"days": "Sat", "time": "10:40am"}, {"days": "Sun", "time": "Closed"}], "id": "7295800011", "name": "USPS COLLECTION BOX - BLUE BOX", "address": {"city": "WALDRON", "state": "AR", "street": "204 W 8TH ST", "postcode": "72958"}}},
{"geometry": {"type": "Point", "coordinates": [-94.097729557, 34.8928808766]}, "type": "Feature", "properties": {"collection_times": [{"days": "Mon-Fri", "time": "12:30pm"}, {"days": "Sat", "time": "12:10pm"}, {"days": "Sun", "time": "Closed"}], "id": "7295800012", "name": "USPS COLLECTION BOX - BLUE BOX", "address": {"city": "WALDRON", "state": "AR", "street": "445 W 8TH ST", "postcode": "72958"}}},
{"geometry": {"type": "Point", "coordinates": [-94.1335401924, 35.8044853791]}, "type": "Feature", "properties": {"collection_times": [{"days": "Mon-Fri", "time": "4:30pm"}, {"days": "Sat", "time": "11:00am"}, {"days": "Sun", "time": "Closed"}], "id": "7295900001", "name": "USPS COLLECTION BOX - BLUE BOX", "address": {"city": "WINSLOW", "state": "AR", "street": "383 N WINSLOW BLVD", "postcode": "72959"}}},
{"geometry": {"type": "Point", "coordinates": [-94.1335401924, 35.8044853791]}, "type": "Feature", "properties": {"collection_times": [{"days": "Mon-Fri", "time": "2:00pm"}, {"days": "Sat", "time": "11:00am"}, {"days": "Sun", "time": "Closed"}], "id": "7295900002", "name": "USPS COLLECTION BOX - PO LOBBY", "address": {"city": "WINSLOW", "state": "AR", "street": "383 N WINSLOW BLVD", "postcode": "72959"}}}
]}
