{"type": "FeatureCollection", "features": [
{"geometry": {"type": "Point", "coordinates": [-90.1614044506, 29.9758894318]}, "type": "Feature", "properties": {"collection_times": [{"days": "Mon-Fri", "time": "5:00pm"}, {"days": "Sat", "time": "2:45pm"}, {"days": "Sun", "time": "Closed"}], "id": "7000100000", "name": "USPS COLLECTION BOX - PO LOBBY", "address": {"city": "METAIRIE", "state": "LA", "street": "3517 JOHNSON ST", "postcode": "70001"}}},
{"geometry": {"type": "Point", "coordinates": [-90.1614044506, 29.9758894318]}, "type": "Feature", "properties": {"collection_times": [{"days": "Mon-Fri", "time": "5:00pm"}, {"days": "Sat", "time": "2:45pm"}, {"days": "Sun", "time": "Closed"}], "id": "7000100004", "name": "USPS COLLECTION BOX - BLUE BOX", "address": {"city": "METAIRIE", "state": "LA", "street": "3517 JOHNSON ST", "postcode": "70001"}}},
{"geometry": {"type": "Point", "coordinates": [-90.1614044506, 29.9758894318]}, "type": "Feature", "properties": {"collection_times": [{"days": "Mon-Fri", "time": "5:00pm"}, {"days": "Sat", "time": "2:45pm"}, {"days": "Sun", "time": "Closed"}], "id": "7000100005", "name": "USPS COLLECTION BOX - BLUE BOX", "address": {"city": "METAIRIE", "state": "LA", "street": "3517 JOHNSON ST", "postcode": "70001"}}},
{"geometry": {"type": "Point", "coordinates": [-90.1614044506, 29.9758894318]}, "type": "Feature", "properties": {"collection_times": [{"days": "Mon-Fri", "time": "5:00pm"}, {"days": "Sat", "time": "2:45pm"}, {"days": "Sun", "time": "Closed"}], "id": "7000100007", "name": "USPS COLLECTION BOX - BLUE BOX", "address": {"city": "METAIRIE", "state": "LA", "street": "3517 JOHNSON ST", "postcode": "70001"}}},
{"geometry": {"type": "Point", "coordinates": [-90.1614044506, 29.9758894318]}, "type": "Feature", "properties": {"collection_times": [{"days": "Mon-Fri", "time": "5:00pm"}, {"days": "Sat", "time": "2:45pm"}, {"days": "Sun", "time": "Closed"}], "id": "7000100008", "name": "USPS COLLECTION BOX - BLUE BOX", "address": {"city": "METAIRIE", "state": "LA", "street": "3517 JOHNSON ST", "postcode": "70001"}}},
{"geometry": {"type": "Point", "coordinates": [-90.1494269911, 29.9830368698]}, "type": "Feature", "properties": {"collection_times": [{"days": "Mon-Fri", "time": "12:45pm"}, {"days": "Sat", "time": "11:45am"}, {"days": "Sun", "time": "Closed"}], "id": "7000100012", "name": "USPS COLLECTION BOX - BLUE BOX", "address": {"city": "METAIRIE", "state": "LA", "street": "2341 METAIRIE RD", "postcode": "70001"}}},
{"geometry": {"type": "Point", "coordinates": [-90.1557723966, 29.9821600641]}, "type": "Feature", "properties": {"collection_times": [{"days": "Mon-Fri", "time": "12:45pm"}, {"days": "Sat", "time": "11:45am"}, {"days": "Sun", "time": "Closed"}], "id": "7000100015", "name": "USPS COLLECTION BOX - BLUE BOX", "address": {"city": "METAIRIE", "state": "LA", "street": "1013 N CAUSEWAY BLVD", "postcode": "70001"}}},
{"geometry": {"type": "Point", "coordinates": [-90.1539908467, 29.9937189893]}, "type": "Feature", "properties": {"collection_times": [{"days": "Mon-Fri", "time": "12:00pm"}, {"days": "Sat", "time": "11:00am"}, {"days": "Sun", "time": "Closed"}], "id": "7000100021", "name": "USPS COLLECTION BOX - BLUE BOX", "address": {"city": "METAIRIE", "state": "LA", "street": "2121 RIDGELAKE DR", "postcode": "70001"}}},
{"geometry": {"type": "Point", "coordinates": [-90.1487172157, 29.9740901512]}, "type": "Feature", "properties": {"collection_times": [{"days": "Mon-Fri", "time": "12:15pm"}, {"days": "Sat", "time": "11:15am"}, {"days": "Sun", "time": "Closed"}], "id": "7000100025", "name": "USPS COLLECTION BOX - BLUE BOX", "address": {"city": "METAIRIE", "state": "LA", "street": "2121 AIRLINE DR", "postcode": "70001"}}},
{"geometry": {"type": "Point", "coordinates": [-90.1506846715, 29.9960082282]}, "type": "Feature", "properties": {"collection_times": [{"days": "Mon-Fri", "time": "12:00pm"}, {"days": "Sat", "time": "11:00am"}, {"days": "Sun", "time": "Closed"}], "id": "7000100028", "name": "USPS COLLECTION BOX - BLUE BOX", "address": {"city": "METAIRIE", "state": "LA", "street": "108 N GATEHOUSE DR", "postcode": "70001"}}},
{"geometry": {"type": "Point", "coordinates": [-90.182869241, 29.9941046339]}, "type": "Feature", "properties": {"collection_times": [{"days": "Mon-Fri", "time": "11:30am"}, {"days": "Sat", "time": "10:30am"}, {"days": "Sun", "time": "Closed"}], "id": "7000100042", "name": "USPS COLLECTION BOX - BLUE BOX", "address": {"city": "METAIRIE", "state": "LA", "street": "4621 W NAPOLEON AVE", "postcode": "70001"}}},
{"geometry": {"type": "Point", "coordinates": [-90.1554790091, 29.9916050416]}, "type": "Feature", "properties": {"collection_times": [{"days": "Mon-Fri", "time": "1:00pm"}, {"days": "Sat", "time": "12:00pm"}, {"days": "Sun", "time": "Closed"}], "id": "7000100044", "name": "USPS COLLECTION BOX - BLUE BOX", "address": {"city": "METAIRIE", "state": "LA", "street": "2121 N CAUSEWAY BLVD", "postcode": "70001"}}},
{"geometry": {"type": "Point", "coordinates": [-90.1632321222, 29.9974251997]}, "type": "Feature", "properties": {"collection_times": [{"days": "Mon-Fri", "time": "11:45am"}, {"days": "Sat", "time": "10:45am"}, {"days": "Sun", "time": "Closed"}], "id": "7000100050", "name": "USPS COLLECTION BOX - BLUE BOX", "address": {"city": "METAIRIE", "state": "LA", "street": "3616 S I 10 SERVICE RD W", "postcode": "70001"}}},
{"geometry": {"type": "Point", "coordinates": [-90.1598382129, 29.9966302513]}, "type": "Feature", "properties": {"collection_times": [{"days": "Mon-Fri", "time": "11:45am"}, {"days": "Sat", "time": "10:45am"}, {"days": "Sun", "time": "Closed"}], "id": "7000100056", "name": "USPS COLLECTION BOX - BLUE BOX", "address": {"city": "METAIRIE", "state": "LA", "street": "2450 SEVERN AVE", "postcode": "70001"}}},
{"geometry": {"type": "Point", "coordinates": [-90.17169048, 29.9771691874]}, "type": "Feature", "properties": {"collection_times": [{"days": "Mon-Fri", "time": "12:30pm"}, {"days": "Sat", "time": "11:30am"}, {"days": "Sun", "time": "Closed"}], "id": "7000100061", "name": "USPS COLLECTION BOX - BLUE BOX", "address": {"city": "METAIRIE", "state": "LA", "street": "301 MANSON AVE", "postcode": "70001"}}},
{"geometry": {"type": "Point", "coordinates": [-90.1598382129, 29.9966302513]}, "type": "Feature", "properties": {"collection_times": [{"days": "Mon-Fri", "time": "11:45am"}, {"days": "Sat", "time": "10:45am"}, {"days": "Sun", "time": "Closed"}], "id": "7000100069", "name": "USPS COLLECTION BOX - BLUE BOX", "address": {"city": "METAIRIE", "state": "LA", "street": "2450 SEVERN AVE", "postcode": "70001"}}},
{"geometry": {"type": "Point", "coordinates": [-90.182869241, 29.9941046339]}, "type": "Feature", "properties": {"collection_times": [{"days": "Mon-Fri", "time": "11:30am"}, {"days": "Sat", "time": "10:30am"}, {"days": "Sun", "time": "Closed"}], "id": "7000100070", "name": "USPS COLLECTION BOX - BLUE BOX", "address": {"city": "METAIRIE", "state": "LA", "street": "4621 W NAPOLEON AVE", "postcode": "70001"}}},
{"geometry": {"type": "Point", "coordinates": [-90.1476336252, 30.0029401549]}, "type": "Feature", "properties": {"collection_times": [{"days": "Mon-Fri", "time": "1:00pm"}, {"days": "Sat", "time": "12:00pm"}, {"days": "Sun", "time": "Closed"}], "id": "7000200001", "name": "USPS COLLECTION BOX - BLUE BOX", "address": {"city": "METAIRIE", "state": "LA", "street": "2201 VETERANS MEMORIAL BLVD", "postcode": "70002"}}},
{"geometry": {"type": "Point", "coordinates": [-90.1535401394, 30.0047157758]}, "type": "Feature", "properties": {"collection_times": [{"days": "Mon-Fri", "time": "1:00pm"}, {"days": "Sat", "time": "12:00pm"}, {"days": "Sun", "time": "Closed"}], "id": "7000200004", "name": "USPS COLLECTION BOX - BLUE BOX", "address": {"city": "METAIRIE", "state": "LA", "street": "2900 RIDGELAKE DR", "postcode": "70002"}}},
{"geometry": {"type": "Point", "coordinates": [-90.149573678, 29.9998573634]}, "type": "Feature", "properties": {"collection_times": [{"days": "Mon-Fri", "time": "12:15pm"}, {"days": "Sat", "time": "11:15am"}, {"days": "Sun", "time": "Closed"}], "id": "7000200007", "name": "USPS COLLECTION BOX - BLUE BOX", "address": {"city": "METAIRIE", "state": "LA", "street": "2716 WHITNEY PL", "postcode": "70002"}}},
{"geometry": {"type": "Point", "coordinates": [-90.1498599545, 30.002684635]}, "type": "Feature", "properties": {"collection_times": [{"days": "Mon-Fri", "time": "4:15pm"}, {"days": "Sat", "time": "3:15pm"}, {"days": "Sun", "time": "Closed"}], "id": "7000200011", "name": "USPS COLLECTION BOX - BLUE BOX", "address": {"city": "METAIRIE", "state": "LA", "street": "2800 VETERANS MEMORIAL BLVD", "postcode": "70002"}}},
{"geometry": {"type": "Point", "coordinates": [-90.1533567311, 29.9989921901]}, "type": "Feature", "properties": {"collection_times": [{"days": "Mon-Fri", "time": "12:15pm"}, {"days": "Sat", "time": "11:15am"}, {"days": "Sun", "time": "Closed"}], "id": "7000200013", "name": "USPS COLLECTION BOX - BLUE BOX", "address": {"city": "METAIRIE", "state": "LA", "street": "3131 N I 10 SERVICE RD E", "postcode": "70002"}}},
{"geometry": {"type": "Point", "coordinates": [-90.1547219154, 30.0117827727]}, "type": "Feature", "properties": {"collection_times": [{"days": "Mon-Fri", "time": "1:00pm"}, {"days": "Sat", "time": "2:30pm"}, {"days": "Sun", "time": "Closed"}], "id": "7000200018", "name": "USPS COLLECTION BOX - BLUE BOX", "address": {"city": "METAIRIE", "state": "LA", "street": "3445 N CAUSEWAY BLVD", "postcode": "70002"}}},
{"geometry": {"type": "Point", "coordinates": [-90.1729418494, 29.998686234]}, "type": "Feature", "properties": {"collection_times": [{"days": "Mon-Fri", "time": "1:30pm"}, {"days": "Sat", "time": "12:30pm"}, {"days": "Sun", "time": "Closed"}], "id": "7000200022", "name": "USPS COLLECTION BOX - BLUE BOX", "address": {"city": "METAIRIE", "state": "LA", "street": "3925 N I 10 SERVICE RD W", "postcode": "70002"}}},
{"geometry": {"type": "Point", "coordinates": [-90.154385955, 30.0191857299]}, "type": "Feature", "properties": {"collection_times": [{"days": "Mon-Fri", "time": "1:30pm"}, {"days": "Sat", "time": "2:30pm"}, {"days": "Sun", "time": "Closed"}], "id": "7000200034", "name": "USPS COLLECTION BOX - BLUE BOX", "address": {"city": "METAIRIE", "state": "LA", "street": "3939 N CAUSEWAY BLVD", "postcode": "70002"}}},
{"geometry": {"type": "Point", "coordinates": [-90.1597258318, 29.9991404902]}, "type": "Feature", "properties": {"collection_times": [{"days": "Mon-Fri", "time": "1:45pm"}, {"days": "Sat", "time": "12:15pm"}, {"days": "Sun", "time": "Closed"}], "id": "7000200050", "name": "USPS COLLECTION BOX - BLUE BOX", "address": {"city": "METAIRIE", "state": "LA", "street": "2540 SEVERN AVE", "postcode": "70002"}}},
{"geometry": {"type": "Point", "coordinates": [-90.1778357508, 30.0049097808]}, "type": "Feature", "properties": {"collection_times": [{"days": "Mon-Fri", "time": "1:15pm"}, {"days": "Sat", "time": "12:45pm"}, {"days": "Sun", "time": "Closed"}], "id": "7000200054", "name": "USPS COLLECTION BOX - BLUE BOX", "address": {"city": "METAIRIE", "state": "LA", "street": "4141 VETERANS MEMORIAL BLVD", "postcode": "70002"}}},
{"geometry": {"type": "Point", "coordinates": [-90.1589959461, 30.0134720381]}, "type": "Feature", "properties": {"collection_times": [{"days": "Mon-Fri", "time": "3:00pm"}, {"days": "Sat", "time": "2:00pm"}, {"days": "Sun", "time": "Closed"}], "id": "7000200056", "name": "USPS COLLECTION BOX - BLUE BOX", "address": {"city": "METAIRIE", "state": "LA", "street": "3535 SEVERN AVE", "postcode": "70002"}}},
{"geometry": {"type": "Point", "coordinates": [-90.1585547024, 30.0093163033]}, "type": "Feature", "properties": {"collection_times": [{"days": "Mon-Fri", "time": "5:00pm"}, {"days": "Sat", "time": "4:15pm"}, {"days": "Sun", "time": "Closed"}], "id": "7000200064", "name": "USPS COLLECTION BOX - BLUE BOX", "address": {"city": "METAIRIE", "state": "LA", "street": "3301 17TH ST", "postcode": "70002"}}},
{"geometry": {"type": "Point", "coordinates": [-90.1585547024, 30.0093163033]}, "type": "Feature", "properties": {"collection_times": [{"days": "Mon-Fri", "time": "5:00pm"}, {"days": "Sat", "time": "4:15pm"}, {"days": "Sun", "time": "Closed"}], "id": "7000200065", "name": "USPS COLLECTION BOX - BLUE BOX", "address": {"city": "METAIRIE", "state": "LA", "street": "3301 17TH ST", "postcode": "70002"}}},
{"geometry": {"type": "Point", "coordinates": [-90.1585547024, 30.0093163033]}, "type": "Feature", "properties": {"collection_times": [{"days": "Mon-Fri", "time": "5:00pm"}, {"days": "Sat", "time": "4:15pm"}, {"days": "Sun", "time": "Closed"}], "id": "7000200066", "name": "USPS COLLECTION BOX - BLUE BOX", "address": {"city": "METAIRIE", "state": "LA", "street": "3301 17TH ST", "postcode": "70002"}}},
{"geometry": {"type": "Point", "coordinates": [-90.1585547024, 30.0093163033]}, "type": "Feature", "properties": {"collection_times": [{"days": "Mon-Fri", "time": "5:00pm"}, {"days": "Sat", "time": "4:15pm"}, {"days": "Sun", "time": "Closed"}], "id": "7000200067", "name": "USPS COLLECTION BOX - BLUE BOX", "address": {"city": "METAIRIE", "state": "LA", "street": "3301 17TH ST", "postcode": "70002"}}},
{"geometry": {"type": "Point", "coordinates": [-90.1585547024, 30.0093163033]}, "type": "Feature", "properties": {"collection_times": [{"days": "Mon-Fri", "time": "5:00pm"}, {"days": "Sat", "time": "4:15pm"}, {"days": "Sun", "time": "Closed"}], "id": "7000200068", "name": "USPS COLLECTION BOX - BLUE BOX", "address": {"city": "METAIRIE", "state": "LA", "street": "3301 17TH ST", "postcode": "70002"}}},
{"geometry": {"type": "Point", "coordinates": [-90.1585547024, 30.0093163033]}, "type": "Feature", "properties": {"collection_times": [{"days": "Mon-Fri", "time": "5:00pm"}, {"days": "Sat", "time": "4:15pm"}, {"days": "Sun", "time": "Closed"}], "id": "7000200070", "name": "USPS COLLECTION BOX - PO LOBBY", "address": {"city": "METAIRIE", "state": "LA", "street": "3301 17TH ST", "postcode": "70002"}}},
{"geometry": {"type": "Point", "coordinates": [-90.1534147457, 30.0079251435]}, "type": "Feature", "properties": {"collection_times": [{"days": "Mon-Fri", "time": "1:00pm"}, {"days": "Sat", "time": "12:00pm"}, {"days": "Sun", "time": "Closed"}], "id": "7000200076", "name": "USPS COLLECTION BOX - BLUE BOX", "address": {"city": "METAIRIE", "state": "LA", "street": "3200 RIDGELAKE DR", "postcode": "70002"}}},
{"geometry": {"type": "Point", "coordinates": [-90.1622952187, 29.9995072075]}, "type": "Feature", "properties": {"collection_times": [{"days": "Mon-Fri", "time": "1:45pm"}, {"days": "Sat", "time": "12:15pm"}, {"days": "Sun", "time": "Closed"}], "id": "7000200078", "name": "USPS COLLECTION BOX - BLUE BOX", "address": {"city": "METAIRIE", "state": "LA", "street": "2617 EDENBORN AVE", "postcode": "70002"}}},
{"geometry": {"type": "Point", "coordinates": [-90.1573315229, 29.9997982154]}, "type": "Feature", "properties": {"collection_times": [{"days": "Mon-Fri", "time": "1:30pm"}, {"days": "Sat", "time": "12:15pm"}, {"days": "Sun", "time": "Closed"}], "id": "7000200079", "name": "USPS COLLECTION BOX - BLUE BOX", "address": {"city": "METAIRIE", "state": "LA", "street": "2700 ATHANIA PKWY", "postcode": "70002"}}},
{"geometry": {"type": "Point", "coordinates": [-90.1585547024, 30.0093163033]}, "type": "Feature", "properties": {"collection_times": [{"days": "Mon-Fri", "time": "5:00pm"}, {"days": "Sat", "time": "4:15pm"}, {"days": "Sun", "time": "Closed"}], "id": "7000200082", "name": "USPS COLLECTION BOX - PO LOBBY", "address": {"city": "METAIRIE", "state": "LA", "street": "3301 17TH ST", "postcode": "70002"}}},
{"geometry": {"type": "Point", "coordinates": [-90.1619509776, 30.0082942267]}, "type": "Feature", "properties": {"collection_times": [{"days": "Mon-Fri", "time": "1:15pm"}, {"days": "Sat", "time": "12:15pm"}, {"days": "Sun", "time": "Closed"}], "id": "7000200087", "name": "USPS COLLECTION BOX - BLUE BOX", "address": {"city": "METAIRIE", "state": "LA", "street": "3201 EDENBORN AVE", "postcode": "70002"}}},
{"geometry": {"type": "Point", "coordinates": [-90.1704434396, 30.0039858901]}, "type": "Feature", "properties": {"collection_times": [{"days": "Mon-Fri", "time": "1:30pm"}, {"days": "Sat", "time": "12:45pm"}, {"days": "Sun", "time": "Closed"}], "id": "7000200089", "name": "USPS COLLECTION BOX - BLUE BOX", "address": {"city": "METAIRIE", "state": "LA", "street": "3848 VETERANS MEMORIAL BLVD", "postcode": "70002"}}},
{"geometry": {"type": "Point", "coordinates": [-90.14827124, 30.0030312427]}, "type": "Feature", "properties": {"collection_times": [{"days": "Mon-Fri", "time": "1:00pm"}, {"days": "Sat", "time": "12:00pm"}, {"days": "Sun", "time": "Closed"}], "id": "7000200090", "name": "USPS COLLECTION BOX - BLUE BOX", "address": {"city": "METAIRIE", "state": "LA", "street": "2301 VETERANS MEMORIAL BLVD", "postcode": "70002"}}},
{"geometry": {"type": "Point", "coordinates": [-90.1498599545, 30.002684635]}, "type": "Feature", "properties": {"collection_times": [{"days": "Mon-Fri", "time": "4:15pm"}, {"days": "Sat", "time": "3:15pm"}, {"days": "Sun", "time": "Closed"}], "id": "7000200091", "name": "USPS COLLECTION BOX - BLUE BOX", "address": {"city": "METAIRIE", "state": "LA", "street": "2800 VETERANS MEMORIAL BLVD", "postcode": "70002"}}},
{"geometry": {"type": "Point", "coordinates": [-90.1585547024, 30.0093163033]}, "type": "Feature", "properties": {"collection_times": [{"days": "Mon-Fri", "time": "5:00pm"}, {"days": "Sat", "time": "4:15pm"}, {"days": "Sun", "time": "Closed"}], "id": "7000200092", "name": "USPS COLLECTION BOX - APC", "address": {"city": "METAIRIE", "state": "LA", "street": "3301 17TH ST", "postcode": "70002"}}},
{"geometry": {"type": "Point", "coordinates": [-90.1547219154, 30.0117827727]}, "type": "Feature", "properties": {"collection_times": [{"days": "Mon-Fri", "time": "1:00pm"}, {"days": "Sat", "time": "2:30pm"}, {"days": "Sun", "time": "Closed"}], "id": "7000200094", "name": "USPS COLLECTION BOX - BLUE BOX", "address": {"city": "METAIRIE", "state": "LA", "street": "3445 N CAUSEWAY BLVD", "postcode": "70002"}}},
{"geometry": {"type": "Point", "coordinates": [-90.1551158407, 30.0105028111]}, "type": "Feature", "properties": {"collection_times": [{"days": "Mon-Fri", "time": "2:45pm"}, {"days": "Sat", "time": "2:15pm"}, {"days": "Sun", "time": "Closed"}], "id": "7000200095", "name": "USPS COLLECTION BOX - BLUE BOX", "address": {"city": "METAIRIE", "state": "LA", "street": "3330 N CAUSEWAY BLVD", "postcode": "70002"}}},
{"geometry": {"type": "Point", "coordinates": [-90.2121628538, 30.0036534787]}, "type": "Feature", "properties": {"collection_times": [{"days": "Mon-Fri", "time": "5:00pm"}, {"days": "Sat", "time": "1:15pm"}, {"days": "Sun", "time": "Closed"}], "id": "7000300000", "name": "USPS COLLECTION BOX - BLUE BOX", "address": {"city": "METAIRIE", "state": "LA", "street": "6550 PARK MANOR DR", "postcode": "70003"}}},
{"geometry": {"type": "Point", "coordinates": [-90.2192540638, 30.0096474027]}, "type": "Feature", "properties": {"collection_times": [{"days": "Mon-Fri", "time": "3:15pm"}, {"days": "Sat", "time": "2:15pm"}, {"days": "Sun", "time": "Closed"}], "id": "7000300006", "name": "USPS COLLECTION BOX - BLUE BOX", "address": {"city": "METAIRIE", "state": "LA", "street": "6660 RIVERSIDE DR", "postcode": "70003"}}},
{"geometry": {"type": "Point", "coordinates": [-90.2192485585, 30.0050903547]}, "type": "Feature", "properties": {"collection_times": [{"days": "Mon-Fri", "time": "5:00pm"}, {"days": "Sat", "time": "12:00pm"}, {"days": "Sun", "time": "Closed"}], "id": "7000300015", "name": "USPS COLLECTION BOX - PO LOBBY", "address": {"city": "METAIRIE", "state": "LA", "street": "7044 VETERANS MEMORIAL BLVD", "postcode": "70003"}}},
{"geometry": {"type": "Point", "coordinates": [-90.2192485589, 30.0050903547]}, "type": "Feature", "properties": {"collection_times": [{"days": "Mon-Fri", "time": "5:00pm"}, {"days": "Sat", "time": "1:15pm"}, {"days": "Sun", "time": "Closed"}], "id": "7000300016", "name": "USPS COLLECTION BOX - BLUE BOX", "address": {"city": "METAIRIE", "state": "LA", "street": "7044 VETERANS MEMORIAL BLVD", "postcode": "70003"}}},
{"geometry": {"type": "Point", "coordinates": [-90.2192485589, 30.0050903547]}, "type": "Feature", "properties": {"collection_times": [{"days": "Mon-Fri", "time": "5:00pm"}, {"days": "Sat", "time": "1:15pm"}, {"days": "Sun", "time": "Closed"}], "id": "7000300017", "name": "USPS COLLECTION BOX - BLUE BOX", "address": {"city": "METAIRIE", "state": "LA", "street": "7044 VETERANS MEMORIAL BLVD", "postcode": "70003"}}},
{"geometry": {"type": "Point", "coordinates": [-90.2192485589, 30.0050903547]}, "type": "Feature", "properties": {"collection_times": [{"days": "Mon-Fri", "time": "5:00pm"}, {"days": "Sat", "time": "1:15pm"}, {"days": "Sun", "time": "Closed"}], "id": "7000300021", "name": "USPS COLLECTION BOX - BLUE BOX", "address": {"city": "METAIRIE", "state": "LA", "street": "7044 VETERANS MEMORIAL BLVD", "postcode": "70003"}}},
{"geometry": {"type": "Point", "coordinates": [-90.2209284925, 29.9784580061]}, "type": "Feature", "properties": {"collection_times": [{"days": "Mon-Fri", "time": "11:45am"}, {"days": "Sat", "time": "10:45am"}, {"days": "Sun", "time": "Closed"}], "id": "7000300027", "name": "USPS COLLECTION BOX - BLUE BOX", "address": {"city": "METAIRIE", "state": "LA", "street": "7807 AIRLINE DR", "postcode": "70003"}}},
{"geometry": {"type": "Point", "coordinates": [-90.2132701034, 29.9844292126]}, "type": "Feature", "properties": {"collection_times": [{"days": "Mon-Fri", "time": "11:30am"}, {"days": "Sat", "time": "10:30am"}, {"days": "Sun", "time": "Closed"}], "id": "7000300030", "name": "USPS COLLECTION BOX - BLUE BOX", "address": {"city": "METAIRIE", "state": "LA", "street": "924 DAVID DR", "postcode": "70003"}}},
{"geometry": {"type": "Point", "coordinates": [-90.2192485585, 30.0050903547]}, "type": "Feature", "properties": {"collection_times": [{"days": "Mon-Fri", "time": "5:00pm"}, {"days": "Sat", "time": "12:00pm"}, {"days": "Sun", "time": "Closed"}], "id": "7000300036", "name": "USPS COLLECTION BOX - PO LOBBY", "address": {"city": "METAIRIE", "state": "LA", "street": "7044 VETERANS MEMORIAL BLVD", "postcode": "70003"}}},
{"geometry": {"type": "Point", "coordinates": [-90.2191754346, 30.0096936672]}, "type": "Feature", "properties": {"collection_times": [{"days": "Mon-Fri", "time": "3:15pm"}, {"days": "Sat", "time": "2:15pm"}, {"days": "Sun", "time": "Closed"}], "id": "7000300041", "name": "USPS COLLECTION BOX - BLUE BOX", "address": {"city": "METAIRIE", "state": "LA", "street": "6620 RIVERSIDE DR", "postcode": "70003"}}},
{"geometry": {"type": "Point", "coordinates": [-90.2019243436, 30.005972078]}, "type": "Feature", "properties": {"collection_times": [{"days": "Mon-Fri", "time": "4:00pm"}, {"days": "Sat", "time": "3:00pm"}, {"days": "Sun", "time": "Closed"}], "id": "7000300042", "name": "USPS COLLECTION BOX - BLUE BOX", "address": {"city": "METAIRIE", "state": "LA", "street": "5500 VETERANS MEMORIAL BLVD", "postcode": "70003"}}},
{"geometry": {"type": "Point", "coordinates": [-90.2191754346, 30.0096936672]}, "type": "Feature", "properties": {"collection_times": [{"days": "Mon-Fri", "time": "3:15pm"}, {"days": "Sat", "time": "2:15pm"}, {"days": "Sun", "time": "Closed"}], "id": "7000300043", "name": "USPS COLLECTION BOX - BLUE BOX", "address": {"city": "METAIRIE", "state": "LA", "street": "6620 RIVERSIDE DR", "postcode": "70003"}}},
{"geometry": {"type": "Point", "coordinates": [-90.2192540638, 30.0096474027]}, "type": "Feature", "properties": {"collection_times": [{"days": "Mon-Fri", "time": "3:15pm"}, {"days": "Sat", "time": "2:15pm"}, {"days": "Sun", "time": "Closed"}], "id": "7000300044", "name": "USPS COLLECTION BOX - BLUE BOX", "address": {"city": "METAIRIE", "state": "LA", "street": "6660 RIVERSIDE DR", "postcode": "70003"}}},
{"geometry": {"type": "Point", "coordinates": [-90.2192485589, 30.0050903547]}, "type": "Feature", "properties": {"collection_times": [{"days": "Mon-Fri", "time": "5:00pm"}, {"days": "Sat", "time": "1:15pm"}, {"days": "Sun", "time": "Closed"}], "id": "7000300046", "name": "USPS COLLECTION BOX - BLUE BOX", "address": {"city": "METAIRIE", "state": "LA", "street": "7044 VETERANS MEMORIAL BLVD", "postcode": "70003"}}},
{"geometry": {"type": "Point", "coordinates": [-90.1299128998, 30.0014862983]}, "type": "Feature", "properties": {"collection_times": [{"days": "Mon-Fri", "time": "12:30pm"}, {"days": "Sat", "time": "11:30am"}, {"days": "Sun", "time": "Closed"}], "id": "7000500010", "name": "USPS COLLECTION BOX - BLUE BOX", "address": {"city": "METAIRIE", "state": "LA", "street": "710 VETERANS MEMORIAL BLVD", "postcode": "70005"}}},
{"geometry": {"type": "Point", "coordinates": [-90.1299661333, 30.001651912]}, "type": "Feature", "properties": {"collection_times": [{"days": "Mon-Fri", "time": "1:00pm"}, {"days": "Sat", "time": "11:45am"}, {"days": "Sun", "time": "Closed"}], "id": "7000500012", "name": "USPS COLLECTION BOX - BLUE BOX", "address": {"city": "METAIRIE", "state": "LA", "street": "725 VETERANS MEMORIAL BLVD", "postcode": "70005"}}},
{"geometry": {"type": "Point", "coordinates": [-90.1239531528, 30.000157835]}, "type": "Feature", "properties": {"collection_times": [{"days": "Mon-Fri", "time": "3:00pm"}, {"days": "Sat", "time": "11:30am"}, {"days": "Sun", "time": "Closed"}], "id": "7000500013", "name": "USPS COLLECTION BOX - BLUE BOX", "address": {"city": "METAIRIE", "state": "LA", "street": "111 VETERANS MEMORIAL BLVD", "postcode": "70005"}}},
{"geometry": {"type": "Point", "coordinates": [-90.1239558897, 30.000213942]}, "type": "Feature", "properties": {"collection_times": [{"days": "Mon-Fri", "time": "3:00pm"}, {"days": "Sat", "time": "11:30am"}, {"days": "Sun", "time": "Closed"}], "id": "7000500014", "name": "USPS COLLECTION BOX - BLUE BOX", "address": {"city": "METAIRIE", "state": "LA", "street": "111 VETERANS BLVD", "postcode": "70005"}}},
{"geometry": {"type": "Point", "coordinates": [-90.1251911041, 30.0001303101]}, "type": "Feature", "properties": {"collection_times": [{"days": "Mon-Fri", "time": "12:30pm"}, {"days": "Sat", "time": "11:30am"}, {"days": "Sun", "time": "Closed"}], "id": "7000500021", "name": "USPS COLLECTION BOX - BLUE BOX", "address": {"city": "METAIRIE", "state": "LA", "street": "212 VETERANS BLVD", "postcode": "70005"}}},
{"geometry": {"type": "Point", "coordinates": [-90.1307681793, 29.9878491469]}, "type": "Feature", "properties": {"collection_times": [{"days": "Mon-Fri", "time": "3:30pm"}, {"days": "Sat", "time": "10:45am"}, {"days": "Sun", "time": "Closed"}], "id": "7000500032", "name": "USPS COLLECTION BOX - BLUE BOX", "address": {"city": "METAIRIE", "state": "LA", "street": "701 METAIRIE RD", "postcode": "70005"}}},
{"geometry": {"type": "Point", "coordinates": [-90.1307681793, 29.9878491469]}, "type": "Feature", "properties": {"collection_times": [{"days": "Mon-Fri", "time": "3:30pm"}, {"days": "Sat", "time": "10:45am"}, {"days": "Sun", "time": "Closed"}], "id": "7000500033", "name": "USPS COLLECTION BOX - BLUE BOX", "address": {"city": "METAIRIE", "state": "LA", "street": "701 METAIRIE RD", "postcode": "70005"}}},
{"geometry": {"type": "Point", "coordinates": [-90.1307681793, 29.9878491469]}, "type": "Feature", "properties": {"collection_times": [{"days": "Mon-Fri", "time": "4:30pm"}, {"days": "Sat", "time": "12:00pm"}, {"days": "Sun", "time": "Closed"}], "id": "7000500034", "name": "USPS COLLECTION BOX - PO LOBBY", "address": {"city": "METAIRIE", "state": "LA", "street": "701 METAIRIE RD", "postcode": "70005"}}},
{"geometry": {"type": "Point", "coordinates": [-90.1307681793, 29.9878491469]}, "type": "Feature", "properties": {"collection_times": [{"days": "Mon-Fri", "time": "4:30pm"}, {"days": "Sat", "time": "12:00pm"}, {"days": "Sun", "time": "Closed"}], "id": "7000500036", "name": "USPS COLLECTION BOX - PO LOBBY", "address": {"city": "METAIRIE", "state": "LA", "street": "701 METAIRIE RD", "postcode": "70005"}}},
{"geometry": {"type": "Point", "coordinates": [-90.1432449697, 29.9882199847]}, "type": "Feature", "properties": {"collection_times": [{"days": "Mon-Fri", "time": "11:45am"}, {"days": "Sat", "time": "10:45am"}, {"days": "Sun", "time": "Closed"}], "id": "7000500039", "name": "USPS COLLECTION BOX - BLUE BOX", "address": {"city": "METAIRIE", "state": "LA", "street": "201 BONNABEL BLVD", "postcode": "70005"}}},
{"geometry": {"type": "Point", "coordinates": [-90.1322137552, 29.9765838287]}, "type": "Feature", "properties": {"collection_times": [{"days": "Mon-Fri", "time": "11:30am"}, {"days": "Sat", "time": "10:30am"}, {"days": "Sun", "time": "Closed"}], "id": "7000500040", "name": "USPS COLLECTION BOX - BLUE BOX", "address": {"city": "METAIRIE", "state": "LA", "street": "601 NORTHLINE ST", "postcode": "70005"}}},
{"geometry": {"type": "Point", "coordinates": [-90.1406574772, 29.9867581159]}, "type": "Feature", "properties": {"collection_times": [{"days": "Mon-Fri", "time": "11:45am"}, {"days": "Sat", "time": "10:45am"}, {"days": "Sun", "time": "Closed"}], "id": "7000500041", "name": "USPS COLLECTION BOX - BLUE BOX", "address": {"city": "METAIRIE", "state": "LA", "street": "1521 METAIRIE RD", "postcode": "70005"}}},
{"geometry": {"type": "Point", "coordinates": [-90.1292114053, 29.9905817821]}, "type": "Feature", "properties": {"collection_times": [{"days": "Mon-Fri", "time": "11:45am"}, {"days": "Sat", "time": "10:45am"}, {"days": "Sun", "time": "Closed"}], "id": "7000500042", "name": "USPS COLLECTION BOX - BLUE BOX", "address": {"city": "METAIRIE", "state": "LA", "street": "301 ARIS AVE", "postcode": "70005"}}},
{"geometry": {"type": "Point", "coordinates": [-90.1279681154, 29.9820573798]}, "type": "Feature", "properties": {"collection_times": [{"days": "Mon-Fri", "time": "11:30am"}, {"days": "Sat", "time": "10:30am"}, {"days": "Sun", "time": "Closed"}], "id": "7000500043", "name": "USPS COLLECTION BOX - BLUE BOX", "address": {"city": "METAIRIE", "state": "LA", "street": "315 METAIRIE RD", "postcode": "70005"}}},
{"geometry": {"type": "Point", "coordinates": [-90.1239558897, 30.000213942]}, "type": "Feature", "properties": {"collection_times": [{"days": "Mon-Fri", "time": "3:00pm"}, {"days": "Sat", "time": "11:30am"}, {"days": "Sun", "time": "Closed"}], "id": "7000500046", "name": "USPS COLLECTION BOX - BLUE BOX", "address": {"city": "METAIRIE", "state": "LA", "street": "111 VETERANS BLVD", "postcode": "70005"}}},
{"geometry": {"type": "Point", "coordinates": [-90.1239558897, 30.000213942]}, "type": "Feature", "properties": {"collection_times": [{"days": "Mon-Fri", "time": "3:00pm"}, {"days": "Sat", "time": "11:30am"}, {"days": "Sun", "time": "Closed"}], "id": "7000500047", "name": "USPS COLLECTION BOX - BLUE BOX", "address": {"city": "METAIRIE", "state": "LA", "street": "111 VETERANS BLVD", "postcode": "70005"}}},
{"geometry": {"type": "Point", "coordinates": [-90.1816002546, 30.014416648]}, "type": "Feature", "properties": {"collection_times": [{"days": "Mon-Fri", "time": "1:30pm"}, {"days": "Sat", "time": "1:15pm"}, {"days": "Sun", "time": "Closed"}], "id": "7000600003", "name": "USPS COLLECTION BOX - BLUE BOX", "address": {"city": "METAIRIE", "state": "LA", "street": "4200 HOUMA BLVD", "postcode": "70006"}}},
{"geometry": {"type": "Point", "coordinates": [-90.2003652041, 30.01739473]}, "type": "Feature", "properties": {"collection_times": [{"days": "Mon-Fri", "time": "3:30pm"}, {"days": "Sat", "time": "2:30pm"}, {"days": "Sun", "time": "Closed"}], "id": "7000600015", "name": "USPS COLLECTION BOX - BLUE BOX", "address": {"city": "METAIRIE", "state": "LA", "street": "5101 W ESPLANADE AVE", "postcode": "70006"}}},
{"geometry": {"type": "Point", "coordinates": [-90.1802655483, 30.0080410735]}, "type": "Feature", "properties": {"collection_times": [{"days": "Mon-Fri", "time": "1:15pm"}, {"days": "Sat", "time": "1:00pm"}, {"days": "Sun", "time": "Closed"}], "id": "7000600016", "name": "USPS COLLECTION BOX - BLUE BOX", "address": {"city": "METAIRIE", "state": "LA", "street": "3601 HOUMA BLVD", "postcode": "70006"}}},
{"geometry": {"type": "Point", "coordinates": [-90.1989089816, 30.0169108998]}, "type": "Feature", "properties": {"collection_times": [{"days": "Mon-Fri", "time": "3:45pm"}, {"days": "Sat", "time": "2:45pm"}, {"days": "Sun", "time": "Closed"}], "id": "7000600017", "name": "USPS COLLECTION BOX - BLUE BOX", "address": {"city": "METAIRIE", "state": "LA", "street": "5000 W ESPLANADE AVE", "postcode": "70006"}}},
{"geometry": {"type": "Point", "coordinates": [-90.1838830369, 30.0053285483]}, "type": "Feature", "properties": {"collection_times": [{"days": "Mon-Fri", "time": "1:45pm"}, {"days": "Sat", "time": "1:00pm"}, {"days": "Sun", "time": "Closed"}], "id": "7000600021", "name": "USPS COLLECTION BOX - BLUE BOX", "address": {"city": "METAIRIE", "state": "LA", "street": "4501 VETERANS MEMORIAL BLVD", "postcode": "70006"}}},
{"geometry": {"type": "Point", "coordinates": [-90.1895162874, 30.0024728856]}, "type": "Feature", "properties": {"collection_times": [{"days": "Mon-Fri", "time": "4:00pm"}, {"days": "Sat", "time": "3:00pm"}, {"days": "Sun", "time": "Closed"}], "id": "7000600022", "name": "USPS COLLECTION BOX - BLUE BOX", "address": {"city": "METAIRIE", "state": "LA", "street": "3005 HARVARD AVE", "postcode": "70006"}}},
{"geometry": {"type": "Point", "coordinates": [-90.1989089816, 30.0169108998]}, "type": "Feature", "properties": {"collection_times": [{"days": "Mon-Fri", "time": "3:45pm"}, {"days": "Sat", "time": "2:45pm"}, {"days": "Sun", "time": "Closed"}], "id": "7000600023", "name": "USPS COLLECTION BOX - BLUE BOX", "address": {"city": "METAIRIE", "state": "LA", "street": "5000 W ESPLANADE AVE", "postcode": "70006"}}},
{"geometry": {"type": "Point", "coordinates": [-90.1829662437, 30.0047571793]}, "type": "Feature", "properties": {"collection_times": [{"days": "Mon-Fri", "time": "1:00pm"}, {"days": "Sat", "time": "12:30pm"}, {"days": "Sun", "time": "Closed"}], "id": "7000600024", "name": "USPS COLLECTION BOX - BLUE BOX", "address": {"city": "METAIRIE", "state": "LA", "street": "4400 VETERANS MEMORIAL BLVD", "postcode": "70006"}}},
{"geometry": {"type": "Point", "coordinates": [-90.4663155557, 29.8245024424]}, "type": "Feature", "properties": {"collection_times": [{"days": "Mon-Fri", "time": "4:00pm"}, {"days": "Sat", "time": "10:00am"}, {"days": "Sun", "time": "Closed"}], "id": "7003000002", "name": "USPS COLLECTION BOX - BLUE BOX", "address": {"city": "DES ALLEMANDS", "state": "LA", "street": "17242 HIGHWAY 90", "postcode": "70030"}}},
{"geometry": {"type": "Point", "coordinates": [-90.4663155557, 29.8245024424]}, "type": "Feature", "properties": {"collection_times": [{"days": "Mon-Fri", "time": "4:00pm"}, {"days": "Sat", "time": "10:00am"}, {"days": "Sun", "time": "Closed"}], "id": "7003000006", "name": "USPS COLLECTION BOX - PO LOBBY", "address": {"city": "DES ALLEMANDS", "state": "LA", "street": "17242 HIGHWAY 90", "postcode": "70030"}}},
{"geometry": {"type": "Point", "coordinates": [-90.3030578633, 29.9457192819]}, "type": "Feature", "properties": {"collection_times": [{"days": "Mon-Fri", "time": "3:00pm"}, {"days": "Sat", "time": "9:00am"}, {"days": "Sun", "time": "Closed"}], "id": "7003100001", "name": "USPS COLLECTION BOX - BLUE BOX", "address": {"city": "AMA", "state": "LA", "street": "10833 RIVER RD", "postcode": "70031"}}},
{"geometry": {"type": "Point", "coordinates": [-90.3030578633, 29.9457192819]}, "type": "Feature", "properties": {"collection_times": [{"days": "Mon-Fri", "time": "4:00pm"}, {"days": "Sat", "time": "9:00am"}, {"days": "Sun", "time": "Closed"}], "id": "7003100002", "name": "USPS COLLECTION BOX - PO LOBBY", "address": {"city": "AMA", "state": "LA", "street": "10833 RIVER RD", "postcode": "70031"}}},
{"geometry": {"type": "Point", "coordinates": [-90.0064699359, 29.9540889694]}, "type": "Feature", "properties": {"collection_times": [{"days": "Mon-Fri", "time": "3:30pm"}, {"days": "Sat-Sun", "time": "Closed"}], "id": "7003200025", "name": "USPS COLLECTION BOX - BLUE BOX", "address": {"city": "ARABI", "state": "LA", "street": "748 MEHLE ST", "postcode": "70032"}}},
{"geometry": {"type": "Point", "coordinates": [-90.0064699359, 29.9540889694]}, "type": "Feature", "properties": {"collection_times": [{"days": "Mon-Fri", "time": "3:15pm"}, {"days": "Sat-Sun", "time": "Closed"}], "id": "7003200026", "name": "USPS COLLECTION BOX - PO LOBBY", "address": {"city": "ARABI", "state": "LA", "street": "748 MEHLE ST", "postcode": "70032"}}},
{"geometry": {"type": "Point", "coordinates": [-90.1037400944, 29.69938779]}, "type": "Feature", "properties": {"collection_times": [{"days": "Mon-Fri", "time": "3:00pm"}, {"days": "Sat", "time": "8:30am"}, {"days": "Sun", "time": "Closed"}], "id": "7003600001", "name": "USPS COLLECTION BOX - BLUE BOX", "address": {"city": "BARATARIA", "state": "LA", "street": "4164 PRIVATEER BLVD", "postcode": "70036"}}},
{"geometry": {"type": "Point", "coordinates": [-90.1037400944, 29.69938779]}, "type": "Feature", "properties": {"collection_times": [{"days": "Mon-Fri", "time": "3:00pm"}, {"days": "Sat", "time": "8:30am"}, {"days": "Sun", "time": "Closed"}], "id": "7003600002", "name": "USPS COLLECTION BOX - PO LOBBY", "address": {"city": "BARATARIA", "state": "LA", "street": "4164 PRIVATEER BLVD", "postcode": "70036"}}},
{"geometry": {"type": "Point", "coordinates": [-89.9933848448, 29.8460662556]}, "type": "Feature", "properties": {"collection_times": [{"days": "Mon-Fri", "time": "5:00pm"}, {"days": "Sat", "time": "3:00pm"}, {"days": "Sun", "time": "Closed"}], "id": "7003700002", "name": "USPS COLLECTION BOX - BLUE BOX", "address": {"city": "BELLE CHASSE", "state": "LA", "street": "8710 HIGHWAY 23", "postcode": "70037"}}},
{"geometry": {"type": "Point", "coordinates": [-89.9933848448, 29.8460662556]}, "type": "Feature", "properties": {"collection_times": [{"days": "Mon-Fri", "time": "5:00pm"}, {"days": "Sat", "time": "3:00pm"}, {"days": "Sun", "time": "Closed"}], "id": "7003700003", "name": "USPS COLLECTION BOX - BLUE BOX", "address": {"city": "BELLE CHASSE", "state": "LA", "street": "8710 HIGHWAY 23", "postcode": "70037"}}},
{"geometry": {"type": "Point", "coordinates": [-89.9933848448, 29.8460662556]}, "type": "Feature", "properties": {"collection_times": [{"days": "Mon-Fri", "time": "5:00pm"}, {"days": "Sat", "time": "3:00pm"}, {"days": "Sun", "time": "Closed"}], "id": "7003700004", "name": "USPS COLLECTION BOX - PO LOBBY", "address": {"city": "BELLE CHASSE", "state": "LA", "street": "8710 HIGHWAY 23", "postcode": "70037"}}},
{"geometry": {"type": "Point", "coordinates": [-89.9966109686, 29.6777799827]}, "type": "Feature", "properties": {"collection_times": [{"days": "Mon-Sat", "time": "2:00pm"}, {"days": "Sun", "time": "Closed"}], "id": "7003700005", "name": "USPS COLLECTION BOX - BLUE BOX", "address": {"city": "BELLE CHASSE", "state": "LA", "street": "100 ENTERPRISE DR", "postcode": "70037"}}},
{"geometry": {"type": "Point", "coordinates": [-89.9933848448, 29.8460662556]}, "type": "Feature", "properties": {"collection_times": [{"days": "Mon-Fri", "time": "5:00pm"}, {"days": "Sat", "time": "3:00pm"}, {"days": "Sun", "time": "Closed"}], "id": "7003700009", "name": "USPS COLLECTION BOX - PO LOBBY", "address": {"city": "BELLE CHASSE", "state": "LA", "street": "8710 HIGHWAY 23", "postcode": "70037"}}},
{"geometry": {"type": "Point", "coordinates": [-90.0066380646, 29.8291138416]}, "type": "Feature", "properties": {"collection_times": [{"days": "Mon-Sat", "time": "2:00pm"}, {"days": "Sun", "time": "Closed"}], "id": "7003700014", "name": "USPS COLLECTION BOX - BLUE BOX", "address": {"city": "BELLE CHASSE", "state": "LA", "street": "401 RUSSELL AVE", "postcode": "70037"}}},
{"geometry": {"type": "Point", "coordinates": [-90.3826390957, 29.9028845987]}, "type": "Feature", "properties": {"collection_times": [{"days": "Mon-Fri", "time": "4:00pm"}, {"days": "Sat", "time": "10:00am"}, {"days": "Sun", "time": "Closed"}], "id": "7003900001", "name": "USPS COLLECTION BOX - BLUE BOX", "address": {"city": "BOUTTE", "state": "LA", "street": "13322 HIGHWAY 90", "postcode": "70039"}}},
{"geometry": {"type": "Point", "coordinates": [-90.3826390957, 29.9028845987]}, "type": "Feature", "properties": {"collection_times": [{"days": "Mon-Fri", "time": "3:45pm"}, {"days": "Sat-Sun", "time": "Closed"}], "id": "7003900003", "name": "USPS COLLECTION BOX - PO LOBBY", "address": {"city": "BOUTTE", "state": "LA", "street": "13322 HIGHWAY 90", "postcode": "70039"}}},
{"geometry": {"type": "Point", "coordinates": [-90.0178394889, 29.7647513214]}, "type": "Feature", "properties": {"collection_times": [{"days": "Mon-Fri", "time": "3:45pm"}, {"days": "Sat", "time": "9:45am"}, {"days": "Sun", "time": "Closed"}], "id": "7004000009", "name": "USPS COLLECTION BOX - PO LOBBY", "address": {"city": "BRAITHWAITE", "state": "LA", "street": "2729 ENGLISH TURN RD", "postcode": "70040"}}},
{"geometry": {"type": "Point", "coordinates": [-90.0178394889, 29.7647513214]}, "type": "Feature", "properties": {"collection_times": [{"days": "Mon-Fri", "time": "3:45pm"}, {"days": "Sat", "time": "9:45am"}, {"days": "Sun", "time": "Closed"}], "id": "7004000010", "name": "USPS COLLECTION BOX - BLUE BOX", "address": {"city": "BRAITHWAITE", "state": "LA", "street": "2729 ENGLISH TURN RD", "postcode": "70040"}}},
{"geometry": {"type": "Point", "coordinates": [-89.4660530709, 29.3430117297]}, "type": "Feature", "properties": {"collection_times": [{"days": "Mon-Fri", "time": "4:00pm"}, {"days": "Sat", "time": "11:45am"}, {"days": "Sun", "time": "Closed"}], "id": "7004100007", "name": "USPS COLLECTION BOX - BLUE BOX", "address": {"city": "BURAS", "state": "LA", "street": "37823 HIGHWAY 23", "postcode": "70041"}}},
{"geometry": {"type": "Point", "coordinates": [-89.4660530709, 29.3430117297]}, "type": "Feature", "properties": {"collection_times": [{"days": "Mon-Fri", "time": "3:45pm"}, {"days": "Sat", "time": "11:30am"}, {"days": "Sun", "time": "Closed"}], "id": "7004100008", "name": "USPS COLLECTION BOX - PO LOBBY", "address": {"city": "BURAS", "state": "LA", "street": "37823 HIGHWAY 23", "postcode": "70041"}}},
{"geometry": {"type": "Point", "coordinates": [-89.9888339828, 29.9575605202]}, "type": "Feature", "properties": {"collection_times": [{"days": "Mon-Fri", "time": "10:30am"}, {"days": "Sat-Sun", "time": "Closed"}], "id": "7004300017", "name": "USPS COLLECTION BOX - BLUE BOX", "address": {"city": "CHALMETTE", "state": "LA", "street": "8201 W JUDGE PEREZ DR", "postcode": "70043"}}},
{"geometry": {"type": "Point", "coordinates": [-89.9602650953, 29.9497352668]}, "type": "Feature", "properties": {"collection_times": [{"days": "Mon-Fri", "time": "5:00pm"}, {"days": "Sat", "time": "1:15pm"}, {"days": "Sun", "time": "Closed"}], "id": "7004300025", "name": "USPS COLLECTION BOX - BLUE BOX", "address": {"city": "CHALMETTE", "state": "LA", "street": "3340 PARIS RD", "postcode": "70043"}}},
{"geometry": {"type": "Point", "coordinates": [-89.9602650953, 29.9497352668]}, "type": "Feature", "properties": {"collection_times": [{"days": "Mon-Fri", "time": "5:00pm"}, {"days": "Sat", "time": "1:15pm"}, {"days": "Sun", "time": "Closed"}], "id": "7004300026", "name": "USPS COLLECTION BOX - BLUE BOX", "address": {"city": "CHALMETTE", "state": "LA", "street": "3340 PARIS RD", "postcode": "70043"}}},
{"geometry": {"type": "Point", "coordinates": [-89.9745358012, 29.951814194]}, "type": "Feature", "properties": {"collection_times": [{"days": "Mon-Fri", "time": "11:00am"}, {"days": "Sat-Sun", "time": "Closed"}], "id": "7004300036", "name": "USPS COLLECTION BOX - BLUE BOX", "address": {"city": "CHALMETTE", "state": "LA", "street": "1101 W SAINT BERNARD HWY", "postcode": "70043"}}},
{"geometry": {"type": "Point", "coordinates": [-89.9602650953, 29.9497352668]}, "type": "Feature", "properties": {"collection_times": [{"days": "Mon-Fri", "time": "5:00pm"}, {"days": "Sat", "time": "1:15pm"}, {"days": "Sun", "time": "Closed"}], "id": "7004300040", "name": "USPS COLLECTION BOX - BLUE BOX", "address": {"city": "CHALMETTE", "state": "LA", "street": "3340 PARIS RD", "postcode": "70043"}}},
{"geometry": {"type": "Point", "coordinates": [-89.9863609572, 29.9565738545]}, "type": "Feature", "properties": {"collection_times": [{"days": "Mon-Fri", "time": "10:30am"}, {"days": "Sat-Sun", "time": "Closed"}], "id": "7004300041", "name": "USPS COLLECTION BOX - BLUE BOX", "address": {"city": "CHALMETTE", "state": "LA", "street": "8301 W JUDGE PEREZ DR", "postcode": "70043"}}},
{"geometry": {"type": "Point", "coordinates": [-89.9602650953, 29.9497352668]}, "type": "Feature", "properties": {"collection_times": [{"days": "Mon-Fri", "time": "3:15pm"}, {"days": "Sat", "time": "1:00pm"}, {"days": "Sun", "time": "Closed"}], "id": "7004300042", "name": "USPS COLLECTION BOX - PO LOBBY", "address": {"city": "CHALMETTE", "state": "LA", "street": "3340 PARIS RD", "postcode": "70043"}}},
{"geometry": {"type": "Point", "coordinates": [-89.9602650953, 29.9497352668]}, "type": "Feature", "properties": {"collection_times": [{"days": "Mon-Fri", "time": "3:15pm"}, {"days": "Sat", "time": "1:00pm"}, {"days": "Sun", "time": "Closed"}], "id": "7004300043", "name": "USPS COLLECTION BOX - PO LOBBY", "address": {"city": "CHALMETTE", "state": "LA", "street": "3340 PARIS RD", "postcode": "70043"}}},
{"geometry": {"type": "Point", "coordinates": [-89.9602650953, 29.9497352668]}, "type": "Feature", "properties": {"collection_times": [{"days": "Mon-Fri", "time": "3:15pm"}, {"days": "Sat", "time": "1:00pm"}, {"days": "Sun", "time": "Closed"}], "id": "7004300044", "name": "USPS COLLECTION BOX - PO LOBBY", "address": {"city": "CHALMETTE", "state": "LA", "street": "3340 PARIS RD", "postcode": "70043"}}},
{"geometry": {"type": "Point", "coordinates": [-90.3750441795, 29.9667932339]}, "type": "Feature", "properties": {"collection_times": [{"days": "Mon-Fri", "time": "4:00pm"}, {"days": "Sat", "time": "12:00pm"}, {"days": "Sun", "time": "Closed"}], "id": "7004700001", "name": "USPS COLLECTION BOX - BLUE BOX", "address": {"city": "DESTREHAN", "state": "LA", "street": "13 PLANTATION RD", "postcode": "70047"}}},
{"geometry": {"type": "Point", "coordinates": [-90.3750441795, 29.9667932339]}, "type": "Feature", "properties": {"collection_times": [{"days": "Mon-Fri", "time": "4:00pm"}, {"days": "Sat", "time": "12:00pm"}, {"days": "Sun", "time": "Closed"}], "id": "7004700002", "name": "USPS COLLECTION BOX - BLUE BOX", "address": {"city": "DESTREHAN", "state": "LA", "street": "13 PLANTATION RD", "postcode": "70047"}}},
{"geometry": {"type": "Point", "coordinates": [-90.3750441795, 29.9667932339]}, "type": "Feature", "properties": {"collection_times": [{"days": "Mon-Fri", "time": "4:00pm"}, {"days": "Sat", "time": "12:00pm"}, {"days": "Sun", "time": "Closed"}], "id": "7004700004", "name": "USPS COLLECTION BOX - PO LOBBY", "address": {"city": "DESTREHAN", "state": "LA", "street": "13 PLANTATION RD", "postcode": "70047"}}},
{"geometry": {"type": "Point", "coordinates": [-90.3750441795, 29.9667932339]}, "type": "Feature", "properties": {"collection_times": [{"days": "Mon-Fri", "time": "4:00pm"}, {"days": "Sat", "time": "12:00pm"}, {"days": "Sun", "time": "Closed"}], "id": "7004700006", "name": "USPS COLLECTION BOX - PO LOBBY", "address": {"city": "DESTREHAN", "state": "LA", "street": "13 PLANTATION RD", "postcode": "70047"}}},
{"geometry": {"type": "Point", "coordinates": [-90.5693368601, 30.0462717409]}, "type": "Feature", "properties": {"collection_times": [{"days": "Mon-Fri", "time": "3:00pm"}, {"days": "Sat", "time": "10:30am"}, {"days": "Sun", "time": "Closed"}], "id": "7004900001", "name": "USPS COLLECTION BOX - BLUE BOX", "address": {"city": "EDGARD", "state": "LA", "street": "2447 HIGHWAY 18", "postcode": "70049"}}},
{"geometry": {"type": "Point", "coordinates": [-90.5693368601, 30.0462717409]}, "type": "Feature", "properties": {"collection_times": [{"days": "Mon-Fri", "time": "3:00pm"}, {"days": "Sat", "time": "10:30am"}, {"days": "Sun", "time": "Closed"}], "id": "7004900003", "name": "USPS COLLECTION BOX - PO LOBBY", "address": {"city": "EDGARD", "state": "LA", "street": "2447 HIGHWAY 18", "postcode": "70049"}}},
{"geometry": {"type": "Point", "coordinates": [-90.5568156962, 30.0404028149]}, "type": "Feature", "properties": {"collection_times": [{"days": "Mon-Sat", "time": "1:00pm"}, {"days": "Sun", "time": "Closed"}], "id": "7004900006", "name": "USPS COLLECTION BOX - BLUE BOX", "address": {"city": "EDGARD", "state": "LA", "street": "3035 HIGHWAY 18", "postcode": "70049"}}},
{"geometry": {"type": "Point", "coordinates": [-90.617422465, 30.0556503959]}, "type": "Feature", "properties": {"collection_times": [{"days": "Mon-Fri", "time": "4:00pm"}, {"days": "Sat", "time": "12:00pm"}, {"days": "Sun", "time": "Closed"}], "id": "7005100006", "name": "USPS COLLECTION BOX - PO LOBBY", "address": {"city": "GARYVILLE", "state": "LA", "street": "495 HISTORIC MAIN ST", "postcode": "70051"}}},
{"geometry": {"type": "Point", "coordinates": [-90.617422465, 30.0556503959]}, "type": "Feature", "properties": {"collection_times": [{"days": "Mon-Fri", "time": "4:00pm"}, {"days": "Sat", "time": "12:00pm"}, {"days": "Sun", "time": "Closed"}], "id": "7005100008", "name": "USPS COLLECTION BOX - PO LOBBY", "address": {"city": "GARYVILLE", "state": "LA", "street": "495 HISTORIC MAIN ST", "postcode": "70051"}}},
{"geometry": {"type": "Point", "coordinates": [-90.6894987258, 30.047515625]}, "type": "Feature", "properties": {"collection_times": [{"days": "Mon-Fri", "time": "3:30pm"}, {"days": "Sat", "time": "9:30am"}, {"days": "Sun", "time": "Closed"}], "id": "7005200001", "name": "USPS COLLECTION BOX - BLUE BOX", "address": {"city": "GRAMERCY", "state": "LA", "street": "417 E MAIN ST", "postcode": "70052"}}},
{"geometry": {"type": "Point", "coordinates": [-90.6894987258, 30.047515625]}, "type": "Feature", "properties": {"collection_times": [{"days": "Mon-Fri", "time": "3:30pm"}, {"days": "Sat", "time": "9:30am"}, {"days": "Sun", "time": "Closed"}], "id": "7005200005", "name": "USPS COLLECTION BOX - PO LOBBY", "address": {"city": "GRAMERCY", "state": "LA", "street": "417 E MAIN ST", "postcode": "70052"}}},
{"geometry": {"type": "Point", "coordinates": [-90.045551649, 29.902688618]}, "type": "Feature", "properties": {"collection_times": [{"days": "Mon-Fri", "time": "5:00pm"}, {"days": "Sat", "time": "3:00pm"}, {"days": "Sun", "time": "Closed"}], "id": "7005300001", "name": "USPS COLLECTION BOX - PO LOBBY", "address": {"city": "GRETNA", "state": "LA", "street": "406 GRETNA BLVD", "postcode": "70053"}}},
{"geometry": {"type": "Point", "coordinates": [-90.045551649, 29.902688618]}, "type": "Feature", "properties": {"collection_times": [{"days": "Mon-Fri", "time": "5:00pm"}, {"days": "Sat", "time": "3:00pm"}, {"days": "Sun", "time": "Closed"}], "id": "7005300002", "name": "USPS COLLECTION BOX - PO LOBBY", "address": {"city": "GRETNA", "state": "LA", "street": "406 GRETNA BLVD", "postcode": "70053"}}},
{"geometry": {"type": "Point", "coordinates": [-90.045551649, 29.902688618]}, "type": "Feature", "properties": {"collection_times": [{"days": "Mon-Fri", "time": "5:00pm"}, {"days": "Sat", "time": "3:00pm"}, {"days": "Sun", "time": "Closed"}], "id": "7005300004", "name": "USPS COLLECTION BOX - BLUE BOX", "address": {"city": "GRETNA", "state": "LA", "street": "406 GRETNA BLVD", "postcode": "70053"}}},
{"geometry": {"type": "Point", "coordinates": [-90.045551649, 29.902688618]}, "type": "Feature", "properties": {"collection_times": [{"days": "Mon-Fri", "time": "5:00pm"}, {"days": "Sat", "time": "3:00pm"}, {"days": "Sun", "time": "Closed"}], "id": "7005300006", "name": "USPS COLLECTION BOX - BLUE BOX", "address": {"city": "GRETNA", "state": "LA", "street": "406 GRETNA BLVD", "postcode": "70053"}}},
{"geometry": {"type": "Point", "coordinates": [-90.0478143172, 29.9153188401]}, "type": "Feature", "properties": {"collection_times": [{"days": "Mon-Fri", "time": "1:15pm"}, {"days": "Sat", "time": "12:00pm"}, {"days": "Sun", "time": "Closed"}], "id": "7005300013", "name": "USPS COLLECTION BOX - BLUE BOX", "address": {"city": "GRETNA", "state": "LA", "street": "91 WESTBANK EXPY STE 480", "postcode": "70053"}}},
{"geometry": {"type": "Point", "coordinates": [-90.064114785, 29.915975219]}, "type": "Feature", "properties": {"collection_times": [{"days": "Mon-Fri", "time": "1:30pm"}, {"days": "Sat", "time": "12:15pm"}, {"days": "Sun", "time": "Closed"}], "id": "7005300019", "name": "USPS COLLECTION BOX - BLUE BOX", "address": {"city": "GRETNA", "state": "LA", "street": "719 4TH ST", "postcode": "70053"}}},
{"geometry": {"type": "Point", "coordinates": [-90.064114785, 29.915975219]}, "type": "Feature", "properties": {"collection_times": [{"days": "Mon-Fri", "time": "1:30pm"}, {"days": "Sat", "time": "12:15pm"}, {"days": "Sun", "time": "Closed"}], "id": "7005300020", "name": "USPS COLLECTION BOX - BLUE BOX", "address": {"city": "GRETNA", "state": "LA", "street": "719 4TH ST", "postcode": "70053"}}},
{"geometry": {"type": "Point", "coordinates": [-90.064114785, 29.915975219]}, "type": "Feature", "properties": {"collection_times": [{"days": "Mon-Fri", "time": "1:30pm"}, {"days": "Sat", "time": "12:15pm"}, {"days": "Sun", "time": "Closed"}], "id": "7005300022", "name": "USPS COLLECTION BOX - BLUE BOX", "address": {"city": "GRETNA", "state": "LA", "street": "719 4TH ST", "postcode": "70053"}}},
{"geometry": {"type": "Point", "coordinates": [-90.065351701, 29.917548361]}, "type": "Feature", "properties": {"collection_times": [{"days": "Mon-Fri", "time": "1:30pm"}, {"days": "Sat", "time": "12:15pm"}, {"days": "Sun", "time": "Closed"}], "id": "7005300025", "name": "USPS COLLECTION BOX - BLUE BOX", "address": {"city": "GRETNA", "state": "LA", "street": "741 2ND ST", "postcode": "70053"}}},
{"geometry": {"type": "Point", "coordinates": [-90.0670251239, 29.9158937119]}, "type": "Feature", "properties": {"collection_times": [{"days": "Mon-Fri", "time": "1:30pm"}, {"days": "Sat", "time": "12:15pm"}, {"days": "Sun", "time": "Closed"}], "id": "7005300027", "name": "USPS COLLECTION BOX - BLUE BOX", "address": {"city": "GRETNA", "state": "LA", "street": "200 DERBIGNY ST", "postcode": "70053"}}},
{"geometry": {"type": "Point", "coordinates": [-90.0670251239, 29.9158937119]}, "type": "Feature", "properties": {"collection_times": [{"days": "Mon-Fri", "time": "1:30pm"}, {"days": "Sat", "time": "12:15pm"}, {"days": "Sun", "time": "Closed"}], "id": "7005300035", "name": "USPS COLLECTION BOX - BLUE BOX", "address": {"city": "GRETNA", "state": "LA", "street": "200 DERBIGNY ST", "postcode": "70053"}}},
{"geometry": {"type": "Point", "coordinates": [-90.0670251239, 29.9158937119]}, "type": "Feature", "properties": {"collection_times": [{"days": "Mon-Fri", "time": "1:30pm"}, {"days": "Sat", "time": "12:15pm"}, {"days": "Sun", "time": "Closed"}], "id": "7005300036", "name": "USPS COLLECTION BOX - BLUE BOX", "address": {"city": "GRETNA", "state": "LA", "street": "200 DERBIGNY ST", "postcode": "70053"}}},
{"geometry": {"type": "Point", "coordinates": [-90.065428202, 29.916311336]}, "type": "Feature", "properties": {"collection_times": [{"days": "Mon-Fri", "time": "3:00pm"}, {"days": "Sat-Sun", "time": "Closed"}], "id": "7005300040", "name": "USPS COLLECTION BOX - PO LOBBY", "address": {"city": "GRETNA", "state": "LA", "street": "739B 3RD ST", "postcode": "70053"}}},
{"geometry": {"type": "Point", "coordinates": [-90.042328384, 29.919091]}, "type": "Feature", "properties": {"collection_times": [{"days": "Mon-Fri", "time": "2:45pm"}, {"days": "Sat", "time": "1:45pm"}, {"days": "Sun", "time": "Closed"}], "id": "7005600003", "name": "USPS COLLECTION BOX - BLUE BOX", "address": {"city": "TERRYTOWN", "state": "LA", "street": "401 WHITNEY AVE", "postcode": "70056"}}},
{"geometry": {"type": "Point", "coordinates": [-90.042328384, 29.919091]}, "type": "Feature", "properties": {"collection_times": [{"days": "Mon-Fri", "time": "2:45pm"}, {"days": "Sat", "time": "1:45pm"}, {"days": "Sun", "time": "Closed"}], "id": "7005600004", "name": "USPS COLLECTION BOX - BLUE BOX", "address": {"city": "TERRYTOWN", "state": "LA", "street": "401 WHITNEY AVE", "postcode": "70056"}}},
{"geometry": {"type": "Point", "coordinates": [-90.036690414, 29.911306704]}, "type": "Feature", "properties": {"collection_times": [{"days": "Mon-Fri", "time": "2:30pm"}, {"days": "Sat", "time": "1:30pm"}, {"days": "Sun", "time": "Closed"}], "id": "7005600005", "name": "USPS COLLECTION BOX - BLUE BOX", "address": {"city": "TERRYTOWN", "state": "LA", "street": "1799 STUMPF BLVD", "postcode": "70056"}}},
{"geometry": {"type": "Point", "coordinates": [-90.030440517, 29.876151897]}, "type": "Feature", "properties": {"collection_times": [{"days": "Mon-Fri", "time": "2:15pm"}, {"days": "Sat", "time": "1:15pm"}, {"days": "Sun", "time": "Closed"}], "id": "7005600013", "name": "USPS COLLECTION BOX - BLUE BOX", "address": {"city": "TERRYTOWN", "state": "LA", "street": "500 WALL BLVD", "postcode": "70056"}}},
{"geometry": {"type": "Point", "coordinates": [-90.036866367, 29.892428955]}, "type": "Feature", "properties": {"collection_times": [{"days": "Mon-Fri", "time": "2:00pm"}, {"days": "Sat", "time": "1:00pm"}, {"days": "Sun", "time": "Closed"}], "id": "7005600016", "name": "USPS COLLECTION BOX - BLUE BOX", "address": {"city": "TERRYTOWN", "state": "LA", "street": "121 BELLEMEADE BLVD", "postcode": "70056"}}},
{"geometry": {"type": "Point", "coordinates": [-90.026292255, 29.884011824]}, "type": "Feature", "properties": {"collection_times": [{"days": "Mon-Fri", "time": "2:30pm"}, {"days": "Sat", "time": "1:30pm"}, {"days": "Sun", "time": "Closed"}], "id": "7005600017", "name": "USPS COLLECTION BOX - BLUE BOX", "address": {"city": "TERRYTOWN", "state": "LA", "street": "120 MEADOWCREST ST", "postcode": "70056"}}},
{"geometry": {"type": "Point", "coordinates": [-90.028091363, 29.879959819]}, "type": "Feature", "properties": {"collection_times": [{"days": "Mon-Fri", "time": "2:30pm"}, {"days": "Sat", "time": "1:30pm"}, {"days": "Sun", "time": "Closed"}], "id": "7005600021", "name": "USPS COLLECTION BOX - BLUE BOX", "address": {"city": "TERRYTOWN", "state": "LA", "street": "201 BANNERWOOD DR", "postcode": "70056"}}},
{"geometry": {"type": "Point", "coordinates": [-90.0309874754, 29.894254164]}, "type": "Feature", "properties": {"collection_times": [{"days": "Mon-Fri", "time": "2:30pm"}, {"days": "Sat", "time": "1:30pm"}, {"days": "Sun", "time": "Closed"}], "id": "7005600022", "name": "USPS COLLECTION BOX - BLUE BOX", "address": {"city": "TERRYTOWN", "state": "LA", "street": "721 TERRY PKWY", "postcode": "70056"}}},
{"geometry": {"type": "Point", "coordinates": [-90.0309874754, 29.894254164]}, "type": "Feature", "properties": {"collection_times": [{"days": "Mon-Fri", "time": "2:15pm"}, {"days": "Sat", "time": "1:15pm"}, {"days": "Sun", "time": "Closed"}], "id": "7005600023", "name": "USPS COLLECTION BOX - BLUE BOX", "address": {"city": "TERRYTOWN", "state": "LA", "street": "1333 LAKE FRANCES DR", "postcode": "70056"}}},
{"geometry": {"type": "Point", "coordinates": [-90.4050917464, 29.9679814921]}, "type": "Feature", "properties": {"collection_times": [{"days": "Mon-Fri", "time": "3:00pm"}, {"days": "Sat", "time": "9:00am"}, {"days": "Sun", "time": "Closed"}], "id": "7005700001", "name": "USPS COLLECTION BOX - BLUE BOX", "address": {"city": "HAHNVILLE", "state": "LA", "street": "15141 RIVER RD", "postcode": "70057"}}},
{"geometry": {"type": "Point", "coordinates": [-90.4050917464, 29.9679814921]}, "type": "Feature", "properties": {"collection_times": [{"days": "Mon-Fri", "time": "3:00pm"}, {"days": "Sat", "time": "9:00am"}, {"days": "Sun", "time": "Closed"}], "id": "7005700004", "name": "USPS COLLECTION BOX - PO LOBBY", "address": {"city": "HAHNVILLE", "state": "LA", "street": "15141 RIVER RD", "postcode": "70057"}}},
{"geometry": {"type": "Point", "coordinates": [-90.0491440107, 29.8770094408]}, "type": "Feature", "properties": {"collection_times": [{"days": "Mon-Fri", "time": "2:45pm"}, {"days": "Sat", "time": "2:00pm"}, {"days": "Sun", "time": "Closed"}], "id": "7005800002", "name": "USPS COLLECTION BOX - BLUE BOX", "address": {"city": "HARVEY", "state": "LA", "street": "2439 MANHATTAN BLVD", "postcode": "70058"}}},
{"geometry": {"type": "Point", "coordinates": [-90.0574352133, 29.8918960649]}, "type": "Feature", "properties": {"collection_times": [{"days": "Mon-Fri", "time": "3:00pm"}, {"days": "Sat", "time": "2:00pm"}, {"days": "Sun", "time": "Closed"}], "id": "7005800006", "name": "USPS COLLECTION BOX - BLUE BOX", "address": {"city": "HARVEY", "state": "LA", "street": "1546 GRETNA BLVD", "postcode": "70058"}}},
{"geometry": {"type": "Point", "coordinates": [-90.0768725689, 29.9033740472]}, "type": "Feature", "properties": {"collection_times": [{"days": "Mon-Fri", "time": "3:00pm"}, {"days": "Sat", "time": "2:00pm"}, {"days": "Sun", "time": "Closed"}], "id": "7005800014", "name": "USPS COLLECTION BOX - BLUE BOX", "address": {"city": "HARVEY", "state": "LA", "street": "2502 8TH ST", "postcode": "70058"}}},
{"geometry": {"type": "Point", "coordinates": [-90.0716971234, 29.9001883387]}, "type": "Feature", "properties": {"collection_times": [{"days": "Mon-Fri", "time": "3:30pm"}, {"days": "Sat", "time": "2:30pm"}, {"days": "Sun", "time": "Closed"}], "id": "7005800017", "name": "USPS COLLECTION BOX - BLUE BOX", "address": {"city": "HARVEY", "state": "LA", "street": "2150 WESTBANK EXPY", "postcode": "70058"}}},
{"geometry": {"type": "Point", "coordinates": [-90.0479212241, 29.8711968863]}, "type": "Feature", "properties": {"collection_times": [{"days": "Mon-Fri", "time": "5:00pm"}, {"days": "Sat", "time": "4:00pm"}, {"days": "Sun", "time": "Closed"}], "id": "7005800027", "name": "USPS COLLECTION BOX - BLUE BOX", "address": {"city": "HARVEY", "state": "LA", "street": "2801 MANHATTAN BLVD", "postcode": "70058"}}},
{"geometry": {"type": "Point", "coordinates": [-90.0479212241, 29.8711968863]}, "type": "Feature", "properties": {"collection_times": [{"days": "Mon-Fri", "time": "5:00pm"}, {"days": "Sat", "time": "4:00pm"}, {"days": "Sun", "time": "Closed"}], "id": "7005800028", "name": "USPS COLLECTION BOX - BLUE BOX", "address": {"city": "HARVEY", "state": "LA", "street": "2801 MANHATTAN BLVD", "postcode": "70058"}}},
{"geometry": {"type": "Point", "coordinates": [-90.0479212241, 29.8711968863]}, "type": "Feature", "properties": {"collection_times": [{"days": "Mon-Fri", "time": "5:00pm"}, {"days": "Sat", "time": "4:00pm"}, {"days": "Sun", "time": "Closed"}], "id": "7005800031", "name": "USPS COLLECTION BOX - PO LOBBY", "address": {"city": "HARVEY", "state": "LA", "street": "2801 MANHATTAN BLVD", "postcode": "70058"}}},
{"geometry": {"type": "Point", "coordinates": [-90.0479212241, 29.8711968863]}, "type": "Feature", "properties": {"collection_times": [{"days": "Mon-Fri", "time": "5:00pm"}, {"days": "Sat", "time": "4:00pm"}, {"days": "Sun", "time": "Closed"}], "id": "7005800035", "name": "USPS COLLECTION BOX - PO LOBBY", "address": {"city": "HARVEY", "state": "LA", "street": "2801 MANHATTAN BLVD", "postcode": "70058"}}},
{"geometry": {"type": "Point", "coordinates": [-90.0716971234, 29.9001883387]}, "type": "Feature", "properties": {"collection_times": [{"days": "Mon-Fri", "time": "3:30pm"}, {"days": "Sat", "time": "2:30pm"}, {"days": "Sun", "time": "Closed"}], "id": "7005800037", "name": "USPS COLLECTION BOX - BLUE BOX", "address": {"city": "HARVEY", "state": "LA", "street": "2150 WESTBANK EXPY", "postcode": "70058"}}},
{"geometry": {"type": "Point", "coordinates": [-90.0479212241, 29.8711968863]}, "type": "Feature", "properties": {"collection_times": [{"days": "Mon-Fri", "time": "5:00pm"}, {"days": "Sat", "time": "4:00pm"}, {"days": "Sun", "time": "Closed"}], "id": "7005800038", "name": "USPS COLLECTION BOX - APC", "address": {"city": "HARVEY", "state": "LA", "street": "2801 MANHATTAN BLVD", "postcode": "70058"}}},
{"geometry": {"type": "Point", "coordinates": [-90.2411988821, 29.9975110245]}, "type": "Feature", "properties": {"collection_times": [{"days": "Mon-Fri", "time": "5:00pm"}, {"days": "Sat", "time": "2:45pm"}, {"days": "Sun", "time": "Closed"}], "id": "7006200001", "name": "USPS COLLECTION BOX - BLUE BOX", "address": {"city": "KENNER", "state": "LA", "street": "2300 WILLIAMS BLVD", "postcode": "70062"}}},
{"geometry": {"type": "Point", "coordinates": [-90.2411988821, 29.9975110245]}, "type": "Feature", "properties": {"collection_times": [{"days": "Mon-Fri", "time": "5:00pm"}, {"days": "Sat", "time": "2:45pm"}, {"days": "Sun", "time": "Closed"}], "id": "7006200004", "name": "USPS COLLECTION BOX - BLUE BOX", "address": {"city": "KENNER", "state": "LA", "street": "2300 WILLIAMS BLVD", "postcode": "70062"}}},
{"geometry": {"type": "Point", "coordinates": [-90.2422827428, 29.9894864702]}, "type": "Feature", "properties": {"collection_times": [{"days": "Mon-Fri", "time": "2:15pm"}, {"days": "Sat", "time": "1:15pm"}, {"days": "Sun", "time": "Closed"}], "id": "7006200007", "name": "USPS COLLECTION BOX - BLUE BOX", "address": {"city": "KENNER", "state": "LA", "street": "1801 WILLIAMS BLVD", "postcode": "70062"}}},
{"geometry": {"type": "Point", "coordinates": [-90.2719258803, 29.9864945155]}, "type": "Feature", "properties": {"collection_times": [{"days": "Mon-Fri", "time": "12:00pm"}, {"days": "Sat", "time": "10:45am"}, {"days": "Sun", "time": "Closed"}], "id": "7006200008", "name": "USPS COLLECTION BOX - BLUE BOX", "address": {"city": "KENNER", "state": "LA", "street": "200 CROFTON RD", "postcode": "70062"}}},
{"geometry": {"type": "Point", "coordinates": [-90.2417460077, 29.9911597951]}, "type": "Feature", "properties": {"collection_times": [{"days": "Mon-Fri", "time": "12:15pm"}, {"days": "Sat", "time": "11:15am"}, {"days": "Sun", "time": "Closed"}], "id": "7006200014", "name": "USPS COLLECTION BOX - BLUE BOX", "address": {"city": "KENNER", "state": "LA", "street": "1930 WILLIAMS BLVD", "postcode": "70062"}}},
{"geometry": {"type": "Point", "coordinates": [-90.2407971156, 30.0021833349]}, "type": "Feature", "properties": {"collection_times": [{"days": "Mon-Fri", "time": "12:15pm"}, {"days": "Sat", "time": "11:15am"}, {"days": "Sun", "time": "Closed"}], "id": "7006200017", "name": "USPS COLLECTION BOX - BLUE BOX", "address": {"city": "KENNER", "state": "LA", "street": "2538 WILLIAMS BLVD", "postcode": "70062"}}},
{"geometry": {"type": "Point", "coordinates": [-90.2356610558, 30.0064387182]}, "type": "Feature", "properties": {"collection_times": [{"days": "Mon-Fri", "time": "12:15pm"}, {"days": "Sat", "time": "11:15am"}, {"days": "Sun", "time": "Closed"}], "id": "7006200019", "name": "USPS COLLECTION BOX - BLUE BOX", "address": {"city": "KENNER", "state": "LA", "street": "2400 VETERANS MEMORIAL BLVD", "postcode": "70062"}}},
{"geometry": {"type": "Point", "coordinates": [-90.2356610558, 30.0064387182]}, "type": "Feature", "properties": {"collection_times": [{"days": "Mon-Fri", "time": "12:15pm"}, {"days": "Sat", "time": "11:15am"}, {"days": "Sun", "time": "Closed"}], "id": "7006200021", "name": "USPS COLLECTION BOX - BLUE BOX", "address": {"city": "KENNER", "state": "LA", "street": "2400 VETERANS MEMORIAL BLVD", "postcode": "70062"}}},
{"geometry": {"type": "Point", "coordinates": [-90.2384311071, 30.0066185097]}, "type": "Feature", "properties": {"collection_times": [{"days": "Mon-Fri", "time": "12:30pm"}, {"days": "Sat", "time": "11:30am"}, {"days": "Sun", "time": "Closed"}], "id": "7006200025", "name": "USPS COLLECTION BOX - BLUE BOX", "address": {"city": "KENNER", "state": "LA", "street": "2200 VETERANS MEMORIAL BLVD", "postcode": "70062"}}},
{"geometry": {"type": "Point", "coordinates": [-90.2509958475, 30.0066404505]}, "type": "Feature", "properties": {"collection_times": [{"days": "Mon-Fri", "time": "2:00pm"}, {"days": "Sat", "time": "1:00pm"}, {"days": "Sun", "time": "Closed"}], "id": "7006200030", "name": "USPS COLLECTION BOX - BLUE BOX", "address": {"city": "KENNER", "state": "LA", "street": "1301 VETERANS MEMORIAL BLVD", "postcode": "70062"}}},
{"geometry": {"type": "Point", "coordinates": [-90.2411988821, 29.9975110245]}, "type": "Feature", "properties": {"collection_times": [{"days": "Mon-Fri", "time": "5:00pm"}, {"days": "Sat", "time": "2:45pm"}, {"days": "Sun", "time": "Closed"}], "id": "7006200032", "name": "USPS COLLECTION BOX - PO LOBBY", "address": {"city": "KENNER", "state": "LA", "street": "2300 WILLIAMS BLVD", "postcode": "70062"}}},
{"geometry": {"type": "Point", "coordinates": [-90.2411988821, 29.9975110245]}, "type": "Feature", "properties": {"collection_times": [{"days": "Mon-Fri", "time": "5:00pm"}, {"days": "Sat", "time": "2:45pm"}, {"days": "Sun", "time": "Closed"}], "id": "7006200033", "name": "USPS COLLECTION BOX - PO LOBBY", "address": {"city": "KENNER", "state": "LA", "street": "2300 WILLIAMS BLVD", "postcode": "70062"}}},
{"geometry": {"type": "Point", "coordinates": [-90.2411988821, 29.9975110245]}, "type": "Feature", "properties": {"collection_times": [{"days": "Mon-Fri", "time": "5:00pm"}, {"days": "Sat", "time": "2:45pm"}, {"days": "Sun", "time": "Closed"}], "id": "7006200034", "name": "USPS COLLECTION BOX - PO LOBBY", "address": {"city": "KENNER", "state": "LA", "street": "2300 WILLIAMS BLVD", "postcode": "70062"}}},
{"geometry": {"type": "Point", "coordinates": [-90.2476685547, 29.9908610163]}, "type": "Feature", "properties": {"collection_times": [{"days": "Mon-Fri", "time": "11:00am"}, {"days": "Sat-Sun", "time": "Closed"}], "id": "7006200038", "name": "USPS COLLECTION BOX - BLUE BOX", "address": {"city": "KENNER", "state": "LA", "street": "900 AIRLINE DR", "postcode": "70062"}}},
{"geometry": {"type": "Point", "coordinates": [-90.2658134913, 30.0228043774]}, "type": "Feature", "properties": {"collection_times": [{"days": "Mon-Fri", "time": "5:00pm"}, {"days": "Sat", "time": "3:30pm"}, {"days": "Sun", "time": "Closed"}], "id": "7006500001", "name": "USPS COLLECTION BOX - PO LOBBY", "address": {"city": "KENNER", "state": "LA", "street": "390 W ESPLANADE AVE", "postcode": "70065"}}},
{"geometry": {"type": "Point", "coordinates": [-90.2658134913, 30.0228043774]}, "type": "Feature", "properties": {"collection_times": [{"days": "Mon-Fri", "time": "5:00pm"}, {"days": "Sat", "time": "3:30pm"}, {"days": "Sun", "time": "Closed"}], "id": "7006500002", "name": "USPS COLLECTION BOX - BLUE BOX", "address": {"city": "KENNER", "state": "LA", "street": "390 W ESPLANADE AVE", "postcode": "70065"}}},
{"geometry": {"type": "Point", "coordinates": [-90.2658134913, 30.0228043774]}, "type": "Feature", "properties": {"collection_times": [{"days": "Mon-Fri", "time": "5:00pm"}, {"days": "Sat", "time": "3:30pm"}, {"days": "Sun", "time": "Closed"}], "id": "7006500003", "name": "USPS COLLECTION BOX - BLUE BOX", "address": {"city": "KENNER", "state": "LA", "street": "390 W ESPLANADE AVE", "postcode": "70065"}}},
{"geometry": {"type": "Point", "coordinates": [-90.2658134913, 30.0228043774]}, "type": "Feature", "properties": {"collection_times": [{"days": "Mon-Fri", "time": "5:00pm"}, {"days": "Sat", "time": "3:30pm"}, {"days": "Sun", "time": "Closed"}], "id": "7006500004", "name": "USPS COLLECTION BOX - BLUE BOX", "address": {"city": "KENNER", "state": "LA", "street": "390 W ESPLANADE AVE", "postcode": "70065"}}},
{"geometry": {"type": "Point", "coordinates": [-90.2535929986, 30.020644859]}, "type": "Feature", "properties": {"collection_times": [{"days": "Mon-Fri", "time": "1:45pm"}, {"days": "Sat", "time": "12:45pm"}, {"days": "Sun", "time": "Closed"}], "id": "7006500012", "name": "USPS COLLECTION BOX - BLUE BOX", "address": {"city": "KENNER", "state": "LA", "street": "1201 W ESPLANADE AVE", "postcode": "70065"}}},
{"geometry": {"type": "Point", "coordinates": [-90.2399346732, 30.0149746223]}, "type": "Feature", "properties": {"collection_times": [{"days": "Mon-Fri", "time": "1:45pm"}, {"days": "Sat", "time": "12:45pm"}, {"days": "Sun", "time": "Closed"}], "id": "7006500016", "name": "USPS COLLECTION BOX - BLUE BOX", "address": {"city": "KENNER", "state": "LA", "street": "3243 WILLIAMS BLVD", "postcode": "70065"}}},
{"geometry": {"type": "Point", "coordinates": [-90.2580842185, 30.0409750874]}, "type": "Feature", "properties": {"collection_times": [{"days": "Mon-Fri", "time": "1:00pm"}, {"days": "Sat", "time": "11:45am"}, {"days": "Sun", "time": "Closed"}], "id": "7006500024", "name": "USPS COLLECTION BOX - BLUE BOX", "address": {"city": "KENNER", "state": "LA", "street": "810 JOE YENNI BLVD", "postcode": "70065"}}},
{"geometry": {"type": "Point", "coordinates": [-90.2386858068, 30.0295080063]}, "type": "Feature", "properties": {"collection_times": [{"days": "Mon-Fri", "time": "1:00pm"}, {"days": "Sat", "time": "12:00pm"}, {"days": "Sun", "time": "Closed"}], "id": "7006500026", "name": "USPS COLLECTION BOX - BLUE BOX", "address": {"city": "KENNER", "state": "LA", "street": "4041 WILLIAMS BLVD", "postcode": "70065"}}},
{"geometry": {"type": "Point", "coordinates": [-90.2392139744, 30.0234401544]}, "type": "Feature", "properties": {"collection_times": [{"days": "Mon-Fri", "time": "1:00pm"}, {"days": "Sat", "time": "12:00pm"}, {"days": "Sun", "time": "Closed"}], "id": "7006500027", "name": "USPS COLLECTION BOX - BLUE BOX", "address": {"city": "KENNER", "state": "LA", "street": "3701 WILLIAMS BLVD", "postcode": "70065"}}},
{"geometry": {"type": "Point", "coordinates": [-90.24665948, 30.0203935233]}, "type": "Feature", "properties": {"collection_times": [{"days": "Mon-Fri", "time": "1:00pm"}, {"days": "Sat", "time": "12:00pm"}, {"days": "Sun", "time": "Closed"}], "id": "7006500028", "name": "USPS COLLECTION BOX - BLUE BOX", "address": {"city": "KENNER", "state": "LA", "street": "1400 W ESPLANADE AVE", "postcode": "70065"}}},
{"geometry": {"type": "Point", "coordinates": [-90.2727145165, 30.0232411922]}, "type": "Feature", "properties": {"collection_times": [{"days": "Mon-Fri", "time": "1:30pm"}, {"days": "Sat", "time": "12:30pm"}, {"days": "Sun", "time": "Closed"}], "id": "7006500029", "name": "USPS COLLECTION BOX - BLUE BOX", "address": {"city": "KENNER", "state": "LA", "street": "200 W ESPLANADE AVE", "postcode": "70065"}}},
{"geometry": {"type": "Point", "coordinates": [-90.2658134913, 30.0228043774]}, "type": "Feature", "properties": {"collection_times": [{"days": "Mon-Fri", "time": "5:00pm"}, {"days": "Sat", "time": "3:30pm"}, {"days": "Sun", "time": "Closed"}], "id": "7006500031", "name": "USPS COLLECTION BOX - PO LOBBY", "address": {"city": "KENNER", "state": "LA", "street": "390 W ESPLANADE AVE", "postcode": "70065"}}},
{"geometry": {"type": "Point", "coordinates": [-90.2727145165, 30.0232411922]}, "type": "Feature", "properties": {"collection_times": [{"days": "Mon-Fri", "time": "1:30pm"}, {"days": "Sat", "time": "12:30pm"}, {"days": "Sun", "time": "Closed"}], "id": "7006500033", "name": "USPS COLLECTION BOX - BLUE BOX", "address": {"city": "KENNER", "state": "LA", "street": "200 W ESPLANADE AVE", "postcode": "70065"}}},
{"geometry": {"type": "Point", "coordinates": [-90.2297615356, 30.0219872625]}, "type": "Feature", "properties": {"collection_times": [{"days": "Mon-Fri", "time": "12:45pm"}, {"days": "Sat", "time": "11:45am"}, {"days": "Sun", "time": "Closed"}], "id": "7006500034", "name": "USPS COLLECTION BOX - BLUE BOX", "address": {"city": "KENNER", "state": "LA", "street": "34 DRIFTWOOD BLVD", "postcode": "70065"}}},
{"geometry": {"type": "Point", "coordinates": [-90.2727145165, 30.0232411922]}, "type": "Feature", "properties": {"collection_times": [{"days": "Mon-Fri", "time": "1:30pm"}, {"days": "Sat", "time": "12:30pm"}, {"days": "Sun", "time": "Closed"}], "id": "7006500035", "name": "USPS COLLECTION BOX - BLUE BOX", "address": {"city": "KENNER", "state": "LA", "street": "200 W ESPLANADE AVE", "postcode": "70065"}}},
{"geometry": {"type": "Point", "coordinates": [-90.2658134913, 30.0228043774]}, "type": "Feature", "properties": {"collection_times": [{"days": "Mon-Fri", "time": "5:00pm"}, {"days": "Sat", "time": "3:30pm"}, {"days": "Sun", "time": "Closed"}], "id": "7006500036", "name": "USPS COLLECTION BOX - APC", "address": {"city": "KENNER", "state": "LA", "street": "390 W ESPLANADE AVE", "postcode": "70065"}}},
{"geometry": {"type": "Point", "coordinates": [-90.1263280522, 29.7356177824]}, "type": "Feature", "properties": {"collection_times": [{"days": "Mon-Fri", "time": "3:15pm"}, {"days": "Sat", "time": "9:45am"}, {"days": "Sun", "time": "Closed"}], "id": "7006700007", "name": "USPS COLLECTION BOX - BLUE BOX", "address": {"city": "LAFITTE", "state": "LA", "street": "2630 JEAN LAFITTE BLVD", "postcode": "70067"}}},
{"geometry": {"type": "Point", "coordinates": [-90.1263499941, 29.7356088467]}, "type": "Feature", "properties": {"collection_times": [{"days": "Mon-Fri", "time": "3:30pm"}, {"days": "Sat", "time": "9:45am"}, {"days": "Sun", "time": "Closed"}], "id": "7006700008", "name": "USPS COLLECTION BOX - PO LOBBY", "address": {"city": "LAFITTE", "state": "LA", "street": "2630 JEAN LAFITTE BLVD", "postcode": "70067"}}},
{"geometry": {"type": "Point", "coordinates": [-90.5008549864, 30.0755091778]}, "type": "Feature", "properties": {"collection_times": [{"days": "Mon-Fri", "time": "5:00pm"}, {"days": "Sat", "time": "4:15pm"}, {"days": "Sun", "time": "Closed"}], "id": "7006800001", "name": "USPS COLLECTION BOX - BLUE BOX", "address": {"city": "LAPLACE", "state": "LA", "street": "190 BELLE TERRE BLVD", "postcode": "70068"}}},
{"geometry": {"type": "Point", "coordinates": [-90.5008549864, 30.0755091778]}, "type": "Feature", "properties": {"collection_times": [{"days": "Mon-Fri", "time": "5:00pm"}, {"days": "Sat", "time": "4:15pm"}, {"days": "Sun", "time": "Closed"}], "id": "7006800002", "name": "USPS COLLECTION BOX - BLUE BOX", "address": {"city": "LAPLACE", "state": "LA", "street": "190 BELLE TERRE BLVD", "postcode": "70068"}}},
{"geometry": {"type": "Point", "coordinates": [-90.5008549864, 30.0755091778]}, "type": "Feature", "properties": {"collection_times": [{"days": "Mon-Fri", "time": "5:00pm"}, {"days": "Sat", "time": "4:15pm"}, {"days": "Sun", "time": "Closed"}], "id": "7006800003", "name": "USPS COLLECTION BOX - BLUE BOX", "address": {"city": "LAPLACE", "state": "LA", "street": "190 BELLE TERRE BLVD", "postcode": "70068"}}},
{"geometry": {"type": "Point", "coordinates": [-90.5008549864, 30.0755091778]}, "type": "Feature", "properties": {"collection_times": [{"days": "Mon-Fri", "time": "5:00pm"}, {"days": "Sat", "time": "4:15pm"}, {"days": "Sun", "time": "Closed"}], "id": "7006800005", "name": "USPS COLLECTION BOX - PO LOBBY", "address": {"city": "LAPLACE", "state": "LA", "street": "190 BELLE TERRE BLVD", "postcode": "70068"}}},
{"geometry": {"type": "Point", "coordinates": [-90.5008549864, 30.0755091778]}, "type": "Feature", "properties": {"collection_times": [{"days": "Mon-Fri", "time": "5:00pm"}, {"days": "Sat", "time": "4:15pm"}, {"days": "Sun", "time": "Closed"}], "id": "7006800006", "name": "USPS COLLECTION BOX - PO LOBBY", "address": {"city": "LAPLACE", "state": "LA", "street": "190 BELLE TERRE BLVD", "postcode": "70068"}}},
{"geometry": {"type": "Point", "coordinates": [-90.486111921, 30.0696689399]}, "type": "Feature", "properties": {"collection_times": [{"days": "Mon-Sat", "time": "2:30pm"}, {"days": "Sun", "time": "Closed"}], "id": "7006800016", "name": "USPS COLLECTION BOX - BLUE BOX", "address": {"city": "LAPLACE", "state": "LA", "street": "429 W AIRLINE HWY", "postcode": "70068"}}},
{"geometry": {"type": "Point", "coordinates": [-90.376721788, 29.9177444592]}, "type": "Feature", "properties": {"collection_times": [{"days": "Mon-Fri", "time": "4:00pm"}, {"days": "Sat", "time": "9:30am"}, {"days": "Sun", "time": "Closed"}], "id": "7007000001", "name": "USPS COLLECTION BOX - BLUE BOX", "address": {"city": "LULING", "state": "LA", "street": "1363 PAUL MAILLARD RD", "postcode": "70070"}}},
{"geometry": {"type": "Point", "coordinates": [-90.3889629693, 29.9441240601]}, "type": "Feature", "properties": {"collection_times": [{"days": "Mon-Fri", "time": "10:30am"}, {"days": "Sat-Sun", "time": "Closed"}], "id": "7007000003", "name": "USPS COLLECTION BOX - BLUE BOX", "address": {"city": "LULING", "state": "LA", "street": "13889 RIVER RD", "postcode": "70070"}}},
{"geometry": {"type": "Point", "coordinates": [-90.3479355434, 29.9103332977]}, "type": "Feature", "properties": {"collection_times": [{"days": "Mon-Fri", "time": "12:00pm"}, {"days": "Sat-Sun", "time": "Closed"}], "id": "7007000006", "name": "USPS COLLECTION BOX - BLUE BOX", "address": {"city": "LULING", "state": "LA", "street": "100 LAKEWOOD DR", "postcode": "70070"}}},
{"geometry": {"type": "Point", "coordinates": [-90.376721788, 29.9177444592]}, "type": "Feature", "properties": {"collection_times": [{"days": "Mon-Fri", "time": "4:00pm"}, {"days": "Sat", "time": "9:30am"}, {"days": "Sun", "time": "Closed"}], "id": "7007000007", "name": "USPS COLLECTION BOX - PO LOBBY", "address": {"city": "LULING", "state": "LA", "street": "1363 PAUL MAILLARD RD", "postcode": "70070"}}},
{"geometry": {"type": "Point", "coordinates": [-90.6969211224, 30.0389876301]}, "type": "Feature", "properties": {"collection_times": [{"days": "Mon-Fri", "time": "3:30pm"}, {"days": "Sat", "time": "10:30am"}, {"days": "Sun", "time": "Closed"}], "id": "7007100001", "name": "USPS COLLECTION BOX - BLUE BOX", "address": {"city": "LUTCHER", "state": "LA", "street": "2317 TEXAS ST", "postcode": "70071"}}},
{"geometry": {"type": "Point", "coordinates": [-90.6969211224, 30.0389876301]}, "type": "Feature", "properties": {"collection_times": [{"days": "Mon-Fri", "time": "3:30pm"}, {"days": "Sat", "time": "10:30am"}, {"days": "Sun", "time": "Closed"}], "id": "7007100003", "name": "USPS COLLECTION BOX - PO LOBBY", "address": {"city": "LUTCHER", "state": "LA", "street": "2317 TEXAS ST", "postcode": "70071"}}},
{"geometry": {"type": "Point", "coordinates": [-90.1063211496, 29.8749480089]}, "type": "Feature", "properties": {"collection_times": [{"days": "Mon-Fri", "time": "5:00pm"}, {"days": "Sat", "time": "4:15pm"}, {"days": "Sun", "time": "Closed"}], "id": "7007200001", "name": "USPS COLLECTION BOX - PO LOBBY", "address": {"city": "MARRERO", "state": "LA", "street": "5351 LAPALCO BLVD", "postcode": "70072"}}},
{"geometry": {"type": "Point", "coordinates": [-90.1063211496, 29.8749480089]}, "type": "Feature", "properties": {"collection_times": [{"days": "Mon-Fri", "time": "5:00pm"}, {"days": "Sat", "time": "4:15pm"}, {"days": "Sun", "time": "Closed"}], "id": "7007200002", "name": "USPS COLLECTION BOX - PO LOBBY", "address": {"city": "MARRERO", "state": "LA", "street": "5351 LAPALCO BLVD", "postcode": "70072"}}},
{"geometry": {"type": "Point", "coordinates": [-90.1063211496, 29.8749480089]}, "type": "Feature", "properties": {"collection_times": [{"days": "Mon-Fri", "time": "5:00pm"}, {"days": "Sat", "time": "4:15pm"}, {"days": "Sun", "time": "Closed"}], "id": "7007200003", "name": "USPS COLLECTION BOX - PO LOBBY", "address": {"city": "MARRERO", "state": "LA", "street": "5351 LAPALCO BLVD", "postcode": "70072"}}},
{"geometry": {"type": "Point", "coordinates": [-90.1063211496, 29.8749480089]}, "type": "Feature", "properties": {"collection_times": [{"days": "Mon-Fri", "time": "5:00pm"}, {"days": "Sat", "time": "4:15pm"}, {"days": "Sun", "time": "Closed"}], "id": "7007200005", "name": "USPS COLLECTION BOX - BLUE BOX", "address": {"city": "MARRERO", "state": "LA", "street": "5351 LAPALCO BLVD", "postcode": "70072"}}},
{"geometry": {"type": "Point", "coordinates": [-90.1193500653, 29.8940596719]}, "type": "Feature", "properties": {"collection_times": [{"days": "Mon-Fri", "time": "1:00pm"}, {"days": "Sat", "time": "12:00pm"}, {"days": "Sun", "time": "Closed"}], "id": "7007200008", "name": "USPS COLLECTION BOX - BLUE BOX", "address": {"city": "MARRERO", "state": "LA", "street": "6588 WESTBANK EXPY", "postcode": "70072"}}},
{"geometry": {"type": "Point", "coordinates": [-90.0978014789, 29.8945136846]}, "type": "Feature", "properties": {"collection_times": [{"days": "Mon-Fri", "time": "1:00pm"}, {"days": "Sat", "time": "12:00pm"}, {"days": "Sun", "time": "Closed"}], "id": "7007200022", "name": "USPS COLLECTION BOX - BLUE BOX", "address": {"city": "MARRERO", "state": "LA", "street": "4535 WESTBANK EXPY", "postcode": "70072"}}},
{"geometry": {"type": "Point", "coordinates": [-90.1063211496, 29.8749480089]}, "type": "Feature", "properties": {"collection_times": [{"days": "Mon-Fri", "time": "5:00pm"}, {"days": "Sat", "time": "4:15pm"}, {"days": "Sun", "time": "Closed"}], "id": "7007200025", "name": "USPS COLLECTION BOX - PO LOBBY", "address": {"city": "MARRERO", "state": "LA", "street": "5351 LAPALCO BLVD", "postcode": "70072"}}},
{"geometry": {"type": "Point", "coordinates": [-90.1063211496, 29.8749480089]}, "type": "Feature", "properties": {"collection_times": [{"days": "Mon-Fri", "time": "5:00pm"}, {"days": "Sat", "time": "4:15pm"}, {"days": "Sun", "time": "Closed"}], "id": "7007200026", "name": "USPS COLLECTION BOX - BLUE BOX", "address": {"city": "MARRERO", "state": "LA", "street": "5351 LAPALCO BLVD", "postcode": "70072"}}},
{"geometry": {"type": "Point", "coordinates": [-90.1063211496, 29.8749480089]}, "type": "Feature", "properties": {"collection_times": [{"days": "Mon-Fri", "time": "5:00pm"}, {"days": "Sat", "time": "4:15pm"}, {"days": "Sun", "time": "Closed"}], "id": "7007200027", "name": "USPS COLLECTION BOX - BLUE BOX", "address": {"city": "MARRERO", "state": "LA", "street": "5351 LAPALCO BLVD", "postcode": "70072"}}},
{"geometry": {"type": "Point", "coordinates": [-90.1063211496, 29.8749480089]}, "type": "Feature", "properties": {"collection_times": [{"days": "Mon-Fri", "time": "5:00pm"}, {"days": "Sat", "time": "4:15pm"}, {"days": "Sun", "time": "Closed"}], "id": "7007200028", "name": "USPS COLLECTION BOX - BLUE BOX", "address": {"city": "MARRERO", "state": "LA", "street": "5351 LAPALCO BLVD", "postcode": "70072"}}},
{"geometry": {"type": "Point", "coordinates": [-90.0974300297, 29.8952068985]}, "type": "Feature", "properties": {"collection_times": [{"days": "Mon-Fri", "time": "12:30pm"}, {"days": "Sat", "time": "11:30am"}, {"days": "Sun", "time": "Closed"}], "id": "7007200029", "name": "USPS COLLECTION BOX - BLUE BOX", "address": {"city": "MARRERO", "state": "LA", "street": "4701 WESTBANK EXPY", "postcode": "70072"}}},
{"geometry": {"type": "Point", "coordinates": [-90.097277428, 29.8932786754]}, "type": "Feature", "properties": {"collection_times": [{"days": "Mon-Fri", "time": "12:30pm"}, {"days": "Sat", "time": "11:30am"}, {"days": "Sun", "time": "Closed"}], "id": "7007200030", "name": "USPS COLLECTION BOX - BLUE BOX", "address": {"city": "MARRERO", "state": "LA", "street": "4606 10TH ST", "postcode": "70072"}}},
{"geometry": {"type": "Point", "coordinates": [-90.1011468868, 29.8941102956]}, "type": "Feature", "properties": {"collection_times": [{"days": "Mon-Fri", "time": "12:30pm"}, {"days": "Sat", "time": "11:30am"}, {"days": "Sun", "time": "Closed"}], "id": "7007200031", "name": "USPS COLLECTION BOX - BLUE BOX", "address": {"city": "MARRERO", "state": "LA", "street": "5001 WESTBANK EXPY", "postcode": "70072"}}},
{"geometry": {"type": "Point", "coordinates": [-89.9193556485, 29.9339263726]}, "type": "Feature", "properties": {"collection_times": [{"days": "Mon-Fri", "time": "3:30pm"}, {"days": "Sat-Sun", "time": "Closed"}], "id": "7007500010", "name": "USPS COLLECTION BOX - PO LOBBY", "address": {"city": "MERAUX", "state": "LA", "street": "4217 E JUDGE PEREZ DR", "postcode": "70075"}}},
{"geometry": {"type": "Point", "coordinates": [-89.9193556485, 29.9339263726]}, "type": "Feature", "properties": {"collection_times": [{"days": "Mon-Fri", "time": "3:30pm"}, {"days": "Sat-Sun", "time": "Closed"}], "id": "7007500011", "name": "USPS COLLECTION BOX - PO LOBBY", "address": {"city": "MERAUX", "state": "LA", "street": "4217 E JUDGE PEREZ DR", "postcode": "70075"}}},
{"geometry": {"type": "Point", "coordinates": [-90.3906203259, 29.9709477992]}, "type": "Feature", "properties": {"collection_times": [{"days": "Mon-Fri", "time": "3:00pm"}, {"days": "Sat", "time": "7:30am"}, {"days": "Sun", "time": "Closed"}], "id": "7007800001", "name": "USPS COLLECTION BOX - BLUE BOX", "address": {"city": "NEW SARPY", "state": "LA", "street": "14394 RIVER RD", "postcode": "70078"}}},
{"geometry": {"type": "Point", "coordinates": [-90.3906203259, 29.9709477992]}, "type": "Feature", "properties": {"collection_times": [{"days": "Mon-Fri", "time": "3:00pm"}, {"days": "Sat", "time": "7:30am"}, {"days": "Sun", "time": "Closed"}], "id": "7007800002", "name": "USPS COLLECTION BOX - PO LOBBY", "address": {"city": "NEW SARPY", "state": "LA", "street": "14394 RIVER RD", "postcode": "70078"}}},
{"geometry": {"type": "Point", "coordinates": [-90.4092008033, 30.0091016115]}, "type": "Feature", "properties": {"collection_times": [{"days": "Mon-Fri", "time": "4:15pm"}, {"days": "Sat-Sun", "time": "Closed"}], "id": "7007900001", "name": "USPS COLLECTION BOX - BLUE BOX", "address": {"city": "NORCO", "state": "LA", "street": "558 APPLE ST", "postcode": "70079"}}},
{"geometry": {"type": "Point", "coordinates": [-90.4091680525, 30.0090920456]}, "type": "Feature", "properties": {"collection_times": [{"days": "Mon-Fri", "time": "4:30pm"}, {"days": "Sat-Sun", "time": "Closed"}], "id": "7007900005", "name": "USPS COLLECTION BOX - PO LOBBY", "address": {"city": "NORCO", "state": "LA", "street": "558 APPLE ST", "postcode": "70079"}}},
{"geometry": {"type": "Point", "coordinates": [-90.4363344121, 29.8794047214]}, "type": "Feature", "properties": {"collection_times": [{"days": "Mon-Fri", "time": "3:30pm"}, {"days": "Sat", "time": "9:00am"}, {"days": "Sun", "time": "Closed"}], "id": "7008000001", "name": "USPS COLLECTION BOX - PO LOBBY", "address": {"city": "PARADIS", "state": "LA", "street": "508 FONDA ST", "postcode": "70080"}}},
{"geometry": {"type": "Point", "coordinates": [-90.4363344121, 29.8794047214]}, "type": "Feature", "properties": {"collection_times": [{"days": "Mon-Fri", "time": "3:30pm"}, {"days": "Sat", "time": "9:00am"}, {"days": "Sun", "time": "Closed"}], "id": "7008000002", "name": "USPS COLLECTION BOX - BLUE BOX", "address": {"city": "PARADIS", "state": "LA", "street": "508 FONDA ST", "postcode": "70080"}}},
{"geometry": {"type": "Point", "coordinates": [-89.795844699, 29.5778744072]}, "type": "Feature", "properties": {"collection_times": [{"days": "Mon-Fri", "time": "3:15pm"}, {"days": "Sat-Sun", "time": "Closed"}], "id": "7008200008", "name": "USPS COLLECTION BOX - PO LOBBY", "address": {"city": "POINTE A LA HACH", "state": "LA", "street": "18039 HIGHWAY 15", "postcode": "70082"}}},
{"geometry": {"type": "Point", "coordinates": [-89.7648693, 29.5287896682]}, "type": "Feature", "properties": {"collection_times": [{"days": "Mon-Fri", "time": "3:45pm"}, {"days": "Sat", "time": "10:30am"}, {"days": "Sun", "time": "Closed"}], "id": "7008300006", "name": "USPS COLLECTION BOX - BLUE BOX", "address": {"city": "PORT SULPHUR", "state": "LA", "street": "26852 HIGHWAY 23", "postcode": "70083"}}},
{"geometry": {"type": "Point", "coordinates": [-89.7648693, 29.5287896682]}, "type": "Feature", "properties": {"collection_times": [{"days": "Mon-Fri", "time": "3:45pm"}, {"days": "Sat", "time": "10:30am"}, {"days": "Sun", "time": "Closed"}], "id": "7008300007", "name": "USPS COLLECTION BOX - PO LOBBY", "address": {"city": "PORT SULPHUR", "state": "LA", "street": "26852 HIGHWAY 23", "postcode": "70083"}}},
{"geometry": {"type": "Point", "coordinates": [-90.5516573264, 30.0541642929]}, "type": "Feature", "properties": {"collection_times": [{"days": "Mon-Fri", "time": "4:00pm"}, {"days": "Sat", "time": "9:00am"}, {"days": "Sun", "time": "Closed"}], "id": "7008400001", "name": "USPS COLLECTION BOX - PO LOBBY", "address": {"city": "RESERVE", "state": "LA", "street": "129 CENTRAL AVE", "postcode": "70084"}}},
{"geometry": {"type": "Point", "coordinates": [-89.8644260782, 29.8675311517]}, "type": "Feature", "properties": {"collection_times": [{"days": "Mon-Fri", "time": "3:15pm"}, {"days": "Sat", "time": "10:15am"}, {"days": "Sun", "time": "Closed"}], "id": "7008500008", "name": "USPS COLLECTION BOX - PO LOBBY", "address": {"city": "SAINT BERNARD", "state": "LA", "street": "1201 BAYOU RD", "postcode": "70085"}}},
{"geometry": {"type": "Point", "coordinates": [-90.8114033795, 29.9789949636]}, "type": "Feature", "properties": {"collection_times": [{"days": "Mon-Fri", "time": "3:45pm"}, {"days": "Sat", "time": "10:00am"}, {"days": "Sun", "time": "Closed"}], "id": "7008600001", "name": "USPS COLLECTION BOX - BLUE BOX", "address": {"city": "SAINT JAMES", "state": "LA", "street": "5525 HIGHWAY 18", "postcode": "70086"}}},
{"geometry": {"type": "Point", "coordinates": [-90.2850152261, 29.9780152319]}, "type": "Feature", "properties": {"collection_times": [{"days": "Mon-Fri", "time": "11:00am"}, {"days": "Sat", "time": "10:00am"}, {"days": "Sun", "time": "Closed"}], "id": "7008700007", "name": "USPS COLLECTION BOX - BLUE BOX", "address": {"city": "SAINT ROSE", "state": "LA", "street": "100 JAMES DR W", "postcode": "70087"}}},
{"geometry": {"type": "Point", "coordinates": [-90.2850152261, 29.9780152319]}, "type": "Feature", "properties": {"collection_times": [{"days": "Mon-Fri", "time": "11:00am"}, {"days": "Sat", "time": "10:00am"}, {"days": "Sun", "time": "Closed"}], "id": "7008700008", "name": "USPS COLLECTION BOX - BLUE BOX", "address": {"city": "SAINT ROSE", "state": "LA", "street": "100 JAMES DR W", "postcode": "70087"}}},
{"geometry": {"type": "Point", "coordinates": [-90.2850152261, 29.9780152319]}, "type": "Feature", "properties": {"collection_times": [{"days": "Mon-Fri", "time": "11:00am"}, {"days": "Sat", "time": "10:00am"}, {"days": "Sun", "time": "Closed"}], "id": "7008700009", "name": "USPS COLLECTION BOX - BLUE BOX", "address": {"city": "SAINT ROSE", "state": "LA", "street": "100 JAMES DR W", "postcode": "70087"}}},
{"geometry": {"type": "Point", "coordinates": [-90.2850152261, 29.9780152319]}, "type": "Feature", "properties": {"collection_times": [{"days": "Mon-Fri", "time": "11:00am"}, {"days": "Sat", "time": "10:00am"}, {"days": "Sun", "time": "Closed"}], "id": "7008700010", "name": "USPS COLLECTION BOX - BLUE BOX", "address": {"city": "SAINT ROSE", "state": "LA", "street": "100 JAMES DR W", "postcode": "70087"}}},
{"geometry": {"type": "Point", "coordinates": [-90.2986508717, 29.973365658]}, "type": "Feature", "properties": {"collection_times": [{"days": "Mon-Sat", "time": "10:15am"}, {"days": "Sun", "time": "Closed"}], "id": "7008700011", "name": "USPS COLLECTION BOX - BLUE BOX", "address": {"city": "SAINT ROSE", "state": "LA", "street": "1000 RIVERBEND DR", "postcode": "70087"}}},
{"geometry": {"type": "Point", "coordinates": [-90.3059335807, 29.9581697926]}, "type": "Feature", "properties": {"collection_times": [{"days": "Mon-Sat", "time": "11:20am"}, {"days": "Sun", "time": "Closed"}], "id": "7008700012", "name": "USPS COLLECTION BOX - BLUE BOX", "address": {"city": "SAINT ROSE", "state": "LA", "street": "10 CHARLESTOWN DR", "postcode": "70087"}}},
{"geometry": {"type": "Point", "coordinates": [-90.3215177461, 29.9425473015]}, "type": "Feature", "properties": {"collection_times": [{"days": "Mon-Fri", "time": "3:15pm"}, {"days": "Sat", "time": "12:30pm"}, {"days": "Sun", "time": "Closed"}], "id": "7008700013", "name": "USPS COLLECTION BOX - BLUE BOX", "address": {"city": "SAINT ROSE", "state": "LA", "street": "11724 RIVER RD", "postcode": "70087"}}},
{"geometry": {"type": "Point", "coordinates": [-90.3215177461, 29.9425473015]}, "type": "Feature", "properties": {"collection_times": [{"days": "Mon-Fri", "time": "3:15pm"}, {"days": "Sat", "time": "12:30pm"}, {"days": "Sun", "time": "Closed"}], "id": "7008700015", "name": "USPS COLLECTION BOX - PO LOBBY", "address": {"city": "SAINT ROSE", "state": "LA", "street": "11724 RIVER RD", "postcode": "70087"}}},
{"geometry": {"type": "Point", "coordinates": [-90.7195671178, 29.9796457884]}, "type": "Feature", "properties": {"collection_times": [{"days": "Mon-Fri", "time": "3:45pm"}, {"days": "Sat", "time": "10:00am"}, {"days": "Sun", "time": "Closed"}], "id": "7009000001", "name": "USPS COLLECTION BOX - BLUE BOX", "address": {"city": "VACHERIE", "state": "LA", "street": "2747 HIGHWAY 20", "postcode": "70090"}}},
{"geometry": {"type": "Point", "coordinates": [-90.7195671178, 29.9796457884]}, "type": "Feature", "properties": {"collection_times": [{"days": "Mon-Fri", "time": "3:45pm"}, {"days": "Sat", "time": "10:00am"}, {"days": "Sun", "time": "Closed"}], "id": "7009000005", "name": "USPS COLLECTION BOX - PO LOBBY", "address": {"city": "VACHERIE", "state": "LA", "street": "2747 HIGHWAY 20", "postcode": "70090"}}},
{"geometry": {"type": "Point", "coordinates": [-90.7195671178, 29.9796457884]}, "type": "Feature", "properties": {"collection_times": [{"days": "Mon-Fri", "time": "3:45pm"}, {"days": "Sat", "time": "10:00am"}, {"days": "Sun", "time": "Closed"}], "id": "7009000006", "name": "USPS COLLECTION BOX - PO LOBBY", "address": {"city": "VACHERIE", "state": "LA", "street": "2747 HIGHWAY 20", "postcode": "70090"}}},
{"geometry": {"type": "Point", "coordinates": [-90.13778076, 29.8970239235]}, "type": "Feature", "properties": {"collection_times": [{"days": "Mon-Fri", "time": "5:00pm"}, {"days": "Sat", "time": "4:00pm"}, {"days": "Sun", "time": "Closed"}], "id": "7009400002", "name": "USPS COLLECTION BOX - BLUE BOX", "address": {"city": "WESTWEGO", "state": "LA", "street": "1335 WESTBANK EXPY", "postcode": "70094"}}},
{"geometry": {"type": "Point", "coordinates": [-90.1437083494, 29.9114840168]}, "type": "Feature", "properties": {"collection_times": [{"days": "Mon-Fri", "time": "1:30pm"}, {"days": "Sat", "time": "12:30pm"}, {"days": "Sun", "time": "Closed"}], "id": "7009400006", "name": "USPS COLLECTION BOX - BLUE BOX", "address": {"city": "WESTWEGO", "state": "LA", "street": "419 AVENUE A", "postcode": "70094"}}},
{"geometry": {"type": "Point", "coordinates": [-90.13778076, 29.8970239235]}, "type": "Feature", "properties": {"collection_times": [{"days": "Mon-Fri", "time": "5:00pm"}, {"days": "Sat", "time": "4:00pm"}, {"days": "Sun", "time": "Closed"}], "id": "7009400014", "name": "USPS COLLECTION BOX - PO LOBBY", "address": {"city": "WESTWEGO", "state": "LA", "street": "1335 WESTBANK EXPY", "postcode": "70094"}}},
{"geometry": {"type": "Point", "coordinates": [-90.1692982314, 29.9299564048]}, "type": "Feature", "properties": {"collection_times": [{"days": "Mon-Fri", "time": "3:45pm"}, {"days": "Sat", "time": "1:00pm"}, {"days": "Sun", "time": "Closed"}], "id": "7009400019", "name": "USPS COLLECTION BOX - BLUE BOX", "address": {"city": "WESTWEGO", "state": "LA", "street": "1507 BRIDGE CITY AVE", "postcode": "70094"}}},
{"geometry": {"type": "Point", "coordinates": [-90.1692982314, 29.9299564048]}, "type": "Feature", "properties": {"collection_times": [{"days": "Mon-Fri", "time": "3:45pm"}, {"days": "Sat-Sun", "time": "Closed"}], "id": "7009400021", "name": "USPS COLLECTION BOX - PO LOBBY", "address": {"city": "WESTWEGO", "state": "LA", "street": "1507 BRIDGE CITY AVE", "postcode": "70094"}}},
{"geometry": {"type": "Point", "coordinates": [-90.13778076, 29.8970239235]}, "type": "Feature", "properties": {"collection_times": [{"days": "Mon-Fri", "time": "5:00pm"}, {"days": "Sat", "time": "4:00pm"}, {"days": "Sun", "time": "Closed"}], "id": "7009400024", "name": "USPS COLLECTION BOX - BLUE BOX", "address": {"city": "WESTWEGO", "state": "LA", "street": "1335 WESTBANK EXPY", "postcode": "70094"}}}
]}
