{"type": "FeatureCollection", "features": [
{"geometry": {"type": "Point", "coordinates": [-90.076571136, 29.948522433]}, "type": "Feature", "properties": {"collection_times": [{"days": "Mon-Sat", "time": "6:00pm"}, {"days": "Sun", "time": "Closed"}], "id": "7011300026", "name": "USPS COLLECTION BOX - BLUE BOX", "address": {"city": "NEW ORLEANS", "state": "LA", "street": "701 LOYOLA AVE", "postcode": "70113"}}},
{"geometry": {"type": "Point", "coordinates": [-90.076571136, 29.948522433]}, "type": "Feature", "properties": {"collection_times": [{"days": "Mon-Sat", "time": "6:00pm"}, {"days": "Sun", "time": "Closed"}], "id": "7011300027", "name": "USPS COLLECTION BOX - BLUE BOX", "address": {"city": "NEW ORLEANS", "state": "LA", "street": "701 LOYOLA AVE", "postcode": "70113"}}},
{"geometry": {"type": "Point", "coordinates": [-90.076571136, 29.948522433]}, "type": "Feature", "properties": {"collection_times": [{"days": "Mon-Sat", "time": "6:00pm"}, {"days": "Sun", "time": "Closed"}], "id": "7011300028", "name": "USPS COLLECTION BOX - BLUE BOX", "address": {"city": "NEW ORLEANS", "state": "LA", "street": "701 LOYOLA AVE", "postcode": "70113"}}},
{"geometry": {"type": "Point", "coordinates": [-90.076571136, 29.948522433]}, "type": "Feature", "properties": {"collection_times": [{"days": "Mon-Sat", "time": "6:00pm"}, {"days": "Sun", "time": "Closed"}], "id": "7011300030", "name": "USPS COLLECTION BOX - BLUE BOX", "address": {"city": "NEW ORLEANS", "state": "LA", "street": "701 LOYOLA AVE", "postcode": "70113"}}},
{"geometry": {"type": "Point", "coordinates": [-90.076571136, 29.948522433]}, "type": "Feature", "properties": {"collection_times": [{"days": "Mon-Sat", "time": "6:00pm"}, {"days": "Sun", "time": "Closed"}], "id": "7011300032", "name": "USPS COLLECTION BOX - BLUE BOX", "address": {"city": "NEW ORLEANS", "state": "LA", "street": "701 LOYOLA AVE", "postcode": "70113"}}},
{"geometry": {"type": "Point", "coordinates": [-90.076571136, 29.948522433]}, "type": "Feature", "properties": {"collection_times": [{"days": "Mon-Sat", "time": "6:00pm"}, {"days": "Sun", "time": "Closed"}], "id": "7011300033", "name": "USPS COLLECTION BOX - BLUE BOX", "address": {"city": "NEW ORLEANS", "state": "LA", "street": "701 LOYOLA AVE", "postcode": "70113"}}},
{"geometry": {"type": "Point", "coordinates": [-90.076571136, 29.948522433]}, "type": "Feature", "properties": {"collection_times": [{"days": "Mon-Sat", "time": "6:00pm"}, {"days": "Sun", "time": "Closed"}], "id": "7011300084", "name": "USPS COLLECTION BOX - BLUE BOX", "address": {"city": "NEW ORLEANS", "state": "LA", "street": "701 LOYOLA AVE", "postcode": "70113"}}},
{"geometry": {"type": "Point", "coordinates": [-90.076571136, 29.948522433]}, "type": "Feature", "properties": {"collection_times": [{"days": "Mon-Sat", "time": "6:00pm"}, {"days": "Sun", "time": "Closed"}], "id": "7011300087", "name": "USPS COLLECTION BOX - BLUE BOX", "address": {"city": "NEW ORLEANS", "state": "LA", "street": "701 LOYOLA AVE", "postcode": "70113"}}},
{"geometry": {"type": "Point", "coordinates": [-90.076571136, 29.948522433]}, "type": "Feature", "properties": {"collection_times": [{"days": "Mon-Sat", "time": "6:00pm"}, {"days": "Sun", "time": "Closed"}], "id": "7011300108", "name": "USPS COLLECTION BOX - PO LOBBY", "address": {"city": "NEW ORLEANS", "state": "LA", "street": "701 LOYOLA AVE", "postcode": "70113"}}},
{"geometry": {"type": "Point", "coordinates": [-90.076571136, 29.948522433]}, "type": "Feature", "properties": {"collection_times": [{"days": "Mon-Sat", "time": "6:00pm"}, {"days": "Sun", "time": "Closed"}], "id": "7011300109", "name": "USPS COLLECTION BOX - PO LOBBY", "address": {"city": "NEW ORLEANS", "state": "LA", "street": "701 LOYOLA AVE", "postcode": "70113"}}},
{"geometry": {"type": "Point", "coordinates": [-90.076571136, 29.948522433]}, "type": "Feature", "properties": {"collection_times": [{"days": "Mon-Sat", "time": "6:00pm"}, {"days": "Sun", "time": "Closed"}], "id": "7011300110", "name": "USPS COLLECTION BOX - PO LOBBY", "address": {"city": "NEW ORLEANS", "state": "LA", "street": "701 LOYOLA AVE", "postcode": "70113"}}},
{"geometry": {"type": "Point", "coordinates": [-90.076571136, 29.948522433]}, "type": "Feature", "properties": {"collection_times": [{"days": "Mon-Sat", "time": "6:00pm"}, {"days": "Sun", "time": "Closed"}], "id": "7011300111", "name": "USPS COLLECTION BOX - PO LOBBY", "address": {"city": "NEW ORLEANS", "state": "LA", "street": "701 LOYOLA AVE", "postcode": "70113"}}},
{"geometry": {"type": "Point", "coordinates": [-90.0767596007, 29.9478107665]}, "type": "Feature", "properties": {"collection_times": [{"days": "Mon-Sat", "time": "6:00pm"}, {"days": "Sun", "time": "Closed"}], "id": "7011300113", "name": "USPS COLLECTION BOX - APC", "address": {"city": "NEW ORLEANS", "state": "LA", "street": "701 LOYOLA AVE", "postcode": "70113"}}},
{"geometry": {"type": "Point", "coordinates": [-90.050802141, 29.950816009]}, "type": "Feature", "properties": {"collection_times": [{"days": "Mon-Fri", "time": "3:00pm"}, {"days": "Sat", "time": "2:00pm"}, {"days": "Sun", "time": "Closed"}], "id": "7011400006", "name": "USPS COLLECTION BOX - BLUE BOX", "address": {"city": "NEW ORLEANS", "state": "LA", "street": "501 ELIZA ST", "postcode": "70114"}}},
{"geometry": {"type": "Point", "coordinates": [-90.01640037, 29.924446214]}, "type": "Feature", "properties": {"collection_times": [{"days": "Mon-Fri", "time": "5:00pm"}, {"days": "Sat", "time": "3:15pm"}, {"days": "Sun", "time": "Closed"}], "id": "7011400027", "name": "USPS COLLECTION BOX - BLUE BOX", "address": {"city": "NEW ORLEANS", "state": "LA", "street": "3901 MACARTHUR BLVD", "postcode": "70114"}}},
{"geometry": {"type": "Point", "coordinates": [-90.030729112, 29.950032911]}, "type": "Feature", "properties": {"collection_times": [{"days": "Mon-Fri", "time": "11:45am"}, {"days": "Sat", "time": "10:45am"}, {"days": "Sun", "time": "Closed"}], "id": "7011400032", "name": "USPS COLLECTION BOX - BLUE BOX", "address": {"city": "NEW ORLEANS", "state": "LA", "street": "501 OBANNON ST", "postcode": "70114"}}},
{"geometry": {"type": "Point", "coordinates": [-90.01640037, 29.924446214]}, "type": "Feature", "properties": {"collection_times": [{"days": "Mon-Fri", "time": "5:00pm"}, {"days": "Sat", "time": "3:15pm"}, {"days": "Sun", "time": "Closed"}], "id": "7011400033", "name": "USPS COLLECTION BOX - BLUE BOX", "address": {"city": "NEW ORLEANS", "state": "LA", "street": "3901 MACARTHUR BLVD", "postcode": "70114"}}},
{"geometry": {"type": "Point", "coordinates": [-90.01640037, 29.924446214]}, "type": "Feature", "properties": {"collection_times": [{"days": "Mon-Fri", "time": "5:00pm"}, {"days": "Sat", "time": "3:15pm"}, {"days": "Sun", "time": "Closed"}], "id": "7011400034", "name": "USPS COLLECTION BOX - BLUE BOX", "address": {"city": "NEW ORLEANS", "state": "LA", "street": "3901 MACARTHUR BLVD", "postcode": "70114"}}},
{"geometry": {"type": "Point", "coordinates": [-90.01640037, 29.924446214]}, "type": "Feature", "properties": {"collection_times": [{"days": "Mon-Fri", "time": "5:00pm"}, {"days": "Sat", "time": "3:15pm"}, {"days": "Sun", "time": "Closed"}], "id": "7011400037", "name": "USPS COLLECTION BOX - PO LOBBY", "address": {"city": "NEW ORLEANS", "state": "LA", "street": "3901 MACARTHUR BLVD", "postcode": "70114"}}},
{"geometry": {"type": "Point", "coordinates": [-90.01640037, 29.924446214]}, "type": "Feature", "properties": {"collection_times": [{"days": "Mon-Fri", "time": "5:00pm"}, {"days": "Sat", "time": "3:15pm"}, {"days": "Sun", "time": "Closed"}], "id": "7011400038", "name": "USPS COLLECTION BOX - PO LOBBY", "address": {"city": "NEW ORLEANS", "state": "LA", "street": "3901 MACARTHUR BLVD", "postcode": "70114"}}},
{"geometry": {"type": "Point", "coordinates": [-90.01640037, 29.924446214]}, "type": "Feature", "properties": {"collection_times": [{"days": "Mon-Fri", "time": "5:00pm"}, {"days": "Sat", "time": "3:15pm"}, {"days": "Sun", "time": "Closed"}], "id": "7011400041", "name": "USPS COLLECTION BOX - BLUE BOX", "address": {"city": "NEW ORLEANS", "state": "LA", "street": "3901 MACARTHUR BLVD", "postcode": "70114"}}},
{"geometry": {"type": "Point", "coordinates": [-90.01640037, 29.924446214]}, "type": "Feature", "properties": {"collection_times": [{"days": "Mon-Fri", "time": "5:00pm"}, {"days": "Sat", "time": "3:15pm"}, {"days": "Sun", "time": "Closed"}], "id": "7011400042", "name": "USPS COLLECTION BOX - BLUE BOX", "address": {"city": "NEW ORLEANS", "state": "LA", "street": "3901 MACARTHUR BLVD", "postcode": "70114"}}},
{"geometry": {"type": "Point", "coordinates": [-90.030994324, 29.935482229]}, "type": "Feature", "properties": {"collection_times": [{"days": "Mon-Fri", "time": "11:45am"}, {"days": "Sat", "time": "10:45am"}, {"days": "Sun", "time": "Closed"}], "id": "7011400046", "name": "USPS COLLECTION BOX - BLUE BOX", "address": {"city": "NEW ORLEANS", "state": "LA", "street": "2220 CONSTITUTION ST", "postcode": "70114"}}},
{"geometry": {"type": "Point", "coordinates": [-90.040467499, 29.948211611]}, "type": "Feature", "properties": {"collection_times": [{"days": "Mon-Fri", "time": "3:00pm"}, {"days": "Sat", "time": "2:00pm"}, {"days": "Sun", "time": "Closed"}], "id": "7011400047", "name": "USPS COLLECTION BOX - BLUE BOX", "address": {"city": "NEW ORLEANS", "state": "LA", "street": "700 WHITNEY AVE", "postcode": "70114"}}},
{"geometry": {"type": "Point", "coordinates": [-90.093357443, 29.931929403]}, "type": "Feature", "properties": {"collection_times": [{"days": "Mon-Fri", "time": "5:00pm"}, {"days": "Sat", "time": "4:00pm"}, {"days": "Sun", "time": "Closed"}], "id": "7011500001", "name": "USPS COLLECTION BOX - BLUE BOX", "address": {"city": "NEW ORLEANS", "state": "LA", "street": "2000 LOUISIANA AVE", "postcode": "70115"}}},
{"geometry": {"type": "Point", "coordinates": [-90.093357443, 29.931929403]}, "type": "Feature", "properties": {"collection_times": [{"days": "Mon-Fri", "time": "5:00pm"}, {"days": "Sat", "time": "4:00pm"}, {"days": "Sun", "time": "Closed"}], "id": "7011500002", "name": "USPS COLLECTION BOX - BLUE BOX", "address": {"city": "NEW ORLEANS", "state": "LA", "street": "2000 LOUISIANA AVE", "postcode": "70115"}}},
{"geometry": {"type": "Point", "coordinates": [-90.084636368, 29.924923662]}, "type": "Feature", "properties": {"collection_times": [{"days": "Mon-Fri", "time": "3:30pm"}, {"days": "Sat", "time": "2:30pm"}, {"days": "Sun", "time": "Closed"}], "id": "7011500037", "name": "USPS COLLECTION BOX - BLUE BOX", "address": {"city": "NEW ORLEANS", "state": "LA", "street": "3000 MAGAZINE ST", "postcode": "70115"}}},
{"geometry": {"type": "Point", "coordinates": [-90.093357443, 29.931929403]}, "type": "Feature", "properties": {"collection_times": [{"days": "Mon-Fri", "time": "5:00pm"}, {"days": "Sat", "time": "4:00pm"}, {"days": "Sun", "time": "Closed"}], "id": "7011500070", "name": "USPS COLLECTION BOX - PO LOBBY", "address": {"city": "NEW ORLEANS", "state": "LA", "street": "2000 LOUISIANA AVE", "postcode": "70115"}}},
{"geometry": {"type": "Point", "coordinates": [-90.093357443, 29.931929403]}, "type": "Feature", "properties": {"collection_times": [{"days": "Mon-Fri", "time": "5:00pm"}, {"days": "Sat", "time": "4:00pm"}, {"days": "Sun", "time": "Closed"}], "id": "7011500071", "name": "USPS COLLECTION BOX - PO LOBBY", "address": {"city": "NEW ORLEANS", "state": "LA", "street": "2000 LOUISIANA AVE", "postcode": "70115"}}},
{"geometry": {"type": "Point", "coordinates": [-90.093357443, 29.931929403]}, "type": "Feature", "properties": {"collection_times": [{"days": "Mon-Fri", "time": "5:00pm"}, {"days": "Sat", "time": "4:00pm"}, {"days": "Sun", "time": "Closed"}], "id": "7011500073", "name": "USPS COLLECTION BOX - BLUE BOX", "address": {"city": "NEW ORLEANS", "state": "LA", "street": "2000 LOUISIANA AVE", "postcode": "70115"}}},
{"geometry": {"type": "Point", "coordinates": [-90.093357443, 29.931929403]}, "type": "Feature", "properties": {"collection_times": [{"days": "Mon-Fri", "time": "5:00pm"}, {"days": "Sat", "time": "4:00pm"}, {"days": "Sun", "time": "Closed"}], "id": "7011500074", "name": "USPS COLLECTION BOX - BLUE BOX", "address": {"city": "NEW ORLEANS", "state": "LA", "street": "2000 LOUISIANA AVE", "postcode": "70115"}}},
{"geometry": {"type": "Point", "coordinates": [-90.100805772, 29.926727275]}, "type": "Feature", "properties": {"collection_times": [{"days": "Mon-Fri", "time": "11:30am"}, {"days": "Sat", "time": "9:45am"}, {"days": "Sun", "time": "Closed"}], "id": "7011500080", "name": "USPS COLLECTION BOX - BLUE BOX", "address": {"city": "NEW ORLEANS", "state": "LA", "street": "4301 SAINT CHARLES AVE", "postcode": "70115"}}},
{"geometry": {"type": "Point", "coordinates": [-90.091557398, 29.928351003]}, "type": "Feature", "properties": {"collection_times": [{"days": "Mon-Fri", "time": "11:30am"}, {"days": "Sat", "time": "9:45am"}, {"days": "Sun", "time": "Closed"}], "id": "7011500081", "name": "USPS COLLECTION BOX - BLUE BOX", "address": {"city": "NEW ORLEANS", "state": "LA", "street": "3401 SAINT CHARLES AVE", "postcode": "70115"}}},
{"geometry": {"type": "Point", "coordinates": [-90.030080675, 29.968978622]}, "type": "Feature", "properties": {"collection_times": [{"days": "Mon-Fri", "time": "5:00pm"}, {"days": "Sat", "time": "3:00pm"}, {"days": "Sun", "time": "Closed"}], "id": "7011700054", "name": "USPS COLLECTION BOX - BLUE BOX", "address": {"city": "NEW ORLEANS", "state": "LA", "street": "1521 POLAND AVE", "postcode": "70117"}}},
{"geometry": {"type": "Point", "coordinates": [-90.030080675, 29.968978622]}, "type": "Feature", "properties": {"collection_times": [{"days": "Mon-Fri", "time": "5:00pm"}, {"days": "Sat", "time": "3:00pm"}, {"days": "Sun", "time": "Closed"}], "id": "7011700055", "name": "USPS COLLECTION BOX - BLUE BOX", "address": {"city": "NEW ORLEANS", "state": "LA", "street": "1521 POLAND AVE", "postcode": "70117"}}},
{"geometry": {"type": "Point", "coordinates": [-90.030080675, 29.968978622]}, "type": "Feature", "properties": {"collection_times": [{"days": "Mon-Fri", "time": "5:00pm"}, {"days": "Sat", "time": "3:00pm"}, {"days": "Sun", "time": "Closed"}], "id": "7011700056", "name": "USPS COLLECTION BOX - PO LOBBY", "address": {"city": "NEW ORLEANS", "state": "LA", "street": "1521 POLAND AVE", "postcode": "70117"}}},
{"geometry": {"type": "Point", "coordinates": [-90.030080675, 29.968978622]}, "type": "Feature", "properties": {"collection_times": [{"days": "Mon-Fri", "time": "5:00pm"}, {"days": "Sat", "time": "3:00pm"}, {"days": "Sun", "time": "Closed"}], "id": "7011700057", "name": "USPS COLLECTION BOX - PO LOBBY", "address": {"city": "NEW ORLEANS", "state": "LA", "street": "1521 POLAND AVE", "postcode": "70117"}}},
{"geometry": {"type": "Point", "coordinates": [-90.030080675, 29.968978622]}, "type": "Feature", "properties": {"collection_times": [{"days": "Mon-Fri", "time": "5:00pm"}, {"days": "Sat", "time": "3:00pm"}, {"days": "Sun", "time": "Closed"}], "id": "7011700058", "name": "USPS COLLECTION BOX - PO LOBBY", "address": {"city": "NEW ORLEANS", "state": "LA", "street": "1521 POLAND AVE", "postcode": "70117"}}},
{"geometry": {"type": "Point", "coordinates": [-90.030080675, 29.968978622]}, "type": "Feature", "properties": {"collection_times": [{"days": "Mon-Fri", "time": "5:00pm"}, {"days": "Sat", "time": "3:00pm"}, {"days": "Sun", "time": "Closed"}], "id": "7011700059", "name": "USPS COLLECTION BOX - PO LOBBY", "address": {"city": "NEW ORLEANS", "state": "LA", "street": "1521 POLAND AVE", "postcode": "70117"}}},
{"geometry": {"type": "Point", "coordinates": [-90.049789489, 29.963371494]}, "type": "Feature", "properties": {"collection_times": [{"days": "Mon-Fri", "time": "1:25pm"}, {"days": "Sat", "time": "1:30pm"}, {"days": "Sun", "time": "Closed"}], "id": "7011700060", "name": "USPS COLLECTION BOX - BLUE BOX", "address": {"city": "NEW ORLEANS", "state": "LA", "street": "2800 CHARTRES ST", "postcode": "70117"}}},
{"geometry": {"type": "Point", "coordinates": [-90.056357495, 29.964648559]}, "type": "Feature", "properties": {"collection_times": [{"days": "Mon-Fri", "time": "1:30pm"}, {"days": "Sat", "time": "1:45pm"}, {"days": "Sun", "time": "Closed"}], "id": "7011700061", "name": "USPS COLLECTION BOX - BLUE BOX", "address": {"city": "NEW ORLEANS", "state": "LA", "street": "2201 ROYAL ST", "postcode": "70117"}}},
{"geometry": {"type": "Point", "coordinates": [-90.057052448, 29.968706973]}, "type": "Feature", "properties": {"collection_times": [{"days": "Mon-Fri", "time": "1:30pm"}, {"days": "Sat", "time": "1:45pm"}, {"days": "Sun", "time": "Closed"}], "id": "7011700062", "name": "USPS COLLECTION BOX - BLUE BOX", "address": {"city": "NEW ORLEANS", "state": "LA", "street": "1100 ELYSIAN FIELDS AVE", "postcode": "70117"}}},
{"geometry": {"type": "Point", "coordinates": [-90.112891136, 29.963209521]}, "type": "Feature", "properties": {"collection_times": [{"days": "Mon-Fri", "time": "5:00pm"}, {"days": "Sat", "time": "4:00pm"}, {"days": "Sun", "time": "Closed"}], "id": "7011800026", "name": "USPS COLLECTION BOX - BLUE BOX", "address": {"city": "NEW ORLEANS", "state": "LA", "street": "3400 S CARROLLTON AVE", "postcode": "70118"}}},
{"geometry": {"type": "Point", "coordinates": [-90.112891136, 29.963209521]}, "type": "Feature", "properties": {"collection_times": [{"days": "Mon-Fri", "time": "5:00pm"}, {"days": "Sat", "time": "4:00pm"}, {"days": "Sun", "time": "Closed"}], "id": "7011800027", "name": "USPS COLLECTION BOX - BLUE BOX", "address": {"city": "NEW ORLEANS", "state": "LA", "street": "3400 S CARROLLTON AVE", "postcode": "70118"}}},
{"geometry": {"type": "Point", "coordinates": [-90.112891136, 29.963209521]}, "type": "Feature", "properties": {"collection_times": [{"days": "Mon-Fri", "time": "5:00pm"}, {"days": "Sat", "time": "4:00pm"}, {"days": "Sun", "time": "Closed"}], "id": "7011800028", "name": "USPS COLLECTION BOX - BLUE BOX", "address": {"city": "NEW ORLEANS", "state": "LA", "street": "3400 S CARROLLTON AVE", "postcode": "70118"}}},
{"geometry": {"type": "Point", "coordinates": [-90.112891136, 29.963209521]}, "type": "Feature", "properties": {"collection_times": [{"days": "Mon-Fri", "time": "5:00pm"}, {"days": "Sat", "time": "4:00pm"}, {"days": "Sun", "time": "Closed"}], "id": "7011800029", "name": "USPS COLLECTION BOX - BLUE BOX", "address": {"city": "NEW ORLEANS", "state": "LA", "street": "3400 S CARROLLTON AVE", "postcode": "70118"}}},
{"geometry": {"type": "Point", "coordinates": [-90.112891136, 29.963209521]}, "type": "Feature", "properties": {"collection_times": [{"days": "Mon-Fri", "time": "5:00pm"}, {"days": "Sat", "time": "4:00pm"}, {"days": "Sun", "time": "Closed"}], "id": "7011800030", "name": "USPS COLLECTION BOX - BLUE BOX", "address": {"city": "NEW ORLEANS", "state": "LA", "street": "3400 S CARROLLTON AVE", "postcode": "70118"}}},
{"geometry": {"type": "Point", "coordinates": [-90.112891136, 29.963209521]}, "type": "Feature", "properties": {"collection_times": [{"days": "Mon-Fri", "time": "5:00pm"}, {"days": "Sat", "time": "3:30pm"}, {"days": "Sun", "time": "Closed"}], "id": "7011800066", "name": "USPS COLLECTION BOX - PO LOBBY", "address": {"city": "NEW ORLEANS", "state": "LA", "street": "3400 S CARROLLTON AVE", "postcode": "70118"}}},
{"geometry": {"type": "Point", "coordinates": [-90.112891136, 29.963209521]}, "type": "Feature", "properties": {"collection_times": [{"days": "Mon-Fri", "time": "5:00pm"}, {"days": "Sat", "time": "3:30pm"}, {"days": "Sun", "time": "Closed"}], "id": "7011800067", "name": "USPS COLLECTION BOX - PO LOBBY", "address": {"city": "NEW ORLEANS", "state": "LA", "street": "3400 S CARROLLTON AVE", "postcode": "70118"}}},
{"geometry": {"type": "Point", "coordinates": [-90.112891136, 29.963209521]}, "type": "Feature", "properties": {"collection_times": [{"days": "Mon-Fri", "time": "5:00pm"}, {"days": "Sat", "time": "3:30pm"}, {"days": "Sun", "time": "Closed"}], "id": "7011800068", "name": "USPS COLLECTION BOX - PO LOBBY", "address": {"city": "NEW ORLEANS", "state": "LA", "street": "3400 S CARROLLTON AVE", "postcode": "70118"}}},
{"geometry": {"type": "Point", "coordinates": [-90.112891136, 29.963209521]}, "type": "Feature", "properties": {"collection_times": [{"days": "Mon-Fri", "time": "5:00pm"}, {"days": "Sat", "time": "3:30pm"}, {"days": "Sun", "time": "Closed"}], "id": "7011800069", "name": "USPS COLLECTION BOX - PO LOBBY", "address": {"city": "NEW ORLEANS", "state": "LA", "street": "3400 S CARROLLTON AVE", "postcode": "70118"}}},
{"geometry": {"type": "Point", "coordinates": [-90.12710906, 29.917593114]}, "type": "Feature", "properties": {"collection_times": [{"days": "Mon-Sat", "time": "12:00pm"}, {"days": "Sun", "time": "Closed"}], "id": "7011800076", "name": "USPS COLLECTION BOX - BLUE BOX", "address": {"city": "NEW ORLEANS", "state": "LA", "street": "200 HENRY CLAY AVE", "postcode": "70118"}}},
{"geometry": {"type": "Point", "coordinates": [-90.121234189, 29.933485087]}, "type": "Feature", "properties": {"collection_times": [{"days": "Mon-Fri", "time": "10:30am"}, {"days": "Sat", "time": "10:00am"}, {"days": "Sun", "time": "Closed"}], "id": "7011800080", "name": "USPS COLLECTION BOX - BLUE BOX", "address": {"city": "NEW ORLEANS", "state": "LA", "street": "6363 SAINT CHARLES AVE", "postcode": "70118"}}},
{"geometry": {"type": "Point", "coordinates": [-90.124226954, 29.935592971]}, "type": "Feature", "properties": {"collection_times": [{"days": "Mon-Fri", "time": "10:30am"}, {"days": "Sat", "time": "10:00am"}, {"days": "Sun", "time": "Closed"}], "id": "7011800081", "name": "USPS COLLECTION BOX - BLUE BOX", "address": {"city": "NEW ORLEANS", "state": "LA", "street": "6863 SAINT CHARLES AVE", "postcode": "70118"}}},
{"geometry": {"type": "Point", "coordinates": [-90.12579339, 29.950734493]}, "type": "Feature", "properties": {"collection_times": [{"days": "Mon-Fri", "time": "10:45am"}, {"days": "Sat", "time": "10:30am"}, {"days": "Sun", "time": "Closed"}], "id": "7011800082", "name": "USPS COLLECTION BOX - BLUE BOX", "address": {"city": "NEW ORLEANS", "state": "LA", "street": "1701 S CARROLLTON AVE", "postcode": "70118"}}},
{"geometry": {"type": "Point", "coordinates": [-90.126260718, 29.937033519]}, "type": "Feature", "properties": {"collection_times": [{"days": "Mon-Fri", "time": "10:30am"}, {"days": "Sat", "time": "10:00am"}, {"days": "Sun", "time": "Closed"}], "id": "7011800084", "name": "USPS COLLECTION BOX - BLUE BOX", "address": {"city": "NEW ORLEANS", "state": "LA", "street": "7133 SAINT CHARLES AVE", "postcode": "70118"}}},
{"geometry": {"type": "Point", "coordinates": [-90.120126824, 29.932372237]}, "type": "Feature", "properties": {"collection_times": [{"days": "Mon-Fri", "time": "10:30am"}, {"days": "Sat", "time": "10:00am"}, {"days": "Sun", "time": "Closed"}], "id": "7011800086", "name": "USPS COLLECTION BOX - BLUE BOX", "address": {"city": "NEW ORLEANS", "state": "LA", "street": "6200 SAINT CHARLES AVE", "postcode": "70118"}}},
{"geometry": {"type": "Point", "coordinates": [-90.127669824, 29.937751976]}, "type": "Feature", "properties": {"collection_times": [{"days": "Mon-Fri", "time": "10:15am"}, {"days": "Sat", "time": "10:00am"}, {"days": "Sun", "time": "Closed"}], "id": "7011800087", "name": "USPS COLLECTION BOX - BLUE BOX", "address": {"city": "NEW ORLEANS", "state": "LA", "street": "7300 SAINT CHARLES AVE", "postcode": "70118"}}},
{"geometry": {"type": "Point", "coordinates": [-90.133527821, 29.943401423]}, "type": "Feature", "properties": {"collection_times": [{"days": "Mon-Fri", "time": "11:30am"}, {"days": "Sat", "time": "10:30am"}, {"days": "Sun", "time": "Closed"}], "id": "7011800088", "name": "USPS COLLECTION BOX - BLUE BOX", "address": {"city": "NEW ORLEANS", "state": "LA", "street": "637 S CARROLLTON AVE", "postcode": "70118"}}},
{"geometry": {"type": "Point", "coordinates": [-90.091617381, 29.973369616]}, "type": "Feature", "properties": {"collection_times": [{"days": "Mon-Fri", "time": "5:00pm"}, {"days": "Sat", "time": "1:00pm"}, {"days": "Sun", "time": "Closed"}], "id": "7011900103", "name": "USPS COLLECTION BOX - BLUE BOX", "address": {"city": "NEW ORLEANS", "state": "LA", "street": "501 N JEFFERSON DAVIS PKWY", "postcode": "70119"}}},
{"geometry": {"type": "Point", "coordinates": [-90.091617381, 29.973369616]}, "type": "Feature", "properties": {"collection_times": [{"days": "Mon-Fri", "time": "5:00pm"}, {"days": "Sat", "time": "1:00pm"}, {"days": "Sun", "time": "Closed"}], "id": "7011900104", "name": "USPS COLLECTION BOX - BLUE BOX", "address": {"city": "NEW ORLEANS", "state": "LA", "street": "501 N JEFFERSON DAVIS PKWY", "postcode": "70119"}}},
{"geometry": {"type": "Point", "coordinates": [-90.091617381, 29.973369616]}, "type": "Feature", "properties": {"collection_times": [{"days": "Mon-Fri", "time": "5:00pm"}, {"days": "Sat", "time": "1:00pm"}, {"days": "Sun", "time": "Closed"}], "id": "7011900107", "name": "USPS COLLECTION BOX - BLUE BOX", "address": {"city": "NEW ORLEANS", "state": "LA", "street": "501 N JEFFERSON DAVIS PKWY", "postcode": "70119"}}},
{"geometry": {"type": "Point", "coordinates": [-90.091617381, 29.973369616]}, "type": "Feature", "properties": {"collection_times": [{"days": "Mon-Fri", "time": "5:00pm"}, {"days": "Sat", "time": "1:00pm"}, {"days": "Sun", "time": "Closed"}], "id": "7011900108", "name": "USPS COLLECTION BOX - BLUE BOX", "address": {"city": "NEW ORLEANS", "state": "LA", "street": "501 N JEFFERSON DAVIS PKWY", "postcode": "70119"}}},
{"geometry": {"type": "Point", "coordinates": [-90.091617381, 29.973369616]}, "type": "Feature", "properties": {"collection_times": [{"days": "Mon-Fri", "time": "5:00pm"}, {"days": "Sat", "time": "1:00pm"}, {"days": "Sun", "time": "Closed"}], "id": "7011900109", "name": "USPS COLLECTION BOX - PO LOBBY", "address": {"city": "NEW ORLEANS", "state": "LA", "street": "501 N JEFFERSON DAVIS PKWY", "postcode": "70119"}}},
{"geometry": {"type": "Point", "coordinates": [-90.091617381, 29.973369616]}, "type": "Feature", "properties": {"collection_times": [{"days": "Mon-Fri", "time": "5:00pm"}, {"days": "Sat", "time": "1:00pm"}, {"days": "Sun", "time": "Closed"}], "id": "7011900110", "name": "USPS COLLECTION BOX - PO LOBBY", "address": {"city": "NEW ORLEANS", "state": "LA", "street": "501 N JEFFERSON DAVIS PKWY", "postcode": "70119"}}},
{"geometry": {"type": "Point", "coordinates": [-90.088058578, 29.98286691]}, "type": "Feature", "properties": {"collection_times": [{"days": "Mon-Fri", "time": "2:30pm"}, {"days": "Sat", "time": "1:00pm"}, {"days": "Sun", "time": "Closed"}], "id": "7011900122", "name": "USPS COLLECTION BOX - BLUE BOX", "address": {"city": "NEW ORLEANS", "state": "LA", "street": "3443 ESPLANADE AVE", "postcode": "70119"}}},
{"geometry": {"type": "Point", "coordinates": [-90.0600896827, 29.9633888076]}, "type": "Feature", "properties": {"collection_times": [{"days": "Mon-Fri", "time": "1:15pm"}, {"days": "Sat", "time": "1:30pm"}, {"days": "Sun", "time": "Closed"}], "id": "7011900123", "name": "USPS COLLECTION BOX - BLUE BOX", "address": {"city": "NEW ORLEANS", "state": "LA", "street": "704 ESPLANADE AVE", "postcode": "70119"}}},
{"geometry": {"type": "Point", "coordinates": [-90.1039764969, 29.9840776843]}, "type": "Feature", "properties": {"collection_times": [{"days": "Mon-Fri", "time": "11:15am"}, {"days": "Sat-Sun", "time": "Closed"}], "id": "7011900125", "name": "USPS COLLECTION BOX - BLUE BOX", "address": {"city": "NEW ORLEANS", "state": "LA", "street": "615 CITY PARK AVE", "postcode": "70119"}}},
{"geometry": {"type": "Point", "coordinates": [-90.155001844, 29.961402133]}, "type": "Feature", "properties": {"collection_times": [{"days": "Mon-Fri", "time": "12:30pm"}, {"days": "Sat", "time": "2:15pm"}, {"days": "Sun", "time": "Closed"}], "id": "7012100006", "name": "USPS COLLECTION BOX - BLUE BOX", "address": {"city": "NEW ORLEANS", "state": "LA", "street": "308 MAINE ST", "postcode": "70121"}}},
{"geometry": {"type": "Point", "coordinates": [-90.144558555, 29.96262261]}, "type": "Feature", "properties": {"collection_times": [{"days": "Mon-Fri", "time": "12:15pm"}, {"days": "Sat", "time": "2:15pm"}, {"days": "Sun", "time": "Closed"}], "id": "7012100009", "name": "USPS COLLECTION BOX - BLUE BOX", "address": {"city": "NEW ORLEANS", "state": "LA", "street": "1512 JEFFERSON HWY", "postcode": "70121"}}},
{"geometry": {"type": "Point", "coordinates": [-90.168770443, 29.961669133]}, "type": "Feature", "properties": {"collection_times": [{"days": "Mon-Fri", "time": "12:45pm"}, {"days": "Sat", "time": "2:00pm"}, {"days": "Sun", "time": "Closed"}], "id": "7012100015", "name": "USPS COLLECTION BOX - BLUE BOX", "address": {"city": "NEW ORLEANS", "state": "LA", "street": "4115 JEFFERSON HWY", "postcode": "70121"}}},
{"geometry": {"type": "Point", "coordinates": [-90.175974635, 29.957354712]}, "type": "Feature", "properties": {"collection_times": [{"days": "Mon-Fri", "time": "12:45pm"}, {"days": "Sat", "time": "1:45pm"}, {"days": "Sun", "time": "Closed"}], "id": "7012100018", "name": "USPS COLLECTION BOX - BLUE BOX", "address": {"city": "NEW ORLEANS", "state": "LA", "street": "4701 JEFFERSON HWY", "postcode": "70121"}}},
{"geometry": {"type": "Point", "coordinates": [-90.162826215, 29.963364367]}, "type": "Feature", "properties": {"collection_times": [{"days": "Mon-Fri", "time": "12:30pm"}, {"days": "Sat", "time": "2:00pm"}, {"days": "Sun", "time": "Closed"}], "id": "7012100024", "name": "USPS COLLECTION BOX - BLUE BOX", "address": {"city": "NEW ORLEANS", "state": "LA", "street": "3639 JEFFERSON HWY", "postcode": "70121"}}},
{"geometry": {"type": "Point", "coordinates": [-90.061589111, 30.031548371]}, "type": "Feature", "properties": {"collection_times": [{"days": "Mon-Fri", "time": "11:00am"}, {"days": "Sat", "time": "10:15am"}, {"days": "Sun", "time": "Closed"}], "id": "7012200053", "name": "USPS COLLECTION BOX - BLUE BOX", "address": {"city": "NEW ORLEANS", "state": "LA", "street": "2251 LAKESHORE DR", "postcode": "70122"}}},
{"geometry": {"type": "Point", "coordinates": [-90.065700815, 30.031676252]}, "type": "Feature", "properties": {"collection_times": [{"days": "Mon-Fri", "time": "11:00am"}, {"days": "Sat", "time": "10:15am"}, {"days": "Sun", "time": "Closed"}], "id": "7012200054", "name": "USPS COLLECTION BOX - BLUE BOX", "address": {"city": "NEW ORLEANS", "state": "LA", "street": "2021 LAKESHORE DR", "postcode": "70122"}}},
{"geometry": {"type": "Point", "coordinates": [-90.065787764, 29.992843547]}, "type": "Feature", "properties": {"collection_times": [{"days": "Mon-Fri", "time": "11:00am"}, {"days": "Sat", "time": "10:00am"}, {"days": "Sun", "time": "Closed"}], "id": "7012200055", "name": "USPS COLLECTION BOX - BLUE BOX", "address": {"city": "NEW ORLEANS", "state": "LA", "street": "3439 ALLEN ST", "postcode": "70122"}}},
{"geometry": {"type": "Point", "coordinates": [-90.062103859, 29.998829263]}, "type": "Feature", "properties": {"collection_times": [{"days": "Mon-Fri", "time": "4:00pm"}, {"days": "Sat", "time": "10:30am"}, {"days": "Sun", "time": "Closed"}], "id": "7012200056", "name": "USPS COLLECTION BOX - BLUE BOX", "address": {"city": "NEW ORLEANS", "state": "LA", "street": "2051 CATON ST", "postcode": "70122"}}},
{"geometry": {"type": "Point", "coordinates": [-90.062103859, 29.998829263]}, "type": "Feature", "properties": {"collection_times": [{"days": "Mon-Fri", "time": "4:00pm"}, {"days": "Sat", "time": "10:30am"}, {"days": "Sun", "time": "Closed"}], "id": "7012200057", "name": "USPS COLLECTION BOX - PO LOBBY", "address": {"city": "NEW ORLEANS", "state": "LA", "street": "2051 CATON ST", "postcode": "70122"}}},
{"geometry": {"type": "Point", "coordinates": [-90.062103859, 29.998829263]}, "type": "Feature", "properties": {"collection_times": [{"days": "Mon-Fri", "time": "4:00pm"}, {"days": "Sat", "time": "10:30am"}, {"days": "Sun", "time": "Closed"}], "id": "7012200058", "name": "USPS COLLECTION BOX - PO LOBBY", "address": {"city": "NEW ORLEANS", "state": "LA", "street": "2051 CATON ST", "postcode": "70122"}}},
{"geometry": {"type": "Point", "coordinates": [-90.192822888, 29.937816789]}, "type": "Feature", "properties": {"collection_times": [{"days": "Mon-Fri", "time": "2:45pm"}, {"days": "Sat", "time": "1:45pm"}, {"days": "Sun", "time": "Closed"}], "id": "7012300004", "name": "USPS COLLECTION BOX - BLUE BOX", "address": {"city": "NEW ORLEANS", "state": "LA", "street": "6318 JEFFERSON HWY", "postcode": "70123"}}},
{"geometry": {"type": "Point", "coordinates": [-90.19352647, 29.938680848]}, "type": "Feature", "properties": {"collection_times": [{"days": "Mon-Fri", "time": "2:15pm"}, {"days": "Sat", "time": "1:15pm"}, {"days": "Sun", "time": "Closed"}], "id": "7012300005", "name": "USPS COLLECTION BOX - BLUE BOX", "address": {"city": "NEW ORLEANS", "state": "LA", "street": "6441 JEFFERSON HWY", "postcode": "70123"}}},
{"geometry": {"type": "Point", "coordinates": [-90.19352647, 29.938680848]}, "type": "Feature", "properties": {"collection_times": [{"days": "Mon-Fri", "time": "2:15pm"}, {"days": "Sat", "time": "1:15pm"}, {"days": "Sun", "time": "Closed"}], "id": "7012300006", "name": "USPS COLLECTION BOX - BLUE BOX", "address": {"city": "NEW ORLEANS", "state": "LA", "street": "6441 JEFFERSON HWY", "postcode": "70123"}}},
{"geometry": {"type": "Point", "coordinates": [-90.19352647, 29.938680848]}, "type": "Feature", "properties": {"collection_times": [{"days": "Mon-Fri", "time": "2:15pm"}, {"days": "Sat", "time": "1:15pm"}, {"days": "Sun", "time": "Closed"}], "id": "7012300007", "name": "USPS COLLECTION BOX - BLUE BOX", "address": {"city": "NEW ORLEANS", "state": "LA", "street": "6441 JEFFERSON HWY", "postcode": "70123"}}},
{"geometry": {"type": "Point", "coordinates": [-90.197777432, 29.936717312]}, "type": "Feature", "properties": {"collection_times": [{"days": "Mon-Fri", "time": "2:30pm"}, {"days": "Sat", "time": "1:30pm"}, {"days": "Sun", "time": "Closed"}], "id": "7012300010", "name": "USPS COLLECTION BOX - BLUE BOX", "address": {"city": "NEW ORLEANS", "state": "LA", "street": "6901 JEFFERSON HWY", "postcode": "70123"}}},
{"geometry": {"type": "Point", "coordinates": [-90.21076767, 29.937059907]}, "type": "Feature", "properties": {"collection_times": [{"days": "Mon-Fri", "time": "2:30pm"}, {"days": "Sat", "time": "1:30pm"}, {"days": "Sun", "time": "Closed"}], "id": "7012300011", "name": "USPS COLLECTION BOX - BLUE BOX", "address": {"city": "NEW ORLEANS", "state": "LA", "street": "8225 JEFFERSON HWY", "postcode": "70123"}}},
{"geometry": {"type": "Point", "coordinates": [-90.212999599, 29.942693697]}, "type": "Feature", "properties": {"collection_times": [{"days": "Mon-Fri", "time": "2:30pm"}, {"days": "Sat", "time": "1:30pm"}, {"days": "Sun", "time": "Closed"}], "id": "7012300012", "name": "USPS COLLECTION BOX - BLUE BOX", "address": {"city": "NEW ORLEANS", "state": "LA", "street": "8601 JEFFERSON HWY", "postcode": "70123"}}},
{"geometry": {"type": "Point", "coordinates": [-90.214346065, 29.951707574]}, "type": "Feature", "properties": {"collection_times": [{"days": "Mon-Fri", "time": "2:30pm"}, {"days": "Sat", "time": "1:45pm"}, {"days": "Sun", "time": "Closed"}], "id": "7012300013", "name": "USPS COLLECTION BOX - BLUE BOX", "address": {"city": "NEW ORLEANS", "state": "LA", "street": "9307 JEFFERSON HWY", "postcode": "70123"}}},
{"geometry": {"type": "Point", "coordinates": [-90.186267369, 29.942842668]}, "type": "Feature", "properties": {"collection_times": [{"days": "Mon-Fri", "time": "2:15pm"}, {"days": "Sat", "time": "1:30pm"}, {"days": "Sun", "time": "Closed"}], "id": "7012300014", "name": "USPS COLLECTION BOX - BLUE BOX", "address": {"city": "NEW ORLEANS", "state": "LA", "street": "5800 JEFFERSON HWY", "postcode": "70123"}}},
{"geometry": {"type": "Point", "coordinates": [-90.18248088, 29.944265615]}, "type": "Feature", "properties": {"collection_times": [{"days": "Mon-Fri", "time": "2:15pm"}, {"days": "Sat", "time": "1:15pm"}, {"days": "Sun", "time": "Closed"}], "id": "7012300015", "name": "USPS COLLECTION BOX - BLUE BOX", "address": {"city": "NEW ORLEANS", "state": "LA", "street": "201 EVANS RD", "postcode": "70123"}}},
{"geometry": {"type": "Point", "coordinates": [-90.198355773, 29.964393007]}, "type": "Feature", "properties": {"collection_times": [{"days": "Mon-Fri", "time": "5:00pm"}, {"days": "Sat", "time": "3:15pm"}, {"days": "Sun", "time": "Closed"}], "id": "7012300033", "name": "USPS COLLECTION BOX - BLUE BOX", "address": {"city": "NEW ORLEANS", "state": "LA", "street": "5720 CITRUS BLVD", "postcode": "70123"}}},
{"geometry": {"type": "Point", "coordinates": [-90.198355773, 29.964393007]}, "type": "Feature", "properties": {"collection_times": [{"days": "Mon-Fri", "time": "5:00pm"}, {"days": "Sat", "time": "3:15pm"}, {"days": "Sun", "time": "Closed"}], "id": "7012300034", "name": "USPS COLLECTION BOX - BLUE BOX", "address": {"city": "NEW ORLEANS", "state": "LA", "street": "5720 CITRUS BLVD", "postcode": "70123"}}},
{"geometry": {"type": "Point", "coordinates": [-90.198355773, 29.964393007]}, "type": "Feature", "properties": {"collection_times": [{"days": "Mon-Fri", "time": "5:00pm"}, {"days": "Sat", "time": "3:15pm"}, {"days": "Sun", "time": "Closed"}], "id": "7012300035", "name": "USPS COLLECTION BOX - BLUE BOX", "address": {"city": "NEW ORLEANS", "state": "LA", "street": "5720 CITRUS BLVD", "postcode": "70123"}}},
{"geometry": {"type": "Point", "coordinates": [-90.198355773, 29.964393007]}, "type": "Feature", "properties": {"collection_times": [{"days": "Mon-Fri", "time": "5:00pm"}, {"days": "Sat", "time": "3:15pm"}, {"days": "Sun", "time": "Closed"}], "id": "7012300036", "name": "USPS COLLECTION BOX - BLUE BOX", "address": {"city": "NEW ORLEANS", "state": "LA", "street": "5720 CITRUS BLVD", "postcode": "70123"}}},
{"geometry": {"type": "Point", "coordinates": [-90.198355773, 29.964393007]}, "type": "Feature", "properties": {"collection_times": [{"days": "Mon-Fri", "time": "5:00pm"}, {"days": "Sat", "time": "3:15pm"}, {"days": "Sun", "time": "Closed"}], "id": "7012300037", "name": "USPS COLLECTION BOX - BLUE BOX", "address": {"city": "NEW ORLEANS", "state": "LA", "street": "5720 CITRUS BLVD", "postcode": "70123"}}},
{"geometry": {"type": "Point", "coordinates": [-90.198355773, 29.964393007]}, "type": "Feature", "properties": {"collection_times": [{"days": "Mon-Fri", "time": "5:00pm"}, {"days": "Sat", "time": "3:15pm"}, {"days": "Sun", "time": "Closed"}], "id": "7012300042", "name": "USPS COLLECTION BOX - PO LOBBY", "address": {"city": "NEW ORLEANS", "state": "LA", "street": "5720 CITRUS BLVD", "postcode": "70123"}}},
{"geometry": {"type": "Point", "coordinates": [-90.198355773, 29.964393007]}, "type": "Feature", "properties": {"collection_times": [{"days": "Mon-Fri", "time": "5:00pm"}, {"days": "Sat", "time": "3:15pm"}, {"days": "Sun", "time": "Closed"}], "id": "7012300044", "name": "USPS COLLECTION BOX - PO LOBBY", "address": {"city": "NEW ORLEANS", "state": "LA", "street": "5720 CITRUS BLVD", "postcode": "70123"}}},
{"geometry": {"type": "Point", "coordinates": [-90.221735015, 29.961843315]}, "type": "Feature", "properties": {"collection_times": [{"days": "Mon-Fri", "time": "2:30pm"}, {"days": "Sat", "time": "1:45pm"}, {"days": "Sun", "time": "Closed"}], "id": "7012300045", "name": "USPS COLLECTION BOX - BLUE BOX", "address": {"city": "NEW ORLEANS", "state": "LA", "street": "10160 JEFFERSON HWY", "postcode": "70123"}}},
{"geometry": {"type": "Point", "coordinates": [-90.186909089, 29.955989911]}, "type": "Feature", "properties": {"collection_times": [{"days": "Mon-Fri", "time": "1:15pm"}, {"days": "Sat", "time": "12:15pm"}, {"days": "Sun", "time": "Closed"}], "id": "7012300046", "name": "USPS COLLECTION BOX - BLUE BOX", "address": {"city": "NEW ORLEANS", "state": "LA", "street": "824 ELMWOOD PARK BLVD", "postcode": "70123"}}},
{"geometry": {"type": "Point", "coordinates": [-90.198355773, 29.964393007]}, "type": "Feature", "properties": {"collection_times": [{"days": "Mon-Fri", "time": "5:00pm"}, {"days": "Sat", "time": "3:15pm"}, {"days": "Sun", "time": "Closed"}], "id": "7012300047", "name": "USPS COLLECTION BOX - APC", "address": {"city": "NEW ORLEANS", "state": "LA", "street": "5720 CITRUS BLVD", "postcode": "70123"}}},
{"geometry": {"type": "Point", "coordinates": [-90.184821207, 29.963562209]}, "type": "Feature", "properties": {"collection_times": [{"days": "Mon-Fri", "time": "1:00pm"}, {"days": "Sat", "time": "12:00pm"}, {"days": "Sun", "time": "Closed"}], "id": "7012300049", "name": "USPS COLLECTION BOX - BLUE BOX", "address": {"city": "NEW ORLEANS", "state": "LA", "street": "1221 S CLEARVIEW PKWY", "postcode": "70123"}}},
{"geometry": {"type": "Point", "coordinates": [-90.107712204, 30.005130084]}, "type": "Feature", "properties": {"collection_times": [{"days": "Mon-Fri", "time": "11:30am"}, {"days": "Sat", "time": "10:00am"}, {"days": "Sun", "time": "Closed"}], "id": "7012400035", "name": "USPS COLLECTION BOX - BLUE BOX", "address": {"city": "NEW ORLEANS", "state": "LA", "street": "6317 CANAL BLVD", "postcode": "70124"}}},
{"geometry": {"type": "Point", "coordinates": [-90.113533557, 30.020054956]}, "type": "Feature", "properties": {"collection_times": [{"days": "Mon-Fri", "time": "11:15am"}, {"days": "Sat", "time": "10:30am"}, {"days": "Sun", "time": "Closed"}], "id": "7012400036", "name": "USPS COLLECTION BOX - BLUE BOX", "address": {"city": "NEW ORLEANS", "state": "LA", "street": "100 ROBERT E LEE BLVD", "postcode": "70124"}}},
{"geometry": {"type": "Point", "coordinates": [-90.103637079, 30.004845939]}, "type": "Feature", "properties": {"collection_times": [{"days": "Mon-Fri", "time": "4:00pm"}, {"days": "Sat", "time": "10:30am"}, {"days": "Sun", "time": "Closed"}], "id": "7012400038", "name": "USPS COLLECTION BOX - BLUE BOX", "address": {"city": "NEW ORLEANS", "state": "LA", "street": "6319 MARSHALL FOCH ST", "postcode": "70124"}}},
{"geometry": {"type": "Point", "coordinates": [-90.103637079, 30.004845939]}, "type": "Feature", "properties": {"collection_times": [{"days": "Mon-Fri", "time": "4:00pm"}, {"days": "Sat", "time": "10:30am"}, {"days": "Sun", "time": "Closed"}], "id": "7012400039", "name": "USPS COLLECTION BOX - PO LOBBY", "address": {"city": "NEW ORLEANS", "state": "LA", "street": "6319 MARSHALL FOCH ST", "postcode": "70124"}}},
{"geometry": {"type": "Point", "coordinates": [-90.103637079, 30.004845939]}, "type": "Feature", "properties": {"collection_times": [{"days": "Mon-Fri", "time": "4:00pm"}, {"days": "Sat", "time": "10:30am"}, {"days": "Sun", "time": "Closed"}], "id": "7012400040", "name": "USPS COLLECTION BOX - PO LOBBY", "address": {"city": "NEW ORLEANS", "state": "LA", "street": "6319 MARSHALL FOCH ST", "postcode": "70124"}}},
{"geometry": {"type": "Point", "coordinates": [-90.1103881059, 30.008810234]}, "type": "Feature", "properties": {"collection_times": [{"days": "Mon-Fri", "time": "11:45am"}, {"days": "Sat", "time": "10:15am"}, {"days": "Sun", "time": "Closed"}], "id": "7012400041", "name": "USPS COLLECTION BOX - BLUE BOX", "address": {"city": "NEW ORLEANS", "state": "LA", "street": "875 HARRISON AVE", "postcode": "70124"}}},
{"geometry": {"type": "Point", "coordinates": [-90.117798378, 30.005647945]}, "type": "Feature", "properties": {"collection_times": [{"days": "Mon-Fri", "time": "11:30am"}, {"days": "Sat", "time": "10:45am"}, {"days": "Sun", "time": "Closed"}], "id": "7012400042", "name": "USPS COLLECTION BOX - BLUE BOX", "address": {"city": "NEW ORLEANS", "state": "LA", "street": "244 W HARRISON AVE", "postcode": "70124"}}},
{"geometry": {"type": "Point", "coordinates": [-90.1103881059, 30.008810234]}, "type": "Feature", "properties": {"collection_times": [{"days": "Mon-Fri", "time": "11:45am"}, {"days": "Sat", "time": "10:15am"}, {"days": "Sun", "time": "Closed"}], "id": "7012400043", "name": "USPS COLLECTION BOX - BLUE BOX", "address": {"city": "NEW ORLEANS", "state": "LA", "street": "875 HARRISON AVE", "postcode": "70124"}}},
{"geometry": {"type": "Point", "coordinates": [-90.093034732, 29.956278206]}, "type": "Feature", "properties": {"collection_times": [{"days": "Mon-Sat", "time": "10:00am"}, {"days": "Sun", "time": "Closed"}], "id": "7012500039", "name": "USPS COLLECTION BOX - BLUE BOX", "address": {"city": "NEW ORLEANS", "state": "LA", "street": "3800 HOWARD AVE", "postcode": "70125"}}},
{"geometry": {"type": "Point", "coordinates": [-90.020459606, 30.010131625]}, "type": "Feature", "properties": {"collection_times": [{"days": "Mon-Fri", "time": "3:00pm"}, {"days": "Sat", "time": "10:00am"}, {"days": "Sun", "time": "Closed"}], "id": "7012600038", "name": "USPS COLLECTION BOX - BLUE BOX", "address": {"city": "NEW ORLEANS", "state": "LA", "street": "5919 CHEF MENTEUR HWY", "postcode": "70126"}}},
{"geometry": {"type": "Point", "coordinates": [-90.020459606, 30.010131625]}, "type": "Feature", "properties": {"collection_times": [{"days": "Mon-Fri", "time": "3:00pm"}, {"days": "Sat-Sun", "time": "Closed"}], "id": "7012600040", "name": "USPS COLLECTION BOX - PO LOBBY", "address": {"city": "NEW ORLEANS", "state": "LA", "street": "5919 CHEF MENTEUR HWY", "postcode": "70126"}}},
{"geometry": {"type": "Point", "coordinates": [-89.979978411, 30.029363648]}, "type": "Feature", "properties": {"collection_times": [{"days": "Mon-Fri", "time": "5:00pm"}, {"days": "Sat", "time": "3:00pm"}, {"days": "Sun", "time": "Closed"}], "id": "7012700043", "name": "USPS COLLECTION BOX - BLUE BOX", "address": {"city": "NEW ORLEANS", "state": "LA", "street": "9600 LAKE FOREST BLVD", "postcode": "70127"}}},
{"geometry": {"type": "Point", "coordinates": [-89.979978411, 30.029363648]}, "type": "Feature", "properties": {"collection_times": [{"days": "Mon-Fri", "time": "5:00pm"}, {"days": "Sat", "time": "3:00pm"}, {"days": "Sun", "time": "Closed"}], "id": "7012700044", "name": "USPS COLLECTION BOX - BLUE BOX", "address": {"city": "NEW ORLEANS", "state": "LA", "street": "9600 LAKE FOREST BLVD", "postcode": "70127"}}},
{"geometry": {"type": "Point", "coordinates": [-89.979978411, 30.029363648]}, "type": "Feature", "properties": {"collection_times": [{"days": "Mon-Fri", "time": "5:00pm"}, {"days": "Sat", "time": "3:00pm"}, {"days": "Sun", "time": "Closed"}], "id": "7012700045", "name": "USPS COLLECTION BOX - BLUE BOX", "address": {"city": "NEW ORLEANS", "state": "LA", "street": "9600 LAKE FOREST BLVD", "postcode": "70127"}}},
{"geometry": {"type": "Point", "coordinates": [-89.979978411, 30.029363648]}, "type": "Feature", "properties": {"collection_times": [{"days": "Mon-Fri", "time": "5:00pm"}, {"days": "Sat", "time": "3:00pm"}, {"days": "Sun", "time": "Closed"}], "id": "7012700046", "name": "USPS COLLECTION BOX - PO LOBBY", "address": {"city": "NEW ORLEANS", "state": "LA", "street": "9600 LAKE FOREST BLVD", "postcode": "70127"}}},
{"geometry": {"type": "Point", "coordinates": [-89.979978411, 30.029363648]}, "type": "Feature", "properties": {"collection_times": [{"days": "Mon-Fri", "time": "5:00pm"}, {"days": "Sat", "time": "3:00pm"}, {"days": "Sun", "time": "Closed"}], "id": "7012700047", "name": "USPS COLLECTION BOX - PO LOBBY", "address": {"city": "NEW ORLEANS", "state": "LA", "street": "9600 LAKE FOREST BLVD", "postcode": "70127"}}},
{"geometry": {"type": "Point", "coordinates": [-89.979978411, 30.029363648]}, "type": "Feature", "properties": {"collection_times": [{"days": "Mon-Fri", "time": "5:00pm"}, {"days": "Sat", "time": "3:00pm"}, {"days": "Sun", "time": "Closed"}], "id": "7012700048", "name": "USPS COLLECTION BOX - PO LOBBY", "address": {"city": "NEW ORLEANS", "state": "LA", "street": "9600 LAKE FOREST BLVD", "postcode": "70127"}}},
{"geometry": {"type": "Point", "coordinates": [-90.078994972, 29.952120538]}, "type": "Feature", "properties": {"collection_times": [{"days": "Mon-Fri", "time": "1:00pm"}, {"days": "Sat", "time": "11:45am"}, {"days": "Sun", "time": "Closed"}], "id": "7013000119", "name": "USPS COLLECTION BOX - BLUE BOX", "address": {"city": "NEW ORLEANS", "state": "LA", "street": "1555 POYDRAS ST", "postcode": "70130"}}},
{"geometry": {"type": "Point", "coordinates": [-90.073429526, 29.950350014]}, "type": "Feature", "properties": {"collection_times": [{"days": "Mon-Fri", "time": "1:00pm"}, {"days": "Sat", "time": "11:45am"}, {"days": "Sun", "time": "Closed"}], "id": "7013000138", "name": "USPS COLLECTION BOX - BLUE BOX", "address": {"city": "NEW ORLEANS", "state": "LA", "street": "909 POYDRAS ST", "postcode": "70130"}}},
{"geometry": {"type": "Point", "coordinates": [-90.067608272, 29.948782863]}, "type": "Feature", "properties": {"collection_times": [{"days": "Mon-Fri", "time": "3:00pm"}, {"days": "Sat", "time": "11:45am"}, {"days": "Sun", "time": "Closed"}], "id": "7013000217", "name": "USPS COLLECTION BOX - BLUE BOX", "address": {"city": "NEW ORLEANS", "state": "LA", "street": "400 POYDRAS ST", "postcode": "70130"}}},
{"geometry": {"type": "Point", "coordinates": [-90.065695289, 29.953667729]}, "type": "Feature", "properties": {"collection_times": [{"days": "Mon-Fri", "time": "2:15pm"}, {"days": "Sat", "time": "2:30pm"}, {"days": "Sun", "time": "Closed"}], "id": "7013000222", "name": "USPS COLLECTION BOX - BLUE BOX", "address": {"city": "NEW ORLEANS", "state": "LA", "street": "301 DECATUR ST", "postcode": "70130"}}},
{"geometry": {"type": "Point", "coordinates": [-90.065590349, 29.952414871]}, "type": "Feature", "properties": {"collection_times": [{"days": "Mon-Fri", "time": "2:15pm"}, {"days": "Sat", "time": "2:30pm"}, {"days": "Sun", "time": "Closed"}], "id": "7013000225", "name": "USPS COLLECTION BOX - BLUE BOX", "address": {"city": "NEW ORLEANS", "state": "LA", "street": "207 N PETERS ST", "postcode": "70130"}}},
{"geometry": {"type": "Point", "coordinates": [-90.073719667, 29.941241897]}, "type": "Feature", "properties": {"collection_times": [{"days": "Mon-Fri", "time": "2:45pm"}, {"days": "Sat", "time": "12:00pm"}, {"days": "Sun", "time": "Closed"}], "id": "7013000237", "name": "USPS COLLECTION BOX - BLUE BOX", "address": {"city": "NEW ORLEANS", "state": "LA", "street": "1200 SAINT CHARLES AVE", "postcode": "70130"}}},
{"geometry": {"type": "Point", "coordinates": [-89.991644279, 29.904587316]}, "type": "Feature", "properties": {"collection_times": [{"days": "Mon-Fri", "time": "12:15pm"}, {"days": "Sat", "time": "11:15am"}, {"days": "Sun", "time": "Closed"}], "id": "7013100019", "name": "USPS COLLECTION BOX - BLUE BOX", "address": {"city": "NEW ORLEANS", "state": "LA", "street": "5901 TULLIS DR", "postcode": "70131"}}}
]}
