{"type": "FeatureCollection", "features": [
{"geometry": {"type": "Point", "coordinates": [-90.8210394497, 29.7918981106]}, "type": "Feature", "properties": {"collection_times": [{"days": "Mon-Fri", "time": "5:00pm"}, {"days": "Sat", "time": "4:00pm"}, {"days": "Sun", "time": "Closed"}], "id": "7030100002", "name": "USPS COLLECTION BOX - BLUE BOX", "address": {"city": "THIBODAUX", "state": "LA", "street": "910 CANAL BLVD", "postcode": "70301"}}},
{"geometry": {"type": "Point", "coordinates": [-90.8046105177, 29.7784662552]}, "type": "Feature", "properties": {"collection_times": [{"days": "Mon-Fri", "time": "2:15pm"}, {"days": "Sat-Sun", "time": "Closed"}], "id": "7030100003", "name": "USPS COLLECTION BOX - BLUE BOX", "address": {"city": "THIBODAUX", "state": "LA", "street": "602 N ACADIA RD", "postcode": "70301"}}},
{"geometry": {"type": "Point", "coordinates": [-90.8358319912, 29.7836593926]}, "type": "Feature", "properties": {"collection_times": [{"days": "Mon-Fri", "time": "1:45pm"}, {"days": "Sat-Sun", "time": "Closed"}], "id": "7030100006", "name": "USPS COLLECTION BOX - BLUE BOX", "address": {"city": "THIBODAUX", "state": "LA", "street": "1000 PLANTATION RD", "postcode": "70301"}}},
{"geometry": {"type": "Point", "coordinates": [-90.8194931409, 29.7981188375]}, "type": "Feature", "properties": {"collection_times": [{"days": "Mon-Fri", "time": "2:00pm"}, {"days": "Sat-Sun", "time": "Closed"}], "id": "7030100011", "name": "USPS COLLECTION BOX - BLUE BOX", "address": {"city": "THIBODAUX", "state": "LA", "street": "310 W 2ND ST", "postcode": "70301"}}},
{"geometry": {"type": "Point", "coordinates": [-90.819414152, 29.7974846066]}, "type": "Feature", "properties": {"collection_times": [{"days": "Mon-Fri", "time": "2:00pm"}, {"days": "Sat-Sun", "time": "Closed"}], "id": "7030100013", "name": "USPS COLLECTION BOX - BLUE BOX", "address": {"city": "THIBODAUX", "state": "LA", "street": "303 W 3RD ST", "postcode": "70301"}}},
{"geometry": {"type": "Point", "coordinates": [-90.819414152, 29.7974846066]}, "type": "Feature", "properties": {"collection_times": [{"days": "Mon-Fri", "time": "2:00pm"}, {"days": "Sat-Sun", "time": "Closed"}], "id": "7030100014", "name": "USPS COLLECTION BOX - BLUE BOX", "address": {"city": "THIBODAUX", "state": "LA", "street": "303 W 3RD ST", "postcode": "70301"}}},
{"geometry": {"type": "Point", "coordinates": [-90.8199688201, 29.7965027063]}, "type": "Feature", "properties": {"collection_times": [{"days": "Mon-Fri", "time": "2:00pm"}, {"days": "Sat-Sun", "time": "Closed"}], "id": "7030100016", "name": "USPS COLLECTION BOX - BLUE BOX", "address": {"city": "THIBODAUX", "state": "LA", "street": "300 W 5TH ST", "postcode": "70301"}}},
{"geometry": {"type": "Point", "coordinates": [-90.8210394497, 29.7918981106]}, "type": "Feature", "properties": {"collection_times": [{"days": "Mon-Fri", "time": "5:00pm"}, {"days": "Sat", "time": "4:00pm"}, {"days": "Sun", "time": "Closed"}], "id": "7030100028", "name": "USPS COLLECTION BOX - PO LOBBY", "address": {"city": "THIBODAUX", "state": "LA", "street": "910 CANAL BLVD", "postcode": "70301"}}},
{"geometry": {"type": "Point", "coordinates": [-90.8210394497, 29.7918981106]}, "type": "Feature", "properties": {"collection_times": [{"days": "Mon-Fri", "time": "5:00pm"}, {"days": "Sat", "time": "4:00pm"}, {"days": "Sun", "time": "Closed"}], "id": "7030100029", "name": "USPS COLLECTION BOX - PO LOBBY", "address": {"city": "THIBODAUX", "state": "LA", "street": "910 CANAL BLVD", "postcode": "70301"}}},
{"geometry": {"type": "Point", "coordinates": [-90.8210394497, 29.7918981106]}, "type": "Feature", "properties": {"collection_times": [{"days": "Mon-Fri", "time": "5:00pm"}, {"days": "Sat", "time": "4:00pm"}, {"days": "Sun", "time": "Closed"}], "id": "7030100036", "name": "USPS COLLECTION BOX - BLUE BOX", "address": {"city": "THIBODAUX", "state": "LA", "street": "910 CANAL BLVD", "postcode": "70301"}}},
{"geometry": {"type": "Point", "coordinates": [-90.8210394497, 29.7918981106]}, "type": "Feature", "properties": {"collection_times": [{"days": "Mon-Fri", "time": "5:00pm"}, {"days": "Sat", "time": "4:00pm"}, {"days": "Sun", "time": "Closed"}], "id": "7030100037", "name": "USPS COLLECTION BOX - BLUE BOX", "address": {"city": "THIBODAUX", "state": "LA", "street": "910 CANAL BLVD", "postcode": "70301"}}},
{"geometry": {"type": "Point", "coordinates": [-90.8210394497, 29.7918981106]}, "type": "Feature", "properties": {"collection_times": [{"days": "Mon-Fri", "time": "5:00pm"}, {"days": "Sat", "time": "4:00pm"}, {"days": "Sun", "time": "Closed"}], "id": "7030100038", "name": "USPS COLLECTION BOX - BLUE BOX", "address": {"city": "THIBODAUX", "state": "LA", "street": "910 CANAL BLVD", "postcode": "70301"}}},
{"geometry": {"type": "Point", "coordinates": [-91.2127778205, 29.9533114823]}, "type": "Feature", "properties": {"collection_times": [{"days": "Mon-Fri", "time": "3:30pm"}, {"days": "Sat", "time": "9:30am"}, {"days": "Sun", "time": "Closed"}], "id": "7033900002", "name": "USPS COLLECTION BOX - BLUE BOX", "address": {"city": "PIERRE PART", "state": "LA", "street": "3511 HIGHWAY 70 S", "postcode": "70339"}}},
{"geometry": {"type": "Point", "coordinates": [-91.2127778205, 29.9533114823]}, "type": "Feature", "properties": {"collection_times": [{"days": "Mon-Fri", "time": "3:30pm"}, {"days": "Sat", "time": "9:30am"}, {"days": "Sun", "time": "Closed"}], "id": "7033900005", "name": "USPS COLLECTION BOX - PO LOBBY", "address": {"city": "PIERRE PART", "state": "LA", "street": "3511 HIGHWAY 70 S", "postcode": "70339"}}},
{"geometry": {"type": "Point", "coordinates": [-91.1052611635, 29.6617519927]}, "type": "Feature", "properties": {"collection_times": [{"days": "Mon-Fri", "time": "3:30pm"}, {"days": "Sat", "time": "9:45am"}, {"days": "Sun", "time": "Closed"}], "id": "7034000001", "name": "USPS COLLECTION BOX - BLUE BOX", "address": {"city": "AMELIA", "state": "LA", "street": "119 FRANCIS ST", "postcode": "70340"}}},
{"geometry": {"type": "Point", "coordinates": [-91.1052611635, 29.6617519927]}, "type": "Feature", "properties": {"collection_times": [{"days": "Mon-Fri", "time": "4:00pm"}, {"days": "Sat", "time": "9:45am"}, {"days": "Sun", "time": "Closed"}], "id": "7034000002", "name": "USPS COLLECTION BOX - PO LOBBY", "address": {"city": "AMELIA", "state": "LA", "street": "119 FRANCIS ST", "postcode": "70340"}}},
{"geometry": {"type": "Point", "coordinates": [-91.0472252481, 30.0445057075]}, "type": "Feature", "properties": {"collection_times": [{"days": "Mon-Fri", "time": "3:30pm"}, {"days": "Sat", "time": "10:00am"}, {"days": "Sun", "time": "Closed"}], "id": "7034100001", "name": "USPS COLLECTION BOX - BLUE BOX", "address": {"city": "BELLE ROSE", "state": "LA", "street": "7101 HIGHWAY 1", "postcode": "70341"}}},
{"geometry": {"type": "Point", "coordinates": [-91.0472252481, 30.0445057075]}, "type": "Feature", "properties": {"collection_times": [{"days": "Mon-Fri", "time": "3:30pm"}, {"days": "Sat", "time": "10:00am"}, {"days": "Sun", "time": "Closed"}], "id": "7034100003", "name": "USPS COLLECTION BOX - PO LOBBY", "address": {"city": "BELLE ROSE", "state": "LA", "street": "7101 HIGHWAY 1", "postcode": "70341"}}},
{"geometry": {"type": "Point", "coordinates": [-91.2232779427, 29.7025791545]}, "type": "Feature", "properties": {"collection_times": [{"days": "Mon-Fri", "time": "4:00pm"}, {"days": "Sat", "time": "12:00pm"}, {"days": "Sun", "time": "Closed"}], "id": "7034200001", "name": "USPS COLLECTION BOX - BLUE BOX", "address": {"city": "BERWICK", "state": "LA", "street": "101 GILMORE DR", "postcode": "70342"}}},
{"geometry": {"type": "Point", "coordinates": [-91.2232779427, 29.7025791545]}, "type": "Feature", "properties": {"collection_times": [{"days": "Mon-Fri", "time": "4:00pm"}, {"days": "Sat", "time": "12:00pm"}, {"days": "Sun", "time": "Closed"}], "id": "7034200003", "name": "USPS COLLECTION BOX - PO LOBBY", "address": {"city": "BERWICK", "state": "LA", "street": "101 GILMORE DR", "postcode": "70342"}}},
{"geometry": {"type": "Point", "coordinates": [-90.6451136928, 29.5632703155]}, "type": "Feature", "properties": {"collection_times": [{"days": "Mon-Fri", "time": "3:45pm"}, {"days": "Sat", "time": "11:45am"}, {"days": "Sun", "time": "Closed"}], "id": "7034300001", "name": "USPS COLLECTION BOX - BLUE BOX", "address": {"city": "BOURG", "state": "LA", "street": "3806 COUNTRY DR", "postcode": "70343"}}},
{"geometry": {"type": "Point", "coordinates": [-90.6451136928, 29.5632703155]}, "type": "Feature", "properties": {"collection_times": [{"days": "Mon-Fri", "time": "4:00pm"}, {"days": "Sat", "time": "11:45am"}, {"days": "Sun", "time": "Closed"}], "id": "7034300002", "name": "USPS COLLECTION BOX - PO LOBBY", "address": {"city": "BOURG", "state": "LA", "street": "3806 COUNTRY DR", "postcode": "70343"}}},
{"geometry": {"type": "Point", "coordinates": [-90.5872168, 29.4730450896]}, "type": "Feature", "properties": {"collection_times": [{"days": "Mon-Fri", "time": "4:00pm"}, {"days": "Sat", "time": "12:00pm"}, {"days": "Sun", "time": "Closed"}], "id": "7034400001", "name": "USPS COLLECTION BOX - BLUE BOX", "address": {"city": "CHAUVIN", "state": "LA", "street": "5106 HIGHWAY 56", "postcode": "70344"}}},
{"geometry": {"type": "Point", "coordinates": [-90.5872168, 29.4730450896]}, "type": "Feature", "properties": {"collection_times": [{"days": "Mon-Fri", "time": "4:00pm"}, {"days": "Sat", "time": "12:00pm"}, {"days": "Sun", "time": "Closed"}], "id": "7034400005", "name": "USPS COLLECTION BOX - BLUE BOX", "address": {"city": "CHAUVIN", "state": "LA", "street": "5106 HIGHWAY 56", "postcode": "70344"}}},
{"geometry": {"type": "Point", "coordinates": [-90.3146667671, 29.4712988388]}, "type": "Feature", "properties": {"collection_times": [{"days": "Mon-Fri", "time": "3:30pm"}, {"days": "Sat", "time": "10:00am"}, {"days": "Sun", "time": "Closed"}], "id": "7034500004", "name": "USPS COLLECTION BOX - PO LOBBY", "address": {"city": "CUT OFF", "state": "LA", "street": "16130 W MAIN ST", "postcode": "70345"}}},
{"geometry": {"type": "Point", "coordinates": [-90.3146667671, 29.4712988388]}, "type": "Feature", "properties": {"collection_times": [{"days": "Mon-Fri", "time": "3:30pm"}, {"days": "Sat", "time": "10:00am"}, {"days": "Sun", "time": "Closed"}], "id": "7034500005", "name": "USPS COLLECTION BOX - BLUE BOX", "address": {"city": "CUT OFF", "state": "LA", "street": "16130 W MAIN ST", "postcode": "70345"}}},
{"geometry": {"type": "Point", "coordinates": [-90.3146667671, 29.4712988388]}, "type": "Feature", "properties": {"collection_times": [{"days": "Mon-Fri", "time": "3:30pm"}, {"days": "Sat", "time": "10:00am"}, {"days": "Sun", "time": "Closed"}], "id": "7034500006", "name": "USPS COLLECTION BOX - PO LOBBY", "address": {"city": "CUT OFF", "state": "LA", "street": "16130 W MAIN ST", "postcode": "70345"}}},
{"geometry": {"type": "Point", "coordinates": [-90.9887427638, 30.1057679267]}, "type": "Feature", "properties": {"collection_times": [{"days": "Mon-Fri", "time": "3:30pm"}, {"days": "Sat", "time": "3:15pm"}, {"days": "Sun", "time": "Closed"}], "id": "7034600004", "name": "USPS COLLECTION BOX - PO LOBBY", "address": {"city": "DONALDSONVILLE", "state": "LA", "street": "301 IBERVILLE ST", "postcode": "70346"}}},
{"geometry": {"type": "Point", "coordinates": [-90.9887427638, 30.1057679267]}, "type": "Feature", "properties": {"collection_times": [{"days": "Mon-Fri", "time": "3:30pm"}, {"days": "Sat", "time": "3:15pm"}, {"days": "Sun", "time": "Closed"}], "id": "7034600005", "name": "USPS COLLECTION BOX - BLUE BOX", "address": {"city": "DONALDSONVILLE", "state": "LA", "street": "301 IBERVILLE ST", "postcode": "70346"}}},
{"geometry": {"type": "Point", "coordinates": [-90.7139873924, 29.3879666527]}, "type": "Feature", "properties": {"collection_times": [{"days": "Mon-Fri", "time": "3:00pm"}, {"days": "Sat", "time": "10:30am"}, {"days": "Sun", "time": "Closed"}], "id": "7035300001", "name": "USPS COLLECTION BOX - BLUE BOX", "address": {"city": "DULAC", "state": "LA", "street": "7661 GRAND CAILLOU RD", "postcode": "70353"}}},
{"geometry": {"type": "Point", "coordinates": [-90.714038681, 29.387948364]}, "type": "Feature", "properties": {"collection_times": [{"days": "Mon-Fri", "time": "3:00pm"}, {"days": "Sat", "time": "10:30am"}, {"days": "Sun", "time": "Closed"}], "id": "7035300003", "name": "USPS COLLECTION BOX - PO LOBBY", "address": {"city": "DULAC", "state": "LA", "street": "7661 GRAND CAILLOU RD", "postcode": "70353"}}},
{"geometry": {"type": "Point", "coordinates": [-90.3118933478, 29.4440707436]}, "type": "Feature", "properties": {"collection_times": [{"days": "Mon-Fri", "time": "3:45pm"}, {"days": "Sat", "time": "7:45am"}, {"days": "Sun", "time": "Closed"}], "id": "7035400001", "name": "USPS COLLECTION BOX - BLUE BOX", "address": {"city": "GALLIANO", "state": "LA", "street": "17599 HIGHWAY 3235", "postcode": "70354"}}},
{"geometry": {"type": "Point", "coordinates": [-90.3118933478, 29.4440707436]}, "type": "Feature", "properties": {"collection_times": [{"days": "Mon-Fri", "time": "3:45pm"}, {"days": "Sat", "time": "7:45am"}, {"days": "Sun", "time": "Closed"}], "id": "7035400002", "name": "USPS COLLECTION BOX - PO LOBBY", "address": {"city": "GALLIANO", "state": "LA", "street": "17599 HIGHWAY 3235", "postcode": "70354"}}},
{"geometry": {"type": "Point", "coordinates": [-90.9877577447, 29.6857539146]}, "type": "Feature", "properties": {"collection_times": [{"days": "Mon-Fri", "time": "3:30pm"}, {"days": "Sat", "time": "10:00am"}, {"days": "Sun", "time": "Closed"}], "id": "7035600001", "name": "USPS COLLECTION BOX - BLUE BOX", "address": {"city": "GIBSON", "state": "LA", "street": "6353 S BAYOU BLACK DR", "postcode": "70356"}}},
{"geometry": {"type": "Point", "coordinates": [-90.9877577447, 29.6857539146]}, "type": "Feature", "properties": {"collection_times": [{"days": "Mon-Fri", "time": "3:30pm"}, {"days": "Sat", "time": "10:00am"}, {"days": "Sun", "time": "Closed"}], "id": "7035600003", "name": "USPS COLLECTION BOX - PO LOBBY", "address": {"city": "GIBSON", "state": "LA", "street": "6353 S BAYOU BLACK DR", "postcode": "70356"}}},
{"geometry": {"type": "Point", "coordinates": [-90.268764681, 29.388114712]}, "type": "Feature", "properties": {"collection_times": [{"days": "Mon-Fri", "time": "4:00pm"}, {"days": "Sat", "time": "11:30am"}, {"days": "Sun", "time": "Closed"}], "id": "7035700005", "name": "USPS COLLECTION BOX - BLUE BOX", "address": {"city": "GOLDEN MEADOW", "state": "LA", "street": "300 S ALEX PLAISANCE BLVD", "postcode": "70357"}}},
{"geometry": {"type": "Point", "coordinates": [-90.268764681, 29.388114712]}, "type": "Feature", "properties": {"collection_times": [{"days": "Mon-Fri", "time": "4:00pm"}, {"days": "Sat", "time": "11:30am"}, {"days": "Sun", "time": "Closed"}], "id": "7035700007", "name": "USPS COLLECTION BOX - PO LOBBY", "address": {"city": "GOLDEN MEADOW", "state": "LA", "street": "300 S ALEX PLAISANCE BLVD", "postcode": "70357"}}},
{"geometry": {"type": "Point", "coordinates": [-90.0140215447, 29.2217352894]}, "type": "Feature", "properties": {"collection_times": [{"days": "Mon-Fri", "time": "3:00pm"}, {"days": "Sat", "time": "10:00am"}, {"days": "Sun", "time": "Closed"}], "id": "7035800003", "name": "USPS COLLECTION BOX - BLUE BOX", "address": {"city": "GRAND ISLE", "state": "LA", "street": "3393 HIGHWAY 1", "postcode": "70358"}}},
{"geometry": {"type": "Point", "coordinates": [-90.0140215447, 29.2217352894]}, "type": "Feature", "properties": {"collection_times": [{"days": "Mon-Fri", "time": "3:00pm"}, {"days": "Sat", "time": "10:00am"}, {"days": "Sun", "time": "Closed"}], "id": "7035800005", "name": "USPS COLLECTION BOX - PO LOBBY", "address": {"city": "GRAND ISLE", "state": "LA", "street": "3393 HIGHWAY 1", "postcode": "70358"}}},
{"geometry": {"type": "Point", "coordinates": [-90.7772946825, 29.6724348699]}, "type": "Feature", "properties": {"collection_times": [{"days": "Mon-Fri", "time": "4:30pm"}, {"days": "Sat", "time": "11:00am"}, {"days": "Sun", "time": "Closed"}], "id": "7035900002", "name": "USPS COLLECTION BOX - BLUE BOX", "address": {"city": "GRAY", "state": "LA", "street": "4442 W MAIN ST", "postcode": "70359"}}},
{"geometry": {"type": "Point", "coordinates": [-90.7772946825, 29.6724348699]}, "type": "Feature", "properties": {"collection_times": [{"days": "Mon-Fri", "time": "4:30pm"}, {"days": "Sat", "time": "11:00am"}, {"days": "Sun", "time": "Closed"}], "id": "7035900004", "name": "USPS COLLECTION BOX - PO LOBBY", "address": {"city": "GRAY", "state": "LA", "street": "4442 W MAIN ST", "postcode": "70359"}}},
{"geometry": {"type": "Point", "coordinates": [-90.7222423743, 29.5971588913]}, "type": "Feature", "properties": {"collection_times": [{"days": "Mon-Fri", "time": "3:30pm"}, {"days": "Sat-Sun", "time": "Closed"}], "id": "7036000003", "name": "USPS COLLECTION BOX - BLUE BOX", "address": {"city": "HOUMA", "state": "LA", "street": "7856 MAIN ST", "postcode": "70360"}}},
{"geometry": {"type": "Point", "coordinates": [-90.71832, 29.598372]}, "type": "Feature", "properties": {"collection_times": [{"days": "Mon-Fri", "time": "3:15pm"}, {"days": "Sat", "time": "9:00am"}, {"days": "Sun", "time": "Closed"}], "id": "7036000008", "name": "USPS COLLECTION BOX - BLUE BOX", "address": {"city": "HOUMA", "state": "LA", "street": "8026 MAIN ST", "postcode": "70360"}}},
{"geometry": {"type": "Point", "coordinates": [-90.7205337756, 29.5976629501]}, "type": "Feature", "properties": {"collection_times": [{"days": "Mon-Fri", "time": "3:30pm"}, {"days": "Sat", "time": "11:00am"}, {"days": "Sun", "time": "Closed"}], "id": "7036000010", "name": "USPS COLLECTION BOX - BLUE BOX", "address": {"city": "HOUMA", "state": "LA", "street": "7910 MAIN ST", "postcode": "70360"}}},
{"geometry": {"type": "Point", "coordinates": [-90.7178953874, 29.5984017798]}, "type": "Feature", "properties": {"collection_times": [{"days": "Mon-Fri", "time": "3:15pm"}, {"days": "Sat", "time": "9:00am"}, {"days": "Sun", "time": "Closed"}], "id": "7036000013", "name": "USPS COLLECTION BOX - BLUE BOX", "address": {"city": "HOUMA", "state": "LA", "street": "8026 MAIN ST", "postcode": "70360"}}},
{"geometry": {"type": "Point", "coordinates": [-90.7454833162, 29.5990019801]}, "type": "Feature", "properties": {"collection_times": [{"days": "Mon-Fri", "time": "1:15pm"}, {"days": "Sat", "time": "9:30am"}, {"days": "Sun", "time": "Closed"}], "id": "7036000017", "name": "USPS COLLECTION BOX - BLUE BOX", "address": {"city": "HOUMA", "state": "LA", "street": "1340 W TUNNEL BLVD", "postcode": "70360"}}},
{"geometry": {"type": "Point", "coordinates": [-90.7362147641, 29.5927071825]}, "type": "Feature", "properties": {"collection_times": [{"days": "Mon-Fri", "time": "2:15pm"}, {"days": "Sat", "time": "11:00am"}, {"days": "Sun", "time": "Closed"}], "id": "7036000022", "name": "USPS COLLECTION BOX - BLUE BOX", "address": {"city": "HOUMA", "state": "LA", "street": "1047 W TUNNEL BLVD", "postcode": "70360"}}},
{"geometry": {"type": "Point", "coordinates": [-90.7600634177, 29.6364577162]}, "type": "Feature", "properties": {"collection_times": [{"days": "Mon-Fri", "time": "1:30pm"}, {"days": "Sat", "time": "10:00am"}, {"days": "Sun", "time": "Closed"}], "id": "7036000032", "name": "USPS COLLECTION BOX - BLUE BOX", "address": {"city": "HOUMA", "state": "LA", "street": "5818 W MAIN ST", "postcode": "70360"}}},
{"geometry": {"type": "Point", "coordinates": [-90.7198424056, 29.5925825905]}, "type": "Feature", "properties": {"collection_times": [{"days": "Mon-Fri", "time": "3:15pm"}, {"days": "Sat", "time": "11:00am"}, {"days": "Sun", "time": "Closed"}], "id": "7036000035", "name": "USPS COLLECTION BOX - BLUE BOX", "address": {"city": "HOUMA", "state": "LA", "street": "801 BARROW ST", "postcode": "70360"}}},
{"geometry": {"type": "Point", "coordinates": [-90.7237270761, 29.5947694414]}, "type": "Feature", "properties": {"collection_times": [{"days": "Mon-Fri", "time": "3:45pm"}, {"days": "Sat", "time": "4:00pm"}, {"days": "Sun", "time": "Closed"}], "id": "7036100001", "name": "USPS COLLECTION BOX - BLUE BOX", "address": {"city": "HOUMA", "state": "LA", "street": "500 GRINAGE ST", "postcode": "70361"}}},
{"geometry": {"type": "Point", "coordinates": [-90.7237270761, 29.5947694414]}, "type": "Feature", "properties": {"collection_times": [{"days": "Mon-Fri", "time": "3:45pm"}, {"days": "Sat", "time": "4:00pm"}, {"days": "Sun", "time": "Closed"}], "id": "7036100002", "name": "USPS COLLECTION BOX - BLUE BOX", "address": {"city": "HOUMA", "state": "LA", "street": "500 GRINAGE ST", "postcode": "70361"}}},
{"geometry": {"type": "Point", "coordinates": [-90.7237270761, 29.5947694414]}, "type": "Feature", "properties": {"collection_times": [{"days": "Mon-Fri", "time": "3:45pm"}, {"days": "Sat", "time": "4:00pm"}, {"days": "Sun", "time": "Closed"}], "id": "7036100003", "name": "USPS COLLECTION BOX - BLUE BOX", "address": {"city": "HOUMA", "state": "LA", "street": "500 GRINAGE ST", "postcode": "70361"}}},
{"geometry": {"type": "Point", "coordinates": [-90.7243947664, 29.5953929235]}, "type": "Feature", "properties": {"collection_times": [{"days": "Mon-Fri", "time": "5:00pm"}, {"days": "Sat", "time": "4:00pm"}, {"days": "Sun", "time": "Closed"}], "id": "7036100005", "name": "USPS COLLECTION BOX - PO LOBBY", "address": {"city": "HOUMA", "state": "LA", "street": "425 LAFAYETTE ST", "postcode": "70361"}}},
{"geometry": {"type": "Point", "coordinates": [-90.7243947664, 29.5953929235]}, "type": "Feature", "properties": {"collection_times": [{"days": "Mon-Fri", "time": "5:00pm"}, {"days": "Sat", "time": "4:00pm"}, {"days": "Sun", "time": "Closed"}], "id": "7036100006", "name": "USPS COLLECTION BOX - PO LOBBY", "address": {"city": "HOUMA", "state": "LA", "street": "425 LAFAYETTE ST", "postcode": "70361"}}},
{"geometry": {"type": "Point", "coordinates": [-90.6963436427, 29.5723625595]}, "type": "Feature", "properties": {"collection_times": [{"days": "Mon-Fri", "time": "2:45pm"}, {"days": "Sat", "time": "10:00am"}, {"days": "Sun", "time": "Closed"}], "id": "7036300002", "name": "USPS COLLECTION BOX - BLUE BOX", "address": {"city": "HOUMA", "state": "LA", "street": "1978 INDUSTRIAL BLVD", "postcode": "70363"}}},
{"geometry": {"type": "Point", "coordinates": [-90.6963436427, 29.5723625595]}, "type": "Feature", "properties": {"collection_times": [{"days": "Mon-Fri", "time": "2:45pm"}, {"days": "Sat", "time": "10:00am"}, {"days": "Sun", "time": "Closed"}], "id": "7036300003", "name": "USPS COLLECTION BOX - BLUE BOX", "address": {"city": "HOUMA", "state": "LA", "street": "1978 INDUSTRIAL BLVD", "postcode": "70363"}}},
{"geometry": {"type": "Point", "coordinates": [-90.6879419938, 29.5794502404]}, "type": "Feature", "properties": {"collection_times": [{"days": "Mon-Fri", "time": "2:45pm"}, {"days": "Sat", "time": "11:00am"}, {"days": "Sun", "time": "Closed"}], "id": "7036300005", "name": "USPS COLLECTION BOX - BLUE BOX", "address": {"city": "HOUMA", "state": "LA", "street": "1977 PROSPECT BLVD", "postcode": "70363"}}},
{"geometry": {"type": "Point", "coordinates": [-90.7037623661, 29.59251663]}, "type": "Feature", "properties": {"collection_times": [{"days": "Mon-Fri", "time": "3:00pm"}, {"days": "Sat", "time": "9:00am"}, {"days": "Sun", "time": "Closed"}], "id": "7036300008", "name": "USPS COLLECTION BOX - BLUE BOX", "address": {"city": "HOUMA", "state": "LA", "street": "437 GRAND CAILLOU RD", "postcode": "70363"}}},
{"geometry": {"type": "Point", "coordinates": [-90.7580504913, 29.6338877151]}, "type": "Feature", "properties": {"collection_times": [{"days": "Mon-Fri", "time": "1:30pm"}, {"days": "Sat", "time": "9:30am"}, {"days": "Sun", "time": "Closed"}], "id": "7036400018", "name": "USPS COLLECTION BOX - BLUE BOX", "address": {"city": "HOUMA", "state": "LA", "street": "5953 W PARK AVE", "postcode": "70364"}}},
{"geometry": {"type": "Point", "coordinates": [-90.755237298, 29.6300378177]}, "type": "Feature", "properties": {"collection_times": [{"days": "Mon-Fri", "time": "1:30pm"}, {"days": "Sat", "time": "9:00am"}, {"days": "Sun", "time": "Closed"}], "id": "7036400019", "name": "USPS COLLECTION BOX - BLUE BOX", "address": {"city": "HOUMA", "state": "LA", "street": "6084 W PARK AVE", "postcode": "70364"}}},
{"geometry": {"type": "Point", "coordinates": [-90.9499711117, 29.8360867751]}, "type": "Feature", "properties": {"collection_times": [{"days": "Mon-Fri", "time": "3:00pm"}, {"days": "Sat", "time": "7:00am"}, {"days": "Sun", "time": "Closed"}], "id": "7037200003", "name": "USPS COLLECTION BOX - PO LOBBY", "address": {"city": "LABADIEVILLE", "state": "LA", "street": "2643 HIGHWAY 1", "postcode": "70372"}}},
{"geometry": {"type": "Point", "coordinates": [-90.9499711117, 29.8360867751]}, "type": "Feature", "properties": {"collection_times": [{"days": "Mon-Fri", "time": "3:00pm"}, {"days": "Sat", "time": "7:00am"}, {"days": "Sun", "time": "Closed"}], "id": "7037200004", "name": "USPS COLLECTION BOX - BLUE BOX", "address": {"city": "LABADIEVILLE", "state": "LA", "street": "2643 HIGHWAY 1", "postcode": "70372"}}},
{"geometry": {"type": "Point", "coordinates": [-90.3624906264, 29.5649847556]}, "type": "Feature", "properties": {"collection_times": [{"days": "Mon-Fri", "time": "4:00pm"}, {"days": "Sat", "time": "8:00am"}, {"days": "Sun", "time": "Closed"}], "id": "7037300001", "name": "USPS COLLECTION BOX - BLUE BOX", "address": {"city": "LAROSE", "state": "LA", "street": "123 W 17TH ST", "postcode": "70373"}}},
{"geometry": {"type": "Point", "coordinates": [-90.3624906264, 29.5649847556]}, "type": "Feature", "properties": {"collection_times": [{"days": "Mon-Fri", "time": "4:00pm"}, {"days": "Sat", "time": "8:00am"}, {"days": "Sun", "time": "Closed"}], "id": "7037300004", "name": "USPS COLLECTION BOX - PO LOBBY", "address": {"city": "LAROSE", "state": "LA", "street": "123 W 17TH ST", "postcode": "70373"}}},
{"geometry": {"type": "Point", "coordinates": [-90.5367251973, 29.6393820953]}, "type": "Feature", "properties": {"collection_times": [{"days": "Mon-Fri", "time": "4:30pm"}, {"days": "Sat", "time": "3:00pm"}, {"days": "Sun", "time": "Closed"}], "id": "7037400002", "name": "USPS COLLECTION BOX - BLUE BOX", "address": {"city": "LOCKPORT", "state": "LA", "street": "706 CRESCENT AVE", "postcode": "70374"}}},
{"geometry": {"type": "Point", "coordinates": [-90.5367251973, 29.6393820953]}, "type": "Feature", "properties": {"collection_times": [{"days": "Mon-Fri", "time": "4:30pm"}, {"days": "Sat", "time": "3:00pm"}, {"days": "Sun", "time": "Closed"}], "id": "7037400011", "name": "USPS COLLECTION BOX - PO LOBBY", "address": {"city": "LOCKPORT", "state": "LA", "street": "706 CRESCENT AVE", "postcode": "70374"}}},
{"geometry": {"type": "Point", "coordinates": [-90.5367251973, 29.6393820953]}, "type": "Feature", "properties": {"collection_times": [{"days": "Mon-Fri", "time": "4:30pm"}, {"days": "Sat", "time": "3:00pm"}, {"days": "Sun", "time": "Closed"}], "id": "7037400012", "name": "USPS COLLECTION BOX - PO LOBBY", "address": {"city": "LOCKPORT", "state": "LA", "street": "706 CRESCENT AVE", "postcode": "70374"}}},
{"geometry": {"type": "Point", "coordinates": [-90.5373962027, 29.6887241231]}, "type": "Feature", "properties": {"collection_times": [{"days": "Mon-Fri", "time": "3:30pm"}, {"days": "Sat", "time": "8:30am"}, {"days": "Sun", "time": "Closed"}], "id": "7037500001", "name": "USPS COLLECTION BOX - BLUE BOX", "address": {"city": "MATHEWS", "state": "LA", "street": "4884 HIGHWAY 1 STE 4", "postcode": "70375"}}},
{"geometry": {"type": "Point", "coordinates": [-90.5492783394, 29.6908773022]}, "type": "Feature", "properties": {"collection_times": [{"days": "Mon-Fri", "time": "3:30pm"}, {"days": "Sat", "time": "8:30am"}, {"days": "Sun", "time": "Closed"}], "id": "7037500002", "name": "USPS COLLECTION BOX - PO LOBBY", "address": {"city": "MATHEWS", "state": "LA", "street": "4884 HIGHWAY 1 STE 4", "postcode": "70375"}}},
{"geometry": {"type": "Point", "coordinates": [-90.5586008395, 29.4700188796]}, "type": "Feature", "properties": {"collection_times": [{"days": "Mon-Fri", "time": "3:30pm"}, {"days": "Sat", "time": "11:00am"}, {"days": "Sun", "time": "Closed"}], "id": "7037700001", "name": "USPS COLLECTION BOX - BLUE BOX", "address": {"city": "MONTEGUT", "state": "LA", "street": "1225 HIGHWAY 55", "postcode": "70377"}}},
{"geometry": {"type": "Point", "coordinates": [-90.5586008395, 29.4700188796]}, "type": "Feature", "properties": {"collection_times": [{"days": "Mon-Fri", "time": "3:30pm"}, {"days": "Sat", "time": "11:00am"}, {"days": "Sun", "time": "Closed"}], "id": "7037700005", "name": "USPS COLLECTION BOX - PO LOBBY", "address": {"city": "MONTEGUT", "state": "LA", "street": "1225 HIGHWAY 55", "postcode": "70377"}}},
{"geometry": {"type": "Point", "coordinates": [-91.1995834578, 29.7024306714]}, "type": "Feature", "properties": {"collection_times": [{"days": "Mon-Fri", "time": "5:00pm"}, {"days": "Sat", "time": "2:00pm"}, {"days": "Sun", "time": "Closed"}], "id": "7038000001", "name": "USPS COLLECTION BOX - PO LOBBY", "address": {"city": "MORGAN CITY", "state": "LA", "street": "1112 BRASHEAR AVE", "postcode": "70380"}}},
{"geometry": {"type": "Point", "coordinates": [-91.1995834578, 29.7024306714]}, "type": "Feature", "properties": {"collection_times": [{"days": "Mon-Fri", "time": "5:00pm"}, {"days": "Sat", "time": "2:00pm"}, {"days": "Sun", "time": "Closed"}], "id": "7038000002", "name": "USPS COLLECTION BOX - PO LOBBY", "address": {"city": "MORGAN CITY", "state": "LA", "street": "1112 BRASHEAR AVE", "postcode": "70380"}}},
{"geometry": {"type": "Point", "coordinates": [-91.1995834578, 29.7024306714]}, "type": "Feature", "properties": {"collection_times": [{"days": "Mon-Fri", "time": "5:00pm"}, {"days": "Sat", "time": "2:00pm"}, {"days": "Sun", "time": "Closed"}], "id": "7038000005", "name": "USPS COLLECTION BOX - BLUE BOX", "address": {"city": "MORGAN CITY", "state": "LA", "street": "1112 BRASHEAR AVE", "postcode": "70380"}}},
{"geometry": {"type": "Point", "coordinates": [-91.1995834578, 29.7024306714]}, "type": "Feature", "properties": {"collection_times": [{"days": "Mon-Fri", "time": "5:00pm"}, {"days": "Sat", "time": "2:00pm"}, {"days": "Sun", "time": "Closed"}], "id": "7038000006", "name": "USPS COLLECTION BOX - BLUE BOX", "address": {"city": "MORGAN CITY", "state": "LA", "street": "1112 BRASHEAR AVE", "postcode": "70380"}}},
{"geometry": {"type": "Point", "coordinates": [-91.208677874, 29.694037127]}, "type": "Feature", "properties": {"collection_times": [{"days": "Mon-Fri", "time": "3:30pm"}, {"days": "Sat-Sun", "time": "Closed"}], "id": "7038000013", "name": "USPS COLLECTION BOX - PO LOBBY", "address": {"city": "MORGAN CITY", "state": "LA", "street": "511 1ST ST", "postcode": "70380"}}},
{"geometry": {"type": "Point", "coordinates": [-91.208677874, 29.694037127]}, "type": "Feature", "properties": {"collection_times": [{"days": "Mon-Fri", "time": "3:30pm"}, {"days": "Sat-Sun", "time": "Closed"}], "id": "7038000014", "name": "USPS COLLECTION BOX - BLUE BOX", "address": {"city": "MORGAN CITY", "state": "LA", "street": "511 1ST ST", "postcode": "70380"}}},
{"geometry": {"type": "Point", "coordinates": [-91.0548153777, 29.9130641615]}, "type": "Feature", "properties": {"collection_times": [{"days": "Mon-Fri", "time": "4:00pm"}, {"days": "Sat", "time": "11:00am"}, {"days": "Sun", "time": "Closed"}], "id": "7039000004", "name": "USPS COLLECTION BOX - PO LOBBY", "address": {"city": "NAPOLEONVILLE", "state": "LA", "street": "181 HIGHWAY 401", "postcode": "70390"}}},
{"geometry": {"type": "Point", "coordinates": [-91.0548153777, 29.9130641615]}, "type": "Feature", "properties": {"collection_times": [{"days": "Mon-Fri", "time": "4:00pm"}, {"days": "Sat", "time": "11:00am"}, {"days": "Sun", "time": "Closed"}], "id": "7039000007", "name": "USPS COLLECTION BOX - BLUE BOX", "address": {"city": "NAPOLEONVILLE", "state": "LA", "street": "181 HIGHWAY 401", "postcode": "70390"}}},
{"geometry": {"type": "Point", "coordinates": [-91.0546225325, 29.9930666291]}, "type": "Feature", "properties": {"collection_times": [{"days": "Mon-Fri", "time": "3:30pm"}, {"days": "Sat", "time": "8:00am"}, {"days": "Sun", "time": "Closed"}], "id": "7039100001", "name": "USPS COLLECTION BOX - BLUE BOX", "address": {"city": "PAINCOURTVILLE", "state": "LA", "street": "6075 HIGHWAY 1", "postcode": "70391"}}},
{"geometry": {"type": "Point", "coordinates": [-91.0546225325, 29.9930666291]}, "type": "Feature", "properties": {"collection_times": [{"days": "Mon-Fri", "time": "3:30pm"}, {"days": "Sat-Sun", "time": "Closed"}], "id": "7039100002", "name": "USPS COLLECTION BOX - PO LOBBY", "address": {"city": "PAINCOURTVILLE", "state": "LA", "street": "6075 HIGHWAY 1", "postcode": "70391"}}},
{"geometry": {"type": "Point", "coordinates": [-91.3095439787, 29.6923193694]}, "type": "Feature", "properties": {"collection_times": [{"days": "Mon-Fri", "time": "3:30pm"}, {"days": "Sat", "time": "11:30am"}, {"days": "Sun", "time": "Closed"}], "id": "7039200005", "name": "USPS COLLECTION BOX - BLUE BOX", "address": {"city": "PATTERSON", "state": "LA", "street": "600 CATHERINE ST", "postcode": "70392"}}},
{"geometry": {"type": "Point", "coordinates": [-91.3095439787, 29.6923193694]}, "type": "Feature", "properties": {"collection_times": [{"days": "Mon-Fri", "time": "3:30pm"}, {"days": "Sat", "time": "11:30am"}, {"days": "Sun", "time": "Closed"}], "id": "7039200007", "name": "USPS COLLECTION BOX - PO LOBBY", "address": {"city": "PATTERSON", "state": "LA", "street": "600 CATHERINE ST", "postcode": "70392"}}},
{"geometry": {"type": "Point", "coordinates": [-91.0250085302, 30.0017158124]}, "type": "Feature", "properties": {"collection_times": [{"days": "Mon-Fri", "time": "3:30pm"}, {"days": "Sat", "time": "8:45am"}, {"days": "Sun", "time": "Closed"}], "id": "7039300001", "name": "USPS COLLECTION BOX - BLUE BOX", "address": {"city": "PLATTENVILLE", "state": "LA", "street": "220 HIGHWAY 70 SPUR", "postcode": "70393"}}},
{"geometry": {"type": "Point", "coordinates": [-91.0250085302, 30.0017158124]}, "type": "Feature", "properties": {"collection_times": [{"days": "Mon-Fri", "time": "3:30pm"}, {"days": "Sat", "time": "8:45am"}, {"days": "Sun", "time": "Closed"}], "id": "7039300003", "name": "USPS COLLECTION BOX - PO LOBBY", "address": {"city": "PLATTENVILLE", "state": "LA", "street": "220 HIGHWAY 70 SPUR", "postcode": "70393"}}},
{"geometry": {"type": "Point", "coordinates": [-90.597832886, 29.7305649394]}, "type": "Feature", "properties": {"collection_times": [{"days": "Mon-Fri", "time": "4:00pm"}, {"days": "Sat", "time": "1:00pm"}, {"days": "Sun", "time": "Closed"}], "id": "7039400004", "name": "USPS COLLECTION BOX - BLUE BOX", "address": {"city": "RACELAND", "state": "LA", "street": "109 RACELAND ST", "postcode": "70394"}}},
{"geometry": {"type": "Point", "coordinates": [-90.597832886, 29.7305649394]}, "type": "Feature", "properties": {"collection_times": [{"days": "Mon-Fri", "time": "4:00pm"}, {"days": "Sat", "time": "1:00pm"}, {"days": "Sun", "time": "Closed"}], "id": "7039400006", "name": "USPS COLLECTION BOX - PO LOBBY", "address": {"city": "RACELAND", "state": "LA", "street": "109 RACELAND ST", "postcode": "70394"}}},
{"geometry": {"type": "Point", "coordinates": [-90.8098378341, 29.7449792073]}, "type": "Feature", "properties": {"collection_times": [{"days": "Mon-Fri", "time": "3:30pm"}, {"days": "Sat", "time": "10:00am"}, {"days": "Sun", "time": "Closed"}], "id": "7039500001", "name": "USPS COLLECTION BOX - BLUE BOX", "address": {"city": "SCHRIEVER", "state": "LA", "street": "201 OLD HIGHWAY 659", "postcode": "70395"}}},
{"geometry": {"type": "Point", "coordinates": [-90.8084455852, 29.7431432773]}, "type": "Feature", "properties": {"collection_times": [{"days": "Mon-Fri", "time": "3:30pm"}, {"days": "Sat", "time": "10:00am"}, {"days": "Sun", "time": "Closed"}], "id": "7039500004", "name": "USPS COLLECTION BOX - PO LOBBY", "address": {"city": "SCHRIEVER", "state": "LA", "street": "201 OLD HIGHWAY 659", "postcode": "70395"}}}
]}
