{"type": "FeatureCollection", "features": [
{"geometry": {"type": "Point", "coordinates": [-90.4613355795, 30.5040813757]}, "type": "Feature", "properties": {"collection_times": [{"days": "Mon-Fri", "time": "5:00pm"}, {"days": "Sat", "time": "3:45pm"}, {"days": "Sun", "time": "Closed"}], "id": "7040100003", "name": "USPS COLLECTION BOX - BLUE BOX", "address": {"city": "HAMMOND", "state": "LA", "street": "105 NW RAILROAD AVE", "postcode": "70401"}}},
{"geometry": {"type": "Point", "coordinates": [-90.4613355795, 30.5040813757]}, "type": "Feature", "properties": {"collection_times": [{"days": "Mon-Fri", "time": "5:00pm"}, {"days": "Sat", "time": "3:45pm"}, {"days": "Sun", "time": "Closed"}], "id": "7040100004", "name": "USPS COLLECTION BOX - BLUE BOX", "address": {"city": "HAMMOND", "state": "LA", "street": "105 NW RAILROAD AVE", "postcode": "70401"}}},
{"geometry": {"type": "Point", "coordinates": [-90.4925878702, 30.5030154779]}, "type": "Feature", "properties": {"collection_times": [{"days": "Mon-Fri", "time": "10:00am"}, {"days": "Sat-Sun", "time": "Closed"}], "id": "7040100011", "name": "USPS COLLECTION BOX - BLUE BOX", "address": {"city": "HAMMOND", "state": "LA", "street": "2799 W THOMAS ST", "postcode": "70401"}}},
{"geometry": {"type": "Point", "coordinates": [-90.4824402157, 30.5101081882]}, "type": "Feature", "properties": {"collection_times": [{"days": "Mon-Fri", "time": "1:30pm"}, {"days": "Sat-Sun", "time": "Closed"}], "id": "7040100012", "name": "USPS COLLECTION BOX - BLUE BOX", "address": {"city": "HAMMOND", "state": "LA", "street": "1000 N MORRISON BLVD", "postcode": "70401"}}},
{"geometry": {"type": "Point", "coordinates": [-90.4613355795, 30.5040813757]}, "type": "Feature", "properties": {"collection_times": [{"days": "Mon-Fri", "time": "5:00pm"}, {"days": "Sat", "time": "3:45pm"}, {"days": "Sun", "time": "Closed"}], "id": "7040100024", "name": "USPS COLLECTION BOX - PO LOBBY", "address": {"city": "HAMMOND", "state": "LA", "street": "105 NW RAILROAD AVE", "postcode": "70401"}}},
{"geometry": {"type": "Point", "coordinates": [-90.455629666, 30.5287080175]}, "type": "Feature", "properties": {"collection_times": [{"days": "Mon-Fri", "time": "10:00am"}, {"days": "Sat-Sun", "time": "Closed"}], "id": "7040100032", "name": "USPS COLLECTION BOX - BLUE BOX", "address": {"city": "HAMMOND", "state": "LA", "street": "100 W TORNADO DR", "postcode": "70401"}}},
{"geometry": {"type": "Point", "coordinates": [-90.4570129415, 30.4827821418]}, "type": "Feature", "properties": {"collection_times": [{"days": "Mon-Fri", "time": "10:00am"}, {"days": "Sat-Sun", "time": "Closed"}], "id": "7040300001", "name": "USPS COLLECTION BOX - BLUE BOX", "address": {"city": "HAMMOND", "state": "LA", "street": "2000 SW RAILROAD AVE", "postcode": "70403"}}},
{"geometry": {"type": "Point", "coordinates": [-90.4566897025, 30.4854402815]}, "type": "Feature", "properties": {"collection_times": [{"days": "Mon-Fri", "time": "10:30am"}, {"days": "Sat-Sun", "time": "Closed"}], "id": "7040300005", "name": "USPS COLLECTION BOX - BLUE BOX", "address": {"city": "HAMMOND", "state": "LA", "street": "1745 SW RAILROAD AVE", "postcode": "70403"}}},
{"geometry": {"type": "Point", "coordinates": [-90.483026569, 30.4891877108]}, "type": "Feature", "properties": {"collection_times": [{"days": "Mon-Fri", "time": "9:00am"}, {"days": "Sat-Sun", "time": "Closed"}], "id": "7040300007", "name": "USPS COLLECTION BOX - BLUE BOX", "address": {"city": "HAMMOND", "state": "LA", "street": "1100 ROMA AVE", "postcode": "70403"}}},
{"geometry": {"type": "Point", "coordinates": [-90.4848769481, 30.4881510434]}, "type": "Feature", "properties": {"collection_times": [{"days": "Mon-Fri", "time": "10:30am"}, {"days": "Sat-Sun", "time": "Closed"}], "id": "7040300008", "name": "USPS COLLECTION BOX - BLUE BOX", "address": {"city": "HAMMOND", "state": "LA", "street": "1200 DEREK DR", "postcode": "70403"}}},
{"geometry": {"type": "Point", "coordinates": [-90.0270179274, 30.4813620544]}, "type": "Feature", "properties": {"collection_times": [{"days": "Mon-Fri", "time": "4:15pm"}, {"days": "Sat", "time": "10:45am"}, {"days": "Sun", "time": "Closed"}], "id": "7042000001", "name": "USPS COLLECTION BOX - BLUE BOX", "address": {"city": "ABITA SPRINGS", "state": "LA", "street": "22444 HIGHWAY 435", "postcode": "70420"}}},
{"geometry": {"type": "Point", "coordinates": [-90.0270179274, 30.4813620544]}, "type": "Feature", "properties": {"collection_times": [{"days": "Mon-Fri", "time": "4:15pm"}, {"days": "Sat", "time": "10:45am"}, {"days": "Sun", "time": "Closed"}], "id": "7042000005", "name": "USPS COLLECTION BOX - PO LOBBY", "address": {"city": "ABITA SPRINGS", "state": "LA", "street": "22444 HIGHWAY 435", "postcode": "70420"}}},
{"geometry": {"type": "Point", "coordinates": [-90.0270179274, 30.4813620544]}, "type": "Feature", "properties": {"collection_times": [{"days": "Mon-Fri", "time": "4:15pm"}, {"days": "Sat", "time": "10:45am"}, {"days": "Sun", "time": "Closed"}], "id": "7042000006", "name": "USPS COLLECTION BOX - PO LOBBY", "address": {"city": "ABITA SPRINGS", "state": "LA", "street": "22444 HIGHWAY 435", "postcode": "70420"}}},
{"geometry": {"type": "Point", "coordinates": [-90.5085546317, 30.7280867614]}, "type": "Feature", "properties": {"collection_times": [{"days": "Mon-Fri", "time": "4:00pm"}, {"days": "Sat", "time": "11:00am"}, {"days": "Sun", "time": "Closed"}], "id": "7042200002", "name": "USPS COLLECTION BOX - BLUE BOX", "address": {"city": "AMITE", "state": "LA", "street": "113 E MULBERRY ST", "postcode": "70422"}}},
{"geometry": {"type": "Point", "coordinates": [-90.5085546317, 30.7280867614]}, "type": "Feature", "properties": {"collection_times": [{"days": "Mon-Fri", "time": "4:00pm"}, {"days": "Sat", "time": "11:00am"}, {"days": "Sun", "time": "Closed"}], "id": "7042200010", "name": "USPS COLLECTION BOX - PO LOBBY", "address": {"city": "AMITE", "state": "LA", "street": "113 E MULBERRY ST", "postcode": "70422"}}},
{"geometry": {"type": "Point", "coordinates": [-90.5051924927, 30.7268847365]}, "type": "Feature", "properties": {"collection_times": [{"days": "Mon-Fri", "time": "2:00pm"}, {"days": "Sat", "time": "11:30am"}, {"days": "Sun", "time": "Closed"}], "id": "7042200011", "name": "USPS COLLECTION BOX - BLUE BOX", "address": {"city": "AMITE", "state": "LA", "street": "110 N BAY ST", "postcode": "70422"}}},
{"geometry": {"type": "Point", "coordinates": [-89.8121600639, 30.9596623351]}, "type": "Feature", "properties": {"collection_times": [{"days": "Mon-Fri", "time": "4:00pm"}, {"days": "Sat", "time": "10:00am"}, {"days": "Sun", "time": "Closed"}], "id": "7042600002", "name": "USPS COLLECTION BOX - PO LOBBY", "address": {"city": "ANGIE", "state": "LA", "street": "29891 HIGHWAY 21", "postcode": "70426"}}},
{"geometry": {"type": "Point", "coordinates": [-89.865987024, 30.779516465]}, "type": "Feature", "properties": {"collection_times": [{"days": "Mon-Fri", "time": "4:30pm"}, {"days": "Sat", "time": "3:30pm"}, {"days": "Sun", "time": "Closed"}], "id": "7042700003", "name": "USPS COLLECTION BOX - BLUE BOX", "address": {"city": "BOGALUSA", "state": "LA", "street": "100 M J ISRAEL DR", "postcode": "70427"}}},
{"geometry": {"type": "Point", "coordinates": [-89.865987024, 30.779516465]}, "type": "Feature", "properties": {"collection_times": [{"days": "Mon-Fri", "time": "4:30pm"}, {"days": "Sat", "time": "3:30pm"}, {"days": "Sun", "time": "Closed"}], "id": "7042700004", "name": "USPS COLLECTION BOX - BLUE BOX", "address": {"city": "BOGALUSA", "state": "LA", "street": "100 M J ISRAEL DR", "postcode": "70427"}}},
{"geometry": {"type": "Point", "coordinates": [-89.854403067, 30.774862744]}, "type": "Feature", "properties": {"collection_times": [{"days": "Mon-Fri", "time": "11:30am"}, {"days": "Sat-Sun", "time": "Closed"}], "id": "7042700012", "name": "USPS COLLECTION BOX - BLUE BOX", "address": {"city": "BOGALUSA", "state": "LA", "street": "500 COLUMBIA ST", "postcode": "70427"}}},
{"geometry": {"type": "Point", "coordinates": [-89.855532113, 30.781379526]}, "type": "Feature", "properties": {"collection_times": [{"days": "Mon-Fri", "time": "9:30am"}, {"days": "Sat-Sun", "time": "Closed"}], "id": "7042700013", "name": "USPS COLLECTION BOX - BLUE BOX", "address": {"city": "BOGALUSA", "state": "LA", "street": "100 RICHMOND ST", "postcode": "70427"}}},
{"geometry": {"type": "Point", "coordinates": [-89.857172655, 30.786869289]}, "type": "Feature", "properties": {"collection_times": [{"days": "Mon-Fri", "time": "9:30am"}, {"days": "Sat-Sun", "time": "Closed"}], "id": "7042700014", "name": "USPS COLLECTION BOX - BLUE BOX", "address": {"city": "BOGALUSA", "state": "LA", "street": "400 GEORGIA AVE", "postcode": "70427"}}},
{"geometry": {"type": "Point", "coordinates": [-89.8619642746, 30.790916185]}, "type": "Feature", "properties": {"collection_times": [{"days": "Mon-Fri", "time": "10:00am"}, {"days": "Sat-Sun", "time": "Closed"}], "id": "7042700016", "name": "USPS COLLECTION BOX - BLUE BOX", "address": {"city": "BOGALUSA", "state": "LA", "street": "200 SUPERIOR AVE", "postcode": "70427"}}},
{"geometry": {"type": "Point", "coordinates": [-89.860762812, 30.790945534]}, "type": "Feature", "properties": {"collection_times": [{"days": "Mon-Fri", "time": "4:30pm"}, {"days": "Sat", "time": "3:30pm"}, {"days": "Sun", "time": "Closed"}], "id": "7042700025", "name": "USPS COLLECTION BOX - PO LOBBY", "address": {"city": "BOGALUSA", "state": "LA", "street": "305 AVENUE B", "postcode": "70427"}}},
{"geometry": {"type": "Point", "coordinates": [-89.8995123563, 30.6093383991]}, "type": "Feature", "properties": {"collection_times": [{"days": "Mon-Fri", "time": "3:30pm"}, {"days": "Sat", "time": "11:00am"}, {"days": "Sun", "time": "Closed"}], "id": "7043100001", "name": "USPS COLLECTION BOX - BLUE BOX", "address": {"city": "BUSH", "state": "LA", "street": "81880 HIGHWAY 41", "postcode": "70431"}}},
{"geometry": {"type": "Point", "coordinates": [-89.8995123563, 30.6093383991]}, "type": "Feature", "properties": {"collection_times": [{"days": "Mon-Fri", "time": "3:30pm"}, {"days": "Sat", "time": "11:00am"}, {"days": "Sun", "time": "Closed"}], "id": "7043100002", "name": "USPS COLLECTION BOX - PO LOBBY", "address": {"city": "BUSH", "state": "LA", "street": "81880 HIGHWAY 41", "postcode": "70431"}}},
{"geometry": {"type": "Point", "coordinates": [-90.0931385147, 30.4795849608]}, "type": "Feature", "properties": {"collection_times": [{"days": "Mon-Fri", "time": "10:45am"}, {"days": "Sat-Sun", "time": "Closed"}], "id": "7043300005", "name": "USPS COLLECTION BOX - BLUE BOX", "address": {"city": "COVINGTON", "state": "LA", "street": "800 COVINGTON CENTRE", "postcode": "70433"}}},
{"geometry": {"type": "Point", "coordinates": [-90.0957986694, 30.4757460077]}, "type": "Feature", "properties": {"collection_times": [{"days": "Mon-Fri", "time": "1:00pm"}, {"days": "Sat-Sun", "time": "Closed"}], "id": "7043300007", "name": "USPS COLLECTION BOX - BLUE BOX", "address": {"city": "COVINGTON", "state": "LA", "street": "321 N NEW HAMPSHIRE ST", "postcode": "70433"}}},
{"geometry": {"type": "Point", "coordinates": [-90.0859429734, 30.4378788914]}, "type": "Feature", "properties": {"collection_times": [{"days": "Mon-Fri", "time": "11:30am"}, {"days": "Sat-Sun", "time": "Closed"}], "id": "7043300009", "name": "USPS COLLECTION BOX - BLUE BOX", "address": {"city": "COVINGTON", "state": "LA", "street": "70431 HIGHWAY 21", "postcode": "70433"}}},
{"geometry": {"type": "Point", "coordinates": [-90.0829898625, 30.4387503337]}, "type": "Feature", "properties": {"collection_times": [{"days": "Mon-Fri", "time": "1:00pm"}, {"days": "Sat-Sun", "time": "Closed"}], "id": "7043300011", "name": "USPS COLLECTION BOX - BLUE BOX", "address": {"city": "COVINGTON", "state": "LA", "street": "600 N HIGHWAY 190", "postcode": "70433"}}},
{"geometry": {"type": "Point", "coordinates": [-90.1057531158, 30.4782440368]}, "type": "Feature", "properties": {"collection_times": [{"days": "Mon-Fri", "time": "1:00pm"}, {"days": "Sat-Sun", "time": "Closed"}], "id": "7043300014", "name": "USPS COLLECTION BOX - BLUE BOX", "address": {"city": "COVINGTON", "state": "LA", "street": "627 W 21ST AVE", "postcode": "70433"}}},
{"geometry": {"type": "Point", "coordinates": [-90.1003951295, 30.4753462089]}, "type": "Feature", "properties": {"collection_times": [{"days": "Mon-Fri", "time": "10:45am"}, {"days": "Sat-Sun", "time": "Closed"}], "id": "7043300016", "name": "USPS COLLECTION BOX - BLUE BOX", "address": {"city": "COVINGTON", "state": "LA", "street": "125 E 21ST AVE", "postcode": "70433"}}},
{"geometry": {"type": "Point", "coordinates": [-90.0836496296, 30.4427239951]}, "type": "Feature", "properties": {"collection_times": [{"days": "Mon-Fri", "time": "10:15am"}, {"days": "Sat-Sun", "time": "Closed"}], "id": "7043300020", "name": "USPS COLLECTION BOX - BLUE BOX", "address": {"city": "COVINGTON", "state": "LA", "street": "109 NORTHPARK BLVD", "postcode": "70433"}}},
{"geometry": {"type": "Point", "coordinates": [-90.0900767995, 30.4440493124]}, "type": "Feature", "properties": {"collection_times": [{"days": "Mon-Fri", "time": "9:30am"}, {"days": "Sat-Sun", "time": "Closed"}], "id": "7043300023", "name": "USPS COLLECTION BOX - BLUE BOX", "address": {"city": "COVINGTON", "state": "LA", "street": "50 PARK PLACE DR", "postcode": "70433"}}},
{"geometry": {"type": "Point", "coordinates": [-90.0865202526, 30.4104504257]}, "type": "Feature", "properties": {"collection_times": [{"days": "Mon-Fri", "time": "10:45am"}, {"days": "Sat-Sun", "time": "Closed"}], "id": "7043300024", "name": "USPS COLLECTION BOX - BLUE BOX", "address": {"city": "COVINGTON", "state": "LA", "street": "101 FAIRWAY DR", "postcode": "70433"}}},
{"geometry": {"type": "Point", "coordinates": [-90.082229797, 30.4437792702]}, "type": "Feature", "properties": {"collection_times": [{"days": "Mon-Fri", "time": "11:00am"}, {"days": "Sat-Sun", "time": "Closed"}], "id": "7043300025", "name": "USPS COLLECTION BOX - BLUE BOX", "address": {"city": "COVINGTON", "state": "LA", "street": "880 N HIGHWAY 190", "postcode": "70433"}}},
{"geometry": {"type": "Point", "coordinates": [-90.1056347768, 30.4975893346]}, "type": "Feature", "properties": {"collection_times": [{"days": "Mon-Fri", "time": "5:00pm"}, {"days": "Sat", "time": "3:00pm"}, {"days": "Sun", "time": "Closed"}], "id": "7043300030", "name": "USPS COLLECTION BOX - BLUE BOX", "address": {"city": "COVINGTON", "state": "LA", "street": "1775 N COLUMBIA ST", "postcode": "70433"}}},
{"geometry": {"type": "Point", "coordinates": [-90.1056347768, 30.4975893346]}, "type": "Feature", "properties": {"collection_times": [{"days": "Mon-Fri", "time": "5:00pm"}, {"days": "Sat", "time": "3:00pm"}, {"days": "Sun", "time": "Closed"}], "id": "7043300031", "name": "USPS COLLECTION BOX - BLUE BOX", "address": {"city": "COVINGTON", "state": "LA", "street": "1775 N COLUMBIA ST", "postcode": "70433"}}},
{"geometry": {"type": "Point", "coordinates": [-90.0842755544, 30.4648765646]}, "type": "Feature", "properties": {"collection_times": [{"days": "Mon-Fri", "time": "10:45am"}, {"days": "Sat-Sun", "time": "Closed"}], "id": "7043300032", "name": "USPS COLLECTION BOX - BLUE BOX", "address": {"city": "COVINGTON", "state": "LA", "street": "2301 N HIGHWAY 190", "postcode": "70433"}}},
{"geometry": {"type": "Point", "coordinates": [-90.1337162691, 30.4583116008]}, "type": "Feature", "properties": {"collection_times": [{"days": "Mon-Fri", "time": "9:30am"}, {"days": "Sat-Sun", "time": "Closed"}], "id": "7043300034", "name": "USPS COLLECTION BOX - BLUE BOX", "address": {"city": "COVINGTON", "state": "LA", "street": "203 HIGHLAND PARK PLZ", "postcode": "70433"}}},
{"geometry": {"type": "Point", "coordinates": [-90.1056347768, 30.4975893346]}, "type": "Feature", "properties": {"collection_times": [{"days": "Mon-Fri", "time": "5:00pm"}, {"days": "Sat", "time": "3:00pm"}, {"days": "Sun", "time": "Closed"}], "id": "7043300036", "name": "USPS COLLECTION BOX - PO LOBBY", "address": {"city": "COVINGTON", "state": "LA", "street": "1775 N COLUMBIA ST", "postcode": "70433"}}},
{"geometry": {"type": "Point", "coordinates": [-90.0955349519, 30.4803459659]}, "type": "Feature", "properties": {"collection_times": [{"days": "Mon-Fri", "time": "2:45pm"}, {"days": "Sat-Sun", "time": "Closed"}], "id": "7043300038", "name": "USPS COLLECTION BOX - BLUE BOX", "address": {"city": "COVINGTON", "state": "LA", "street": "701 N COLUMBIA ST", "postcode": "70433"}}},
{"geometry": {"type": "Point", "coordinates": [-90.1138978152, 30.4689032003]}, "type": "Feature", "properties": {"collection_times": [{"days": "Mon-Fri", "time": "11:30am"}, {"days": "Sat-Sun", "time": "Closed"}], "id": "7043300039", "name": "USPS COLLECTION BOX - BLUE BOX", "address": {"city": "COVINGTON", "state": "LA", "street": "1202 S TYLER ST", "postcode": "70433"}}},
{"geometry": {"type": "Point", "coordinates": [-90.1426183038, 30.4439555983]}, "type": "Feature", "properties": {"collection_times": [{"days": "Mon-Fri", "time": "12:15pm"}, {"days": "Sat-Sun", "time": "Closed"}], "id": "7043300040", "name": "USPS COLLECTION BOX - BLUE BOX", "address": {"city": "COVINGTON", "state": "LA", "street": "69284 HIGHWAY 21", "postcode": "70433"}}},
{"geometry": {"type": "Point", "coordinates": [-90.511049282, 30.824122427]}, "type": "Feature", "properties": {"collection_times": [{"days": "Mon-Fri", "time": "3:00pm"}, {"days": "Sat", "time": "9:30am"}, {"days": "Sun", "time": "Closed"}], "id": "7043600004", "name": "USPS COLLECTION BOX - BLUE BOX", "address": {"city": "FLUKER", "state": "LA", "street": "67013 HIGHWAY 51", "postcode": "70436"}}},
{"geometry": {"type": "Point", "coordinates": [-90.511049282, 30.824122427]}, "type": "Feature", "properties": {"collection_times": [{"days": "Mon-Fri", "time": "3:00pm"}, {"days": "Sat", "time": "9:30am"}, {"days": "Sun", "time": "Closed"}], "id": "7043600005", "name": "USPS COLLECTION BOX - PO LOBBY", "address": {"city": "FLUKER", "state": "LA", "street": "67013 HIGHWAY 51", "postcode": "70436"}}},
{"geometry": {"type": "Point", "coordinates": [-90.1919266854, 30.6398777034]}, "type": "Feature", "properties": {"collection_times": [{"days": "Mon-Fri", "time": "4:00pm"}, {"days": "Sat", "time": "11:00am"}, {"days": "Sun", "time": "Closed"}], "id": "7043700001", "name": "USPS COLLECTION BOX - BLUE BOX", "address": {"city": "FOLSOM", "state": "LA", "street": "82424 HIGHWAY 25", "postcode": "70437"}}},
{"geometry": {"type": "Point", "coordinates": [-90.1919266854, 30.6398777034]}, "type": "Feature", "properties": {"collection_times": [{"days": "Mon-Fri", "time": "4:00pm"}, {"days": "Sat", "time": "11:00am"}, {"days": "Sun", "time": "Closed"}], "id": "7043700002", "name": "USPS COLLECTION BOX - PO LOBBY", "address": {"city": "FOLSOM", "state": "LA", "street": "82424 HIGHWAY 25", "postcode": "70437"}}},
{"geometry": {"type": "Point", "coordinates": [-90.1552396991, 30.8437846518]}, "type": "Feature", "properties": {"collection_times": [{"days": "Mon-Fri", "time": "2:00pm"}, {"days": "Sat-Sun", "time": "Closed"}], "id": "7043800008", "name": "USPS COLLECTION BOX - BLUE BOX", "address": {"city": "FRANKLINTON", "state": "LA", "street": "905 PEARL ST", "postcode": "70438"}}},
{"geometry": {"type": "Point", "coordinates": [-90.1563927158, 30.8467987703]}, "type": "Feature", "properties": {"collection_times": [{"days": "Mon-Fri", "time": "3:30pm"}, {"days": "Sat", "time": "11:30am"}, {"days": "Sun", "time": "Closed"}], "id": "7043800009", "name": "USPS COLLECTION BOX - BLUE BOX", "address": {"city": "FRANKLINTON", "state": "LA", "street": "805 LEE ST", "postcode": "70438"}}},
{"geometry": {"type": "Point", "coordinates": [-90.1563927158, 30.8467987703]}, "type": "Feature", "properties": {"collection_times": [{"days": "Mon-Fri", "time": "3:30pm"}, {"days": "Sat", "time": "11:30am"}, {"days": "Sun", "time": "Closed"}], "id": "7043800010", "name": "USPS COLLECTION BOX - BLUE BOX", "address": {"city": "FRANKLINTON", "state": "LA", "street": "805 LEE ST", "postcode": "70438"}}},
{"geometry": {"type": "Point", "coordinates": [-90.1563927158, 30.8467987703]}, "type": "Feature", "properties": {"collection_times": [{"days": "Mon-Fri", "time": "3:30pm"}, {"days": "Sat", "time": "11:30am"}, {"days": "Sun", "time": "Closed"}], "id": "7043800011", "name": "USPS COLLECTION BOX - PO LOBBY", "address": {"city": "FRANKLINTON", "state": "LA", "street": "805 LEE ST", "postcode": "70438"}}},
{"geometry": {"type": "Point", "coordinates": [-90.1563927158, 30.8467987703]}, "type": "Feature", "properties": {"collection_times": [{"days": "Mon-Fri", "time": "3:30pm"}, {"days": "Sat", "time": "11:30am"}, {"days": "Sun", "time": "Closed"}], "id": "7043800012", "name": "USPS COLLECTION BOX - PO LOBBY", "address": {"city": "FRANKLINTON", "state": "LA", "street": "805 LEE ST", "postcode": "70438"}}},
{"geometry": {"type": "Point", "coordinates": [-90.8417426204, 30.8888030525]}, "type": "Feature", "properties": {"collection_times": [{"days": "Mon-Fri", "time": "3:45pm"}, {"days": "Sat", "time": "10:45am"}, {"days": "Sun", "time": "Closed"}], "id": "7044100002", "name": "USPS COLLECTION BOX - PO LOBBY", "address": {"city": "GREENSBURG", "state": "LA", "street": "6638 HIGHWAY 10", "postcode": "70441"}}},
{"geometry": {"type": "Point", "coordinates": [-90.7503658337, 30.8848874539]}, "type": "Feature", "properties": {"collection_times": [{"days": "Mon-Fri", "time": "3:45pm"}, {"days": "Sat-Sun", "time": "Closed"}], "id": "7044100003", "name": "USPS COLLECTION BOX - BLUE BOX", "address": {"city": "GREENSBURG", "state": "LA", "street": "369 SITMAN ST", "postcode": "70441"}}},
{"geometry": {"type": "Point", "coordinates": [-90.8417426204, 30.8888030525]}, "type": "Feature", "properties": {"collection_times": [{"days": "Mon-Fri", "time": "3:45pm"}, {"days": "Sat", "time": "10:45am"}, {"days": "Sun", "time": "Closed"}], "id": "7044100008", "name": "USPS COLLECTION BOX - BLUE BOX", "address": {"city": "GREENSBURG", "state": "LA", "street": "6638 HIGHWAY 10", "postcode": "70441"}}},
{"geometry": {"type": "Point", "coordinates": [-90.6765456456, 30.8745008237]}, "type": "Feature", "properties": {"collection_times": [{"days": "Mon-Fri", "time": "3:45pm"}, {"days": "Sat-Sun", "time": "Closed"}], "id": "7044100009", "name": "USPS COLLECTION BOX - BLUE BOX", "address": {"city": "GREENSBURG", "state": "LA", "street": "16874 HIGHWAY 43", "postcode": "70441"}}},
{"geometry": {"type": "Point", "coordinates": [-90.337294927, 30.6796843327]}, "type": "Feature", "properties": {"collection_times": [{"days": "Mon-Fri", "time": "2:00pm"}, {"days": "Sat", "time": "12:00pm"}, {"days": "Sun", "time": "Closed"}], "id": "7044200001", "name": "USPS COLLECTION BOX - BLUE BOX", "address": {"city": "HUSSER", "state": "LA", "street": "56594 HIGHWAY 445", "postcode": "70442"}}},
{"geometry": {"type": "Point", "coordinates": [-90.337294927, 30.6796843327]}, "type": "Feature", "properties": {"collection_times": [{"days": "Mon-Fri", "time": "2:00pm"}, {"days": "Sat", "time": "12:00pm"}, {"days": "Sun", "time": "Closed"}], "id": "7044200003", "name": "USPS COLLECTION BOX - PO LOBBY", "address": {"city": "HUSSER", "state": "LA", "street": "56594 HIGHWAY 445", "postcode": "70442"}}},
{"geometry": {"type": "Point", "coordinates": [-90.5148362021, 30.6377446549]}, "type": "Feature", "properties": {"collection_times": [{"days": "Mon-Fri", "time": "4:15pm"}, {"days": "Sat", "time": "10:00am"}, {"days": "Sun", "time": "Closed"}], "id": "7044300002", "name": "USPS COLLECTION BOX - BLUE BOX", "address": {"city": "INDEPENDENCE", "state": "LA", "street": "637 3RD ST", "postcode": "70443"}}},
{"geometry": {"type": "Point", "coordinates": [-90.5148362021, 30.6377446549]}, "type": "Feature", "properties": {"collection_times": [{"days": "Mon-Fri", "time": "4:15pm"}, {"days": "Sat", "time": "10:00am"}, {"days": "Sun", "time": "Closed"}], "id": "7044300004", "name": "USPS COLLECTION BOX - PO LOBBY", "address": {"city": "INDEPENDENCE", "state": "LA", "street": "637 3RD ST", "postcode": "70443"}}},
{"geometry": {"type": "Point", "coordinates": [-90.5143857323, 30.9391462473]}, "type": "Feature", "properties": {"collection_times": [{"days": "Mon-Fri", "time": "2:30pm"}, {"days": "Sat", "time": "2:00pm"}, {"days": "Sun", "time": "Closed"}], "id": "7044400007", "name": "USPS COLLECTION BOX - BLUE BOX", "address": {"city": "KENTWOOD", "state": "LA", "street": "601 AVENUE E", "postcode": "70444"}}},
{"geometry": {"type": "Point", "coordinates": [-90.5143857323, 30.9391462473]}, "type": "Feature", "properties": {"collection_times": [{"days": "Mon-Fri", "time": "2:30pm"}, {"days": "Sat", "time": "2:00pm"}, {"days": "Sun", "time": "Closed"}], "id": "7044400008", "name": "USPS COLLECTION BOX - PO LOBBY", "address": {"city": "KENTWOOD", "state": "LA", "street": "601 AVENUE E", "postcode": "70444"}}},
{"geometry": {"type": "Point", "coordinates": [-89.9589419397, 30.3198499946]}, "type": "Feature", "properties": {"collection_times": [{"days": "Mon-Fri", "time": "4:00pm"}, {"days": "Sat", "time": "10:30am"}, {"days": "Sun", "time": "Closed"}], "id": "7044500001", "name": "USPS COLLECTION BOX - BLUE BOX", "address": {"city": "LACOMBE", "state": "LA", "street": "27367 HIGHWAY 190", "postcode": "70445"}}},
{"geometry": {"type": "Point", "coordinates": [-89.9589419397, 30.3198499946]}, "type": "Feature", "properties": {"collection_times": [{"days": "Mon-Fri", "time": "4:00pm"}, {"days": "Sat", "time": "10:30am"}, {"days": "Sun", "time": "Closed"}], "id": "7044500002", "name": "USPS COLLECTION BOX - PO LOBBY", "address": {"city": "LACOMBE", "state": "LA", "street": "27367 HIGHWAY 190", "postcode": "70445"}}},
{"geometry": {"type": "Point", "coordinates": [-90.4029532565, 30.635619808]}, "type": "Feature", "properties": {"collection_times": [{"days": "Mon-Fri", "time": "4:00pm"}, {"days": "Sat", "time": "10:00am"}, {"days": "Sun", "time": "Closed"}], "id": "7044600003", "name": "USPS COLLECTION BOX - BLUE BOX", "address": {"city": "LORANGER", "state": "LA", "street": "19438 HIGHWAY 40", "postcode": "70446"}}},
{"geometry": {"type": "Point", "coordinates": [-90.4029532565, 30.635619808]}, "type": "Feature", "properties": {"collection_times": [{"days": "Mon-Fri", "time": "4:00pm"}, {"days": "Sat", "time": "10:00am"}, {"days": "Sun", "time": "Closed"}], "id": "7044600005", "name": "USPS COLLECTION BOX - PO LOBBY", "address": {"city": "LORANGER", "state": "LA", "street": "19438 HIGHWAY 40", "postcode": "70446"}}},
{"geometry": {"type": "Point", "coordinates": [-90.1856262211, 30.4316618243]}, "type": "Feature", "properties": {"collection_times": [{"days": "Mon-Fri", "time": "4:15pm"}, {"days": "Sat", "time": "10:45am"}, {"days": "Sun", "time": "Closed"}], "id": "7044700001", "name": "USPS COLLECTION BOX - BLUE BOX", "address": {"city": "MADISONVILLE", "state": "LA", "street": "100 COVINGTON ST", "postcode": "70447"}}},
{"geometry": {"type": "Point", "coordinates": [-90.1856262211, 30.4316618243]}, "type": "Feature", "properties": {"collection_times": [{"days": "Mon-Fri", "time": "4:30pm"}, {"days": "Sat", "time": "10:45am"}, {"days": "Sun", "time": "Closed"}], "id": "7044700004", "name": "USPS COLLECTION BOX - PO LOBBY", "address": {"city": "MADISONVILLE", "state": "LA", "street": "100 COVINGTON ST", "postcode": "70447"}}},
{"geometry": {"type": "Point", "coordinates": [-90.0409423028, 30.3634749829]}, "type": "Feature", "properties": {"collection_times": [{"days": "Mon-Fri", "time": "1:45pm"}, {"days": "Sat-Sun", "time": "Closed"}], "id": "7044800021", "name": "USPS COLLECTION BOX - BLUE BOX", "address": {"city": "MANDEVILLE", "state": "LA", "street": "500 MARINERS PLAZA DR", "postcode": "70448"}}},
{"geometry": {"type": "Point", "coordinates": [-90.0920459157, 30.3771101031]}, "type": "Feature", "properties": {"collection_times": [{"days": "Mon-Fri", "time": "1:45pm"}, {"days": "Sat-Sun", "time": "Closed"}], "id": "7044800023", "name": "USPS COLLECTION BOX - BLUE BOX", "address": {"city": "MANDEVILLE", "state": "LA", "street": "615 N CAUSEWAY BLVD", "postcode": "70448"}}},
{"geometry": {"type": "Point", "coordinates": [-90.0409423028, 30.3634749829]}, "type": "Feature", "properties": {"collection_times": [{"days": "Mon-Fri", "time": "1:30pm"}, {"days": "Sat-Sun", "time": "Closed"}], "id": "7044800031", "name": "USPS COLLECTION BOX - BLUE BOX", "address": {"city": "MANDEVILLE", "state": "LA", "street": "3101 E CAUSEWAY APPROACH", "postcode": "70448"}}},
{"geometry": {"type": "Point", "coordinates": [-90.0919123037, 30.3778915307]}, "type": "Feature", "properties": {"collection_times": [{"days": "Mon-Fri", "time": "1:45pm"}, {"days": "Sat-Sun", "time": "Closed"}], "id": "7044800033", "name": "USPS COLLECTION BOX - BLUE BOX", "address": {"city": "MANDEVILLE", "state": "LA", "street": "735 N CAUSEWAY BLVD", "postcode": "70448"}}},
{"geometry": {"type": "Point", "coordinates": [-90.0671692598, 30.3582433208]}, "type": "Feature", "properties": {"collection_times": [{"days": "Mon-Fri", "time": "1:15pm"}, {"days": "Sat-Sun", "time": "Closed"}], "id": "7044800034", "name": "USPS COLLECTION BOX - BLUE BOX", "address": {"city": "MANDEVILLE", "state": "LA", "street": "445 LAFITTE ST", "postcode": "70448"}}},
{"geometry": {"type": "Point", "coordinates": [-90.6653629344, 30.2965733867]}, "type": "Feature", "properties": {"collection_times": [{"days": "Mon-Fri", "time": "3:45pm"}, {"days": "Sat", "time": "11:45am"}, {"days": "Sun", "time": "Closed"}], "id": "7044900001", "name": "USPS COLLECTION BOX - BLUE BOX", "address": {"city": "MAUREPAS", "state": "LA", "street": "23839 HIGHWAY 22", "postcode": "70449"}}},
{"geometry": {"type": "Point", "coordinates": [-90.6653629344, 30.2965733867]}, "type": "Feature", "properties": {"collection_times": [{"days": "Mon-Fri", "time": "3:45pm"}, {"days": "Sat", "time": "11:45am"}, {"days": "Sun", "time": "Closed"}], "id": "7044900002", "name": "USPS COLLECTION BOX - PO LOBBY", "address": {"city": "MAUREPAS", "state": "LA", "street": "23839 HIGHWAY 22", "postcode": "70449"}}},
{"geometry": {"type": "Point", "coordinates": [-90.2953002919, 30.961119664]}, "type": "Feature", "properties": {"collection_times": [{"days": "Mon-Fri", "time": "3:15pm"}, {"days": "Sat", "time": "8:00am"}, {"days": "Sun", "time": "Closed"}], "id": "7045000001", "name": "USPS COLLECTION BOX - BLUE BOX", "address": {"city": "MOUNT HERMON", "state": "LA", "street": "36043 HIGHWAY 438", "postcode": "70450"}}},
{"geometry": {"type": "Point", "coordinates": [-90.2953002919, 30.961119664]}, "type": "Feature", "properties": {"collection_times": [{"days": "Mon-Fri", "time": "3:15pm"}, {"days": "Sat", "time": "8:00am"}, {"days": "Sun", "time": "Closed"}], "id": "7045000002", "name": "USPS COLLECTION BOX - PO LOBBY", "address": {"city": "MOUNT HERMON", "state": "LA", "street": "36043 HIGHWAY 438", "postcode": "70450"}}},
{"geometry": {"type": "Point", "coordinates": [-90.4820378276, 30.5457200928]}, "type": "Feature", "properties": {"collection_times": [{"days": "Mon-Fri", "time": "4:00pm"}, {"days": "Sat", "time": "10:30am"}, {"days": "Sun", "time": "Closed"}], "id": "7045100001", "name": "USPS COLLECTION BOX - PO LOBBY", "address": {"city": "NATALBANY", "state": "LA", "street": "15036 HIGHWAY 1064", "postcode": "70451"}}},
{"geometry": {"type": "Point", "coordinates": [-90.4820378276, 30.5457200928]}, "type": "Feature", "properties": {"collection_times": [{"days": "Mon-Fri", "time": "4:00pm"}, {"days": "Sat", "time": "10:30am"}, {"days": "Sun", "time": "Closed"}], "id": "7045100003", "name": "USPS COLLECTION BOX - BLUE BOX", "address": {"city": "NATALBANY", "state": "LA", "street": "15036 HIGHWAY 1064", "postcode": "70451"}}},
{"geometry": {"type": "Point", "coordinates": [-89.7501231191, 30.3596802615]}, "type": "Feature", "properties": {"collection_times": [{"days": "Mon-Fri", "time": "4:00pm"}, {"days": "Sat", "time": "11:30am"}, {"days": "Sun", "time": "Closed"}], "id": "7045200001", "name": "USPS COLLECTION BOX - BLUE BOX", "address": {"city": "PEARL RIVER", "state": "LA", "street": "64119 HIGHWAY 41", "postcode": "70452"}}},
{"geometry": {"type": "Point", "coordinates": [-89.7501231191, 30.3596802615]}, "type": "Feature", "properties": {"collection_times": [{"days": "Mon-Fri", "time": "4:00pm"}, {"days": "Sat", "time": "11:30am"}, {"days": "Sun", "time": "Closed"}], "id": "7045200002", "name": "USPS COLLECTION BOX - PO LOBBY", "address": {"city": "PEARL RIVER", "state": "LA", "street": "64119 HIGHWAY 41", "postcode": "70452"}}},
{"geometry": {"type": "Point", "coordinates": [-90.7790514831, 30.6923938172]}, "type": "Feature", "properties": {"collection_times": [{"days": "Mon-Fri", "time": "2:30pm"}, {"days": "Sat", "time": "9:30am"}, {"days": "Sun", "time": "Closed"}], "id": "7045300001", "name": "USPS COLLECTION BOX - BLUE BOX", "address": {"city": "PINE GROVE", "state": "LA", "street": "7185 SHILOH BAPTIST CHURCH RD", "postcode": "70453"}}},
{"geometry": {"type": "Point", "coordinates": [-90.7790514831, 30.6923938172]}, "type": "Feature", "properties": {"collection_times": [{"days": "Mon-Fri", "time": "2:30pm"}, {"days": "Sat", "time": "9:30am"}, {"days": "Sun", "time": "Closed"}], "id": "7045300002", "name": "USPS COLLECTION BOX - PO LOBBY", "address": {"city": "PINE GROVE", "state": "LA", "street": "7185 SHILOH BAPTIST CHURCH RD", "postcode": "70453"}}},
{"geometry": {"type": "Point", "coordinates": [-90.4403201703, 30.4414749656]}, "type": "Feature", "properties": {"collection_times": [{"days": "Mon-Fri", "time": "4:00pm"}, {"days": "Sat", "time": "2:00pm"}, {"days": "Sun", "time": "Closed"}], "id": "7045400001", "name": "USPS COLLECTION BOX - BLUE BOX", "address": {"city": "PONCHATOULA", "state": "LA", "street": "275 N 5TH ST", "postcode": "70454"}}},
{"geometry": {"type": "Point", "coordinates": [-90.4403201703, 30.4414749656]}, "type": "Feature", "properties": {"collection_times": [{"days": "Mon-Fri", "time": "4:00pm"}, {"days": "Sat", "time": "2:00pm"}, {"days": "Sun", "time": "Closed"}], "id": "7045400002", "name": "USPS COLLECTION BOX - BLUE BOX", "address": {"city": "PONCHATOULA", "state": "LA", "street": "275 N 5TH ST", "postcode": "70454"}}},
{"geometry": {"type": "Point", "coordinates": [-90.4403201703, 30.4414749656]}, "type": "Feature", "properties": {"collection_times": [{"days": "Mon-Fri", "time": "4:00pm"}, {"days": "Sat", "time": "2:00pm"}, {"days": "Sun", "time": "Closed"}], "id": "7045400006", "name": "USPS COLLECTION BOX - PO LOBBY", "address": {"city": "PONCHATOULA", "state": "LA", "street": "275 N 5TH ST", "postcode": "70454"}}},
{"geometry": {"type": "Point", "coordinates": [-90.4564348713, 30.4452547843]}, "type": "Feature", "properties": {"collection_times": [{"days": "Mon-Sat", "time": "12:00pm"}, {"days": "Sun", "time": "Closed"}], "id": "7045400008", "name": "USPS COLLECTION BOX - BLUE BOX", "address": {"city": "PONCHATOULA", "state": "LA", "street": "1331 HIGHWAY 51", "postcode": "70454"}}},
{"geometry": {"type": "Point", "coordinates": [-90.3440764789, 30.4953125429]}, "type": "Feature", "properties": {"collection_times": [{"days": "Mon-Fri", "time": "4:30pm"}, {"days": "Sat", "time": "10:30am"}, {"days": "Sun", "time": "Closed"}], "id": "7045500001", "name": "USPS COLLECTION BOX - BLUE BOX", "address": {"city": "ROBERT", "state": "LA", "street": "44225 HIGHWAY 445", "postcode": "70455"}}},
{"geometry": {"type": "Point", "coordinates": [-90.3440764789, 30.4953125429]}, "type": "Feature", "properties": {"collection_times": [{"days": "Mon-Fri", "time": "4:30pm"}, {"days": "Sat", "time": "10:30am"}, {"days": "Sun", "time": "Closed"}], "id": "7045500002", "name": "USPS COLLECTION BOX - PO LOBBY", "address": {"city": "ROBERT", "state": "LA", "street": "44225 HIGHWAY 445", "postcode": "70455"}}},
{"geometry": {"type": "Point", "coordinates": [-90.5100647468, 30.755321795]}, "type": "Feature", "properties": {"collection_times": [{"days": "Mon-Fri", "time": "4:00pm"}, {"days": "Sat", "time": "9:45am"}, {"days": "Sun", "time": "Closed"}], "id": "7045600003", "name": "USPS COLLECTION BOX - PO LOBBY", "address": {"city": "ROSELAND", "state": "LA", "street": "62430 COMMERCIAL ST", "postcode": "70456"}}},
{"geometry": {"type": "Point", "coordinates": [-90.5100647468, 30.755321795]}, "type": "Feature", "properties": {"collection_times": [{"days": "Mon-Fri", "time": "4:00pm"}, {"days": "Sat", "time": "9:45am"}, {"days": "Sun", "time": "Closed"}], "id": "7045600004", "name": "USPS COLLECTION BOX - BLUE BOX", "address": {"city": "ROSELAND", "state": "LA", "street": "62430 COMMERCIAL ST", "postcode": "70456"}}},
{"geometry": {"type": "Point", "coordinates": [-89.7815614394, 30.2769490361]}, "type": "Feature", "properties": {"collection_times": [{"days": "Mon-Fri", "time": "5:00pm"}, {"days": "Sat", "time": "4:30pm"}, {"days": "Sun", "time": "Closed"}], "id": "7045800001", "name": "USPS COLLECTION BOX - BLUE BOX", "address": {"city": "SLIDELL", "state": "LA", "street": "1950 2ND ST", "postcode": "70458"}}},
{"geometry": {"type": "Point", "coordinates": [-89.7815614394, 30.2769490361]}, "type": "Feature", "properties": {"collection_times": [{"days": "Mon-Fri", "time": "5:00pm"}, {"days": "Sat", "time": "4:30pm"}, {"days": "Sun", "time": "Closed"}], "id": "7045800002", "name": "USPS COLLECTION BOX - BLUE BOX", "address": {"city": "SLIDELL", "state": "LA", "street": "1950 2ND ST", "postcode": "70458"}}},
{"geometry": {"type": "Point", "coordinates": [-89.7815614394, 30.2769490361]}, "type": "Feature", "properties": {"collection_times": [{"days": "Mon-Fri", "time": "5:00pm"}, {"days": "Sat", "time": "4:30pm"}, {"days": "Sun", "time": "Closed"}], "id": "7045800003", "name": "USPS COLLECTION BOX - BLUE BOX", "address": {"city": "SLIDELL", "state": "LA", "street": "1950 2ND ST", "postcode": "70458"}}},
{"geometry": {"type": "Point", "coordinates": [-89.7476813506, 30.3103406527]}, "type": "Feature", "properties": {"collection_times": [{"days": "Mon-Sat", "time": "10:30am"}, {"days": "Sun", "time": "Closed"}], "id": "7045800022", "name": "USPS COLLECTION BOX - BLUE BOX", "address": {"city": "SLIDELL", "state": "LA", "street": "800 BROWNSWITCH RD", "postcode": "70458"}}},
{"geometry": {"type": "Point", "coordinates": [-89.7815614394, 30.2769490361]}, "type": "Feature", "properties": {"collection_times": [{"days": "Mon-Fri", "time": "5:00pm"}, {"days": "Sat", "time": "4:30pm"}, {"days": "Sun", "time": "Closed"}], "id": "7045800028", "name": "USPS COLLECTION BOX - BLUE BOX", "address": {"city": "SLIDELL", "state": "LA", "street": "1950 2ND ST", "postcode": "70458"}}},
{"geometry": {"type": "Point", "coordinates": [-89.7570796262, 30.2845585539]}, "type": "Feature", "properties": {"collection_times": [{"days": "Mon-Fri", "time": "3:15pm"}, {"days": "Sat", "time": "12:00pm"}, {"days": "Sun", "time": "Closed"}], "id": "7045800030", "name": "USPS COLLECTION BOX - BLUE BOX", "address": {"city": "SLIDELL", "state": "LA", "street": "1324 CORPORATE SQUARE DR", "postcode": "70458"}}},
{"geometry": {"type": "Point", "coordinates": [-89.7815614394, 30.2769490361]}, "type": "Feature", "properties": {"collection_times": [{"days": "Mon-Fri", "time": "5:00pm"}, {"days": "Sat", "time": "4:30pm"}, {"days": "Sun", "time": "Closed"}], "id": "7045800032", "name": "USPS COLLECTION BOX - BLUE BOX", "address": {"city": "SLIDELL", "state": "LA", "street": "1950 2ND ST", "postcode": "70458"}}},
{"geometry": {"type": "Point", "coordinates": [-89.7815614394, 30.2769490361]}, "type": "Feature", "properties": {"collection_times": [{"days": "Mon-Fri", "time": "5:00pm"}, {"days": "Sat", "time": "4:30pm"}, {"days": "Sun", "time": "Closed"}], "id": "7045800033", "name": "USPS COLLECTION BOX - APC", "address": {"city": "SLIDELL", "state": "LA", "street": "1950 2ND ST", "postcode": "70458"}}},
{"geometry": {"type": "Point", "coordinates": [-89.7757184023, 30.269501874]}, "type": "Feature", "properties": {"collection_times": [{"days": "Mon-Fri", "time": "12:00pm"}, {"days": "Sat", "time": "11:00am"}, {"days": "Sun", "time": "Closed"}], "id": "7045800034", "name": "USPS COLLECTION BOX - BLUE BOX", "address": {"city": "SLIDELL", "state": "LA", "street": "3898 PONTCHARTRAIN DR", "postcode": "70458"}}},
{"geometry": {"type": "Point", "coordinates": [-89.8127628195, 30.2982403873]}, "type": "Feature", "properties": {"collection_times": [{"days": "Mon-Fri", "time": "5:00pm"}, {"days": "Sat", "time": "1:00pm"}, {"days": "Sun", "time": "Closed"}], "id": "7046000002", "name": "USPS COLLECTION BOX - BLUE BOX", "address": {"city": "SLIDELL", "state": "LA", "street": "1897 GAUSE BLVD W", "postcode": "70460"}}},
{"geometry": {"type": "Point", "coordinates": [-89.8127628195, 30.2982403873]}, "type": "Feature", "properties": {"collection_times": [{"days": "Mon-Fri", "time": "5:00pm"}, {"days": "Sat", "time": "2:00pm"}, {"days": "Sun", "time": "Closed"}], "id": "7046000005", "name": "USPS COLLECTION BOX - PO LOBBY", "address": {"city": "SLIDELL", "state": "LA", "street": "1897 GAUSE BLVD W", "postcode": "70460"}}},
{"geometry": {"type": "Point", "coordinates": [-89.8127628195, 30.2982403873]}, "type": "Feature", "properties": {"collection_times": [{"days": "Mon-Fri", "time": "5:00pm"}, {"days": "Sat", "time": "2:00pm"}, {"days": "Sun", "time": "Closed"}], "id": "7046000006", "name": "USPS COLLECTION BOX - PO LOBBY", "address": {"city": "SLIDELL", "state": "LA", "street": "1897 GAUSE BLVD W", "postcode": "70460"}}},
{"geometry": {"type": "Point", "coordinates": [-89.7430195614, 30.2850510482]}, "type": "Feature", "properties": {"collection_times": [{"days": "Mon-Fri", "time": "3:15pm"}, {"days": "Sat", "time": "12:00pm"}, {"days": "Sun", "time": "Closed"}], "id": "7046100000", "name": "USPS COLLECTION BOX - BLUE BOX", "address": {"city": "SLIDELL", "state": "LA", "street": "1850 GAUSE BLVD E", "postcode": "70461"}}},
{"geometry": {"type": "Point", "coordinates": [-89.7201820401, 30.2914132759]}, "type": "Feature", "properties": {"collection_times": [{"days": "Mon-Sat", "time": "11:30am"}, {"days": "Sun", "time": "Closed"}], "id": "7046100001", "name": "USPS COLLECTION BOX - BLUE BOX", "address": {"city": "SLIDELL", "state": "LA", "street": "3060 GAUSE BLVD E", "postcode": "70461"}}},
{"geometry": {"type": "Point", "coordinates": [-89.7309149987, 30.2883554187]}, "type": "Feature", "properties": {"collection_times": [{"days": "Mon-Fri", "time": "3:30pm"}, {"days": "Sat", "time": "12:00pm"}, {"days": "Sun", "time": "Closed"}], "id": "7046100002", "name": "USPS COLLECTION BOX - BLUE BOX", "address": {"city": "SLIDELL", "state": "LA", "street": "2250 GAUSE BLVD E", "postcode": "70461"}}},
{"geometry": {"type": "Point", "coordinates": [-89.7309149987, 30.2883554187]}, "type": "Feature", "properties": {"collection_times": [{"days": "Mon-Fri", "time": "3:30pm"}, {"days": "Sat", "time": "12:00pm"}, {"days": "Sun", "time": "Closed"}], "id": "7046100003", "name": "USPS COLLECTION BOX - BLUE BOX", "address": {"city": "SLIDELL", "state": "LA", "street": "2250 GAUSE BLVD E", "postcode": "70461"}}},
{"geometry": {"type": "Point", "coordinates": [-90.5471499184, 30.4292428154]}, "type": "Feature", "properties": {"collection_times": [{"days": "Mon-Fri", "time": "4:00pm"}, {"days": "Sat", "time": "10:30am"}, {"days": "Sun", "time": "Closed"}], "id": "7046200001", "name": "USPS COLLECTION BOX - BLUE BOX", "address": {"city": "SPRINGFIELD", "state": "LA", "street": "32170 2ND ST", "postcode": "70462"}}},
{"geometry": {"type": "Point", "coordinates": [-90.5471499184, 30.4292428154]}, "type": "Feature", "properties": {"collection_times": [{"days": "Mon-Fri", "time": "4:00pm"}, {"days": "Sat", "time": "10:30am"}, {"days": "Sun", "time": "Closed"}], "id": "7046200003", "name": "USPS COLLECTION BOX - PO LOBBY", "address": {"city": "SPRINGFIELD", "state": "LA", "street": "32170 2ND ST", "postcode": "70462"}}},
{"geometry": {"type": "Point", "coordinates": [-89.8937056358, 30.6488897741]}, "type": "Feature", "properties": {"collection_times": [{"days": "Mon-Fri", "time": "4:15pm"}, {"days": "Sat", "time": "10:00am"}, {"days": "Sun", "time": "Closed"}], "id": "7046300001", "name": "USPS COLLECTION BOX - BLUE BOX", "address": {"city": "SUN", "state": "LA", "street": "30034 HIGHWAY 16", "postcode": "70463"}}},
{"geometry": {"type": "Point", "coordinates": [-89.8937056358, 30.6488897741]}, "type": "Feature", "properties": {"collection_times": [{"days": "Mon-Fri", "time": "4:15pm"}, {"days": "Sat", "time": "10:00am"}, {"days": "Sun", "time": "Closed"}], "id": "7046300002", "name": "USPS COLLECTION BOX - PO LOBBY", "address": {"city": "SUN", "state": "LA", "street": "30034 HIGHWAY 16", "postcode": "70463"}}},
{"geometry": {"type": "Point", "coordinates": [-89.8759010742, 30.5325981269]}, "type": "Feature", "properties": {"collection_times": [{"days": "Mon-Fri", "time": "3:45pm"}, {"days": "Sat", "time": "10:15am"}, {"days": "Sun", "time": "Closed"}], "id": "7046400001", "name": "USPS COLLECTION BOX - PO LOBBY", "address": {"city": "TALISHEEK", "state": "LA", "street": "32035 HIGHWAY 435", "postcode": "70464"}}},
{"geometry": {"type": "Point", "coordinates": [-89.8759010742, 30.5325981269]}, "type": "Feature", "properties": {"collection_times": [{"days": "Mon-Fri", "time": "3:45pm"}, {"days": "Sat", "time": "10:15am"}, {"days": "Sun", "time": "Closed"}], "id": "7046400002", "name": "USPS COLLECTION BOX - BLUE BOX", "address": {"city": "TALISHEEK", "state": "LA", "street": "32035 HIGHWAY 435", "postcode": "70464"}}},
{"geometry": {"type": "Point", "coordinates": [-90.5109041656, 30.8753787005]}, "type": "Feature", "properties": {"collection_times": [{"days": "Mon-Fri", "time": "3:00pm"}, {"days": "Sat", "time": "9:00am"}, {"days": "Sun", "time": "Closed"}], "id": "7046500001", "name": "USPS COLLECTION BOX - PO LOBBY", "address": {"city": "TANGIPAHOA", "state": "LA", "street": "70136 E RAILROAD AVE", "postcode": "70465"}}},
{"geometry": {"type": "Point", "coordinates": [-90.4842230619, 30.5792715758]}, "type": "Feature", "properties": {"collection_times": [{"days": "Mon-Fri", "time": "4:00pm"}, {"days": "Sat", "time": "10:30am"}, {"days": "Sun", "time": "Closed"}], "id": "7046600001", "name": "USPS COLLECTION BOX - BLUE BOX", "address": {"city": "TICKFAW", "state": "LA", "street": "14494 SECOND ST", "postcode": "70466"}}},
{"geometry": {"type": "Point", "coordinates": [-90.4842230619, 30.5792715758]}, "type": "Feature", "properties": {"collection_times": [{"days": "Mon-Fri", "time": "4:00pm"}, {"days": "Sat", "time": "10:30am"}, {"days": "Sun", "time": "Closed"}], "id": "7046600002", "name": "USPS COLLECTION BOX - PO LOBBY", "address": {"city": "TICKFAW", "state": "LA", "street": "14494 SECOND ST", "postcode": "70466"}}},
{"geometry": {"type": "Point", "coordinates": [-90.1085743592, 30.3859716112]}, "type": "Feature", "properties": {"collection_times": [{"days": "Mon-Fri", "time": "2:15pm"}, {"days": "Sat-Sun", "time": "Closed"}], "id": "7047100001", "name": "USPS COLLECTION BOX - BLUE BOX", "address": {"city": "MANDEVILLE", "state": "LA", "street": "2 SANCTUARY BLVD", "postcode": "70471"}}},
{"geometry": {"type": "Point", "coordinates": [-90.0890054158, 30.3901022073]}, "type": "Feature", "properties": {"collection_times": [{"days": "Mon-Fri", "time": "5:00pm"}, {"days": "Sat", "time": "4:00pm"}, {"days": "Sun", "time": "Closed"}], "id": "7047100003", "name": "USPS COLLECTION BOX - BLUE BOX", "address": {"city": "MANDEVILLE", "state": "LA", "street": "1 SAINT ANN DR", "postcode": "70471"}}},
{"geometry": {"type": "Point", "coordinates": [-90.0890054158, 30.3901022073]}, "type": "Feature", "properties": {"collection_times": [{"days": "Mon-Fri", "time": "5:00pm"}, {"days": "Sat", "time": "4:00pm"}, {"days": "Sun", "time": "Closed"}], "id": "7047100005", "name": "USPS COLLECTION BOX - BLUE BOX", "address": {"city": "MANDEVILLE", "state": "LA", "street": "1 SAINT ANN DR", "postcode": "70471"}}},
{"geometry": {"type": "Point", "coordinates": [-90.0890054158, 30.3901022073]}, "type": "Feature", "properties": {"collection_times": [{"days": "Mon-Fri", "time": "5:00pm"}, {"days": "Sat", "time": "4:00pm"}, {"days": "Sun", "time": "Closed"}], "id": "7047100006", "name": "USPS COLLECTION BOX - BLUE BOX", "address": {"city": "MANDEVILLE", "state": "LA", "street": "1 SAINT ANN DR", "postcode": "70471"}}},
{"geometry": {"type": "Point", "coordinates": [-90.0412442407, 30.4459716352]}, "type": "Feature", "properties": {"collection_times": [{"days": "Mon-Fri", "time": "3:15pm"}, {"days": "Sat-Sun", "time": "Closed"}], "id": "7047100010", "name": "USPS COLLECTION BOX - BLUE BOX", "address": {"city": "MANDEVILLE", "state": "LA", "street": "69458 HIGHWAY 59", "postcode": "70471"}}},
{"geometry": {"type": "Point", "coordinates": [-90.085991493, 30.4059665922]}, "type": "Feature", "properties": {"collection_times": [{"days": "Mon-Fri", "time": "2:45pm"}, {"days": "Sat-Sun", "time": "Closed"}], "id": "7047100017", "name": "USPS COLLECTION BOX - BLUE BOX", "address": {"city": "MANDEVILLE", "state": "LA", "street": "2681 N CAUSEWAY BLVD", "postcode": "70471"}}},
{"geometry": {"type": "Point", "coordinates": [-90.1043554865, 30.3991095208]}, "type": "Feature", "properties": {"collection_times": [{"days": "Mon-Fri", "time": "2:15pm"}, {"days": "Sat-Sun", "time": "Closed"}], "id": "7047100018", "name": "USPS COLLECTION BOX - BLUE BOX", "address": {"city": "MANDEVILLE", "state": "LA", "street": "4350 HIGHWAY 22", "postcode": "70471"}}},
{"geometry": {"type": "Point", "coordinates": [-90.1129070074, 30.4019941061]}, "type": "Feature", "properties": {"collection_times": [{"days": "Mon-Fri", "time": "2:00pm"}, {"days": "Sat-Sun", "time": "Closed"}], "id": "7047100019", "name": "USPS COLLECTION BOX - BLUE BOX", "address": {"city": "MANDEVILLE", "state": "LA", "street": "4700 HIGHWAY 22", "postcode": "70471"}}},
{"geometry": {"type": "Point", "coordinates": [-90.0915007431, 30.3949470972]}, "type": "Feature", "properties": {"collection_times": [{"days": "Mon-Fri", "time": "2:30pm"}, {"days": "Sat-Sun", "time": "Closed"}], "id": "7047100021", "name": "USPS COLLECTION BOX - BLUE BOX", "address": {"city": "MANDEVILLE", "state": "LA", "street": "3840 HIGHWAY 22", "postcode": "70471"}}},
{"geometry": {"type": "Point", "coordinates": [-90.042568828, 30.4183164999]}, "type": "Feature", "properties": {"collection_times": [{"days": "Mon-Fri", "time": "3:15pm"}, {"days": "Sat-Sun", "time": "Closed"}], "id": "7047100023", "name": "USPS COLLECTION BOX - BLUE BOX", "address": {"city": "MANDEVILLE", "state": "LA", "street": "21454 KOOP RD", "postcode": "70471"}}},
{"geometry": {"type": "Point", "coordinates": [-90.0412130453, 30.4085675962]}, "type": "Feature", "properties": {"collection_times": [{"days": "Mon-Fri", "time": "3:30pm"}, {"days": "Sat-Sun", "time": "Closed"}], "id": "7047100025", "name": "USPS COLLECTION BOX - BLUE BOX", "address": {"city": "MANDEVILLE", "state": "LA", "street": "4005 HIGHWAY 59", "postcode": "70471"}}},
{"geometry": {"type": "Point", "coordinates": [-90.0857790046, 30.4020766661]}, "type": "Feature", "properties": {"collection_times": [{"days": "Mon-Fri", "time": "2:30pm"}, {"days": "Sat-Sun", "time": "Closed"}], "id": "7047100026", "name": "USPS COLLECTION BOX - BLUE BOX", "address": {"city": "MANDEVILLE", "state": "LA", "street": "2410 N CAUSEWAY BLVD", "postcode": "70471"}}},
{"geometry": {"type": "Point", "coordinates": [-90.1018370756, 30.3930734187]}, "type": "Feature", "properties": {"collection_times": [{"days": "Mon-Fri", "time": "2:15pm"}, {"days": "Sat-Sun", "time": "Closed"}], "id": "7047100028", "name": "USPS COLLECTION BOX - BLUE BOX", "address": {"city": "MANDEVILLE", "state": "LA", "street": "1625 W CAUSEWAY APPROACH", "postcode": "70471"}}},
{"geometry": {"type": "Point", "coordinates": [-90.1018370756, 30.3930734187]}, "type": "Feature", "properties": {"collection_times": [{"days": "Mon-Fri", "time": "2:15pm"}, {"days": "Sat-Sun", "time": "Closed"}], "id": "7047100029", "name": "USPS COLLECTION BOX - BLUE BOX", "address": {"city": "MANDEVILLE", "state": "LA", "street": "1625 W CAUSEWAY APPROACH", "postcode": "70471"}}},
{"geometry": {"type": "Point", "coordinates": [-90.0890054158, 30.3901022073]}, "type": "Feature", "properties": {"collection_times": [{"days": "Mon-Fri", "time": "4:45pm"}, {"days": "Sat", "time": "4:00pm"}, {"days": "Sun", "time": "Closed"}], "id": "7047100030", "name": "USPS COLLECTION BOX - APC", "address": {"city": "MANDEVILLE", "state": "LA", "street": "1 SAINT ANN DR", "postcode": "70471"}}},
{"geometry": {"type": "Point", "coordinates": [-90.042568828, 30.4183164999]}, "type": "Feature", "properties": {"collection_times": [{"days": "Mon-Fri", "time": "3:15pm"}, {"days": "Sat-Sun", "time": "Closed"}], "id": "7047100033", "name": "USPS COLLECTION BOX - BLUE BOX", "address": {"city": "MANDEVILLE", "state": "LA", "street": "21454 KOOP RD", "postcode": "70471"}}},
{"geometry": {"type": "Point", "coordinates": [-90.0890054158, 30.3901022073]}, "type": "Feature", "properties": {"collection_times": [{"days": "Mon-Fri", "time": "4:45pm"}, {"days": "Sat", "time": "4:00pm"}, {"days": "Sun", "time": "Closed"}], "id": "7047100034", "name": "USPS COLLECTION BOX - PO LOBBY", "address": {"city": "MANDEVILLE", "state": "LA", "street": "1 SAINT ANN DR", "postcode": "70471"}}},
{"geometry": {"type": "Point", "coordinates": [-90.0890054158, 30.3901022073]}, "type": "Feature", "properties": {"collection_times": [{"days": "Mon-Fri", "time": "4:45pm"}, {"days": "Sat", "time": "4:00pm"}, {"days": "Sun", "time": "Closed"}], "id": "7047100035", "name": "USPS COLLECTION BOX - PO LOBBY", "address": {"city": "MANDEVILLE", "state": "LA", "street": "1 SAINT ANN DR", "postcode": "70471"}}}
]}
