{"type": "FeatureCollection", "features": [
{"geometry": {"type": "Point", "coordinates": [-92.0072967231, 30.2397951039]}, "type": "Feature", "properties": {"collection_times": [{"days": "Mon-Sat", "time": "5:00pm"}, {"days": "Sun", "time": "Closed"}], "id": "7050100000", "name": "USPS COLLECTION BOX - PO LOBBY", "address": {"city": "LAFAYETTE", "state": "LA", "street": "1105 MOSS ST", "postcode": "70501"}}},
{"geometry": {"type": "Point", "coordinates": [-92.0072967231, 30.2397951039]}, "type": "Feature", "properties": {"collection_times": [{"days": "Mon-Sat", "time": "5:00pm"}, {"days": "Sun", "time": "Closed"}], "id": "7050100001", "name": "USPS COLLECTION BOX - PO LOBBY", "address": {"city": "LAFAYETTE", "state": "LA", "street": "1105 MOSS ST", "postcode": "70501"}}},
{"geometry": {"type": "Point", "coordinates": [-92.0072967231, 30.2397951039]}, "type": "Feature", "properties": {"collection_times": [{"days": "Mon-Sat", "time": "6:00pm"}, {"days": "Sun", "time": "Closed"}], "id": "7050100002", "name": "USPS COLLECTION BOX - BLUE BOX", "address": {"city": "LAFAYETTE", "state": "LA", "street": "1105 MOSS ST", "postcode": "70501"}}},
{"geometry": {"type": "Point", "coordinates": [-92.0072967231, 30.2397951039]}, "type": "Feature", "properties": {"collection_times": [{"days": "Mon-Sat", "time": "6:00pm"}, {"days": "Sun", "time": "Closed"}], "id": "7050100003", "name": "USPS COLLECTION BOX - BLUE BOX", "address": {"city": "LAFAYETTE", "state": "LA", "street": "1105 MOSS ST", "postcode": "70501"}}},
{"geometry": {"type": "Point", "coordinates": [-92.0072967231, 30.2397951039]}, "type": "Feature", "properties": {"collection_times": [{"days": "Mon-Sat", "time": "6:00pm"}, {"days": "Sun", "time": "Closed"}], "id": "7050100004", "name": "USPS COLLECTION BOX - BLUE BOX", "address": {"city": "LAFAYETTE", "state": "LA", "street": "1105 MOSS ST", "postcode": "70501"}}},
{"geometry": {"type": "Point", "coordinates": [-92.0072967231, 30.2397951039]}, "type": "Feature", "properties": {"collection_times": [{"days": "Mon-Sat", "time": "6:00pm"}, {"days": "Sun", "time": "Closed"}], "id": "7050100005", "name": "USPS COLLECTION BOX - BLUE BOX", "address": {"city": "LAFAYETTE", "state": "LA", "street": "1105 MOSS ST", "postcode": "70501"}}},
{"geometry": {"type": "Point", "coordinates": [-92.0072967231, 30.2397951039]}, "type": "Feature", "properties": {"collection_times": [{"days": "Mon-Sat", "time": "6:00pm"}, {"days": "Sun", "time": "Closed"}], "id": "7050100006", "name": "USPS COLLECTION BOX - BLUE BOX", "address": {"city": "LAFAYETTE", "state": "LA", "street": "1105 MOSS ST", "postcode": "70501"}}},
{"geometry": {"type": "Point", "coordinates": [-92.0072967231, 30.2397951039]}, "type": "Feature", "properties": {"collection_times": [{"days": "Mon-Sat", "time": "6:00pm"}, {"days": "Sun", "time": "Closed"}], "id": "7050100007", "name": "USPS COLLECTION BOX - BLUE BOX", "address": {"city": "LAFAYETTE", "state": "LA", "street": "1105 MOSS ST", "postcode": "70501"}}},
{"geometry": {"type": "Point", "coordinates": [-92.0100071305, 30.2335035034]}, "type": "Feature", "properties": {"collection_times": [{"days": "Mon-Sat", "time": "5:00pm"}, {"days": "Sun", "time": "Closed"}], "id": "7050100008", "name": "USPS COLLECTION BOX - EXPRESS", "address": {"city": "LAFAYETTE", "state": "LA", "street": "1105 MOSS ST", "postcode": "70501"}}},
{"geometry": {"type": "Point", "coordinates": [-92.0198257554, 30.2228775665]}, "type": "Feature", "properties": {"collection_times": [{"days": "Mon-Fri", "time": "3:00pm"}, {"days": "Sat-Sun", "time": "Closed"}], "id": "7050100011", "name": "USPS COLLECTION BOX - BLUE BOX", "address": {"city": "LAFAYETTE", "state": "LA", "street": "800 S BUCHANAN ST", "postcode": "70501"}}},
{"geometry": {"type": "Point", "coordinates": [-92.020838147, 30.2231555299]}, "type": "Feature", "properties": {"collection_times": [{"days": "Mon-Fri", "time": "3:00pm"}, {"days": "Sat-Sun", "time": "Closed"}], "id": "7050100017", "name": "USPS COLLECTION BOX - BLUE BOX", "address": {"city": "LAFAYETTE", "state": "LA", "street": "916 LAFAYETTE ST", "postcode": "70501"}}},
{"geometry": {"type": "Point", "coordinates": [-92.0219082735, 30.2228511103]}, "type": "Feature", "properties": {"collection_times": [{"days": "Mon-Fri", "time": "3:00pm"}, {"days": "Sat-Sun", "time": "Closed"}], "id": "7050100019", "name": "USPS COLLECTION BOX - BLUE BOX", "address": {"city": "LAFAYETTE", "state": "LA", "street": "405 W MAIN ST", "postcode": "70501"}}},
{"geometry": {"type": "Point", "coordinates": [-92.0187554653, 30.2241064389]}, "type": "Feature", "properties": {"collection_times": [{"days": "Mon-Fri", "time": "2:45pm"}, {"days": "Sat-Sun", "time": "Closed"}], "id": "7050100028", "name": "USPS COLLECTION BOX - BLUE BOX", "address": {"city": "LAFAYETTE", "state": "LA", "street": "101 E VERMILION ST", "postcode": "70501"}}},
{"geometry": {"type": "Point", "coordinates": [-92.0125367949, 30.2210361804]}, "type": "Feature", "properties": {"collection_times": [{"days": "Mon-Fri", "time": "2:45pm"}, {"days": "Sat-Sun", "time": "Closed"}], "id": "7050100029", "name": "USPS COLLECTION BOX - BLUE BOX", "address": {"city": "LAFAYETTE", "state": "LA", "street": "706 E VERMILION ST", "postcode": "70501"}}},
{"geometry": {"type": "Point", "coordinates": [-92.0198257554, 30.2228775665]}, "type": "Feature", "properties": {"collection_times": [{"days": "Mon-Fri", "time": "3:00pm"}, {"days": "Sat-Sun", "time": "Closed"}], "id": "7050100042", "name": "USPS COLLECTION BOX - BLUE BOX", "address": {"city": "LAFAYETTE", "state": "LA", "street": "800 S BUCHANAN ST", "postcode": "70501"}}},
{"geometry": {"type": "Point", "coordinates": [-92.0230251219, 30.2269530529]}, "type": "Feature", "properties": {"collection_times": [{"days": "Mon-Fri", "time": "3:00pm"}, {"days": "Sat-Sun", "time": "Closed"}], "id": "7050100046", "name": "USPS COLLECTION BOX - BLUE BOX", "address": {"city": "LAFAYETTE", "state": "LA", "street": "711 W CONGRESS ST", "postcode": "70501"}}},
{"geometry": {"type": "Point", "coordinates": [-92.0188486616, 30.2241390128]}, "type": "Feature", "properties": {"collection_times": [{"days": "Mon-Fri", "time": "3:00pm"}, {"days": "Sat-Sun", "time": "Closed"}], "id": "7050100048", "name": "USPS COLLECTION BOX - BLUE BOX", "address": {"city": "LAFAYETTE", "state": "LA", "street": "600 JEFFERSON ST", "postcode": "70501"}}},
{"geometry": {"type": "Point", "coordinates": [-92.020838147, 30.2231555299]}, "type": "Feature", "properties": {"collection_times": [{"days": "Mon-Fri", "time": "3:00pm"}, {"days": "Sat-Sun", "time": "Closed"}], "id": "7050100050", "name": "USPS COLLECTION BOX - BLUE BOX", "address": {"city": "LAFAYETTE", "state": "LA", "street": "916 LAFAYETTE ST", "postcode": "70501"}}},
{"geometry": {"type": "Point", "coordinates": [-92.0088530197, 30.2141718689]}, "type": "Feature", "properties": {"collection_times": [{"days": "Mon-Fri", "time": "2:45pm"}, {"days": "Sat-Sun", "time": "Closed"}], "id": "7050100057", "name": "USPS COLLECTION BOX - BLUE BOX", "address": {"city": "LAFAYETTE", "state": "LA", "street": "200 COOLIDGE ST", "postcode": "70501"}}},
{"geometry": {"type": "Point", "coordinates": [-92.0229730516, 30.2247438487]}, "type": "Feature", "properties": {"collection_times": [{"days": "Mon-Fri", "time": "3:00pm"}, {"days": "Sat-Sun", "time": "Closed"}], "id": "7050100058", "name": "USPS COLLECTION BOX - BLUE BOX", "address": {"city": "LAFAYETTE", "state": "LA", "street": "102 VERSAILLES BLVD", "postcode": "70501"}}},
{"geometry": {"type": "Point", "coordinates": [-92.0157016343, 30.2273294407]}, "type": "Feature", "properties": {"collection_times": [{"days": "Mon-Fri", "time": "4:30pm"}, {"days": "Sat", "time": "10:30am"}, {"days": "Sun", "time": "Closed"}], "id": "7050200001", "name": "USPS COLLECTION BOX - PO LOBBY", "address": {"city": "LAFAYETTE", "state": "LA", "street": "101 JEFFERSON ST", "postcode": "70502"}}},
{"geometry": {"type": "Point", "coordinates": [-92.0157016343, 30.2273294407]}, "type": "Feature", "properties": {"collection_times": [{"days": "Mon-Fri", "time": "4:30pm"}, {"days": "Sat", "time": "10:30am"}, {"days": "Sun", "time": "Closed"}], "id": "7050200002", "name": "USPS COLLECTION BOX - PO LOBBY", "address": {"city": "LAFAYETTE", "state": "LA", "street": "101 JEFFERSON ST", "postcode": "70502"}}},
{"geometry": {"type": "Point", "coordinates": [-92.0157016343, 30.2273294407]}, "type": "Feature", "properties": {"collection_times": [{"days": "Mon-Fri", "time": "4:30pm"}, {"days": "Sat", "time": "10:30am"}, {"days": "Sun", "time": "Closed"}], "id": "7050200009", "name": "USPS COLLECTION BOX - BLUE BOX", "address": {"city": "LAFAYETTE", "state": "LA", "street": "101 JEFFERSON ST", "postcode": "70502"}}},
{"geometry": {"type": "Point", "coordinates": [-92.0157016343, 30.2273294407]}, "type": "Feature", "properties": {"collection_times": [{"days": "Mon-Fri", "time": "4:30pm"}, {"days": "Sat", "time": "10:30am"}, {"days": "Sun", "time": "Closed"}], "id": "7050200010", "name": "USPS COLLECTION BOX - BLUE BOX", "address": {"city": "LAFAYETTE", "state": "LA", "street": "101 JEFFERSON ST", "postcode": "70502"}}},
{"geometry": {"type": "Point", "coordinates": [-92.0378364797, 30.2077129712]}, "type": "Feature", "properties": {"collection_times": [{"days": "Mon-Fri", "time": "3:30pm"}, {"days": "Sat-Sun", "time": "Closed"}], "id": "7050300011", "name": "USPS COLLECTION BOX - BLUE BOX", "address": {"city": "LAFAYETTE", "state": "LA", "street": "2670 JOHNSTON ST", "postcode": "70503"}}},
{"geometry": {"type": "Point", "coordinates": [-92.0408862269, 30.2058693542]}, "type": "Feature", "properties": {"collection_times": [{"days": "Mon-Fri", "time": "3:30pm"}, {"days": "Sat-Sun", "time": "Closed"}], "id": "7050300015", "name": "USPS COLLECTION BOX - BLUE BOX", "address": {"city": "LAFAYETTE", "state": "LA", "street": "2900 JOHNSTON ST", "postcode": "70503"}}},
{"geometry": {"type": "Point", "coordinates": [-92.0163059158, 30.2026441762]}, "type": "Feature", "properties": {"collection_times": [{"days": "Mon-Fri", "time": "3:45pm"}, {"days": "Sat-Sun", "time": "Closed"}], "id": "7050300017", "name": "USPS COLLECTION BOX - BLUE BOX", "address": {"city": "LAFAYETTE", "state": "LA", "street": "459 HEYMANN BLVD", "postcode": "70503"}}},
{"geometry": {"type": "Point", "coordinates": [-92.0218040458, 30.211871836]}, "type": "Feature", "properties": {"collection_times": [{"days": "Mon-Fri", "time": "4:00pm"}, {"days": "Sat-Sun", "time": "Closed"}], "id": "7050300018", "name": "USPS COLLECTION BOX - BLUE BOX", "address": {"city": "LAFAYETTE", "state": "LA", "street": "100 REX ST", "postcode": "70503"}}},
{"geometry": {"type": "Point", "coordinates": [-92.0430837929, 30.1987514043]}, "type": "Feature", "properties": {"collection_times": [{"days": "Mon-Fri", "time": "4:00pm"}, {"days": "Sat-Sun", "time": "Closed"}], "id": "7050300029", "name": "USPS COLLECTION BOX - BLUE BOX", "address": {"city": "LAFAYETTE", "state": "LA", "street": "345 DOUCET RD", "postcode": "70503"}}},
{"geometry": {"type": "Point", "coordinates": [-92.0731081584, 30.176999271]}, "type": "Feature", "properties": {"collection_times": [{"days": "Mon-Fri", "time": "5:00pm"}, {"days": "Sat-Sun", "time": "Closed"}], "id": "7050300038", "name": "USPS COLLECTION BOX - BLUE BOX", "address": {"city": "LAFAYETTE", "state": "LA", "street": "3523 AMBASSADOR CAFFERY PKWY", "postcode": "70503"}}},
{"geometry": {"type": "Point", "coordinates": [-92.0731081584, 30.176999271]}, "type": "Feature", "properties": {"collection_times": [{"days": "Mon-Fri", "time": "5:00pm"}, {"days": "Sat-Sun", "time": "Closed"}], "id": "7050300039", "name": "USPS COLLECTION BOX - BLUE BOX", "address": {"city": "LAFAYETTE", "state": "LA", "street": "3523 AMBASSADOR CAFFERY PKWY", "postcode": "70503"}}},
{"geometry": {"type": "Point", "coordinates": [-92.0167897453, 30.2046098715]}, "type": "Feature", "properties": {"collection_times": [{"days": "Mon-Fri", "time": "3:45pm"}, {"days": "Sat-Sun", "time": "Closed"}], "id": "7050300051", "name": "USPS COLLECTION BOX - BLUE BOX", "address": {"city": "LAFAYETTE", "state": "LA", "street": "1112 COOLIDGE BLVD", "postcode": "70503"}}},
{"geometry": {"type": "Point", "coordinates": [-92.0167897453, 30.2046098715]}, "type": "Feature", "properties": {"collection_times": [{"days": "Mon-Fri", "time": "3:45pm"}, {"days": "Sat-Sun", "time": "Closed"}], "id": "7050300052", "name": "USPS COLLECTION BOX - BLUE BOX", "address": {"city": "LAFAYETTE", "state": "LA", "street": "1112 COOLIDGE BLVD", "postcode": "70503"}}},
{"geometry": {"type": "Point", "coordinates": [-92.0167897453, 30.2046098715]}, "type": "Feature", "properties": {"collection_times": [{"days": "Mon-Fri", "time": "3:45pm"}, {"days": "Sat-Sun", "time": "Closed"}], "id": "7050300053", "name": "USPS COLLECTION BOX - BLUE BOX", "address": {"city": "LAFAYETTE", "state": "LA", "street": "1112 COOLIDGE BLVD", "postcode": "70503"}}},
{"geometry": {"type": "Point", "coordinates": [-92.0640248604, 30.1885683358]}, "type": "Feature", "properties": {"collection_times": [{"days": "Mon-Fri", "time": "4:30pm"}, {"days": "Sat-Sun", "time": "Closed"}], "id": "7050300067", "name": "USPS COLLECTION BOX - BLUE BOX", "address": {"city": "LAFAYETTE", "state": "LA", "street": "4710 JOHNSTON ST", "postcode": "70503"}}},
{"geometry": {"type": "Point", "coordinates": [-92.0156066897, 30.205664325]}, "type": "Feature", "properties": {"collection_times": [{"days": "Mon-Fri", "time": "3:45pm"}, {"days": "Sat-Sun", "time": "Closed"}], "id": "7050300075", "name": "USPS COLLECTION BOX - BLUE BOX", "address": {"city": "LAFAYETTE", "state": "LA", "street": "1011 COOLIDGE BLVD", "postcode": "70503"}}},
{"geometry": {"type": "Point", "coordinates": [-92.0156066897, 30.205664325]}, "type": "Feature", "properties": {"collection_times": [{"days": "Mon-Fri", "time": "3:45pm"}, {"days": "Sat-Sun", "time": "Closed"}], "id": "7050300076", "name": "USPS COLLECTION BOX - BLUE BOX", "address": {"city": "LAFAYETTE", "state": "LA", "street": "1011 COOLIDGE BLVD", "postcode": "70503"}}},
{"geometry": {"type": "Point", "coordinates": [-92.0156066897, 30.205664325]}, "type": "Feature", "properties": {"collection_times": [{"days": "Mon-Fri", "time": "3:45pm"}, {"days": "Sat-Sun", "time": "Closed"}], "id": "7050300077", "name": "USPS COLLECTION BOX - BLUE BOX", "address": {"city": "LAFAYETTE", "state": "LA", "street": "1011 COOLIDGE BLVD", "postcode": "70503"}}},
{"geometry": {"type": "Point", "coordinates": [-92.0167897453, 30.2046098715]}, "type": "Feature", "properties": {"collection_times": [{"days": "Mon-Fri", "time": "3:45pm"}, {"days": "Sat-Sun", "time": "Closed"}], "id": "7050300078", "name": "USPS COLLECTION BOX - BLUE BOX", "address": {"city": "LAFAYETTE", "state": "LA", "street": "1112 COOLIDGE BLVD", "postcode": "70503"}}},
{"geometry": {"type": "Point", "coordinates": [-92.0156066897, 30.205664325]}, "type": "Feature", "properties": {"collection_times": [{"days": "Mon-Fri", "time": "3:45pm"}, {"days": "Sat-Sun", "time": "Closed"}], "id": "7050300079", "name": "USPS COLLECTION BOX - BLUE BOX", "address": {"city": "LAFAYETTE", "state": "LA", "street": "1011 COOLIDGE BLVD", "postcode": "70503"}}},
{"geometry": {"type": "Point", "coordinates": [-92.0701430907, 30.1745058505]}, "type": "Feature", "properties": {"collection_times": [{"days": "Mon-Fri", "time": "4:45pm"}, {"days": "Sat-Sun", "time": "Closed"}], "id": "7050300082", "name": "USPS COLLECTION BOX - BLUE BOX", "address": {"city": "LAFAYETTE", "state": "LA", "street": "3603D AMBASSADOR CAFFERY PKWY", "postcode": "70503"}}},
{"geometry": {"type": "Point", "coordinates": [-92.0292958982, 30.2009732129]}, "type": "Feature", "properties": {"collection_times": [{"days": "Mon-Fri", "time": "3:30pm"}, {"days": "Sat-Sun", "time": "Closed"}], "id": "7050300083", "name": "USPS COLLECTION BOX - BLUE BOX", "address": {"city": "LAFAYETTE", "state": "LA", "street": "900 S COLLEGE RD", "postcode": "70503"}}},
{"geometry": {"type": "Point", "coordinates": [-92.0163059158, 30.2026441762]}, "type": "Feature", "properties": {"collection_times": [{"days": "Mon-Fri", "time": "3:45pm"}, {"days": "Sat-Sun", "time": "Closed"}], "id": "7050300085", "name": "USPS COLLECTION BOX - BLUE BOX", "address": {"city": "LAFAYETTE", "state": "LA", "street": "459 HEYMANN BLVD", "postcode": "70503"}}},
{"geometry": {"type": "Point", "coordinates": [-92.039966288, 30.2062841333]}, "type": "Feature", "properties": {"collection_times": [{"days": "Mon-Fri", "time": "3:30pm"}, {"days": "Sat-Sun", "time": "Closed"}], "id": "7050300086", "name": "USPS COLLECTION BOX - BLUE BOX", "address": {"city": "LAFAYETTE", "state": "LA", "street": "2851 JOHNSTON ST", "postcode": "70503"}}},
{"geometry": {"type": "Point", "coordinates": [-92.0157735025, 30.205466716]}, "type": "Feature", "properties": {"collection_times": [{"days": "Mon-Fri", "time": "3:45pm"}, {"days": "Sat-Sun", "time": "Closed"}], "id": "7050300087", "name": "USPS COLLECTION BOX - BLUE BOX", "address": {"city": "LAFAYETTE", "state": "LA", "street": "1031 COOLIDGE BLVD", "postcode": "70503"}}},
{"geometry": {"type": "Point", "coordinates": [-92.0170447968, 30.2154904542]}, "type": "Feature", "properties": {"collection_times": [{"days": "Mon-Fri", "time": "4:00pm"}, {"days": "Sat-Sun", "time": "Closed"}], "id": "7050300090", "name": "USPS COLLECTION BOX - BLUE BOX", "address": {"city": "LAFAYETTE", "state": "LA", "street": "201 HEBRARD BLVD", "postcode": "70503"}}},
{"geometry": {"type": "Point", "coordinates": [-92.0157735025, 30.205466716]}, "type": "Feature", "properties": {"collection_times": [{"days": "Mon-Fri", "time": "4:30pm"}, {"days": "Sat-Sun", "time": "Closed"}], "id": "7050500009", "name": "USPS COLLECTION BOX - PO LOBBY", "address": {"city": "LAFAYETTE", "state": "LA", "street": "1031 COOLIDGE BLVD", "postcode": "70505"}}},
{"geometry": {"type": "Point", "coordinates": [-92.0341010427, 30.2278876668]}, "type": "Feature", "properties": {"collection_times": [{"days": "Mon-Fri", "time": "3:15pm"}, {"days": "Sat", "time": "2:00pm"}, {"days": "Sun", "time": "Closed"}], "id": "7050600022", "name": "USPS COLLECTION BOX - BLUE BOX", "address": {"city": "LAFAYETTE", "state": "LA", "street": "2030 W SAINT MARY BLVD", "postcode": "70506"}}},
{"geometry": {"type": "Point", "coordinates": [-92.0752016622, 30.1925759291]}, "type": "Feature", "properties": {"collection_times": [{"days": "Mon-Fri", "time": "4:15pm"}, {"days": "Sat-Sun", "time": "Closed"}], "id": "7050600035", "name": "USPS COLLECTION BOX - BLUE BOX", "address": {"city": "LAFAYETTE", "state": "LA", "street": "2810 AMBASSADOR CAFFERY PKWY", "postcode": "70506"}}},
{"geometry": {"type": "Point", "coordinates": [-92.0534975721, 30.2024834034]}, "type": "Feature", "properties": {"collection_times": [{"days": "Mon-Fri", "time": "4:00pm"}, {"days": "Sat-Sun", "time": "Closed"}], "id": "7050600037", "name": "USPS COLLECTION BOX - BLUE BOX", "address": {"city": "LAFAYETTE", "state": "LA", "street": "128 ARNOULD BLVD", "postcode": "70506"}}},
{"geometry": {"type": "Point", "coordinates": [-92.051183026, 30.2210701172]}, "type": "Feature", "properties": {"collection_times": [{"days": "Mon-Fri", "time": "3:15pm"}, {"days": "Sat-Sun", "time": "Closed"}], "id": "7050600040", "name": "USPS COLLECTION BOX - BLUE BOX", "address": {"city": "LAFAYETTE", "state": "LA", "street": "1304 BERTRAND DR", "postcode": "70506"}}},
{"geometry": {"type": "Point", "coordinates": [-92.0465866524, 30.2151667353]}, "type": "Feature", "properties": {"collection_times": [{"days": "Mon-Fri", "time": "3:15pm"}, {"days": "Sat-Sun", "time": "Closed"}], "id": "7050600051", "name": "USPS COLLECTION BOX - BLUE BOX", "address": {"city": "LAFAYETTE", "state": "LA", "street": "2390 W CONGRESS ST", "postcode": "70506"}}},
{"geometry": {"type": "Point", "coordinates": [-92.0705649631, 30.1980765057]}, "type": "Feature", "properties": {"collection_times": [{"days": "Mon-Fri", "time": "4:15pm"}, {"days": "Sat-Sun", "time": "Closed"}], "id": "7050600054", "name": "USPS COLLECTION BOX - BLUE BOX", "address": {"city": "LAFAYETTE", "state": "LA", "street": "4010 W CONGRESS ST", "postcode": "70506"}}},
{"geometry": {"type": "Point", "coordinates": [-92.0534975721, 30.2024834034]}, "type": "Feature", "properties": {"collection_times": [{"days": "Mon-Fri", "time": "4:00pm"}, {"days": "Sat-Sun", "time": "Closed"}], "id": "7050600056", "name": "USPS COLLECTION BOX - BLUE BOX", "address": {"city": "LAFAYETTE", "state": "LA", "street": "128 ARNOULD BLVD", "postcode": "70506"}}},
{"geometry": {"type": "Point", "coordinates": [-92.0247445678, 30.2195597675]}, "type": "Feature", "properties": {"collection_times": [{"days": "Mon-Fri", "time": "3:15pm"}, {"days": "Sat-Sun", "time": "Closed"}], "id": "7050600058", "name": "USPS COLLECTION BOX - BLUE BOX", "address": {"city": "LAFAYETTE", "state": "LA", "street": "224 SAINT LANDRY ST", "postcode": "70506"}}},
{"geometry": {"type": "Point", "coordinates": [-92.059818526, 30.2268269086]}, "type": "Feature", "properties": {"collection_times": [{"days": "Mon-Fri", "time": "5:00pm"}, {"days": "Sat", "time": "2:00pm"}, {"days": "Sun", "time": "Closed"}], "id": "7050600063", "name": "USPS COLLECTION BOX - BLUE BOX", "address": {"city": "LAFAYETTE", "state": "LA", "street": "1830 BERTRAND DR", "postcode": "70506"}}},
{"geometry": {"type": "Point", "coordinates": [-92.059818526, 30.2268269086]}, "type": "Feature", "properties": {"collection_times": [{"days": "Mon-Fri", "time": "5:00pm"}, {"days": "Sat", "time": "2:00pm"}, {"days": "Sun", "time": "Closed"}], "id": "7050600064", "name": "USPS COLLECTION BOX - BLUE BOX", "address": {"city": "LAFAYETTE", "state": "LA", "street": "1830 BERTRAND DR", "postcode": "70506"}}},
{"geometry": {"type": "Point", "coordinates": [-92.059818526, 30.2268269086]}, "type": "Feature", "properties": {"collection_times": [{"days": "Mon-Fri", "time": "5:00pm"}, {"days": "Sat", "time": "2:00pm"}, {"days": "Sun", "time": "Closed"}], "id": "7050600065", "name": "USPS COLLECTION BOX - BLUE BOX", "address": {"city": "LAFAYETTE", "state": "LA", "street": "1830 BERTRAND DR", "postcode": "70506"}}},
{"geometry": {"type": "Point", "coordinates": [-92.059818526, 30.2268269086]}, "type": "Feature", "properties": {"collection_times": [{"days": "Mon-Fri", "time": "5:00pm"}, {"days": "Sat", "time": "2:00pm"}, {"days": "Sun", "time": "Closed"}], "id": "7050600066", "name": "USPS COLLECTION BOX - BLUE BOX", "address": {"city": "LAFAYETTE", "state": "LA", "street": "1830 BERTRAND DR", "postcode": "70506"}}},
{"geometry": {"type": "Point", "coordinates": [-92.0249130016, 30.2167251932]}, "type": "Feature", "properties": {"collection_times": [{"days": "Mon-Fri", "time": "3:15pm"}, {"days": "Sat-Sun", "time": "Closed"}], "id": "7050600071", "name": "USPS COLLECTION BOX - BLUE BOX", "address": {"city": "LAFAYETTE", "state": "LA", "street": "501 W SAINT MARY BLVD", "postcode": "70506"}}},
{"geometry": {"type": "Point", "coordinates": [-92.0754563588, 30.2061294316]}, "type": "Feature", "properties": {"collection_times": [{"days": "Mon-Fri", "time": "4:15pm"}, {"days": "Sat-Sun", "time": "Closed"}], "id": "7050600072", "name": "USPS COLLECTION BOX - BLUE BOX", "address": {"city": "LAFAYETTE", "state": "LA", "street": "2240 AMBASSADOR CAFFERY PKWY", "postcode": "70506"}}},
{"geometry": {"type": "Point", "coordinates": [-92.059818526, 30.2268269086]}, "type": "Feature", "properties": {"collection_times": [{"days": "Mon-Fri", "time": "5:00pm"}, {"days": "Sat", "time": "2:00pm"}, {"days": "Sun", "time": "Closed"}], "id": "7050600076", "name": "USPS COLLECTION BOX - PO LOBBY", "address": {"city": "LAFAYETTE", "state": "LA", "street": "1830 BERTRAND DR", "postcode": "70506"}}},
{"geometry": {"type": "Point", "coordinates": [-92.059818526, 30.2268269086]}, "type": "Feature", "properties": {"collection_times": [{"days": "Mon-Fri", "time": "5:00pm"}, {"days": "Sat", "time": "2:00pm"}, {"days": "Sun", "time": "Closed"}], "id": "7050600077", "name": "USPS COLLECTION BOX - PO LOBBY", "address": {"city": "LAFAYETTE", "state": "LA", "street": "1830 BERTRAND DR", "postcode": "70506"}}},
{"geometry": {"type": "Point", "coordinates": [-92.027225642, 30.2170586457]}, "type": "Feature", "properties": {"collection_times": [{"days": "Mon-Fri", "time": "3:15pm"}, {"days": "Sat-Sun", "time": "Closed"}], "id": "7050600078", "name": "USPS COLLECTION BOX - BLUE BOX", "address": {"city": "LAFAYETTE", "state": "LA", "street": "516 SAINT LANDRY ST", "postcode": "70506"}}},
{"geometry": {"type": "Point", "coordinates": [-92.0082000895, 30.2732423827]}, "type": "Feature", "properties": {"collection_times": [{"days": "Mon-Fri", "time": "12:00pm"}, {"days": "Sat-Sun", "time": "Closed"}], "id": "7050700001", "name": "USPS COLLECTION BOX - BLUE BOX", "address": {"city": "LAFAYETTE", "state": "LA", "street": "3803 MOSS ST", "postcode": "70507"}}},
{"geometry": {"type": "Point", "coordinates": [-92.0081930501, 30.176389754]}, "type": "Feature", "properties": {"collection_times": [{"days": "Mon-Fri", "time": "5:00pm"}, {"days": "Sat", "time": "11:00am"}, {"days": "Sun", "time": "Closed"}], "id": "7050800001", "name": "USPS COLLECTION BOX - PO LOBBY", "address": {"city": "LAFAYETTE", "state": "LA", "street": "455 FEU FOLLET RD", "postcode": "70508"}}},
{"geometry": {"type": "Point", "coordinates": [-92.0081930501, 30.176389754]}, "type": "Feature", "properties": {"collection_times": [{"days": "Mon-Fri", "time": "5:00pm"}, {"days": "Sat", "time": "11:00am"}, {"days": "Sun", "time": "Closed"}], "id": "7050800002", "name": "USPS COLLECTION BOX - PO LOBBY", "address": {"city": "LAFAYETTE", "state": "LA", "street": "455 FEU FOLLET RD", "postcode": "70508"}}},
{"geometry": {"type": "Point", "coordinates": [-92.0081930501, 30.176389754]}, "type": "Feature", "properties": {"collection_times": [{"days": "Mon-Fri", "time": "5:00pm"}, {"days": "Sat", "time": "11:00am"}, {"days": "Sun", "time": "Closed"}], "id": "7050800004", "name": "USPS COLLECTION BOX - BLUE BOX", "address": {"city": "LAFAYETTE", "state": "LA", "street": "455 FEU FOLLET RD", "postcode": "70508"}}},
{"geometry": {"type": "Point", "coordinates": [-92.0081930501, 30.176389754]}, "type": "Feature", "properties": {"collection_times": [{"days": "Mon-Fri", "time": "5:00pm"}, {"days": "Sat", "time": "11:00am"}, {"days": "Sun", "time": "Closed"}], "id": "7050800005", "name": "USPS COLLECTION BOX - BLUE BOX", "address": {"city": "LAFAYETTE", "state": "LA", "street": "455 FEU FOLLET RD", "postcode": "70508"}}},
{"geometry": {"type": "Point", "coordinates": [-92.0081930501, 30.176389754]}, "type": "Feature", "properties": {"collection_times": [{"days": "Mon-Fri", "time": "5:00pm"}, {"days": "Sat", "time": "11:00am"}, {"days": "Sun", "time": "Closed"}], "id": "7050800006", "name": "USPS COLLECTION BOX - BLUE BOX", "address": {"city": "LAFAYETTE", "state": "LA", "street": "455 FEU FOLLET RD", "postcode": "70508"}}},
{"geometry": {"type": "Point", "coordinates": [-92.0081930501, 30.176389754]}, "type": "Feature", "properties": {"collection_times": [{"days": "Mon-Fri", "time": "5:00pm"}, {"days": "Sat", "time": "11:00am"}, {"days": "Sun", "time": "Closed"}], "id": "7050800007", "name": "USPS COLLECTION BOX - BLUE BOX", "address": {"city": "LAFAYETTE", "state": "LA", "street": "455 FEU FOLLET RD", "postcode": "70508"}}},
{"geometry": {"type": "Point", "coordinates": [-92.045716988, 30.1541969]}, "type": "Feature", "properties": {"collection_times": [{"days": "Mon-Fri", "time": "1:00pm"}, {"days": "Sat-Sun", "time": "Closed"}], "id": "7050800008", "name": "USPS COLLECTION BOX - BLUE BOX", "address": {"city": "LAFAYETTE", "state": "LA", "street": "4600 AMBASSADOR CAFFERY PKWY", "postcode": "70508"}}},
{"geometry": {"type": "Point", "coordinates": [-92.0509109754, 30.1584895739]}, "type": "Feature", "properties": {"collection_times": [{"days": "Mon-Fri", "time": "1:00pm"}, {"days": "Sat-Sun", "time": "Closed"}], "id": "7050800009", "name": "USPS COLLECTION BOX - BLUE BOX", "address": {"city": "LAFAYETTE", "state": "LA", "street": "4400 AMBASSADOR CAFFERY PKWY", "postcode": "70508"}}},
{"geometry": {"type": "Point", "coordinates": [-92.0123072064, 30.1877836875]}, "type": "Feature", "properties": {"collection_times": [{"days": "Mon-Fri", "time": "2:15pm"}, {"days": "Sat-Sun", "time": "Closed"}], "id": "7050800011", "name": "USPS COLLECTION BOX - BLUE BOX", "address": {"city": "LAFAYETTE", "state": "LA", "street": "131 JAMES COMEAUX RD", "postcode": "70508"}}},
{"geometry": {"type": "Point", "coordinates": [-92.021508823, 30.1803150174]}, "type": "Feature", "properties": {"collection_times": [{"days": "Mon-Fri", "time": "1:15pm"}, {"days": "Sat-Sun", "time": "Closed"}], "id": "7050800014", "name": "USPS COLLECTION BOX - BLUE BOX", "address": {"city": "LAFAYETTE", "state": "LA", "street": "825 KALISTE SALOOM RD", "postcode": "70508"}}},
{"geometry": {"type": "Point", "coordinates": [-92.021508823, 30.1803150174]}, "type": "Feature", "properties": {"collection_times": [{"days": "Mon-Fri", "time": "1:15pm"}, {"days": "Sat-Sun", "time": "Closed"}], "id": "7050800015", "name": "USPS COLLECTION BOX - BLUE BOX", "address": {"city": "LAFAYETTE", "state": "LA", "street": "825 KALISTE SALOOM RD", "postcode": "70508"}}},
{"geometry": {"type": "Point", "coordinates": [-92.0386689017, 30.1656783425]}, "type": "Feature", "properties": {"collection_times": [{"days": "Mon-Fri", "time": "1:15pm"}, {"days": "Sat-Sun", "time": "Closed"}], "id": "7050800020", "name": "USPS COLLECTION BOX - BLUE BOX", "address": {"city": "LAFAYETTE", "state": "LA", "street": "2130 KALISTE SALOOM RD", "postcode": "70508"}}},
{"geometry": {"type": "Point", "coordinates": [-92.0095690143, 30.1934827023]}, "type": "Feature", "properties": {"collection_times": [{"days": "Mon-Fri", "time": "2:30pm"}, {"days": "Sat-Sun", "time": "Closed"}], "id": "7050800024", "name": "USPS COLLECTION BOX - BLUE BOX", "address": {"city": "LAFAYETTE", "state": "LA", "street": "400 E KALISTE SALOOM RD", "postcode": "70508"}}},
{"geometry": {"type": "Point", "coordinates": [-91.9914253551, 30.1608548542]}, "type": "Feature", "properties": {"collection_times": [{"days": "Mon-Fri", "time": "2:15pm"}, {"days": "Sat-Sun", "time": "Closed"}], "id": "7050800029", "name": "USPS COLLECTION BOX - BLUE BOX", "address": {"city": "LAFAYETTE", "state": "LA", "street": "3570 W PINHOOK RD", "postcode": "70508"}}},
{"geometry": {"type": "Point", "coordinates": [-92.0100419514, 30.1843608008]}, "type": "Feature", "properties": {"collection_times": [{"days": "Mon-Fri", "time": "1:45pm"}, {"days": "Sat-Sun", "time": "Closed"}], "id": "7050800034", "name": "USPS COLLECTION BOX - BLUE BOX", "address": {"city": "LAFAYETTE", "state": "LA", "street": "100 CORPORATE BLVD", "postcode": "70508"}}},
{"geometry": {"type": "Point", "coordinates": [-91.9943398084, 30.2119275062]}, "type": "Feature", "properties": {"collection_times": [{"days": "Mon-Fri", "time": "2:30pm"}, {"days": "Sat-Sun", "time": "Closed"}], "id": "7050800037", "name": "USPS COLLECTION BOX - BLUE BOX", "address": {"city": "LAFAYETTE", "state": "LA", "street": "113 CHAPLIN DR", "postcode": "70508"}}},
{"geometry": {"type": "Point", "coordinates": [-92.010622746, 30.19283965]}, "type": "Feature", "properties": {"collection_times": [{"days": "Mon-Fri", "time": "2:15pm"}, {"days": "Sat-Sun", "time": "Closed"}], "id": "7050800042", "name": "USPS COLLECTION BOX - BLUE BOX", "address": {"city": "LAFAYETTE", "state": "LA", "street": "101 RUE JEAN LAFITTE", "postcode": "70508"}}},
{"geometry": {"type": "Point", "coordinates": [-92.0158946187, 30.1851352113]}, "type": "Feature", "properties": {"collection_times": [{"days": "Mon-Fri", "time": "1:45pm"}, {"days": "Sat-Sun", "time": "Closed"}], "id": "7050800044", "name": "USPS COLLECTION BOX - BLUE BOX", "address": {"city": "LAFAYETTE", "state": "LA", "street": "100 ASMA BLVD", "postcode": "70508"}}},
{"geometry": {"type": "Point", "coordinates": [-92.0124173251, 30.1871254595]}, "type": "Feature", "properties": {"collection_times": [{"days": "Mon-Fri", "time": "1:45pm"}, {"days": "Sat-Sun", "time": "Closed"}], "id": "7050800046", "name": "USPS COLLECTION BOX - BLUE BOX", "address": {"city": "LAFAYETTE", "state": "LA", "street": "2014 W PINHOOK RD", "postcode": "70508"}}},
{"geometry": {"type": "Point", "coordinates": [-92.010622746, 30.19283965]}, "type": "Feature", "properties": {"collection_times": [{"days": "Mon-Fri", "time": "2:15pm"}, {"days": "Sat-Sun", "time": "Closed"}], "id": "7050800047", "name": "USPS COLLECTION BOX - BLUE BOX", "address": {"city": "LAFAYETTE", "state": "LA", "street": "101 RUE JEAN LAFITTE", "postcode": "70508"}}},
{"geometry": {"type": "Point", "coordinates": [-92.021508823, 30.1803150174]}, "type": "Feature", "properties": {"collection_times": [{"days": "Mon-Fri", "time": "1:15pm"}, {"days": "Sat-Sun", "time": "Closed"}], "id": "7050800048", "name": "USPS COLLECTION BOX - BLUE BOX", "address": {"city": "LAFAYETTE", "state": "LA", "street": "825 KALISTE SALOOM RD", "postcode": "70508"}}},
{"geometry": {"type": "Point", "coordinates": [-92.0158946187, 30.1851352113]}, "type": "Feature", "properties": {"collection_times": [{"days": "Mon-Fri", "time": "1:45pm"}, {"days": "Sat-Sun", "time": "Closed"}], "id": "7050800049", "name": "USPS COLLECTION BOX - BLUE BOX", "address": {"city": "LAFAYETTE", "state": "LA", "street": "100 ASMA BLVD", "postcode": "70508"}}},
{"geometry": {"type": "Point", "coordinates": [-92.0100419514, 30.1843608008]}, "type": "Feature", "properties": {"collection_times": [{"days": "Mon-Fri", "time": "1:45pm"}, {"days": "Sat-Sun", "time": "Closed"}], "id": "7050800050", "name": "USPS COLLECTION BOX - BLUE BOX", "address": {"city": "LAFAYETTE", "state": "LA", "street": "100 CORPORATE BLVD", "postcode": "70508"}}},
{"geometry": {"type": "Point", "coordinates": [-92.010622746, 30.19283965]}, "type": "Feature", "properties": {"collection_times": [{"days": "Mon-Fri", "time": "2:15pm"}, {"days": "Sat-Sun", "time": "Closed"}], "id": "7050800051", "name": "USPS COLLECTION BOX - BLUE BOX", "address": {"city": "LAFAYETTE", "state": "LA", "street": "101 RUE JEAN LAFITTE", "postcode": "70508"}}},
{"geometry": {"type": "Point", "coordinates": [-92.0124173251, 30.1871254595]}, "type": "Feature", "properties": {"collection_times": [{"days": "Mon-Fri", "time": "1:45pm"}, {"days": "Sat-Sun", "time": "Closed"}], "id": "7050800052", "name": "USPS COLLECTION BOX - BLUE BOX", "address": {"city": "LAFAYETTE", "state": "LA", "street": "2014 W PINHOOK RD", "postcode": "70508"}}},
{"geometry": {"type": "Point", "coordinates": [-92.045716988, 30.1541969]}, "type": "Feature", "properties": {"collection_times": [{"days": "Mon-Fri", "time": "1:00pm"}, {"days": "Sat-Sun", "time": "Closed"}], "id": "7050800061", "name": "USPS COLLECTION BOX - BLUE BOX", "address": {"city": "LAFAYETTE", "state": "LA", "street": "4600 AMBASSADOR CAFFERY PKWY", "postcode": "70508"}}},
{"geometry": {"type": "Point", "coordinates": [-92.0081930501, 30.176389754]}, "type": "Feature", "properties": {"collection_times": [{"days": "Mon-Fri", "time": "5:00pm"}, {"days": "Sat", "time": "11:00am"}, {"days": "Sun", "time": "Closed"}], "id": "7050800062", "name": "USPS COLLECTION BOX - BLUE BOX", "address": {"city": "LAFAYETTE", "state": "LA", "street": "455 FEU FOLLET RD", "postcode": "70508"}}},
{"geometry": {"type": "Point", "coordinates": [-92.0472032271, 30.1554233634]}, "type": "Feature", "properties": {"collection_times": [{"days": "Mon-Fri", "time": "1:00pm"}, {"days": "Sat-Sun", "time": "Closed"}], "id": "7050800063", "name": "USPS COLLECTION BOX - BLUE BOX", "address": {"city": "LAFAYETTE", "state": "LA", "street": "4540 AMBASSADOR CAFFERY PKWY", "postcode": "70508"}}},
{"geometry": {"type": "Point", "coordinates": [-92.0092114561, 30.190266999]}, "type": "Feature", "properties": {"collection_times": [{"days": "Mon-Fri", "time": "2:15pm"}, {"days": "Sat-Sun", "time": "Closed"}], "id": "7050800066", "name": "USPS COLLECTION BOX - BLUE BOX", "address": {"city": "LAFAYETTE", "state": "LA", "street": "201 RUE IBERVILLE", "postcode": "70508"}}},
{"geometry": {"type": "Point", "coordinates": [-92.0246733358, 30.1684816466]}, "type": "Feature", "properties": {"collection_times": [{"days": "Mon-Fri", "time": "1:15pm"}, {"days": "Sat-Sun", "time": "Closed"}], "id": "7050800069", "name": "USPS COLLECTION BOX - BLUE BOX", "address": {"city": "LAFAYETTE", "state": "LA", "street": "302 RUE LOUIS XIV", "postcode": "70508"}}},
{"geometry": {"type": "Point", "coordinates": [-91.9943398084, 30.2119275062]}, "type": "Feature", "properties": {"collection_times": [{"days": "Mon-Fri", "time": "2:30pm"}, {"days": "Sat-Sun", "time": "Closed"}], "id": "7050800070", "name": "USPS COLLECTION BOX - BLUE BOX", "address": {"city": "LAFAYETTE", "state": "LA", "street": "113 CHAPLIN DR", "postcode": "70508"}}},
{"geometry": {"type": "Point", "coordinates": [-92.0092114561, 30.190266999]}, "type": "Feature", "properties": {"collection_times": [{"days": "Mon-Fri", "time": "2:15pm"}, {"days": "Sat-Sun", "time": "Closed"}], "id": "7050800071", "name": "USPS COLLECTION BOX - BLUE BOX", "address": {"city": "LAFAYETTE", "state": "LA", "street": "201 RUE IBERVILLE", "postcode": "70508"}}},
{"geometry": {"type": "Point", "coordinates": [-91.9985757315, 30.1995136538]}, "type": "Feature", "properties": {"collection_times": [{"days": "Mon-Fri", "time": "2:30pm"}, {"days": "Sat-Sun", "time": "Closed"}], "id": "7050800072", "name": "USPS COLLECTION BOX - BLUE BOX", "address": {"city": "LAFAYETTE", "state": "LA", "street": "2001 SE EVANGELINE TRWY", "postcode": "70508"}}},
{"geometry": {"type": "Point", "coordinates": [-92.0081930501, 30.176389754]}, "type": "Feature", "properties": {"collection_times": [{"days": "Mon-Fri", "time": "5:00pm"}, {"days": "Sat", "time": "11:00am"}, {"days": "Sun", "time": "Closed"}], "id": "7050800073", "name": "USPS COLLECTION BOX - APC", "address": {"city": "LAFAYETTE", "state": "LA", "street": "455 FEU FOLLET RD", "postcode": "70508"}}},
{"geometry": {"type": "Point", "coordinates": [-92.1211846858, 29.9814674733]}, "type": "Feature", "properties": {"collection_times": [{"days": "Mon-Fri", "time": "5:00pm"}, {"days": "Sat", "time": "4:15pm"}, {"days": "Sun", "time": "Closed"}], "id": "7051000001", "name": "USPS COLLECTION BOX - PO LOBBY", "address": {"city": "ABBEVILLE", "state": "LA", "street": "1421 VETERANS MEMORIAL DR", "postcode": "70510"}}},
{"geometry": {"type": "Point", "coordinates": [-92.1211846858, 29.9814674733]}, "type": "Feature", "properties": {"collection_times": [{"days": "Mon-Fri", "time": "5:00pm"}, {"days": "Sat", "time": "4:30pm"}, {"days": "Sun", "time": "Closed"}], "id": "7051000003", "name": "USPS COLLECTION BOX - BLUE BOX", "address": {"city": "ABBEVILLE", "state": "LA", "street": "1421 VETERANS MEMORIAL DR", "postcode": "70510"}}},
{"geometry": {"type": "Point", "coordinates": [-92.1211846858, 29.9814674733]}, "type": "Feature", "properties": {"collection_times": [{"days": "Mon-Fri", "time": "5:00pm"}, {"days": "Sat", "time": "4:30pm"}, {"days": "Sun", "time": "Closed"}], "id": "7051000004", "name": "USPS COLLECTION BOX - BLUE BOX", "address": {"city": "ABBEVILLE", "state": "LA", "street": "1421 VETERANS MEMORIAL DR", "postcode": "70510"}}},
{"geometry": {"type": "Point", "coordinates": [-92.1353019264, 29.97514981]}, "type": "Feature", "properties": {"collection_times": [{"days": "Mon-Sat", "time": "9:00am"}, {"days": "Sun", "time": "Closed"}], "id": "7051000005", "name": "USPS COLLECTION BOX - BLUE BOX", "address": {"city": "ABBEVILLE", "state": "LA", "street": "200 N STATE ST", "postcode": "70510"}}},
{"geometry": {"type": "Point", "coordinates": [-92.1436899151, 29.9603808488]}, "type": "Feature", "properties": {"collection_times": [{"days": "Mon-Sat", "time": "8:30am"}, {"days": "Sun", "time": "Closed"}], "id": "7051000006", "name": "USPS COLLECTION BOX - BLUE BOX", "address": {"city": "ABBEVILLE", "state": "LA", "street": "100 TIVOLI ST", "postcode": "70510"}}},
{"geometry": {"type": "Point", "coordinates": [-92.1436899151, 29.9603808488]}, "type": "Feature", "properties": {"collection_times": [{"days": "Mon-Sat", "time": "8:30am"}, {"days": "Sun", "time": "Closed"}], "id": "7051000007", "name": "USPS COLLECTION BOX - BLUE BOX", "address": {"city": "ABBEVILLE", "state": "LA", "street": "100 TIVOLI ST", "postcode": "70510"}}},
{"geometry": {"type": "Point", "coordinates": [-92.1358878709, 29.9740117357]}, "type": "Feature", "properties": {"collection_times": [{"days": "Mon-Sat", "time": "9:15am"}, {"days": "Sun", "time": "Closed"}], "id": "7051000008", "name": "USPS COLLECTION BOX - BLUE BOX", "address": {"city": "ABBEVILLE", "state": "LA", "street": "119 CONCORD ST", "postcode": "70510"}}},
{"geometry": {"type": "Point", "coordinates": [-92.1358422005, 29.972906119]}, "type": "Feature", "properties": {"collection_times": [{"days": "Mon-Sat", "time": "8:45am"}, {"days": "Sun", "time": "Closed"}], "id": "7051000009", "name": "USPS COLLECTION BOX - BLUE BOX", "address": {"city": "ABBEVILLE", "state": "LA", "street": "201 S STATE ST", "postcode": "70510"}}},
{"geometry": {"type": "Point", "coordinates": [-92.137017468, 29.9685290594]}, "type": "Feature", "properties": {"collection_times": [{"days": "Mon-Sat", "time": "9:00am"}, {"days": "Sun", "time": "Closed"}], "id": "7051000011", "name": "USPS COLLECTION BOX - BLUE BOX", "address": {"city": "ABBEVILLE", "state": "LA", "street": "604 S STATE ST", "postcode": "70510"}}},
{"geometry": {"type": "Point", "coordinates": [-92.1070435707, 29.9721346874]}, "type": "Feature", "properties": {"collection_times": [{"days": "Mon-Sat", "time": "9:30am"}, {"days": "Sun", "time": "Closed"}], "id": "7051000013", "name": "USPS COLLECTION BOX - BLUE BOX", "address": {"city": "ABBEVILLE", "state": "LA", "street": "118 N HOSPITAL DR", "postcode": "70510"}}},
{"geometry": {"type": "Point", "coordinates": [-91.934865839, 30.4029462223]}, "type": "Feature", "properties": {"collection_times": [{"days": "Mon-Fri", "time": "4:15pm"}, {"days": "Sat", "time": "10:00am"}, {"days": "Sun", "time": "Closed"}], "id": "7051200001", "name": "USPS COLLECTION BOX - PO LOBBY", "address": {"city": "ARNAUDVILLE", "state": "LA", "street": "259 GUIDROZ ST", "postcode": "70512"}}},
{"geometry": {"type": "Point", "coordinates": [-91.934865839, 30.4029462223]}, "type": "Feature", "properties": {"collection_times": [{"days": "Mon-Fri", "time": "4:15pm"}, {"days": "Sat", "time": "10:00am"}, {"days": "Sun", "time": "Closed"}], "id": "7051200002", "name": "USPS COLLECTION BOX - BLUE BOX", "address": {"city": "ARNAUDVILLE", "state": "LA", "street": "259 GUIDROZ ST", "postcode": "70512"}}},
{"geometry": {"type": "Point", "coordinates": [-91.9097633443, 29.9064894291]}, "type": "Feature", "properties": {"collection_times": [{"days": "Mon-Fri", "time": "3:30pm"}, {"days": "Sat", "time": "10:30am"}, {"days": "Sun", "time": "Closed"}], "id": "7051300001", "name": "USPS COLLECTION BOX - PO LOBBY", "address": {"city": "AVERY ISLAND", "state": "LA", "street": "100 MAIN RD", "postcode": "70513"}}},
{"geometry": {"type": "Point", "coordinates": [-91.9097633443, 29.9064894291]}, "type": "Feature", "properties": {"collection_times": [{"days": "Mon-Fri", "time": "3:45pm"}, {"days": "Sat", "time": "10:30am"}, {"days": "Sun", "time": "Closed"}], "id": "7051300002", "name": "USPS COLLECTION BOX - BLUE BOX", "address": {"city": "AVERY ISLAND", "state": "LA", "street": "100 MAIN RD", "postcode": "70513"}}},
{"geometry": {"type": "Point", "coordinates": [-91.5445210123, 29.8364950839]}, "type": "Feature", "properties": {"collection_times": [{"days": "Mon-Fri", "time": "3:45pm"}, {"days": "Sat", "time": "10:15am"}, {"days": "Sun", "time": "Closed"}], "id": "7051400001", "name": "USPS COLLECTION BOX - BLUE BOX", "address": {"city": "BALDWIN", "state": "LA", "street": "604 MAIN ST", "postcode": "70514"}}},
{"geometry": {"type": "Point", "coordinates": [-91.5445210123, 29.8364950839]}, "type": "Feature", "properties": {"collection_times": [{"days": "Mon-Fri", "time": "3:45pm"}, {"days": "Sat", "time": "10:15am"}, {"days": "Sun", "time": "Closed"}], "id": "7051400002", "name": "USPS COLLECTION BOX - PO LOBBY", "address": {"city": "BALDWIN", "state": "LA", "street": "604 MAIN ST", "postcode": "70514"}}},
{"geometry": {"type": "Point", "coordinates": [-92.5977718673, 30.4823662899]}, "type": "Feature", "properties": {"collection_times": [{"days": "Mon-Fri", "time": "3:00pm"}, {"days": "Sat", "time": "9:30am"}, {"days": "Sun", "time": "Closed"}], "id": "7051500001", "name": "USPS COLLECTION BOX - BLUE BOX", "address": {"city": "BASILE", "state": "LA", "street": "1209 DIANE GAIL ST", "postcode": "70515"}}},
{"geometry": {"type": "Point", "coordinates": [-92.5977718673, 30.4823662899]}, "type": "Feature", "properties": {"collection_times": [{"days": "Mon-Fri", "time": "3:15pm"}, {"days": "Sat", "time": "9:30am"}, {"days": "Sun", "time": "Closed"}], "id": "7051500002", "name": "USPS COLLECTION BOX - PO LOBBY", "address": {"city": "BASILE", "state": "LA", "street": "1209 DIANE GAIL ST", "postcode": "70515"}}},
{"geometry": {"type": "Point", "coordinates": [-92.2671895612, 30.3497014583]}, "type": "Feature", "properties": {"collection_times": [{"days": "Mon-Fri", "time": "3:45pm"}, {"days": "Sat", "time": "10:45am"}, {"days": "Sun", "time": "Closed"}], "id": "7051600001", "name": "USPS COLLECTION BOX - PO LOBBY", "address": {"city": "BRANCH", "state": "LA", "street": "7031 CHURCH POINT HWY", "postcode": "70516"}}},
{"geometry": {"type": "Point", "coordinates": [-92.2671895612, 30.3497014583]}, "type": "Feature", "properties": {"collection_times": [{"days": "Mon-Fri", "time": "3:30pm"}, {"days": "Sat", "time": "10:45am"}, {"days": "Sun", "time": "Closed"}], "id": "7051600002", "name": "USPS COLLECTION BOX - BLUE BOX", "address": {"city": "BRANCH", "state": "LA", "street": "7031 CHURCH POINT HWY", "postcode": "70516"}}},
{"geometry": {"type": "Point", "coordinates": [-91.8039734291, 30.3121714194]}, "type": "Feature", "properties": {"collection_times": [{"days": "Mon-Fri", "time": "3:00pm"}, {"days": "Sat", "time": "12:00pm"}, {"days": "Sun", "time": "Closed"}], "id": "7051700001", "name": "USPS COLLECTION BOX - BLUE BOX", "address": {"city": "BREAUX BRIDGE", "state": "LA", "street": "1489 HENDERSON HWY", "postcode": "70517"}}},
{"geometry": {"type": "Point", "coordinates": [-91.90047147, 30.2800058017]}, "type": "Feature", "properties": {"collection_times": [{"days": "Mon-Fri", "time": "5:00pm"}, {"days": "Sat", "time": "3:30pm"}, {"days": "Sun", "time": "Closed"}], "id": "7051700002", "name": "USPS COLLECTION BOX - PO LOBBY", "address": {"city": "BREAUX BRIDGE", "state": "LA", "street": "700 REES ST", "postcode": "70517"}}},
{"geometry": {"type": "Point", "coordinates": [-91.90047147, 30.2800058017]}, "type": "Feature", "properties": {"collection_times": [{"days": "Mon-Fri", "time": "5:00pm"}, {"days": "Sat", "time": "3:30pm"}, {"days": "Sun", "time": "Closed"}], "id": "7051700003", "name": "USPS COLLECTION BOX - BLUE BOX", "address": {"city": "BREAUX BRIDGE", "state": "LA", "street": "700 REES ST", "postcode": "70517"}}},
{"geometry": {"type": "Point", "coordinates": [-91.90047147, 30.2800058017]}, "type": "Feature", "properties": {"collection_times": [{"days": "Mon-Fri", "time": "5:00pm"}, {"days": "Sat", "time": "3:30pm"}, {"days": "Sun", "time": "Closed"}], "id": "7051700010", "name": "USPS COLLECTION BOX - BLUE BOX", "address": {"city": "BREAUX BRIDGE", "state": "LA", "street": "700 REES ST", "postcode": "70517"}}},
{"geometry": {"type": "Point", "coordinates": [-91.9488282699, 30.1485136539]}, "type": "Feature", "properties": {"collection_times": [{"days": "Mon-Fri", "time": "5:00pm"}, {"days": "Sat", "time": "1:30pm"}, {"days": "Sun", "time": "Closed"}], "id": "7051800001", "name": "USPS COLLECTION BOX - PO LOBBY", "address": {"city": "BROUSSARD", "state": "LA", "street": "4200 HIGHWAY 90 E", "postcode": "70518"}}},
{"geometry": {"type": "Point", "coordinates": [-91.9488282699, 30.1485136539]}, "type": "Feature", "properties": {"collection_times": [{"days": "Mon-Fri", "time": "5:00pm"}, {"days": "Sat", "time": "1:30pm"}, {"days": "Sun", "time": "Closed"}], "id": "7051800002", "name": "USPS COLLECTION BOX - BLUE BOX", "address": {"city": "BROUSSARD", "state": "LA", "street": "4200 HIGHWAY 90 E", "postcode": "70518"}}},
{"geometry": {"type": "Point", "coordinates": [-91.9488282699, 30.1485136539]}, "type": "Feature", "properties": {"collection_times": [{"days": "Mon-Fri", "time": "5:00pm"}, {"days": "Sat", "time": "1:30pm"}, {"days": "Sun", "time": "Closed"}], "id": "7051800003", "name": "USPS COLLECTION BOX - BLUE BOX", "address": {"city": "BROUSSARD", "state": "LA", "street": "4200 HIGHWAY 90 E", "postcode": "70518"}}},
{"geometry": {"type": "Point", "coordinates": [-91.9488282699, 30.1485136539]}, "type": "Feature", "properties": {"collection_times": [{"days": "Mon-Fri", "time": "5:00pm"}, {"days": "Sat", "time": "1:30pm"}, {"days": "Sun", "time": "Closed"}], "id": "7051800007", "name": "USPS COLLECTION BOX - PO LOBBY", "address": {"city": "BROUSSARD", "state": "LA", "street": "4200 HIGHWAY 90 E", "postcode": "70518"}}},
{"geometry": {"type": "Point", "coordinates": [-91.952826207, 30.1406033267]}, "type": "Feature", "properties": {"collection_times": [{"days": "Mon-Sat", "time": "12:30pm"}, {"days": "Sun", "time": "Closed"}], "id": "7051800010", "name": "USPS COLLECTION BOX - BLUE BOX", "address": {"city": "BROUSSARD", "state": "LA", "street": "1210 ALBERTSON PKWY", "postcode": "70518"}}},
{"geometry": {"type": "Point", "coordinates": [-91.8294463676, 30.122396182]}, "type": "Feature", "properties": {"collection_times": [{"days": "Mon-Fri", "time": "4:00pm"}, {"days": "Sat", "time": "11:30am"}, {"days": "Sun", "time": "Closed"}], "id": "7051900001", "name": "USPS COLLECTION BOX - PO LOBBY", "address": {"city": "CADE", "state": "LA", "street": "1597 OLD SPANISH TRL", "postcode": "70519"}}},
{"geometry": {"type": "Point", "coordinates": [-91.8294463676, 30.122396182]}, "type": "Feature", "properties": {"collection_times": [{"days": "Mon-Fri", "time": "4:00pm"}, {"days": "Sat", "time": "11:30am"}, {"days": "Sun", "time": "Closed"}], "id": "7051900003", "name": "USPS COLLECTION BOX - BLUE BOX", "address": {"city": "CADE", "state": "LA", "street": "1597 OLD SPANISH TRL", "postcode": "70519"}}},
{"geometry": {"type": "Point", "coordinates": [-92.0409746097, 30.3217902545]}, "type": "Feature", "properties": {"collection_times": [{"days": "Mon-Fri", "time": "4:30pm"}, {"days": "Sat", "time": "1:45pm"}, {"days": "Sun", "time": "Closed"}], "id": "7052000001", "name": "USPS COLLECTION BOX - PO LOBBY", "address": {"city": "CARENCRO", "state": "LA", "street": "809 VETERANS DR", "postcode": "70520"}}},
{"geometry": {"type": "Point", "coordinates": [-92.0409746097, 30.3217902545]}, "type": "Feature", "properties": {"collection_times": [{"days": "Mon-Fri", "time": "4:30pm"}, {"days": "Sat", "time": "1:45pm"}, {"days": "Sun", "time": "Closed"}], "id": "7052000007", "name": "USPS COLLECTION BOX - BLUE BOX", "address": {"city": "CARENCRO", "state": "LA", "street": "809 VETERANS DR", "postcode": "70520"}}},
{"geometry": {"type": "Point", "coordinates": [-91.8540413169, 30.338637246]}, "type": "Feature", "properties": {"collection_times": [{"days": "Mon-Fri", "time": "4:30pm"}, {"days": "Sat", "time": "11:00am"}, {"days": "Sun", "time": "Closed"}], "id": "7052100001", "name": "USPS COLLECTION BOX - PO LOBBY", "address": {"city": "CECILIA", "state": "LA", "street": "2224 BUSHVILLE HWY", "postcode": "70521"}}},
{"geometry": {"type": "Point", "coordinates": [-91.8540413169, 30.338637246]}, "type": "Feature", "properties": {"collection_times": [{"days": "Mon-Fri", "time": "4:45pm"}, {"days": "Sat", "time": "11:00am"}, {"days": "Sun", "time": "Closed"}], "id": "7052100002", "name": "USPS COLLECTION BOX - BLUE BOX", "address": {"city": "CECILIA", "state": "LA", "street": "2224 BUSHVILLE HWY", "postcode": "70521"}}},
{"geometry": {"type": "Point", "coordinates": [-91.5008088487, 29.7913859521]}, "type": "Feature", "properties": {"collection_times": [{"days": "Mon-Fri", "time": "4:00pm"}, {"days": "Sat", "time": "11:30am"}, {"days": "Sun", "time": "Closed"}], "id": "7052200001", "name": "USPS COLLECTION BOX - PO LOBBY", "address": {"city": "CENTERVILLE", "state": "LA", "street": "303 SENETTE ST", "postcode": "70522"}}},
{"geometry": {"type": "Point", "coordinates": [-91.5008088487, 29.7913859521]}, "type": "Feature", "properties": {"collection_times": [{"days": "Mon-Fri", "time": "4:00pm"}, {"days": "Sat", "time": "11:30am"}, {"days": "Sun", "time": "Closed"}], "id": "7052200002", "name": "USPS COLLECTION BOX - BLUE BOX", "address": {"city": "CENTERVILLE", "state": "LA", "street": "303 SENETTE ST", "postcode": "70522"}}},
{"geometry": {"type": "Point", "coordinates": [-91.5886176248, 29.8776048698]}, "type": "Feature", "properties": {"collection_times": [{"days": "Mon-Fri", "time": "4:00pm"}, {"days": "Sat", "time": "11:30am"}, {"days": "Sun", "time": "Closed"}], "id": "7052300001", "name": "USPS COLLECTION BOX - PO LOBBY", "address": {"city": "CHARENTON", "state": "LA", "street": "2848 CHITIMACHA TRL", "postcode": "70523"}}},
{"geometry": {"type": "Point", "coordinates": [-91.5886176248, 29.8776048698]}, "type": "Feature", "properties": {"collection_times": [{"days": "Mon-Fri", "time": "4:00pm"}, {"days": "Sat", "time": "11:30am"}, {"days": "Sun", "time": "Closed"}], "id": "7052300002", "name": "USPS COLLECTION BOX - BLUE BOX", "address": {"city": "CHARENTON", "state": "LA", "street": "2848 CHITIMACHA TRL", "postcode": "70523"}}},
{"geometry": {"type": "Point", "coordinates": [-92.3218066266, 30.5685567748]}, "type": "Feature", "properties": {"collection_times": [{"days": "Mon-Fri", "time": "3:45pm"}, {"days": "Sat", "time": "9:45am"}, {"days": "Sun", "time": "Closed"}], "id": "7052400001", "name": "USPS COLLECTION BOX - PO LOBBY", "address": {"city": "CHATAIGNIER", "state": "LA", "street": "113 FIRST ST", "postcode": "70524"}}},
{"geometry": {"type": "Point", "coordinates": [-92.2084362684, 30.3953992207]}, "type": "Feature", "properties": {"collection_times": [{"days": "Mon-Fri", "time": "4:00pm"}, {"days": "Sat", "time": "3:30pm"}, {"days": "Sun", "time": "Closed"}], "id": "7052500001", "name": "USPS COLLECTION BOX - PO LOBBY", "address": {"city": "CHURCH POINT", "state": "LA", "street": "739 S MAIN ST", "postcode": "70525"}}},
{"geometry": {"type": "Point", "coordinates": [-92.2084362684, 30.3953992207]}, "type": "Feature", "properties": {"collection_times": [{"days": "Mon-Fri", "time": "4:00pm"}, {"days": "Sat", "time": "3:30pm"}, {"days": "Sun", "time": "Closed"}], "id": "7052500002", "name": "USPS COLLECTION BOX - BLUE BOX", "address": {"city": "CHURCH POINT", "state": "LA", "street": "739 S MAIN ST", "postcode": "70525"}}},
{"geometry": {"type": "Point", "coordinates": [-92.2084362684, 30.3953992207]}, "type": "Feature", "properties": {"collection_times": [{"days": "Mon-Fri", "time": "4:00pm"}, {"days": "Sat", "time": "3:30pm"}, {"days": "Sun", "time": "Closed"}], "id": "7052500004", "name": "USPS COLLECTION BOX - BLUE BOX", "address": {"city": "CHURCH POINT", "state": "LA", "street": "739 S MAIN ST", "postcode": "70525"}}},
{"geometry": {"type": "Point", "coordinates": [-92.2084362684, 30.3953992207]}, "type": "Feature", "properties": {"collection_times": [{"days": "Mon-Fri", "time": "4:00pm"}, {"days": "Sat", "time": "3:30pm"}, {"days": "Sun", "time": "Closed"}], "id": "7052500009", "name": "USPS COLLECTION BOX - PO LOBBY", "address": {"city": "CHURCH POINT", "state": "LA", "street": "739 S MAIN ST", "postcode": "70525"}}},
{"geometry": {"type": "Point", "coordinates": [-92.3718537889, 30.211875535]}, "type": "Feature", "properties": {"collection_times": [{"days": "Mon-Fri", "time": "5:00pm"}, {"days": "Sat", "time": "3:15pm"}, {"days": "Sun", "time": "Closed"}], "id": "7052600001", "name": "USPS COLLECTION BOX - PO LOBBY", "address": {"city": "CROWLEY", "state": "LA", "street": "123 E 3RD ST", "postcode": "70526"}}},
{"geometry": {"type": "Point", "coordinates": [-92.3710264882, 30.2122931838]}, "type": "Feature", "properties": {"collection_times": [{"days": "Mon-Fri", "time": "5:00pm"}, {"days": "Sat", "time": "3:15pm"}, {"days": "Sun", "time": "Closed"}], "id": "7052600004", "name": "USPS COLLECTION BOX - BLUE BOX", "address": {"city": "CROWLEY", "state": "LA", "street": "300 N AVENUE G", "postcode": "70526"}}},
{"geometry": {"type": "Point", "coordinates": [-92.3711601529, 30.2102818238]}, "type": "Feature", "properties": {"collection_times": [{"days": "Mon-Fri", "time": "8:45am"}, {"days": "Sat-Sun", "time": "Closed"}], "id": "7052600022", "name": "USPS COLLECTION BOX - BLUE BOX", "address": {"city": "CROWLEY", "state": "LA", "street": "128 N PARKERSON AVE", "postcode": "70526"}}},
{"geometry": {"type": "Point", "coordinates": [-92.3722766595, 30.2116984826]}, "type": "Feature", "properties": {"collection_times": [{"days": "Mon-Fri", "time": "8:45am"}, {"days": "Sat-Sun", "time": "Closed"}], "id": "7052600023", "name": "USPS COLLECTION BOX - BLUE BOX", "address": {"city": "CROWLEY", "state": "LA", "street": "301 N PARKERSON AVE", "postcode": "70526"}}},
{"geometry": {"type": "Point", "coordinates": [-92.3737187462, 30.2121910861]}, "type": "Feature", "properties": {"collection_times": [{"days": "Mon-Fri", "time": "8:45am"}, {"days": "Sat-Sun", "time": "Closed"}], "id": "7052600024", "name": "USPS COLLECTION BOX - BLUE BOX", "address": {"city": "CROWLEY", "state": "LA", "street": "400 N AVENUE F", "postcode": "70526"}}},
{"geometry": {"type": "Point", "coordinates": [-92.3765587781, 30.2199231347]}, "type": "Feature", "properties": {"collection_times": [{"days": "Mon-Fri", "time": "8:45am"}, {"days": "Sat-Sun", "time": "Closed"}], "id": "7052600025", "name": "USPS COLLECTION BOX - BLUE BOX", "address": {"city": "CROWLEY", "state": "LA", "street": "1100 N PARKERSON AVE", "postcode": "70526"}}},
{"geometry": {"type": "Point", "coordinates": [-92.3797065894, 30.2255777158]}, "type": "Feature", "properties": {"collection_times": [{"days": "Mon-Fri", "time": "10:00am"}, {"days": "Sat-Sun", "time": "Closed"}], "id": "7052600026", "name": "USPS COLLECTION BOX - BLUE BOX", "address": {"city": "CROWLEY", "state": "LA", "street": "1600 N PARKERSON AVE", "postcode": "70526"}}},
{"geometry": {"type": "Point", "coordinates": [-92.3823025427, 30.2302296548]}, "type": "Feature", "properties": {"collection_times": [{"days": "Mon-Fri", "time": "10:00am"}, {"days": "Sat-Sun", "time": "Closed"}], "id": "7052600028", "name": "USPS COLLECTION BOX - BLUE BOX", "address": {"city": "CROWLEY", "state": "LA", "street": "2016 N PARKERSON AVE", "postcode": "70526"}}},
{"geometry": {"type": "Point", "coordinates": [-92.3732968808, 30.2140489324]}, "type": "Feature", "properties": {"collection_times": [{"days": "Mon-Fri", "time": "2:30pm"}, {"days": "Sat-Sun", "time": "Closed"}], "id": "7052600033", "name": "USPS COLLECTION BOX - BLUE BOX", "address": {"city": "CROWLEY", "state": "LA", "street": "500 N COURT CIR", "postcode": "70526"}}},
{"geometry": {"type": "Point", "coordinates": [-92.3631958315, 30.2307847984]}, "type": "Feature", "properties": {"collection_times": [{"days": "Mon-Fri", "time": "8:45am"}, {"days": "Sat-Sun", "time": "Closed"}], "id": "7052600037", "name": "USPS COLLECTION BOX - BLUE BOX", "address": {"city": "CROWLEY", "state": "LA", "street": "729 ODD FELLOWS RD", "postcode": "70526"}}},
{"geometry": {"type": "Point", "coordinates": [-91.9885472423, 29.9516797031]}, "type": "Feature", "properties": {"collection_times": [{"days": "Mon-Fri", "time": "3:45pm"}, {"days": "Sat", "time": "12:00pm"}, {"days": "Sun", "time": "Closed"}], "id": "7052800002", "name": "USPS COLLECTION BOX - BLUE BOX", "address": {"city": "DELCAMBRE", "state": "LA", "street": "106 W HIGHWAY 14", "postcode": "70528"}}},
{"geometry": {"type": "Point", "coordinates": [-92.1838649174, 30.235804967]}, "type": "Feature", "properties": {"collection_times": [{"days": "Mon-Fri", "time": "4:30pm"}, {"days": "Sat", "time": "12:00pm"}, {"days": "Sun", "time": "Closed"}], "id": "7052900002", "name": "USPS COLLECTION BOX - BLUE BOX", "address": {"city": "DUSON", "state": "LA", "street": "501 1ST ST", "postcode": "70529"}}},
{"geometry": {"type": "Point", "coordinates": [-92.1838649174, 30.235804967]}, "type": "Feature", "properties": {"collection_times": [{"days": "Mon-Fri", "time": "4:30pm"}, {"days": "Sat", "time": "12:00pm"}, {"days": "Sun", "time": "Closed"}], "id": "7052900005", "name": "USPS COLLECTION BOX - PO LOBBY", "address": {"city": "DUSON", "state": "LA", "street": "501 1ST ST", "postcode": "70529"}}},
{"geometry": {"type": "Point", "coordinates": [-92.5132200313, 30.2366348677]}, "type": "Feature", "properties": {"collection_times": [{"days": "Mon-Fri", "time": "3:15pm"}, {"days": "Sat", "time": "10:15am"}, {"days": "Sun", "time": "Closed"}], "id": "7053100001", "name": "USPS COLLECTION BOX - PO LOBBY", "address": {"city": "EGAN", "state": "LA", "street": "3246 EGAN HWY", "postcode": "70531"}}},
{"geometry": {"type": "Point", "coordinates": [-92.5132200313, 30.2366348677]}, "type": "Feature", "properties": {"collection_times": [{"days": "Mon-Fri", "time": "3:15pm"}, {"days": "Sat", "time": "10:15am"}, {"days": "Sun", "time": "Closed"}], "id": "7053100002", "name": "USPS COLLECTION BOX - BLUE BOX", "address": {"city": "EGAN", "state": "LA", "street": "3246 EGAN HWY", "postcode": "70531"}}},
{"geometry": {"type": "Point", "coordinates": [-92.7055258935, 30.4813259868]}, "type": "Feature", "properties": {"collection_times": [{"days": "Mon-Fri", "time": "3:30pm"}, {"days": "Sat", "time": "11:15am"}, {"days": "Sun", "time": "Closed"}], "id": "7053200002", "name": "USPS COLLECTION BOX - BLUE BOX", "address": {"city": "ELTON", "state": "LA", "street": "2003 MAIN ST", "postcode": "70532"}}},
{"geometry": {"type": "Point", "coordinates": [-92.7055258935, 30.4813259868]}, "type": "Feature", "properties": {"collection_times": [{"days": "Mon-Fri", "time": "3:30pm"}, {"days": "Sat", "time": "11:15am"}, {"days": "Sun", "time": "Closed"}], "id": "7053200004", "name": "USPS COLLECTION BOX - PO LOBBY", "address": {"city": "ELTON", "state": "LA", "street": "2003 MAIN ST", "postcode": "70532"}}},
{"geometry": {"type": "Point", "coordinates": [-92.0349653683, 29.9574404556]}, "type": "Feature", "properties": {"collection_times": [{"days": "Mon-Fri", "time": "4:00pm"}, {"days": "Sat", "time": "12:00pm"}, {"days": "Sun", "time": "Closed"}], "id": "7053300001", "name": "USPS COLLECTION BOX - PO LOBBY", "address": {"city": "ERATH", "state": "LA", "street": "115 W EDWARD ST", "postcode": "70533"}}},
{"geometry": {"type": "Point", "coordinates": [-92.0349653683, 29.9574404556]}, "type": "Feature", "properties": {"collection_times": [{"days": "Mon-Fri", "time": "4:00pm"}, {"days": "Sat", "time": "12:00pm"}, {"days": "Sun", "time": "Closed"}], "id": "7053300002", "name": "USPS COLLECTION BOX - BLUE BOX", "address": {"city": "ERATH", "state": "LA", "street": "115 W EDWARD ST", "postcode": "70533"}}},
{"geometry": {"type": "Point", "coordinates": [-92.462378049, 30.1809402903]}, "type": "Feature", "properties": {"collection_times": [{"days": "Mon-Fri", "time": "4:00pm"}, {"days": "Sat-Sun", "time": "Closed"}], "id": "7053400001", "name": "USPS COLLECTION BOX - PO LOBBY", "address": {"city": "ESTHERWOOD", "state": "LA", "street": "430 FRONT AVE", "postcode": "70534"}}},
{"geometry": {"type": "Point", "coordinates": [-92.462378049, 30.1809402903]}, "type": "Feature", "properties": {"collection_times": [{"days": "Mon-Fri", "time": "4:00pm"}, {"days": "Sat-Sun", "time": "Closed"}], "id": "7053400002", "name": "USPS COLLECTION BOX - BLUE BOX", "address": {"city": "ESTHERWOOD", "state": "LA", "street": "430 FRONT AVE", "postcode": "70534"}}},
{"geometry": {"type": "Point", "coordinates": [-92.4169557029, 30.4949372424]}, "type": "Feature", "properties": {"collection_times": [{"days": "Mon-Fri", "time": "4:00pm"}, {"days": "Sat", "time": "3:45pm"}, {"days": "Sun", "time": "Closed"}], "id": "7053500001", "name": "USPS COLLECTION BOX - PO LOBBY", "address": {"city": "EUNICE", "state": "LA", "street": "250 W LAUREL AVE", "postcode": "70535"}}},
{"geometry": {"type": "Point", "coordinates": [-92.4169557029, 30.4949372424]}, "type": "Feature", "properties": {"collection_times": [{"days": "Mon-Fri", "time": "4:00pm"}, {"days": "Sat", "time": "3:45pm"}, {"days": "Sun", "time": "Closed"}], "id": "7053500002", "name": "USPS COLLECTION BOX - PO LOBBY", "address": {"city": "EUNICE", "state": "LA", "street": "250 W LAUREL AVE", "postcode": "70535"}}},
{"geometry": {"type": "Point", "coordinates": [-92.4169557029, 30.4949372424]}, "type": "Feature", "properties": {"collection_times": [{"days": "Mon-Fri", "time": "4:00pm"}, {"days": "Sat", "time": "3:45pm"}, {"days": "Sun", "time": "Closed"}], "id": "7053500004", "name": "USPS COLLECTION BOX - BLUE BOX", "address": {"city": "EUNICE", "state": "LA", "street": "250 W LAUREL AVE", "postcode": "70535"}}},
{"geometry": {"type": "Point", "coordinates": [-92.4152367059, 30.4929148757]}, "type": "Feature", "properties": {"collection_times": [{"days": "Mon-Fri", "time": "3:00pm"}, {"days": "Sat", "time": "2:00pm"}, {"days": "Sun", "time": "Closed"}], "id": "7053500007", "name": "USPS COLLECTION BOX - BLUE BOX", "address": {"city": "EUNICE", "state": "LA", "street": "100 PARK AVE", "postcode": "70535"}}},
{"geometry": {"type": "Point", "coordinates": [-92.4265116455, 30.4874476046]}, "type": "Feature", "properties": {"collection_times": [{"days": "Mon-Fri", "time": "3:00pm"}, {"days": "Sat", "time": "2:00pm"}, {"days": "Sun", "time": "Closed"}], "id": "7053500018", "name": "USPS COLLECTION BOX - BLUE BOX", "address": {"city": "EUNICE", "state": "LA", "street": "1051 W MAPLE AVE", "postcode": "70535"}}},
{"geometry": {"type": "Point", "coordinates": [-92.4169557029, 30.4949372424]}, "type": "Feature", "properties": {"collection_times": [{"days": "Mon-Fri", "time": "4:00pm"}, {"days": "Sat", "time": "3:45pm"}, {"days": "Sun", "time": "Closed"}], "id": "7053500031", "name": "USPS COLLECTION BOX - BLUE BOX", "address": {"city": "EUNICE", "state": "LA", "street": "250 W LAUREL AVE", "postcode": "70535"}}},
{"geometry": {"type": "Point", "coordinates": [-92.572696611, 30.2667453535]}, "type": "Feature", "properties": {"collection_times": [{"days": "Mon-Fri", "time": "4:00pm"}, {"days": "Sat", "time": "10:15am"}, {"days": "Sun", "time": "Closed"}], "id": "7053700001", "name": "USPS COLLECTION BOX - PO LOBBY", "address": {"city": "EVANGELINE", "state": "LA", "street": "1362 OLD EVANGELINE HWY", "postcode": "70537"}}},
{"geometry": {"type": "Point", "coordinates": [-92.572696611, 30.2667453535]}, "type": "Feature", "properties": {"collection_times": [{"days": "Mon-Fri", "time": "4:00pm"}, {"days": "Sat", "time": "10:15am"}, {"days": "Sun", "time": "Closed"}], "id": "7053700002", "name": "USPS COLLECTION BOX - BLUE BOX", "address": {"city": "EVANGELINE", "state": "LA", "street": "1362 OLD EVANGELINE HWY", "postcode": "70537"}}},
{"geometry": {"type": "Point", "coordinates": [-91.5000937415, 29.7906143777]}, "type": "Feature", "properties": {"collection_times": [{"days": "Mon-Fri", "time": "2:45pm"}, {"days": "Sat", "time": "1:00pm"}, {"days": "Sun", "time": "Closed"}], "id": "7053800003", "name": "USPS COLLECTION BOX - BLUE BOX", "address": {"city": "FRANKLIN", "state": "LA", "street": "500 MAIN ST", "postcode": "70538"}}},
{"geometry": {"type": "Point", "coordinates": [-91.502753426, 29.7907783954]}, "type": "Feature", "properties": {"collection_times": [{"days": "Mon-Fri", "time": "4:30pm"}, {"days": "Sat", "time": "3:30pm"}, {"days": "Sun", "time": "Closed"}], "id": "7053800013", "name": "USPS COLLECTION BOX - PO LOBBY", "address": {"city": "FRANKLIN", "state": "LA", "street": "420 WILLOW ST", "postcode": "70538"}}},
{"geometry": {"type": "Point", "coordinates": [-91.5035827057, 29.7906049442]}, "type": "Feature", "properties": {"collection_times": [{"days": "Mon-Fri", "time": "4:30pm"}, {"days": "Sat", "time": "3:30pm"}, {"days": "Sun", "time": "Closed"}], "id": "7053800014", "name": "USPS COLLECTION BOX - BLUE BOX", "address": {"city": "FRANKLIN", "state": "LA", "street": "600 3RD ST", "postcode": "70538"}}},
{"geometry": {"type": "Point", "coordinates": [-92.0474208183, 30.4188085972]}, "type": "Feature", "properties": {"collection_times": [{"days": "Mon-Fri", "time": "4:15pm"}, {"days": "Sat", "time": "10:45am"}, {"days": "Sun", "time": "Closed"}], "id": "7054100001", "name": "USPS COLLECTION BOX - PO LOBBY", "address": {"city": "GRAND COTEAU", "state": "LA", "street": "214 MARTIN L KING RD", "postcode": "70541"}}},
{"geometry": {"type": "Point", "coordinates": [-92.0474208183, 30.4188085972]}, "type": "Feature", "properties": {"collection_times": [{"days": "Mon-Fri", "time": "4:15pm"}, {"days": "Sat", "time": "10:45am"}, {"days": "Sun", "time": "Closed"}], "id": "7054100002", "name": "USPS COLLECTION BOX - BLUE BOX", "address": {"city": "GRAND COTEAU", "state": "LA", "street": "214 MARTIN L KING RD", "postcode": "70541"}}},
{"geometry": {"type": "Point", "coordinates": [-92.5102361058, 30.0258731745]}, "type": "Feature", "properties": {"collection_times": [{"days": "Mon-Fri", "time": "4:15pm"}, {"days": "Sat", "time": "2:00pm"}, {"days": "Sun", "time": "Closed"}], "id": "7054200002", "name": "USPS COLLECTION BOX - BLUE BOX", "address": {"city": "GUEYDAN", "state": "LA", "street": "405 MAIN ST", "postcode": "70542"}}},
{"geometry": {"type": "Point", "coordinates": [-92.5102361058, 30.0258731745]}, "type": "Feature", "properties": {"collection_times": [{"days": "Mon-Fri", "time": "4:15pm"}, {"days": "Sat", "time": "2:00pm"}, {"days": "Sun", "time": "Closed"}], "id": "7054200007", "name": "USPS COLLECTION BOX - PO LOBBY", "address": {"city": "GUEYDAN", "state": "LA", "street": "405 MAIN ST", "postcode": "70542"}}},
{"geometry": {"type": "Point", "coordinates": [-92.4962380755, 30.3327918057]}, "type": "Feature", "properties": {"collection_times": [{"days": "Mon-Fri", "time": "3:30pm"}, {"days": "Sat", "time": "11:00am"}, {"days": "Sun", "time": "Closed"}], "id": "7054300003", "name": "USPS COLLECTION BOX - PO LOBBY", "address": {"city": "IOTA", "state": "LA", "street": "207 FREY ST", "postcode": "70543"}}},
{"geometry": {"type": "Point", "coordinates": [-92.4962380755, 30.3327918057]}, "type": "Feature", "properties": {"collection_times": [{"days": "Mon-Fri", "time": "3:30pm"}, {"days": "Sat", "time": "11:00am"}, {"days": "Sun", "time": "Closed"}], "id": "7054300004", "name": "USPS COLLECTION BOX - BLUE BOX", "address": {"city": "IOTA", "state": "LA", "street": "207 FREY ST", "postcode": "70543"}}},
{"geometry": {"type": "Point", "coordinates": [-91.6690774351, 29.9176281344]}, "type": "Feature", "properties": {"collection_times": [{"days": "Mon-Fri", "time": "4:30pm"}, {"days": "Sat", "time": "3:00pm"}, {"days": "Sun", "time": "Closed"}], "id": "7054400002", "name": "USPS COLLECTION BOX - BLUE BOX", "address": {"city": "JEANERETTE", "state": "LA", "street": "1614 MAIN ST", "postcode": "70544"}}},
{"geometry": {"type": "Point", "coordinates": [-91.6690774351, 29.9176281344]}, "type": "Feature", "properties": {"collection_times": [{"days": "Mon-Fri", "time": "4:30pm"}, {"days": "Sat", "time": "3:00pm"}, {"days": "Sun", "time": "Closed"}], "id": "7054400013", "name": "USPS COLLECTION BOX - PO LOBBY", "address": {"city": "JEANERETTE", "state": "LA", "street": "1614 MAIN ST", "postcode": "70544"}}},
{"geometry": {"type": "Point", "coordinates": [-92.6573001284, 30.2211330198]}, "type": "Feature", "properties": {"collection_times": [{"days": "Mon-Fri", "time": "5:00pm"}, {"days": "Sat", "time": "4:15pm"}, {"days": "Sun", "time": "Closed"}], "id": "7054600003", "name": "USPS COLLECTION BOX - BLUE BOX", "address": {"city": "JENNINGS", "state": "LA", "street": "106 S BROADWAY ST", "postcode": "70546"}}},
{"geometry": {"type": "Point", "coordinates": [-92.6573001284, 30.2211330198]}, "type": "Feature", "properties": {"collection_times": [{"days": "Mon-Fri", "time": "5:00pm"}, {"days": "Sat", "time": "4:15pm"}, {"days": "Sun", "time": "Closed"}], "id": "7054600004", "name": "USPS COLLECTION BOX - BLUE BOX", "address": {"city": "JENNINGS", "state": "LA", "street": "106 S BROADWAY ST", "postcode": "70546"}}},
{"geometry": {"type": "Point", "coordinates": [-92.656584327, 30.2226376311]}, "type": "Feature", "properties": {"collection_times": [{"days": "Mon-Fri", "time": "8:45am"}, {"days": "Sat-Sun", "time": "Closed"}], "id": "7054600010", "name": "USPS COLLECTION BOX - BLUE BOX", "address": {"city": "JENNINGS", "state": "LA", "street": "300 STATE ST", "postcode": "70546"}}},
{"geometry": {"type": "Point", "coordinates": [-92.6549080495, 30.2340844117]}, "type": "Feature", "properties": {"collection_times": [{"days": "Mon-Fri", "time": "9:00am"}, {"days": "Sat-Sun", "time": "Closed"}], "id": "7054600011", "name": "USPS COLLECTION BOX - BLUE BOX", "address": {"city": "JENNINGS", "state": "LA", "street": "1326 N CUTTING AVE", "postcode": "70546"}}},
{"geometry": {"type": "Point", "coordinates": [-92.6573001284, 30.2211330198]}, "type": "Feature", "properties": {"collection_times": [{"days": "Mon-Fri", "time": "5:00pm"}, {"days": "Sat", "time": "4:15pm"}, {"days": "Sun", "time": "Closed"}], "id": "7054600013", "name": "USPS COLLECTION BOX - PO LOBBY", "address": {"city": "JENNINGS", "state": "LA", "street": "106 S BROADWAY ST", "postcode": "70546"}}},
{"geometry": {"type": "Point", "coordinates": [-92.6573001284, 30.2211330198]}, "type": "Feature", "properties": {"collection_times": [{"days": "Mon-Fri", "time": "5:00pm"}, {"days": "Sat", "time": "4:15pm"}, {"days": "Sun", "time": "Closed"}], "id": "7054600014", "name": "USPS COLLECTION BOX - PO LOBBY", "address": {"city": "JENNINGS", "state": "LA", "street": "106 S BROADWAY ST", "postcode": "70546"}}},
{"geometry": {"type": "Point", "coordinates": [-92.6555754432, 30.2457625288]}, "type": "Feature", "properties": {"collection_times": [{"days": "Mon-Fri", "time": "8:45am"}, {"days": "Sat-Sun", "time": "Closed"}], "id": "7054600015", "name": "USPS COLLECTION BOX - BLUE BOX", "address": {"city": "JENNINGS", "state": "LA", "street": "303 E INTERSTATE DR", "postcode": "70546"}}},
{"geometry": {"type": "Point", "coordinates": [-92.5091101356, 29.7327331053]}, "type": "Feature", "properties": {"collection_times": [{"days": "Mon-Fri", "time": "4:30pm"}, {"days": "Sat", "time": "3:00pm"}, {"days": "Sun", "time": "Closed"}], "id": "7054800016", "name": "USPS COLLECTION BOX - PO LOBBY", "address": {"city": "KAPLAN", "state": "LA", "street": "1401 W VETERANS MEML DR", "postcode": "70548"}}},
{"geometry": {"type": "Point", "coordinates": [-92.2833148592, 30.0034612269]}, "type": "Feature", "properties": {"collection_times": [{"days": "Mon-Sat", "time": "10:00am"}, {"days": "Sun", "time": "Closed"}], "id": "7054800018", "name": "USPS COLLECTION BOX - BLUE BOX", "address": {"city": "KAPLAN", "state": "LA", "street": "701 N CUSHING AVE", "postcode": "70548"}}},
{"geometry": {"type": "Point", "coordinates": [-92.5091101356, 29.7327331053]}, "type": "Feature", "properties": {"collection_times": [{"days": "Mon-Sat", "time": "10:00am"}, {"days": "Sun", "time": "Closed"}], "id": "7054800019", "name": "USPS COLLECTION BOX - BLUE BOX", "address": {"city": "KAPLAN", "state": "LA", "street": "622 E VETERANS MEML DR", "postcode": "70548"}}},
{"geometry": {"type": "Point", "coordinates": [-92.5091101356, 29.7327331053]}, "type": "Feature", "properties": {"collection_times": [{"days": "Mon-Fri", "time": "4:30pm"}, {"days": "Sat", "time": "2:30pm"}, {"days": "Sun", "time": "Closed"}], "id": "7054800021", "name": "USPS COLLECTION BOX - BLUE BOX", "address": {"city": "KAPLAN", "state": "LA", "street": "1401 W VETERANS MEML DR", "postcode": "70548"}}},
{"geometry": {"type": "Point", "coordinates": [-92.5091101356, 29.7327331053]}, "type": "Feature", "properties": {"collection_times": [{"days": "Mon-Fri", "time": "4:30pm"}, {"days": "Sat", "time": "2:30pm"}, {"days": "Sun", "time": "Closed"}], "id": "7054800022", "name": "USPS COLLECTION BOX - BLUE BOX", "address": {"city": "KAPLAN", "state": "LA", "street": "1401 W VETERANS MEML DR", "postcode": "70548"}}},
{"geometry": {"type": "Point", "coordinates": [-92.6771040778, 30.0787428572]}, "type": "Feature", "properties": {"collection_times": [{"days": "Mon-Fri", "time": "4:15pm"}, {"days": "Sat", "time": "11:00am"}, {"days": "Sun", "time": "Closed"}], "id": "7054900001", "name": "USPS COLLECTION BOX - PO LOBBY", "address": {"city": "LAKE ARTHUR", "state": "LA", "street": "302 KELLOGG AVE", "postcode": "70549"}}},
{"geometry": {"type": "Point", "coordinates": [-92.6771040778, 30.0787428572]}, "type": "Feature", "properties": {"collection_times": [{"days": "Mon-Fri", "time": "4:15pm"}, {"days": "Sat", "time": "11:00am"}, {"days": "Sun", "time": "Closed"}], "id": "7054900002", "name": "USPS COLLECTION BOX - BLUE BOX", "address": {"city": "LAKE ARTHUR", "state": "LA", "street": "302 KELLOGG AVE", "postcode": "70549"}}},
{"geometry": {"type": "Point", "coordinates": [-92.6771040778, 30.0787428572]}, "type": "Feature", "properties": {"collection_times": [{"days": "Mon-Fri", "time": "4:15pm"}, {"days": "Sat", "time": "11:00am"}, {"days": "Sun", "time": "Closed"}], "id": "7054900004", "name": "USPS COLLECTION BOX - PO LOBBY", "address": {"city": "LAKE ARTHUR", "state": "LA", "street": "302 KELLOGG AVE", "postcode": "70549"}}},
{"geometry": {"type": "Point", "coordinates": [-92.181997119, 30.517265015]}, "type": "Feature", "properties": {"collection_times": [{"days": "Mon-Fri", "time": "4:00pm"}, {"days": "Sat", "time": "11:00am"}, {"days": "Sun", "time": "Closed"}], "id": "7055000005", "name": "USPS COLLECTION BOX - BLUE BOX", "address": {"city": "LAWTELL", "state": "LA", "street": "10207 PREJEAN HWY", "postcode": "70550"}}},
{"geometry": {"type": "Point", "coordinates": [-92.181997119, 30.517265015]}, "type": "Feature", "properties": {"collection_times": [{"days": "Mon-Fri", "time": "4:15pm"}, {"days": "Sat", "time": "11:15am"}, {"days": "Sun", "time": "Closed"}], "id": "7055000007", "name": "USPS COLLECTION BOX - PO LOBBY", "address": {"city": "LAWTELL", "state": "LA", "street": "10207 PREJEAN HWY", "postcode": "70550"}}},
{"geometry": {"type": "Point", "coordinates": [-92.081168269, 30.5321420549]}, "type": "Feature", "properties": {"collection_times": [{"days": "Mon-Fri", "time": "4:00pm"}, {"days": "Sat", "time": "11:30am"}, {"days": "Sun", "time": "Closed"}], "id": "7055100004", "name": "USPS COLLECTION BOX - PO LOBBY", "address": {"city": "LEONVILLE", "state": "LA", "street": "3928 HIGHWAY 31", "postcode": "70551"}}},
{"geometry": {"type": "Point", "coordinates": [-92.081168269, 30.5321420549]}, "type": "Feature", "properties": {"collection_times": [{"days": "Mon-Fri", "time": "4:00pm"}, {"days": "Sat", "time": "11:30am"}, {"days": "Sun", "time": "Closed"}], "id": "7055100005", "name": "USPS COLLECTION BOX - BLUE BOX", "address": {"city": "LEONVILLE", "state": "LA", "street": "3928 HIGHWAY 31", "postcode": "70551"}}},
{"geometry": {"type": "Point", "coordinates": [-91.6701053284, 30.0649922051]}, "type": "Feature", "properties": {"collection_times": [{"days": "Mon-Fri", "time": "4:00pm"}, {"days": "Sat", "time": "10:00am"}, {"days": "Sun", "time": "Closed"}], "id": "7055200006", "name": "USPS COLLECTION BOX - BLUE BOX", "address": {"city": "LOREAUVILLE", "state": "LA", "street": "123 BOUTTE RD", "postcode": "70552"}}},
{"geometry": {"type": "Point", "coordinates": [-91.6701053284, 30.0649922051]}, "type": "Feature", "properties": {"collection_times": [{"days": "Mon-Fri", "time": "4:00pm"}, {"days": "Sat", "time": "10:00am"}, {"days": "Sun", "time": "Closed"}], "id": "7055200007", "name": "USPS COLLECTION BOX - PO LOBBY", "address": {"city": "LOREAUVILLE", "state": "LA", "street": "123 BOUTTE RD", "postcode": "70552"}}},
{"geometry": {"type": "Point", "coordinates": [-91.7381061848, 30.0562963609]}, "type": "Feature", "properties": {"collection_times": [{"days": "Mon-Fri", "time": "3:30pm"}, {"days": "Sat", "time": "9:45am"}, {"days": "Sun", "time": "Closed"}], "id": "7055200010", "name": "USPS COLLECTION BOX - BLUE BOX", "address": {"city": "LOREAUVILLE", "state": "LA", "street": "105 S MAIN ST", "postcode": "70552"}}},
{"geometry": {"type": "Point", "coordinates": [-92.4206621719, 30.6301261359]}, "type": "Feature", "properties": {"collection_times": [{"days": "Mon-Sat", "time": "3:45pm"}, {"days": "Sun", "time": "Closed"}], "id": "7055400002", "name": "USPS COLLECTION BOX - BLUE BOX", "address": {"city": "MAMOU", "state": "LA", "street": "500 MAIN ST", "postcode": "70554"}}},
{"geometry": {"type": "Point", "coordinates": [-92.4206621719, 30.6301261359]}, "type": "Feature", "properties": {"collection_times": [{"days": "Mon-Sat", "time": "3:45pm"}, {"days": "Sun", "time": "Closed"}], "id": "7055400006", "name": "USPS COLLECTION BOX - PO LOBBY", "address": {"city": "MAMOU", "state": "LA", "street": "500 MAIN ST", "postcode": "70554"}}},
{"geometry": {"type": "Point", "coordinates": [-92.4213096963, 30.6312019029]}, "type": "Feature", "properties": {"collection_times": [{"days": "Mon-Sat", "time": "11:00am"}, {"days": "Sun", "time": "Closed"}], "id": "7055400008", "name": "USPS COLLECTION BOX - BLUE BOX", "address": {"city": "MAMOU", "state": "LA", "street": "701 6TH ST", "postcode": "70554"}}},
{"geometry": {"type": "Point", "coordinates": [-92.1261256018, 30.1079784363]}, "type": "Feature", "properties": {"collection_times": [{"days": "Mon-Fri", "time": "3:45pm"}, {"days": "Sat", "time": "10:45am"}, {"days": "Sun", "time": "Closed"}], "id": "7055500002", "name": "USPS COLLECTION BOX - BLUE BOX", "address": {"city": "MAURICE", "state": "LA", "street": "209 JOHN ST", "postcode": "70555"}}},
{"geometry": {"type": "Point", "coordinates": [-92.1261256018, 30.1079784363]}, "type": "Feature", "properties": {"collection_times": [{"days": "Mon-Fri", "time": "4:00pm"}, {"days": "Sat", "time": "10:45am"}, {"days": "Sun", "time": "Closed"}], "id": "7055500003", "name": "USPS COLLECTION BOX - PO LOBBY", "address": {"city": "MAURICE", "state": "LA", "street": "209 JOHN ST", "postcode": "70555"}}},
{"geometry": {"type": "Point", "coordinates": [-92.5826118701, 30.1870217074]}, "type": "Feature", "properties": {"collection_times": [{"days": "Mon-Fri", "time": "3:30pm"}, {"days": "Sat-Sun", "time": "Closed"}], "id": "7055600002", "name": "USPS COLLECTION BOX - BLUE BOX", "address": {"city": "MERMENTAU", "state": "LA", "street": "101 7TH ST", "postcode": "70556"}}},
{"geometry": {"type": "Point", "coordinates": [-92.5826118701, 30.1870217074]}, "type": "Feature", "properties": {"collection_times": [{"days": "Mon-Fri", "time": "4:00pm"}, {"days": "Sat-Sun", "time": "Closed"}], "id": "7055600003", "name": "USPS COLLECTION BOX - PO LOBBY", "address": {"city": "MERMENTAU", "state": "LA", "street": "101 7TH ST", "postcode": "70556"}}},
{"geometry": {"type": "Point", "coordinates": [-92.0764654706, 30.103700072]}, "type": "Feature", "properties": {"collection_times": [{"days": "Mon-Fri", "time": "4:00pm"}, {"days": "Sat", "time": "10:00am"}, {"days": "Sun", "time": "Closed"}], "id": "7055800002", "name": "USPS COLLECTION BOX - BLUE BOX", "address": {"city": "MILTON", "state": "LA", "street": "109 ESPASIE ST", "postcode": "70558"}}},
{"geometry": {"type": "Point", "coordinates": [-92.0764654706, 30.103700072]}, "type": "Feature", "properties": {"collection_times": [{"days": "Mon-Fri", "time": "4:00pm"}, {"days": "Sat", "time": "10:00am"}, {"days": "Sun", "time": "Closed"}], "id": "7055800003", "name": "USPS COLLECTION BOX - PO LOBBY", "address": {"city": "MILTON", "state": "LA", "street": "109 ESPASIE ST", "postcode": "70558"}}},
{"geometry": {"type": "Point", "coordinates": [-92.4980844876, 30.124733333]}, "type": "Feature", "properties": {"collection_times": [{"days": "Mon-Fri", "time": "3:45pm"}, {"days": "Sat", "time": "10:45am"}, {"days": "Sun", "time": "Closed"}], "id": "7055900006", "name": "USPS COLLECTION BOX - PO LOBBY", "address": {"city": "MORSE", "state": "LA", "street": "110 E WHITNEY ST", "postcode": "70559"}}},
{"geometry": {"type": "Point", "coordinates": [-92.4980844876, 30.124733333]}, "type": "Feature", "properties": {"collection_times": [{"days": "Mon-Fri", "time": "3:45pm"}, {"days": "Sat", "time": "10:45am"}, {"days": "Sun", "time": "Closed"}], "id": "7055900008", "name": "USPS COLLECTION BOX - BLUE BOX", "address": {"city": "MORSE", "state": "LA", "street": "110 E WHITNEY ST", "postcode": "70559"}}},
{"geometry": {"type": "Point", "coordinates": [-91.8191335829, 29.9911402107]}, "type": "Feature", "properties": {"collection_times": [{"days": "Mon-Fri", "time": "5:00pm"}, {"days": "Sat", "time": "3:00pm"}, {"days": "Sun", "time": "Closed"}], "id": "7056000001", "name": "USPS COLLECTION BOX - PO LOBBY", "address": {"city": "NEW IBERIA", "state": "LA", "street": "817 E DALE ST", "postcode": "70560"}}},
{"geometry": {"type": "Point", "coordinates": [-91.8329390199, 29.9909927679]}, "type": "Feature", "properties": {"collection_times": [{"days": "Mon-Fri", "time": "9:30am"}, {"days": "Sat-Sun", "time": "Closed"}], "id": "7056000026", "name": "USPS COLLECTION BOX - BLUE BOX", "address": {"city": "NEW IBERIA", "state": "LA", "street": "1500 CENTER ST", "postcode": "70560"}}},
{"geometry": {"type": "Point", "coordinates": [-91.8183622556, 30.0058934532]}, "type": "Feature", "properties": {"collection_times": [{"days": "Mon-Fri", "time": "10:00am"}, {"days": "Sat-Sun", "time": "Closed"}], "id": "7056000029", "name": "USPS COLLECTION BOX - BLUE BOX", "address": {"city": "NEW IBERIA", "state": "LA", "street": "100 E MAIN ST", "postcode": "70560"}}},
{"geometry": {"type": "Point", "coordinates": [-91.8207417486, 30.006519188]}, "type": "Feature", "properties": {"collection_times": [{"days": "Mon-Fri", "time": "9:30am"}, {"days": "Sat-Sun", "time": "Closed"}], "id": "7056000030", "name": "USPS COLLECTION BOX - BLUE BOX", "address": {"city": "NEW IBERIA", "state": "LA", "street": "211 W SAINT PETER ST", "postcode": "70560"}}},
{"geometry": {"type": "Point", "coordinates": [-91.8220302741, 30.0039499708]}, "type": "Feature", "properties": {"collection_times": [{"days": "Mon-Fri", "time": "9:15am"}, {"days": "Sat-Sun", "time": "Closed"}], "id": "7056000035", "name": "USPS COLLECTION BOX - BLUE BOX", "address": {"city": "NEW IBERIA", "state": "LA", "street": "121 W PERSHING ST", "postcode": "70560"}}},
{"geometry": {"type": "Point", "coordinates": [-91.8201245144, 30.0046565604]}, "type": "Feature", "properties": {"collection_times": [{"days": "Mon-Fri", "time": "9:15am"}, {"days": "Sat-Sun", "time": "Closed"}], "id": "7056000037", "name": "USPS COLLECTION BOX - BLUE BOX", "address": {"city": "NEW IBERIA", "state": "LA", "street": "300 S IBERIA ST", "postcode": "70560"}}},
{"geometry": {"type": "Point", "coordinates": [-91.814117669, 30.0029420783]}, "type": "Feature", "properties": {"collection_times": [{"days": "Mon-Fri", "time": "10:00am"}, {"days": "Sat-Sun", "time": "Closed"}], "id": "7056000038", "name": "USPS COLLECTION BOX - BLUE BOX", "address": {"city": "NEW IBERIA", "state": "LA", "street": "448 E MAIN ST", "postcode": "70560"}}},
{"geometry": {"type": "Point", "coordinates": [-91.8049023299, 29.9971914763]}, "type": "Feature", "properties": {"collection_times": [{"days": "Mon-Fri", "time": "10:00am"}, {"days": "Sat-Sun", "time": "Closed"}], "id": "7056000040", "name": "USPS COLLECTION BOX - BLUE BOX", "address": {"city": "NEW IBERIA", "state": "LA", "street": "207 N LEWIS ST", "postcode": "70560"}}},
{"geometry": {"type": "Point", "coordinates": [-91.8165608297, 30.0042998705]}, "type": "Feature", "properties": {"collection_times": [{"days": "Mon-Fri", "time": "10:00am"}, {"days": "Sat-Sun", "time": "Closed"}], "id": "7056000044", "name": "USPS COLLECTION BOX - BLUE BOX", "address": {"city": "NEW IBERIA", "state": "LA", "street": "300 E MAIN ST", "postcode": "70560"}}},
{"geometry": {"type": "Point", "coordinates": [-91.8191335829, 29.9911402107]}, "type": "Feature", "properties": {"collection_times": [{"days": "Mon-Fri", "time": "5:00pm"}, {"days": "Sat", "time": "3:00pm"}, {"days": "Sun", "time": "Closed"}], "id": "7056000049", "name": "USPS COLLECTION BOX - APC", "address": {"city": "NEW IBERIA", "state": "LA", "street": "817 E DALE ST", "postcode": "70560"}}},
{"geometry": {"type": "Point", "coordinates": [-91.8191335829, 29.9911402107]}, "type": "Feature", "properties": {"collection_times": [{"days": "Mon-Fri", "time": "5:00pm"}, {"days": "Sat", "time": "3:00pm"}, {"days": "Sun", "time": "Closed"}], "id": "7056000050", "name": "USPS COLLECTION BOX - PO LOBBY", "address": {"city": "NEW IBERIA", "state": "LA", "street": "817 E DALE ST", "postcode": "70560"}}},
{"geometry": {"type": "Point", "coordinates": [-91.8191335829, 29.9911402107]}, "type": "Feature", "properties": {"collection_times": [{"days": "Mon-Fri", "time": "5:00pm"}, {"days": "Sat", "time": "3:00pm"}, {"days": "Sun", "time": "Closed"}], "id": "7056000053", "name": "USPS COLLECTION BOX - PO LOBBY", "address": {"city": "NEW IBERIA", "state": "LA", "street": "817 E DALE ST", "postcode": "70560"}}},
{"geometry": {"type": "Point", "coordinates": [-91.8191335829, 29.9911402107]}, "type": "Feature", "properties": {"collection_times": [{"days": "Mon-Fri", "time": "5:00pm"}, {"days": "Sat", "time": "3:00pm"}, {"days": "Sun", "time": "Closed"}], "id": "7056000055", "name": "USPS COLLECTION BOX - BLUE BOX", "address": {"city": "NEW IBERIA", "state": "LA", "street": "817 E DALE ST", "postcode": "70560"}}},
{"geometry": {"type": "Point", "coordinates": [-91.8239767628, 30.0249282417]}, "type": "Feature", "properties": {"collection_times": [{"days": "Mon-Fri", "time": "9:30am"}, {"days": "Sat-Sun", "time": "Closed"}], "id": "7056300000", "name": "USPS COLLECTION BOX - BLUE BOX", "address": {"city": "NEW IBERIA", "state": "LA", "street": "1310 JANE ST", "postcode": "70563"}}},
{"geometry": {"type": "Point", "coordinates": [-91.7811202846, 29.9254819284]}, "type": "Feature", "properties": {"collection_times": [{"days": "Mon-Fri", "time": "3:45pm"}, {"days": "Sat", "time": "9:45am"}, {"days": "Sun", "time": "Closed"}], "id": "7056900002", "name": "USPS COLLECTION BOX - BLUE BOX", "address": {"city": "LYDIA", "state": "LA", "street": "4013 DARNELL RD", "postcode": "70569"}}},
{"geometry": {"type": "Point", "coordinates": [-91.7811202846, 29.9254819284]}, "type": "Feature", "properties": {"collection_times": [{"days": "Mon-Fri", "time": "3:45pm"}, {"days": "Sat", "time": "9:45am"}, {"days": "Sun", "time": "Closed"}], "id": "7056900003", "name": "USPS COLLECTION BOX - PO LOBBY", "address": {"city": "LYDIA", "state": "LA", "street": "4013 DARNELL RD", "postcode": "70569"}}},
{"geometry": {"type": "Point", "coordinates": [-92.0810649766, 30.5324504903]}, "type": "Feature", "properties": {"collection_times": [{"days": "Mon-Fri", "time": "2:00pm"}, {"days": "Sat-Sun", "time": "Closed"}], "id": "7057000003", "name": "USPS COLLECTION BOX - BLUE BOX", "address": {"city": "OPELOUSAS", "state": "LA", "street": "231 S UNION ST", "postcode": "70570"}}},
{"geometry": {"type": "Point", "coordinates": [-92.0810649766, 30.5324504903]}, "type": "Feature", "properties": {"collection_times": [{"days": "Mon-Fri", "time": "2:00pm"}, {"days": "Sat-Sun", "time": "Closed"}], "id": "7057000004", "name": "USPS COLLECTION BOX - BLUE BOX", "address": {"city": "OPELOUSAS", "state": "LA", "street": "231 S UNION ST", "postcode": "70570"}}},
{"geometry": {"type": "Point", "coordinates": [-92.0810649766, 30.5324504903]}, "type": "Feature", "properties": {"collection_times": [{"days": "Mon-Fri", "time": "2:00pm"}, {"days": "Sat-Sun", "time": "Closed"}], "id": "7057000005", "name": "USPS COLLECTION BOX - BLUE BOX", "address": {"city": "OPELOUSAS", "state": "LA", "street": "231 S UNION ST", "postcode": "70570"}}},
{"geometry": {"type": "Point", "coordinates": [-92.0755502534, 30.5195100858]}, "type": "Feature", "properties": {"collection_times": [{"days": "Mon-Fri", "time": "2:00pm"}, {"days": "Sat-Sun", "time": "Closed"}], "id": "7057000007", "name": "USPS COLLECTION BOX - BLUE BOX", "address": {"city": "OPELOUSAS", "state": "LA", "street": "901 CRESWELL LN", "postcode": "70570"}}},
{"geometry": {"type": "Point", "coordinates": [-92.0943480322, 30.5315535007]}, "type": "Feature", "properties": {"collection_times": [{"days": "Mon-Fri", "time": "9:00am"}, {"days": "Sat-Sun", "time": "Closed"}], "id": "7057000011", "name": "USPS COLLECTION BOX - BLUE BOX", "address": {"city": "OPELOUSAS", "state": "LA", "street": "118 S COURT ST", "postcode": "70570"}}},
{"geometry": {"type": "Point", "coordinates": [-92.0802154174, 30.5444093838]}, "type": "Feature", "properties": {"collection_times": [{"days": "Mon-Fri", "time": "9:00am"}, {"days": "Sat-Sun", "time": "Closed"}], "id": "7057000016", "name": "USPS COLLECTION BOX - BLUE BOX", "address": {"city": "OPELOUSAS", "state": "LA", "street": "1124 N MAIN ST", "postcode": "70570"}}},
{"geometry": {"type": "Point", "coordinates": [-92.0943480322, 30.5315535007]}, "type": "Feature", "properties": {"collection_times": [{"days": "Mon-Fri", "time": "9:00am"}, {"days": "Sat-Sun", "time": "Closed"}], "id": "7057000024", "name": "USPS COLLECTION BOX - BLUE BOX", "address": {"city": "OPELOUSAS", "state": "LA", "street": "539 E PRUDHOMME ST", "postcode": "70570"}}},
{"geometry": {"type": "Point", "coordinates": [-92.0731761231, 30.5086963419]}, "type": "Feature", "properties": {"collection_times": [{"days": "Mon-Fri", "time": "9:00am"}, {"days": "Sat-Sun", "time": "Closed"}], "id": "7057000027", "name": "USPS COLLECTION BOX - BLUE BOX", "address": {"city": "OPELOUSAS", "state": "LA", "street": "1305 HEATHER DR", "postcode": "70570"}}},
{"geometry": {"type": "Point", "coordinates": [-92.0714787868, 30.5325579069]}, "type": "Feature", "properties": {"collection_times": [{"days": "Mon-Fri", "time": "5:00pm"}, {"days": "Sat", "time": "4:15pm"}, {"days": "Sun", "time": "Closed"}], "id": "7057000032", "name": "USPS COLLECTION BOX - PO LOBBY", "address": {"city": "OPELOUSAS", "state": "LA", "street": "152 WALLIOR ST", "postcode": "70570"}}},
{"geometry": {"type": "Point", "coordinates": [-92.0714787868, 30.5325579069]}, "type": "Feature", "properties": {"collection_times": [{"days": "Mon-Fri", "time": "5:00pm"}, {"days": "Sat", "time": "4:15pm"}, {"days": "Sun", "time": "Closed"}], "id": "7057000033", "name": "USPS COLLECTION BOX - PO LOBBY", "address": {"city": "OPELOUSAS", "state": "LA", "street": "152 WALLIOR ST", "postcode": "70570"}}},
{"geometry": {"type": "Point", "coordinates": [-92.0714787868, 30.5325579069]}, "type": "Feature", "properties": {"collection_times": [{"days": "Mon-Fri", "time": "5:00pm"}, {"days": "Sat", "time": "4:15pm"}, {"days": "Sun", "time": "Closed"}], "id": "7057000034", "name": "USPS COLLECTION BOX - PO LOBBY", "address": {"city": "OPELOUSAS", "state": "LA", "street": "152 WALLIOR ST", "postcode": "70570"}}},
{"geometry": {"type": "Point", "coordinates": [-92.0714787868, 30.5325579069]}, "type": "Feature", "properties": {"collection_times": [{"days": "Mon-Fri", "time": "5:00pm"}, {"days": "Sat", "time": "4:15pm"}, {"days": "Sun", "time": "Closed"}], "id": "7057000035", "name": "USPS COLLECTION BOX - BLUE BOX", "address": {"city": "OPELOUSAS", "state": "LA", "street": "152 WALLIOR ST", "postcode": "70570"}}},
{"geometry": {"type": "Point", "coordinates": [-92.0714787868, 30.5325579069]}, "type": "Feature", "properties": {"collection_times": [{"days": "Mon-Fri", "time": "5:00pm"}, {"days": "Sat", "time": "4:15pm"}, {"days": "Sun", "time": "Closed"}], "id": "7057000036", "name": "USPS COLLECTION BOX - BLUE BOX", "address": {"city": "OPELOUSAS", "state": "LA", "street": "152 WALLIOR ST", "postcode": "70570"}}},
{"geometry": {"type": "Point", "coordinates": [-92.1579247585, 29.9483983247]}, "type": "Feature", "properties": {"collection_times": [{"days": "Mon-Fri", "time": "4:30pm"}, {"days": "Sat", "time": "11:30am"}, {"days": "Sun", "time": "Closed"}], "id": "7057500003", "name": "USPS COLLECTION BOX - BLUE BOX", "address": {"city": "PERRY", "state": "LA", "street": "11118 HARE ST", "postcode": "70575"}}},
{"geometry": {"type": "Point", "coordinates": [-92.1579247585, 29.9483983247]}, "type": "Feature", "properties": {"collection_times": [{"days": "Mon-Fri", "time": "4:30pm"}, {"days": "Sat", "time": "11:30am"}, {"days": "Sun", "time": "Closed"}], "id": "7057500004", "name": "USPS COLLECTION BOX - PO LOBBY", "address": {"city": "PERRY", "state": "LA", "street": "11118 HARE ST", "postcode": "70575"}}},
{"geometry": {"type": "Point", "coordinates": [-92.4237142703, 30.7816216888]}, "type": "Feature", "properties": {"collection_times": [{"days": "Mon-Fri", "time": "3:45pm"}, {"days": "Sat", "time": "10:45am"}, {"days": "Sun", "time": "Closed"}], "id": "7057600001", "name": "USPS COLLECTION BOX - BLUE BOX", "address": {"city": "PINE PRAIRIE", "state": "LA", "street": "1228 MAGNOLIA ST", "postcode": "70576"}}},
{"geometry": {"type": "Point", "coordinates": [-92.4237142703, 30.7816216888]}, "type": "Feature", "properties": {"collection_times": [{"days": "Mon-Fri", "time": "3:45pm"}, {"days": "Sat", "time": "10:45am"}, {"days": "Sun", "time": "Closed"}], "id": "7057600003", "name": "USPS COLLECTION BOX - PO LOBBY", "address": {"city": "PINE PRAIRIE", "state": "LA", "street": "1228 MAGNOLIA ST", "postcode": "70576"}}},
{"geometry": {"type": "Point", "coordinates": [-91.9607014509, 30.5507722571]}, "type": "Feature", "properties": {"collection_times": [{"days": "Mon-Fri", "time": "4:00pm"}, {"days": "Sat", "time": "11:00am"}, {"days": "Sun", "time": "Closed"}], "id": "7057700002", "name": "USPS COLLECTION BOX - BLUE BOX", "address": {"city": "PORT BARRE", "state": "LA", "street": "471 N SAIZON ST", "postcode": "70577"}}},
{"geometry": {"type": "Point", "coordinates": [-91.9607014509, 30.5507722571]}, "type": "Feature", "properties": {"collection_times": [{"days": "Mon-Fri", "time": "4:00pm"}, {"days": "Sat", "time": "11:00am"}, {"days": "Sun", "time": "Closed"}], "id": "7057700003", "name": "USPS COLLECTION BOX - PO LOBBY", "address": {"city": "PORT BARRE", "state": "LA", "street": "471 N SAIZON ST", "postcode": "70577"}}},
{"geometry": {"type": "Point", "coordinates": [-91.9607014509, 30.5507722571]}, "type": "Feature", "properties": {"collection_times": [{"days": "Mon-Fri", "time": "4:00pm"}, {"days": "Sat", "time": "11:00am"}, {"days": "Sun", "time": "Closed"}], "id": "7057700007", "name": "USPS COLLECTION BOX - PO LOBBY", "address": {"city": "PORT BARRE", "state": "LA", "street": "471 N SAIZON ST", "postcode": "70577"}}},
{"geometry": {"type": "Point", "coordinates": [-92.2658018382, 30.2350967605]}, "type": "Feature", "properties": {"collection_times": [{"days": "Mon-Fri", "time": "4:00pm"}, {"days": "Sat", "time": "12:00pm"}, {"days": "Sun", "time": "Closed"}], "id": "7057800002", "name": "USPS COLLECTION BOX - PO LOBBY", "address": {"city": "RAYNE", "state": "LA", "street": "410 E TEXAS AVE", "postcode": "70578"}}},
{"geometry": {"type": "Point", "coordinates": [-92.2658018382, 30.2350967605]}, "type": "Feature", "properties": {"collection_times": [{"days": "Mon-Fri", "time": "4:00pm"}, {"days": "Sat", "time": "12:00pm"}, {"days": "Sun", "time": "Closed"}], "id": "7057800003", "name": "USPS COLLECTION BOX - BLUE BOX", "address": {"city": "RAYNE", "state": "LA", "street": "410 E TEXAS AVE", "postcode": "70578"}}},
{"geometry": {"type": "Point", "coordinates": [-92.4260978922, 30.6738002908]}, "type": "Feature", "properties": {"collection_times": [{"days": "Mon-Fri", "time": "3:30pm"}, {"days": "Sat", "time": "11:00am"}, {"days": "Sun", "time": "Closed"}], "id": "7058000002", "name": "USPS COLLECTION BOX - PO LOBBY", "address": {"city": "REDDELL", "state": "LA", "street": "6686 VETERANS MEMORIAL HWY", "postcode": "70580"}}},
{"geometry": {"type": "Point", "coordinates": [-92.7467129688, 30.2347396532]}, "type": "Feature", "properties": {"collection_times": [{"days": "Mon-Fri", "time": "3:30pm"}, {"days": "Sat", "time": "11:00am"}, {"days": "Sun", "time": "Closed"}], "id": "7058100002", "name": "USPS COLLECTION BOX - BLUE BOX", "address": {"city": "ROANOKE", "state": "LA", "street": "14152 HIGHWAY 395", "postcode": "70581"}}},
{"geometry": {"type": "Point", "coordinates": [-92.7467129688, 30.2347396532]}, "type": "Feature", "properties": {"collection_times": [{"days": "Mon-Fri", "time": "3:30pm"}, {"days": "Sat", "time": "11:00am"}, {"days": "Sun", "time": "Closed"}], "id": "7058100003", "name": "USPS COLLECTION BOX - PO LOBBY", "address": {"city": "ROANOKE", "state": "LA", "street": "14152 HIGHWAY 395", "postcode": "70581"}}},
{"geometry": {"type": "Point", "coordinates": [-91.8295057272, 30.1222014501]}, "type": "Feature", "properties": {"collection_times": [{"days": "Mon-Fri", "time": "5:00pm"}, {"days": "Sat", "time": "3:30pm"}, {"days": "Sun", "time": "Closed"}], "id": "7058200001", "name": "USPS COLLECTION BOX - PO LOBBY", "address": {"city": "ST MARTINVLLE", "state": "LA", "street": "224 S MAIN ST", "postcode": "70582"}}},
{"geometry": {"type": "Point", "coordinates": [-91.8295057272, 30.1222014501]}, "type": "Feature", "properties": {"collection_times": [{"days": "Mon-Fri", "time": "5:00pm"}, {"days": "Sat", "time": "3:30pm"}, {"days": "Sun", "time": "Closed"}], "id": "7058200002", "name": "USPS COLLECTION BOX - PO LOBBY", "address": {"city": "ST MARTINVLLE", "state": "LA", "street": "224 S MAIN ST", "postcode": "70582"}}},
{"geometry": {"type": "Point", "coordinates": [-91.8295057272, 30.1222014501]}, "type": "Feature", "properties": {"collection_times": [{"days": "Mon-Fri", "time": "5:00pm"}, {"days": "Sat", "time": "3:15pm"}, {"days": "Sun", "time": "Closed"}], "id": "7058200004", "name": "USPS COLLECTION BOX - BLUE BOX", "address": {"city": "ST MARTINVLLE", "state": "LA", "street": "224 S MAIN ST", "postcode": "70582"}}},
{"geometry": {"type": "Point", "coordinates": [-91.7130949315, 30.2117428224]}, "type": "Feature", "properties": {"collection_times": [{"days": "Mon-Sat", "time": "12:00pm"}, {"days": "Sun", "time": "Closed"}], "id": "7058200018", "name": "USPS COLLECTION BOX - BLUE BOX", "address": {"city": "ST MARTINVLLE", "state": "LA", "street": "4451 CATAHOULA HWY", "postcode": "70582"}}},
{"geometry": {"type": "Point", "coordinates": [-92.0959931351, 30.2335912894]}, "type": "Feature", "properties": {"collection_times": [{"days": "Mon-Fri", "time": "3:45pm"}, {"days": "Sat", "time": "12:00pm"}, {"days": "Sun", "time": "Closed"}], "id": "7058300001", "name": "USPS COLLECTION BOX - PO LOBBY", "address": {"city": "SCOTT", "state": "LA", "street": "5926 CAMERON ST", "postcode": "70583"}}},
{"geometry": {"type": "Point", "coordinates": [-92.0869984296, 30.2327329617]}, "type": "Feature", "properties": {"collection_times": [{"days": "Mon-Fri", "time": "12:00pm"}, {"days": "Sat-Sun", "time": "Closed"}], "id": "7058300009", "name": "USPS COLLECTION BOX - BLUE BOX", "address": {"city": "SCOTT", "state": "LA", "street": "5501 CAMERON ST", "postcode": "70583"}}},
{"geometry": {"type": "Point", "coordinates": [-92.0959931351, 30.2335912894]}, "type": "Feature", "properties": {"collection_times": [{"days": "Mon-Fri", "time": "3:45pm"}, {"days": "Sat", "time": "12:00pm"}, {"days": "Sun", "time": "Closed"}], "id": "7058300010", "name": "USPS COLLECTION BOX - BLUE BOX", "address": {"city": "SCOTT", "state": "LA", "street": "5926 CAMERON ST", "postcode": "70583"}}},
{"geometry": {"type": "Point", "coordinates": [-92.0959931351, 30.2335912894]}, "type": "Feature", "properties": {"collection_times": [{"days": "Mon-Fri", "time": "3:45pm"}, {"days": "Sat", "time": "12:00pm"}, {"days": "Sun", "time": "Closed"}], "id": "7058300013", "name": "USPS COLLECTION BOX - PO LOBBY", "address": {"city": "SCOTT", "state": "LA", "street": "5926 CAMERON ST", "postcode": "70583"}}},
{"geometry": {"type": "Point", "coordinates": [-92.0630926146, 30.4110215054]}, "type": "Feature", "properties": {"collection_times": [{"days": "Mon-Fri", "time": "4:30pm"}, {"days": "Sat", "time": "10:45am"}, {"days": "Sun", "time": "Closed"}], "id": "7058400004", "name": "USPS COLLECTION BOX - BLUE BOX", "address": {"city": "SUNSET", "state": "LA", "street": "924 NAPOLEON AVE", "postcode": "70584"}}},
{"geometry": {"type": "Point", "coordinates": [-92.0630926146, 30.4110215054]}, "type": "Feature", "properties": {"collection_times": [{"days": "Mon-Fri", "time": "4:30pm"}, {"days": "Sat", "time": "10:45am"}, {"days": "Sun", "time": "Closed"}], "id": "7058400006", "name": "USPS COLLECTION BOX - PO LOBBY", "address": {"city": "SUNSET", "state": "LA", "street": "924 NAPOLEON AVE", "postcode": "70584"}}},
{"geometry": {"type": "Point", "coordinates": [-92.4131432119, 30.8764494117]}, "type": "Feature", "properties": {"collection_times": [{"days": "Mon-Fri", "time": "3:00pm"}, {"days": "Sat", "time": "11:00am"}, {"days": "Sun", "time": "Closed"}], "id": "7058500001", "name": "USPS COLLECTION BOX - PO LOBBY", "address": {"city": "TURKEY CREEK", "state": "LA", "street": "14127 VETERANS MEMORIAL HWY", "postcode": "70585"}}},
{"geometry": {"type": "Point", "coordinates": [-92.4131432119, 30.8764494117]}, "type": "Feature", "properties": {"collection_times": [{"days": "Mon-Fri", "time": "3:00pm"}, {"days": "Sat", "time": "11:00am"}, {"days": "Sun", "time": "Closed"}], "id": "7058500002", "name": "USPS COLLECTION BOX - BLUE BOX", "address": {"city": "TURKEY CREEK", "state": "LA", "street": "14127 VETERANS MEMORIAL HWY", "postcode": "70585"}}},
{"geometry": {"type": "Point", "coordinates": [-92.2747161666, 30.6873820643]}, "type": "Feature", "properties": {"collection_times": [{"days": "Mon-Fri", "time": "5:00pm"}, {"days": "Sat", "time": "2:00pm"}, {"days": "Sun", "time": "Closed"}], "id": "7058600002", "name": "USPS COLLECTION BOX - PO LOBBY", "address": {"city": "VILLE PLATTE", "state": "LA", "street": "100 W MAGNOLIA ST", "postcode": "70586"}}},
{"geometry": {"type": "Point", "coordinates": [-92.2747161666, 30.6873820643]}, "type": "Feature", "properties": {"collection_times": [{"days": "Mon-Fri", "time": "5:00pm"}, {"days": "Sat", "time": "2:00pm"}, {"days": "Sun", "time": "Closed"}], "id": "7058600003", "name": "USPS COLLECTION BOX - PO LOBBY", "address": {"city": "VILLE PLATTE", "state": "LA", "street": "100 W MAGNOLIA ST", "postcode": "70586"}}},
{"geometry": {"type": "Point", "coordinates": [-92.2747161666, 30.6873820643]}, "type": "Feature", "properties": {"collection_times": [{"days": "Mon-Fri", "time": "5:00pm"}, {"days": "Sat", "time": "2:00pm"}, {"days": "Sun", "time": "Closed"}], "id": "7058600005", "name": "USPS COLLECTION BOX - BLUE BOX", "address": {"city": "VILLE PLATTE", "state": "LA", "street": "100 W MAGNOLIA ST", "postcode": "70586"}}},
{"geometry": {"type": "Point", "coordinates": [-92.2747161666, 30.6873820643]}, "type": "Feature", "properties": {"collection_times": [{"days": "Mon-Fri", "time": "5:00pm"}, {"days": "Sat", "time": "2:00pm"}, {"days": "Sun", "time": "Closed"}], "id": "7058600006", "name": "USPS COLLECTION BOX - BLUE BOX", "address": {"city": "VILLE PLATTE", "state": "LA", "street": "100 W MAGNOLIA ST", "postcode": "70586"}}},
{"geometry": {"type": "Point", "coordinates": [-92.2820501302, 30.6916251609]}, "type": "Feature", "properties": {"collection_times": [{"days": "Mon-Fri", "time": "8:15am"}, {"days": "Sat-Sun", "time": "Closed"}], "id": "7058600010", "name": "USPS COLLECTION BOX - BLUE BOX", "address": {"city": "VILLE PLATTE", "state": "LA", "street": "497 W MAIN ST", "postcode": "70586"}}},
{"geometry": {"type": "Point", "coordinates": [-92.2866415158, 30.6933044022]}, "type": "Feature", "properties": {"collection_times": [{"days": "Mon-Fri", "time": "10:00am"}, {"days": "Sat-Sun", "time": "Closed"}], "id": "7058600011", "name": "USPS COLLECTION BOX - BLUE BOX", "address": {"city": "VILLE PLATTE", "state": "LA", "street": "845 W MAIN ST", "postcode": "70586"}}},
{"geometry": {"type": "Point", "coordinates": [-92.2783789305, 30.6887768706]}, "type": "Feature", "properties": {"collection_times": [{"days": "Mon-Fri", "time": "8:15am"}, {"days": "Sat-Sun", "time": "Closed"}], "id": "7058600013", "name": "USPS COLLECTION BOX - BLUE BOX", "address": {"city": "VILLE PLATTE", "state": "LA", "street": "205 COURT ST", "postcode": "70586"}}},
{"geometry": {"type": "Point", "coordinates": [-92.2782406267, 30.6887737349]}, "type": "Feature", "properties": {"collection_times": [{"days": "Mon-Fri", "time": "8:15am"}, {"days": "Sat-Sun", "time": "Closed"}], "id": "7058600014", "name": "USPS COLLECTION BOX - BLUE BOX", "address": {"city": "VILLE PLATTE", "state": "LA", "street": "200 COURT ST", "postcode": "70586"}}},
{"geometry": {"type": "Point", "coordinates": [-92.2782406267, 30.6887737349]}, "type": "Feature", "properties": {"collection_times": [{"days": "Mon-Fri", "time": "8:15am"}, {"days": "Sat-Sun", "time": "Closed"}], "id": "7058600015", "name": "USPS COLLECTION BOX - BLUE BOX", "address": {"city": "VILLE PLATTE", "state": "LA", "street": "200 COURT ST", "postcode": "70586"}}},
{"geometry": {"type": "Point", "coordinates": [-92.2797513118, 30.683834693]}, "type": "Feature", "properties": {"collection_times": [{"days": "Mon-Fri", "time": "9:00am"}, {"days": "Sat-Sun", "time": "Closed"}], "id": "7058600019", "name": "USPS COLLECTION BOX - BLUE BOX", "address": {"city": "VILLE PLATTE", "state": "LA", "street": "607 HARVEY LEBAS DR", "postcode": "70586"}}},
{"geometry": {"type": "Point", "coordinates": [-92.2720809696, 30.6875459065]}, "type": "Feature", "properties": {"collection_times": [{"days": "Mon-Fri", "time": "8:00am"}, {"days": "Sat-Sun", "time": "Closed"}], "id": "7058600031", "name": "USPS COLLECTION BOX - BLUE BOX", "address": {"city": "VILLE PLATTE", "state": "LA", "street": "126 E MAIN ST", "postcode": "70586"}}},
{"geometry": {"type": "Point", "coordinates": [-92.2748855619, 30.6813025037]}, "type": "Feature", "properties": {"collection_times": [{"days": "Mon-Fri", "time": "11:00am"}, {"days": "Sat-Sun", "time": "Closed"}], "id": "7058600034", "name": "USPS COLLECTION BOX - BLUE BOX", "address": {"city": "VILLE PLATTE", "state": "LA", "street": "700 S CHATAIGNIER ST", "postcode": "70586"}}},
{"geometry": {"type": "Point", "coordinates": [-92.2915363631, 30.6243626163]}, "type": "Feature", "properties": {"collection_times": [{"days": "Mon-Sat", "time": "8:15am"}, {"days": "Sun", "time": "Closed"}], "id": "7058600039", "name": "USPS COLLECTION BOX - BLUE BOX", "address": {"city": "VILLE PLATTE", "state": "LA", "street": "3388 CHATAIGNIER RD", "postcode": "70586"}}},
{"geometry": {"type": "Point", "coordinates": [-92.0585429663, 30.6148239523]}, "type": "Feature", "properties": {"collection_times": [{"days": "Mon-Fri", "time": "3:45pm"}, {"days": "Sat", "time": "11:45am"}, {"days": "Sun", "time": "Closed"}], "id": "7058900001", "name": "USPS COLLECTION BOX - PO LOBBY", "address": {"city": "WASHINGTON", "state": "LA", "street": "112 E MOUNDVILLE ST", "postcode": "70589"}}},
{"geometry": {"type": "Point", "coordinates": [-92.0585429663, 30.6148239523]}, "type": "Feature", "properties": {"collection_times": [{"days": "Mon-Fri", "time": "3:45pm"}, {"days": "Sat", "time": "11:45am"}, {"days": "Sun", "time": "Closed"}], "id": "7058900003", "name": "USPS COLLECTION BOX - BLUE BOX", "address": {"city": "WASHINGTON", "state": "LA", "street": "112 E MOUNDVILLE ST", "postcode": "70589"}}},
{"geometry": {"type": "Point", "coordinates": [-92.8205692579, 30.2365339895]}, "type": "Feature", "properties": {"collection_times": [{"days": "Mon-Fri", "time": "4:00pm"}, {"days": "Sat", "time": "11:45am"}, {"days": "Sun", "time": "Closed"}], "id": "7059100004", "name": "USPS COLLECTION BOX - BLUE BOX", "address": {"city": "WELSH", "state": "LA", "street": "202 CROWLEY ST", "postcode": "70591"}}},
{"geometry": {"type": "Point", "coordinates": [-92.8205692579, 30.2365339895]}, "type": "Feature", "properties": {"collection_times": [{"days": "Mon-Fri", "time": "4:00pm"}, {"days": "Sat", "time": "11:45am"}, {"days": "Sun", "time": "Closed"}], "id": "7059100006", "name": "USPS COLLECTION BOX - PO LOBBY", "address": {"city": "WELSH", "state": "LA", "street": "202 CROWLEY ST", "postcode": "70591"}}},
{"geometry": {"type": "Point", "coordinates": [-91.9929465587, 30.1019400775]}, "type": "Feature", "properties": {"collection_times": [{"days": "Mon-Fri", "time": "4:00pm"}, {"days": "Sat", "time": "12:00pm"}, {"days": "Sun", "time": "Closed"}], "id": "7059200001", "name": "USPS COLLECTION BOX - PO LOBBY", "address": {"city": "YOUNGSVILLE", "state": "LA", "street": "401 IBERIA ST", "postcode": "70592"}}},
{"geometry": {"type": "Point", "coordinates": [-91.9929465587, 30.1019400775]}, "type": "Feature", "properties": {"collection_times": [{"days": "Mon-Fri", "time": "4:00pm"}, {"days": "Sat", "time": "12:00pm"}, {"days": "Sun", "time": "Closed"}], "id": "7059200002", "name": "USPS COLLECTION BOX - BLUE BOX", "address": {"city": "YOUNGSVILLE", "state": "LA", "street": "401 IBERIA ST", "postcode": "70592"}}}
]}
