{"type": "FeatureCollection", "features": [
{"geometry": {"type": "Point", "coordinates": [-93.2133059862, 30.2267825601]}, "type": "Feature", "properties": {"collection_times": [{"days": "Mon-Fri", "time": "5:00pm"}, {"days": "Sat", "time": "12:00pm"}, {"days": "Sun", "time": "Closed"}], "id": "7060100001", "name": "USPS COLLECTION BOX - PO LOBBY", "address": {"city": "LAKE CHARLES", "state": "LA", "street": "921 MOSS ST", "postcode": "70601"}}},
{"geometry": {"type": "Point", "coordinates": [-93.2133059862, 30.2267825601]}, "type": "Feature", "properties": {"collection_times": [{"days": "Mon-Fri", "time": "5:00pm"}, {"days": "Sat", "time": "12:00pm"}, {"days": "Sun", "time": "Closed"}], "id": "7060100002", "name": "USPS COLLECTION BOX - PO LOBBY", "address": {"city": "LAKE CHARLES", "state": "LA", "street": "921 MOSS ST", "postcode": "70601"}}},
{"geometry": {"type": "Point", "coordinates": [-93.2323509918, 30.2099337282]}, "type": "Feature", "properties": {"collection_times": [{"days": "Mon-Fri", "time": "3:15pm"}, {"days": "Sat-Sun", "time": "Closed"}], "id": "7060100012", "name": "USPS COLLECTION BOX - BLUE BOX", "address": {"city": "LAKE CHARLES", "state": "LA", "street": "800 W BAYOU PINES DR", "postcode": "70601"}}},
{"geometry": {"type": "Point", "coordinates": [-93.2044779307, 30.2066876793]}, "type": "Feature", "properties": {"collection_times": [{"days": "Mon-Fri", "time": "4:45pm"}, {"days": "Sat-Sun", "time": "Closed"}], "id": "7060100023", "name": "USPS COLLECTION BOX - BLUE BOX", "address": {"city": "LAKE CHARLES", "state": "LA", "street": "2616 ENTERPRISE BLVD", "postcode": "70601"}}},
{"geometry": {"type": "Point", "coordinates": [-93.2124900286, 30.2257974863]}, "type": "Feature", "properties": {"collection_times": [{"days": "Mon-Fri", "time": "5:00pm"}, {"days": "Sat", "time": "12:00pm"}, {"days": "Sun", "time": "Closed"}], "id": "7060100031", "name": "USPS COLLECTION BOX - BLUE BOX", "address": {"city": "LAKE CHARLES", "state": "LA", "street": "619 KIRBY ST", "postcode": "70601"}}},
{"geometry": {"type": "Point", "coordinates": [-93.2124900286, 30.2257974863]}, "type": "Feature", "properties": {"collection_times": [{"days": "Mon-Fri", "time": "5:00pm"}, {"days": "Sat", "time": "12:00pm"}, {"days": "Sun", "time": "Closed"}], "id": "7060100032", "name": "USPS COLLECTION BOX - BLUE BOX", "address": {"city": "LAKE CHARLES", "state": "LA", "street": "619 KIRBY ST", "postcode": "70601"}}},
{"geometry": {"type": "Point", "coordinates": [-93.2194443335, 30.2266976448]}, "type": "Feature", "properties": {"collection_times": [{"days": "Mon-Fri", "time": "3:00pm"}, {"days": "Sat-Sun", "time": "Closed"}], "id": "7060100044", "name": "USPS COLLECTION BOX - BLUE BOX", "address": {"city": "LAKE CHARLES", "state": "LA", "street": "1011 LAKE SHORE DR", "postcode": "70601"}}},
{"geometry": {"type": "Point", "coordinates": [-93.2203410538, 30.2249758765]}, "type": "Feature", "properties": {"collection_times": [{"days": "Mon-Fri", "time": "3:00pm"}, {"days": "Sat-Sun", "time": "Closed"}], "id": "7060100049", "name": "USPS COLLECTION BOX - BLUE BOX", "address": {"city": "LAKE CHARLES", "state": "LA", "street": "1135 LAKE SHORE DR", "postcode": "70601"}}},
{"geometry": {"type": "Point", "coordinates": [-93.2183726364, 30.2279009472]}, "type": "Feature", "properties": {"collection_times": [{"days": "Mon-Fri", "time": "3:00pm"}, {"days": "Sat-Sun", "time": "Closed"}], "id": "7060100058", "name": "USPS COLLECTION BOX - BLUE BOX", "address": {"city": "LAKE CHARLES", "state": "LA", "street": "1001 PITHON ST", "postcode": "70601"}}},
{"geometry": {"type": "Point", "coordinates": [-93.2183726364, 30.2279009472]}, "type": "Feature", "properties": {"collection_times": [{"days": "Mon-Fri", "time": "3:00pm"}, {"days": "Sat-Sun", "time": "Closed"}], "id": "7060100059", "name": "USPS COLLECTION BOX - BLUE BOX", "address": {"city": "LAKE CHARLES", "state": "LA", "street": "1001 PITHON ST", "postcode": "70601"}}},
{"geometry": {"type": "Point", "coordinates": [-93.2308525598, 30.1983227151]}, "type": "Feature", "properties": {"collection_times": [{"days": "Mon-Fri", "time": "3:45pm"}, {"days": "Sat-Sun", "time": "Closed"}], "id": "7060100068", "name": "USPS COLLECTION BOX - BLUE BOX", "address": {"city": "LAKE CHARLES", "state": "LA", "street": "710 W PRIEN LAKE RD", "postcode": "70601"}}},
{"geometry": {"type": "Point", "coordinates": [-93.2132860605, 30.2270035216]}, "type": "Feature", "properties": {"collection_times": [{"days": "Mon-Fri", "time": "5:00pm"}, {"days": "Sat", "time": "12:00pm"}, {"days": "Sun", "time": "Closed"}], "id": "7060100127", "name": "USPS COLLECTION BOX - BLUE BOX", "address": {"city": "LAKE CHARLES", "state": "LA", "street": "604 PUJO ST", "postcode": "70601"}}},
{"geometry": {"type": "Point", "coordinates": [-93.2132860605, 30.2270035216]}, "type": "Feature", "properties": {"collection_times": [{"days": "Mon-Fri", "time": "5:00pm"}, {"days": "Sat", "time": "12:00pm"}, {"days": "Sun", "time": "Closed"}], "id": "7060100128", "name": "USPS COLLECTION BOX - BLUE BOX", "address": {"city": "LAKE CHARLES", "state": "LA", "street": "604 PUJO ST", "postcode": "70601"}}},
{"geometry": {"type": "Point", "coordinates": [-93.179976367, 30.2004151974]}, "type": "Feature", "properties": {"collection_times": [{"days": "Mon-Fri", "time": "4:30pm"}, {"days": "Sat-Sun", "time": "Closed"}], "id": "7060100138", "name": "USPS COLLECTION BOX - BLUE BOX", "address": {"city": "LAKE CHARLES", "state": "LA", "street": "3121 HIGHWAY 14", "postcode": "70601"}}},
{"geometry": {"type": "Point", "coordinates": [-93.1931244967, 30.2496484301]}, "type": "Feature", "properties": {"collection_times": [{"days": "Mon-Fri", "time": "4:45pm"}, {"days": "Sat-Sun", "time": "Closed"}], "id": "7060100148", "name": "USPS COLLECTION BOX - BLUE BOX", "address": {"city": "LAKE CHARLES", "state": "LA", "street": "2001 MOELING ST", "postcode": "70601"}}},
{"geometry": {"type": "Point", "coordinates": [-93.2323509918, 30.2099337282]}, "type": "Feature", "properties": {"collection_times": [{"days": "Mon-Fri", "time": "3:15pm"}, {"days": "Sat-Sun", "time": "Closed"}], "id": "7060100151", "name": "USPS COLLECTION BOX - BLUE BOX", "address": {"city": "LAKE CHARLES", "state": "LA", "street": "800 W BAYOU PINES DR", "postcode": "70601"}}},
{"geometry": {"type": "Point", "coordinates": [-93.2176194469, 30.2293246553]}, "type": "Feature", "properties": {"collection_times": [{"days": "Mon-Fri", "time": "3:00pm"}, {"days": "Sat-Sun", "time": "Closed"}], "id": "7060100158", "name": "USPS COLLECTION BOX - BLUE BOX", "address": {"city": "LAKE CHARLES", "state": "LA", "street": "125 W BROAD ST", "postcode": "70601"}}},
{"geometry": {"type": "Point", "coordinates": [-93.2186626731, 30.202331765]}, "type": "Feature", "properties": {"collection_times": [{"days": "Mon-Fri", "time": "3:15pm"}, {"days": "Sat-Sun", "time": "Closed"}], "id": "7060100159", "name": "USPS COLLECTION BOX - BLUE BOX", "address": {"city": "LAKE CHARLES", "state": "LA", "street": "2948 RYAN ST", "postcode": "70601"}}},
{"geometry": {"type": "Point", "coordinates": [-93.2189528947, 30.2315807727]}, "type": "Feature", "properties": {"collection_times": [{"days": "Mon-Fri", "time": "3:00pm"}, {"days": "Sat-Sun", "time": "Closed"}], "id": "7060100164", "name": "USPS COLLECTION BOX - BLUE BOX", "address": {"city": "LAKE CHARLES", "state": "LA", "street": "1 LAKESHORE DR", "postcode": "70601"}}},
{"geometry": {"type": "Point", "coordinates": [-93.2189528947, 30.2315807727]}, "type": "Feature", "properties": {"collection_times": [{"days": "Mon-Fri", "time": "3:00pm"}, {"days": "Sat-Sun", "time": "Closed"}], "id": "7060100165", "name": "USPS COLLECTION BOX - BLUE BOX", "address": {"city": "LAKE CHARLES", "state": "LA", "street": "1 LAKESHORE DR", "postcode": "70601"}}},
{"geometry": {"type": "Point", "coordinates": [-93.2189528947, 30.2315807727]}, "type": "Feature", "properties": {"collection_times": [{"days": "Mon-Fri", "time": "3:00pm"}, {"days": "Sat-Sun", "time": "Closed"}], "id": "7060100166", "name": "USPS COLLECTION BOX - BLUE BOX", "address": {"city": "LAKE CHARLES", "state": "LA", "street": "1 LAKESHORE DR", "postcode": "70601"}}},
{"geometry": {"type": "Point", "coordinates": [-93.2468998462, 30.1686629864]}, "type": "Feature", "properties": {"collection_times": [{"days": "Mon-Fri", "time": "5:00pm"}, {"days": "Sat", "time": "3:00pm"}, {"days": "Sun", "time": "Closed"}], "id": "7060500001", "name": "USPS COLLECTION BOX - BLUE BOX", "address": {"city": "LAKE CHARLES", "state": "LA", "street": "5000 LAKE ST", "postcode": "70605"}}},
{"geometry": {"type": "Point", "coordinates": [-93.2468998462, 30.1686629864]}, "type": "Feature", "properties": {"collection_times": [{"days": "Mon-Fri", "time": "5:00pm"}, {"days": "Sat", "time": "3:00pm"}, {"days": "Sun", "time": "Closed"}], "id": "7060500002", "name": "USPS COLLECTION BOX - BLUE BOX", "address": {"city": "LAKE CHARLES", "state": "LA", "street": "5000 LAKE ST", "postcode": "70605"}}},
{"geometry": {"type": "Point", "coordinates": [-93.2324257483, 30.1771937456]}, "type": "Feature", "properties": {"collection_times": [{"days": "Mon-Fri", "time": "3:45pm"}, {"days": "Sat-Sun", "time": "Closed"}], "id": "7060500019", "name": "USPS COLLECTION BOX - BLUE BOX", "address": {"city": "LAKE CHARLES", "state": "LA", "street": "4460 LAKE ST", "postcode": "70605"}}},
{"geometry": {"type": "Point", "coordinates": [-93.2491312309, 30.1769142343]}, "type": "Feature", "properties": {"collection_times": [{"days": "Mon-Fri", "time": "3:45pm"}, {"days": "Sat-Sun", "time": "Closed"}], "id": "7060500021", "name": "USPS COLLECTION BOX - BLUE BOX", "address": {"city": "LAKE CHARLES", "state": "LA", "street": "4431 NELSON RD", "postcode": "70605"}}},
{"geometry": {"type": "Point", "coordinates": [-93.2493963042, 30.180658518]}, "type": "Feature", "properties": {"collection_times": [{"days": "Mon-Fri", "time": "3:45pm"}, {"days": "Sat-Sun", "time": "Closed"}], "id": "7060500030", "name": "USPS COLLECTION BOX - BLUE BOX", "address": {"city": "LAKE CHARLES", "state": "LA", "street": "4200 NELSON RD", "postcode": "70605"}}},
{"geometry": {"type": "Point", "coordinates": [-93.2171748823, 30.1747942354]}, "type": "Feature", "properties": {"collection_times": [{"days": "Mon-Fri", "time": "4:00pm"}, {"days": "Sat-Sun", "time": "Closed"}], "id": "7060500033", "name": "USPS COLLECTION BOX - BLUE BOX", "address": {"city": "LAKE CHARLES", "state": "LA", "street": "118 STATE ST", "postcode": "70605"}}},
{"geometry": {"type": "Point", "coordinates": [-93.2185658273, 30.184015762]}, "type": "Feature", "properties": {"collection_times": [{"days": "Mon-Fri", "time": "4:00pm"}, {"days": "Sat-Sun", "time": "Closed"}], "id": "7060500039", "name": "USPS COLLECTION BOX - BLUE BOX", "address": {"city": "LAKE CHARLES", "state": "LA", "street": "4070 RYAN ST", "postcode": "70605"}}},
{"geometry": {"type": "Point", "coordinates": [-93.2064937604, 30.1834932903]}, "type": "Feature", "properties": {"collection_times": [{"days": "Mon-Fri", "time": "4:15pm"}, {"days": "Sat-Sun", "time": "Closed"}], "id": "7060500044", "name": "USPS COLLECTION BOX - BLUE BOX", "address": {"city": "LAKE CHARLES", "state": "LA", "street": "1000 WALTERS ST", "postcode": "70605"}}},
{"geometry": {"type": "Point", "coordinates": [-93.1799472028, 30.1958343888]}, "type": "Feature", "properties": {"collection_times": [{"days": "Mon-Fri", "time": "4:15pm"}, {"days": "Sat-Sun", "time": "Closed"}], "id": "7060500051", "name": "USPS COLLECTION BOX - BLUE BOX", "address": {"city": "LAKE CHARLES", "state": "LA", "street": "3451 GERSTNER MEMORIAL BLVD", "postcode": "70605"}}},
{"geometry": {"type": "Point", "coordinates": [-93.2491312309, 30.1769142343]}, "type": "Feature", "properties": {"collection_times": [{"days": "Mon-Fri", "time": "3:45pm"}, {"days": "Sat-Sun", "time": "Closed"}], "id": "7060500057", "name": "USPS COLLECTION BOX - BLUE BOX", "address": {"city": "LAKE CHARLES", "state": "LA", "street": "4431 NELSON RD", "postcode": "70605"}}},
{"geometry": {"type": "Point", "coordinates": [-93.2185658273, 30.184015762]}, "type": "Feature", "properties": {"collection_times": [{"days": "Mon-Fri", "time": "4:00pm"}, {"days": "Sat-Sun", "time": "Closed"}], "id": "7060500064", "name": "USPS COLLECTION BOX - BLUE BOX", "address": {"city": "LAKE CHARLES", "state": "LA", "street": "4070 RYAN ST", "postcode": "70605"}}},
{"geometry": {"type": "Point", "coordinates": [-93.2468998462, 30.1686629864]}, "type": "Feature", "properties": {"collection_times": [{"days": "Mon-Fri", "time": "5:00pm"}, {"days": "Sat", "time": "3:00pm"}, {"days": "Sun", "time": "Closed"}], "id": "7060500065", "name": "USPS COLLECTION BOX - BLUE BOX", "address": {"city": "LAKE CHARLES", "state": "LA", "street": "5000 LAKE ST", "postcode": "70605"}}},
{"geometry": {"type": "Point", "coordinates": [-93.2468998462, 30.1686629864]}, "type": "Feature", "properties": {"collection_times": [{"days": "Mon-Fri", "time": "5:00pm"}, {"days": "Sat", "time": "3:00pm"}, {"days": "Sun", "time": "Closed"}], "id": "7060500068", "name": "USPS COLLECTION BOX - PO LOBBY", "address": {"city": "LAKE CHARLES", "state": "LA", "street": "5000 LAKE ST", "postcode": "70605"}}},
{"geometry": {"type": "Point", "coordinates": [-93.2468998462, 30.1686629864]}, "type": "Feature", "properties": {"collection_times": [{"days": "Mon-Fri", "time": "5:00pm"}, {"days": "Sat", "time": "3:00pm"}, {"days": "Sun", "time": "Closed"}], "id": "7060500069", "name": "USPS COLLECTION BOX - PO LOBBY", "address": {"city": "LAKE CHARLES", "state": "LA", "street": "5000 LAKE ST", "postcode": "70605"}}},
{"geometry": {"type": "Point", "coordinates": [-93.2468998462, 30.1686629864]}, "type": "Feature", "properties": {"collection_times": [{"days": "Mon-Fri", "time": "5:00pm"}, {"days": "Sat", "time": "3:00pm"}, {"days": "Sun", "time": "Closed"}], "id": "7060500070", "name": "USPS COLLECTION BOX - PO LOBBY", "address": {"city": "LAKE CHARLES", "state": "LA", "street": "5000 LAKE ST", "postcode": "70605"}}},
{"geometry": {"type": "Point", "coordinates": [-93.2184702206, 30.1809875687]}, "type": "Feature", "properties": {"collection_times": [{"days": "Mon-Fri", "time": "4:00pm"}, {"days": "Sat-Sun", "time": "Closed"}], "id": "7060900001", "name": "USPS COLLECTION BOX - BLUE BOX", "address": {"city": "LAKE CHARLES", "state": "LA", "street": "4205 RYAN ST", "postcode": "70609"}}},
{"geometry": {"type": "Point", "coordinates": [-93.1990794997, 30.3115385239]}, "type": "Feature", "properties": {"collection_times": [{"days": "Mon-Fri", "time": "3:30pm"}, {"days": "Sat-Sun", "time": "Closed"}], "id": "7061100001", "name": "USPS COLLECTION BOX - PO LOBBY", "address": {"city": "LAKE CHARLES", "state": "LA", "street": "172 E TELEPHONE RD", "postcode": "70611"}}},
{"geometry": {"type": "Point", "coordinates": [-93.1990794997, 30.3115385239]}, "type": "Feature", "properties": {"collection_times": [{"days": "Mon-Fri", "time": "3:30pm"}, {"days": "Sat-Sun", "time": "Closed"}], "id": "7061100002", "name": "USPS COLLECTION BOX - PO LOBBY", "address": {"city": "LAKE CHARLES", "state": "LA", "street": "172 E TELEPHONE RD", "postcode": "70611"}}},
{"geometry": {"type": "Point", "coordinates": [-93.1990794997, 30.3115385239]}, "type": "Feature", "properties": {"collection_times": [{"days": "Mon-Fri", "time": "3:30pm"}, {"days": "Sat", "time": "12:00pm"}, {"days": "Sun", "time": "Closed"}], "id": "7061100003", "name": "USPS COLLECTION BOX - BLUE BOX", "address": {"city": "LAKE CHARLES", "state": "LA", "street": "172 E TELEPHONE RD", "postcode": "70611"}}},
{"geometry": {"type": "Point", "coordinates": [-93.1990794997, 30.3115385239]}, "type": "Feature", "properties": {"collection_times": [{"days": "Mon-Fri", "time": "3:30pm"}, {"days": "Sat", "time": "12:00pm"}, {"days": "Sun", "time": "Closed"}], "id": "7061100004", "name": "USPS COLLECTION BOX - BLUE BOX", "address": {"city": "LAKE CHARLES", "state": "LA", "street": "172 E TELEPHONE RD", "postcode": "70611"}}},
{"geometry": {"type": "Point", "coordinates": [-93.200396392, 30.300641735]}, "type": "Feature", "properties": {"collection_times": [{"days": "Mon-Sat", "time": "3:00pm"}, {"days": "Sun", "time": "Closed"}], "id": "7061100009", "name": "USPS COLLECTION BOX - BLUE BOX", "address": {"city": "LAKE CHARLES", "state": "LA", "street": "362 SAM HOUSTON JONES PKWY", "postcode": "70611"}}},
{"geometry": {"type": "Point", "coordinates": [-93.1633405526, 30.2257839988]}, "type": "Feature", "properties": {"collection_times": [{"days": "Mon-Fri", "time": "4:00pm"}, {"days": "Sat-Sun", "time": "Closed"}], "id": "7061600001", "name": "USPS COLLECTION BOX - PO LOBBY", "address": {"city": "LAKE CHARLES", "state": "LA", "street": "950 MAIN ST", "postcode": "70616"}}},
{"geometry": {"type": "Point", "coordinates": [-93.1633405526, 30.2257839988]}, "type": "Feature", "properties": {"collection_times": [{"days": "Mon-Fri", "time": "4:00pm"}, {"days": "Sat-Sun", "time": "Closed"}], "id": "7061600002", "name": "USPS COLLECTION BOX - BLUE BOX", "address": {"city": "LAKE CHARLES", "state": "LA", "street": "950 MAIN ST", "postcode": "70616"}}},
{"geometry": {"type": "Point", "coordinates": [-93.1633405526, 30.2257839988]}, "type": "Feature", "properties": {"collection_times": [{"days": "Mon-Fri", "time": "4:00pm"}, {"days": "Sat-Sun", "time": "Closed"}], "id": "7061600004", "name": "USPS COLLECTION BOX - PO LOBBY", "address": {"city": "LAKE CHARLES", "state": "LA", "street": "950 MAIN ST", "postcode": "70616"}}},
{"geometry": {"type": "Point", "coordinates": [-93.1633405526, 30.2257839988]}, "type": "Feature", "properties": {"collection_times": [{"days": "Mon-Fri", "time": "4:00pm"}, {"days": "Sat-Sun", "time": "Closed"}], "id": "7061600005", "name": "USPS COLLECTION BOX - PO LOBBY", "address": {"city": "LAKE CHARLES", "state": "LA", "street": "950 MAIN ST", "postcode": "70616"}}},
{"geometry": {"type": "Point", "coordinates": [-93.1633405526, 30.2257839988]}, "type": "Feature", "properties": {"collection_times": [{"days": "Mon-Fri", "time": "4:00pm"}, {"days": "Sat-Sun", "time": "Closed"}], "id": "7061600007", "name": "USPS COLLECTION BOX - BLUE BOX", "address": {"city": "LAKE CHARLES", "state": "LA", "street": "950 MAIN ST", "postcode": "70616"}}},
{"geometry": {"type": "Point", "coordinates": [-92.962259941, 30.1133077819]}, "type": "Feature", "properties": {"collection_times": [{"days": "Mon-Fri", "time": "3:45pm"}, {"days": "Sat-Sun", "time": "Closed"}], "id": "7063000001", "name": "USPS COLLECTION BOX - PO LOBBY", "address": {"city": "BELL CITY", "state": "LA", "street": "7206 B ST", "postcode": "70630"}}},
{"geometry": {"type": "Point", "coordinates": [-92.962259941, 30.1133077819]}, "type": "Feature", "properties": {"collection_times": [{"days": "Mon-Fri", "time": "3:45pm"}, {"days": "Sat", "time": "8:45am"}, {"days": "Sun", "time": "Closed"}], "id": "7063000004", "name": "USPS COLLECTION BOX - BLUE BOX", "address": {"city": "BELL CITY", "state": "LA", "street": "7206 B ST", "postcode": "70630"}}},
{"geometry": {"type": "Point", "coordinates": [-93.3211967567, 29.7974178972]}, "type": "Feature", "properties": {"collection_times": [{"days": "Mon-Fri", "time": "3:00pm"}, {"days": "Sat", "time": "11:00am"}, {"days": "Sun", "time": "Closed"}], "id": "7063100009", "name": "USPS COLLECTION BOX - BLUE BOX", "address": {"city": "CAMERON", "state": "LA", "street": "144 ADAM ROUX ST", "postcode": "70631"}}},
{"geometry": {"type": "Point", "coordinates": [-93.3247909126, 29.7987547644]}, "type": "Feature", "properties": {"collection_times": [{"days": "Mon-Fri", "time": "1:00pm"}, {"days": "Sat-Sun", "time": "Closed"}], "id": "7063100010", "name": "USPS COLLECTION BOX - BLUE BOX", "address": {"city": "CAMERON", "state": "LA", "street": "124 RECREATION CENTER LN", "postcode": "70631"}}},
{"geometry": {"type": "Point", "coordinates": [-93.3054163762, 29.7843900669]}, "type": "Feature", "properties": {"collection_times": [{"days": "Mon-Fri", "time": "3:00pm"}, {"days": "Sat", "time": "11:00am"}, {"days": "Sun", "time": "Closed"}], "id": "7063100011", "name": "USPS COLLECTION BOX - PO LOBBY", "address": {"city": "CAMERON", "state": "LA", "street": "144 ADAM ROUX ST", "postcode": "70631"}}},
{"geometry": {"type": "Point", "coordinates": [-93.1111719951, 29.817870994]}, "type": "Feature", "properties": {"collection_times": [{"days": "Mon-Sat", "time": "11:00am"}, {"days": "Sun", "time": "Closed"}], "id": "7063200004", "name": "USPS COLLECTION BOX - BLUE BOX", "address": {"city": "CREOLE", "state": "LA", "street": "4459 W CREOLE HWY", "postcode": "70632"}}},
{"geometry": {"type": "Point", "coordinates": [-93.4326053593, 30.4501262648]}, "type": "Feature", "properties": {"collection_times": [{"days": "Mon-Fri", "time": "4:00pm"}, {"days": "Sat", "time": "12:30pm"}, {"days": "Sun", "time": "Closed"}], "id": "7063300001", "name": "USPS COLLECTION BOX - PO LOBBY", "address": {"city": "DE QUINCY", "state": "LA", "street": "215 COLLEGE ST", "postcode": "70633"}}},
{"geometry": {"type": "Point", "coordinates": [-93.4326053593, 30.4501262648]}, "type": "Feature", "properties": {"collection_times": [{"days": "Mon-Fri", "time": "4:00pm"}, {"days": "Sat", "time": "12:30pm"}, {"days": "Sun", "time": "Closed"}], "id": "7063300003", "name": "USPS COLLECTION BOX - BLUE BOX", "address": {"city": "DE QUINCY", "state": "LA", "street": "215 COLLEGE ST", "postcode": "70633"}}},
{"geometry": {"type": "Point", "coordinates": [-93.4326053593, 30.4501262648]}, "type": "Feature", "properties": {"collection_times": [{"days": "Mon-Fri", "time": "4:00pm"}, {"days": "Sat", "time": "12:30pm"}, {"days": "Sun", "time": "Closed"}], "id": "7063300007", "name": "USPS COLLECTION BOX - BLUE BOX", "address": {"city": "DE QUINCY", "state": "LA", "street": "215 COLLEGE ST", "postcode": "70633"}}},
{"geometry": {"type": "Point", "coordinates": [-93.4326053593, 30.4501262648]}, "type": "Feature", "properties": {"collection_times": [{"days": "Mon-Fri", "time": "4:00pm"}, {"days": "Sat", "time": "12:30pm"}, {"days": "Sun", "time": "Closed"}], "id": "7063300008", "name": "USPS COLLECTION BOX - PO LOBBY", "address": {"city": "DE QUINCY", "state": "LA", "street": "215 COLLEGE ST", "postcode": "70633"}}},
{"geometry": {"type": "Point", "coordinates": [-93.2849343351, 30.8444880796]}, "type": "Feature", "properties": {"collection_times": [{"days": "Mon-Fri", "time": "4:45pm"}, {"days": "Sat", "time": "4:15pm"}, {"days": "Sun", "time": "Closed"}], "id": "7063400001", "name": "USPS COLLECTION BOX - PO LOBBY", "address": {"city": "DE RIDDER", "state": "LA", "street": "116 E 4TH ST", "postcode": "70634"}}},
{"geometry": {"type": "Point", "coordinates": [-93.2849343351, 30.8444880796]}, "type": "Feature", "properties": {"collection_times": [{"days": "Mon-Fri", "time": "4:45pm"}, {"days": "Sat", "time": "4:15pm"}, {"days": "Sun", "time": "Closed"}], "id": "7063400003", "name": "USPS COLLECTION BOX - BLUE BOX", "address": {"city": "DE RIDDER", "state": "LA", "street": "116 E 4TH ST", "postcode": "70634"}}},
{"geometry": {"type": "Point", "coordinates": [-93.2849343351, 30.8444880796]}, "type": "Feature", "properties": {"collection_times": [{"days": "Mon-Fri", "time": "4:45pm"}, {"days": "Sat", "time": "4:15pm"}, {"days": "Sun", "time": "Closed"}], "id": "7063400004", "name": "USPS COLLECTION BOX - BLUE BOX", "address": {"city": "DE RIDDER", "state": "LA", "street": "116 E 4TH ST", "postcode": "70634"}}},
{"geometry": {"type": "Point", "coordinates": [-93.2869276558, 30.8630662954]}, "type": "Feature", "properties": {"collection_times": [{"days": "Mon-Fri", "time": "11:30am"}, {"days": "Sat-Sun", "time": "Closed"}], "id": "7063400010", "name": "USPS COLLECTION BOX - BLUE BOX", "address": {"city": "DE RIDDER", "state": "LA", "street": "1101 N PINE ST", "postcode": "70634"}}},
{"geometry": {"type": "Point", "coordinates": [-93.2983442676, 30.8468628519]}, "type": "Feature", "properties": {"collection_times": [{"days": "Mon-Fri", "time": "12:00pm"}, {"days": "Sat-Sun", "time": "Closed"}], "id": "7063400011", "name": "USPS COLLECTION BOX - BLUE BOX", "address": {"city": "DE RIDDER", "state": "LA", "street": "1103 W 1ST ST", "postcode": "70634"}}},
{"geometry": {"type": "Point", "coordinates": [-93.2872624527, 30.8464077036]}, "type": "Feature", "properties": {"collection_times": [{"days": "Mon-Fri", "time": "3:00pm"}, {"days": "Sat-Sun", "time": "Closed"}], "id": "7063400016", "name": "USPS COLLECTION BOX - BLUE BOX", "address": {"city": "DE RIDDER", "state": "LA", "street": "124 S STEWART ST", "postcode": "70634"}}},
{"geometry": {"type": "Point", "coordinates": [-93.2721623063, 30.8471355907]}, "type": "Feature", "properties": {"collection_times": [{"days": "Mon-Fri", "time": "10:30am"}, {"days": "Sat-Sun", "time": "Closed"}], "id": "7063400018", "name": "USPS COLLECTION BOX - BLUE BOX", "address": {"city": "DE RIDDER", "state": "LA", "street": "1001 MAHLON ST", "postcode": "70634"}}},
{"geometry": {"type": "Point", "coordinates": [-93.305544019, 30.8470034526]}, "type": "Feature", "properties": {"collection_times": [{"days": "Mon-Fri", "time": "8:30am"}, {"days": "Sat-Sun", "time": "Closed"}], "id": "7063400026", "name": "USPS COLLECTION BOX - BLUE BOX", "address": {"city": "DE RIDDER", "state": "LA", "street": "1808 HIGHWAY 190 W", "postcode": "70634"}}},
{"geometry": {"type": "Point", "coordinates": [-93.2849343351, 30.8444880796]}, "type": "Feature", "properties": {"collection_times": [{"days": "Mon-Fri", "time": "4:45pm"}, {"days": "Sat", "time": "4:15pm"}, {"days": "Sun", "time": "Closed"}], "id": "7063400028", "name": "USPS COLLECTION BOX - PO LOBBY", "address": {"city": "DE RIDDER", "state": "LA", "street": "116 E 4TH ST", "postcode": "70634"}}},
{"geometry": {"type": "Point", "coordinates": [-93.2849343351, 30.8444880796]}, "type": "Feature", "properties": {"collection_times": [{"days": "Mon-Fri", "time": "4:45pm"}, {"days": "Sat", "time": "4:15pm"}, {"days": "Sun", "time": "Closed"}], "id": "7063400029", "name": "USPS COLLECTION BOX - PO LOBBY", "address": {"city": "DE RIDDER", "state": "LA", "street": "116 E 4TH ST", "postcode": "70634"}}},
{"geometry": {"type": "Point", "coordinates": [-93.285593526, 30.909591817]}, "type": "Feature", "properties": {"collection_times": [{"days": "Mon-Fri", "time": "10:30am"}, {"days": "Sat-Sun", "time": "Closed"}], "id": "7063400030", "name": "USPS COLLECTION BOX - BLUE BOX", "address": {"city": "DE RIDDER", "state": "LA", "street": "18461 JOHNNY B HALL MEMORIAL HWY", "postcode": "70634"}}},
{"geometry": {"type": "Point", "coordinates": [-93.0458357132, 30.6625091798]}, "type": "Feature", "properties": {"collection_times": [{"days": "Mon-Fri", "time": "3:30pm"}, {"days": "Sat", "time": "10:30am"}, {"days": "Sun", "time": "Closed"}], "id": "7063700001", "name": "USPS COLLECTION BOX - PO LOBBY", "address": {"city": "DRY CREEK", "state": "LA", "street": "8243 HIGHWAY 113", "postcode": "70637"}}},
{"geometry": {"type": "Point", "coordinates": [-93.0458357132, 30.6625091798]}, "type": "Feature", "properties": {"collection_times": [{"days": "Mon-Fri", "time": "3:30pm"}, {"days": "Sat", "time": "10:30am"}, {"days": "Sun", "time": "Closed"}], "id": "7063700002", "name": "USPS COLLECTION BOX - BLUE BOX", "address": {"city": "DRY CREEK", "state": "LA", "street": "8243 HIGHWAY 113", "postcode": "70637"}}},
{"geometry": {"type": "Point", "coordinates": [-92.7923182606, 30.8679735326]}, "type": "Feature", "properties": {"collection_times": [{"days": "Mon-Fri", "time": "3:45pm"}, {"days": "Sat", "time": "11:00am"}, {"days": "Sun", "time": "Closed"}], "id": "7063800001", "name": "USPS COLLECTION BOX - PO LOBBY", "address": {"city": "ELIZABETH", "state": "LA", "street": "211 E MAIN ST", "postcode": "70638"}}},
{"geometry": {"type": "Point", "coordinates": [-92.7923182606, 30.8679735326]}, "type": "Feature", "properties": {"collection_times": [{"days": "Mon-Fri", "time": "3:45pm"}, {"days": "Sat", "time": "11:00am"}, {"days": "Sun", "time": "Closed"}], "id": "7063800002", "name": "USPS COLLECTION BOX - BLUE BOX", "address": {"city": "ELIZABETH", "state": "LA", "street": "211 E MAIN ST", "postcode": "70638"}}},
{"geometry": {"type": "Point", "coordinates": [-93.5020290623, 30.974088678]}, "type": "Feature", "properties": {"collection_times": [{"days": "Mon-Fri", "time": "1:30pm"}, {"days": "Sat", "time": "9:00am"}, {"days": "Sun", "time": "Closed"}], "id": "7063900001", "name": "USPS COLLECTION BOX - PO LOBBY", "address": {"city": "EVANS", "state": "LA", "street": "19158 HIGHWAY 111", "postcode": "70639"}}},
{"geometry": {"type": "Point", "coordinates": [-93.5020290623, 30.974088678]}, "type": "Feature", "properties": {"collection_times": [{"days": "Mon-Fri", "time": "1:30pm"}, {"days": "Sat", "time": "9:00am"}, {"days": "Sun", "time": "Closed"}], "id": "7063900002", "name": "USPS COLLECTION BOX - BLUE BOX", "address": {"city": "EVANS", "state": "LA", "street": "19158 HIGHWAY 111", "postcode": "70639"}}},
{"geometry": {"type": "Point", "coordinates": [-92.9168182157, 30.3650907899]}, "type": "Feature", "properties": {"collection_times": [{"days": "Mon-Fri", "time": "3:15pm"}, {"days": "Sat", "time": "8:30am"}, {"days": "Sun", "time": "Closed"}], "id": "7064000003", "name": "USPS COLLECTION BOX - BLUE BOX", "address": {"city": "FENTON", "state": "LA", "street": "410 PELICAN HWY", "postcode": "70640"}}},
{"geometry": {"type": "Point", "coordinates": [-92.9168182157, 30.3650907899]}, "type": "Feature", "properties": {"collection_times": [{"days": "Mon-Fri", "time": "3:15pm"}, {"days": "Sat", "time": "8:30am"}, {"days": "Sun", "time": "Closed"}], "id": "7064000004", "name": "USPS COLLECTION BOX - PO LOBBY", "address": {"city": "FENTON", "state": "LA", "street": "410 PELICAN HWY", "postcode": "70640"}}},
{"geometry": {"type": "Point", "coordinates": [-92.9456993258, 30.7997003184]}, "type": "Feature", "properties": {"collection_times": [{"days": "Mon-Fri", "time": "3:45pm"}, {"days": "Sat", "time": "9:45am"}, {"days": "Sun", "time": "Closed"}], "id": "7064400001", "name": "USPS COLLECTION BOX - PO LOBBY", "address": {"city": "GRANT", "state": "LA", "street": "4177 HIGHWAY 377", "postcode": "70644"}}},
{"geometry": {"type": "Point", "coordinates": [-92.9456993258, 30.7997003184]}, "type": "Feature", "properties": {"collection_times": [{"days": "Mon-Fri", "time": "3:30pm"}, {"days": "Sat", "time": "9:45am"}, {"days": "Sun", "time": "Closed"}], "id": "7064400002", "name": "USPS COLLECTION BOX - BLUE BOX", "address": {"city": "GRANT", "state": "LA", "street": "4177 HIGHWAY 377", "postcode": "70644"}}},
{"geometry": {"type": "Point", "coordinates": [-93.3637111265, 29.9938011676]}, "type": "Feature", "properties": {"collection_times": [{"days": "Mon-Fri", "time": "2:30pm"}, {"days": "Sat", "time": "11:00am"}, {"days": "Sun", "time": "Closed"}], "id": "7064500008", "name": "USPS COLLECTION BOX - BLUE BOX", "address": {"city": "HACKBERRY", "state": "LA", "street": "904 MAIN ST", "postcode": "70645"}}},
{"geometry": {"type": "Point", "coordinates": [-93.3637111265, 29.9938011676]}, "type": "Feature", "properties": {"collection_times": [{"days": "Mon-Fri", "time": "2:30pm"}, {"days": "Sat", "time": "11:00am"}, {"days": "Sun", "time": "Closed"}], "id": "7064500009", "name": "USPS COLLECTION BOX - PO LOBBY", "address": {"city": "HACKBERRY", "state": "LA", "street": "904 MAIN ST", "postcode": "70645"}}},
{"geometry": {"type": "Point", "coordinates": [-92.9200920914, 30.1116181069]}, "type": "Feature", "properties": {"collection_times": [{"days": "Mon-Fri", "time": "3:45pm"}, {"days": "Sat", "time": "10:45am"}, {"days": "Sun", "time": "Closed"}], "id": "7064600001", "name": "USPS COLLECTION BOX - PO LOBBY", "address": {"city": "HAYES", "state": "LA", "street": "7760 E HIGHWAY 14", "postcode": "70646"}}},
{"geometry": {"type": "Point", "coordinates": [-92.9200920914, 30.1116181069]}, "type": "Feature", "properties": {"collection_times": [{"days": "Mon-Fri", "time": "3:30pm"}, {"days": "Sat", "time": "10:30am"}, {"days": "Sun", "time": "Closed"}], "id": "7064600002", "name": "USPS COLLECTION BOX - BLUE BOX", "address": {"city": "HAYES", "state": "LA", "street": "7760 E HIGHWAY 14", "postcode": "70646"}}},
{"geometry": {"type": "Point", "coordinates": [-93.0689051136, 30.1793369829]}, "type": "Feature", "properties": {"collection_times": [{"days": "Mon-Fri", "time": "4:30pm"}, {"days": "Sat", "time": "12:00pm"}, {"days": "Sun", "time": "Closed"}], "id": "7064700001", "name": "USPS COLLECTION BOX - PO LOBBY", "address": {"city": "IOWA", "state": "LA", "street": "218 S THOMPSON AVE", "postcode": "70647"}}},
{"geometry": {"type": "Point", "coordinates": [-93.0689051136, 30.1793369829]}, "type": "Feature", "properties": {"collection_times": [{"days": "Mon-Fri", "time": "4:30pm"}, {"days": "Sat", "time": "12:00pm"}, {"days": "Sun", "time": "Closed"}], "id": "7064700002", "name": "USPS COLLECTION BOX - BLUE BOX", "address": {"city": "IOWA", "state": "LA", "street": "218 S THOMPSON AVE", "postcode": "70647"}}},
{"geometry": {"type": "Point", "coordinates": [-92.84881752, 30.4878925968]}, "type": "Feature", "properties": {"collection_times": [{"days": "Mon-Fri", "time": "4:00pm"}, {"days": "Sat", "time": "11:00am"}, {"days": "Sun", "time": "Closed"}], "id": "7064800001", "name": "USPS COLLECTION BOX - PO LOBBY", "address": {"city": "KINDER", "state": "LA", "street": "423 N 9TH ST", "postcode": "70648"}}},
{"geometry": {"type": "Point", "coordinates": [-92.84881752, 30.4878925968]}, "type": "Feature", "properties": {"collection_times": [{"days": "Mon-Fri", "time": "4:00pm"}, {"days": "Sat", "time": "11:00am"}, {"days": "Sun", "time": "Closed"}], "id": "7064800003", "name": "USPS COLLECTION BOX - BLUE BOX", "address": {"city": "KINDER", "state": "LA", "street": "423 N 9TH ST", "postcode": "70648"}}},
{"geometry": {"type": "Point", "coordinates": [-92.84881752, 30.4878925968]}, "type": "Feature", "properties": {"collection_times": [{"days": "Mon-Fri", "time": "4:00pm"}, {"days": "Sat", "time": "11:00am"}, {"days": "Sun", "time": "Closed"}], "id": "7064800005", "name": "USPS COLLECTION BOX - PO LOBBY", "address": {"city": "KINDER", "state": "LA", "street": "423 N 9TH ST", "postcode": "70648"}}},
{"geometry": {"type": "Point", "coordinates": [-92.9321460315, 30.0595264452]}, "type": "Feature", "properties": {"collection_times": [{"days": "Mon-Fri", "time": "3:15pm"}, {"days": "Sat", "time": "10:15am"}, {"days": "Sun", "time": "Closed"}], "id": "7065000001", "name": "USPS COLLECTION BOX - PO LOBBY", "address": {"city": "LACASSINE", "state": "LA", "street": "18327 HIGHWAY 90", "postcode": "70650"}}},
{"geometry": {"type": "Point", "coordinates": [-92.9321460315, 30.0595264452]}, "type": "Feature", "properties": {"collection_times": [{"days": "Mon-Fri", "time": "3:15pm"}, {"days": "Sat", "time": "10:15am"}, {"days": "Sun", "time": "Closed"}], "id": "7065000002", "name": "USPS COLLECTION BOX - BLUE BOX", "address": {"city": "LACASSINE", "state": "LA", "street": "18327 HIGHWAY 90", "postcode": "70650"}}},
{"geometry": {"type": "Point", "coordinates": [-92.9486015635, 30.5111087536]}, "type": "Feature", "properties": {"collection_times": [{"days": "Mon-Fri", "time": "3:00pm"}, {"days": "Sat", "time": "9:30am"}, {"days": "Sun", "time": "Closed"}], "id": "7065100002", "name": "USPS COLLECTION BOX - BLUE BOX", "address": {"city": "LE BLANC", "state": "LA", "street": "15148 HIGHWAY 190", "postcode": "70651"}}},
{"geometry": {"type": "Point", "coordinates": [-92.9486015635, 30.5111087536]}, "type": "Feature", "properties": {"collection_times": [{"days": "Mon-Fri", "time": "3:00pm"}, {"days": "Sat", "time": "9:30am"}, {"days": "Sun", "time": "Closed"}], "id": "7065100003", "name": "USPS COLLECTION BOX - PO LOBBY", "address": {"city": "LE BLANC", "state": "LA", "street": "15148 HIGHWAY 190", "postcode": "70651"}}},
{"geometry": {"type": "Point", "coordinates": [-93.2319677476, 30.6055852728]}, "type": "Feature", "properties": {"collection_times": [{"days": "Mon-Fri", "time": "4:00pm"}, {"days": "Sat", "time": "10:00am"}, {"days": "Sun", "time": "Closed"}], "id": "7065200001", "name": "USPS COLLECTION BOX - PO LOBBY", "address": {"city": "LONGVILLE", "state": "LA", "street": "126 LONGVILLE RD", "postcode": "70652"}}},
{"geometry": {"type": "Point", "coordinates": [-93.2319677476, 30.6055852728]}, "type": "Feature", "properties": {"collection_times": [{"days": "Mon-Fri", "time": "3:45pm"}, {"days": "Sat", "time": "10:00am"}, {"days": "Sun", "time": "Closed"}], "id": "7065200003", "name": "USPS COLLECTION BOX - BLUE BOX", "address": {"city": "LONGVILLE", "state": "LA", "street": "126 LONGVILLE RD", "postcode": "70652"}}},
{"geometry": {"type": "Point", "coordinates": [-93.2493591193, 30.5911713212]}, "type": "Feature", "properties": {"collection_times": [{"days": "Mon-Sat", "time": "12:00pm"}, {"days": "Sun", "time": "Closed"}], "id": "7065200004", "name": "USPS COLLECTION BOX - BLUE BOX", "address": {"city": "LONGVILLE", "state": "LA", "street": "11170 HIGHWAY 171", "postcode": "70652"}}},
{"geometry": {"type": "Point", "coordinates": [-93.5406733721, 30.7528755095]}, "type": "Feature", "properties": {"collection_times": [{"days": "Mon-Fri", "time": "3:45pm"}, {"days": "Sat", "time": "10:45am"}, {"days": "Sun", "time": "Closed"}], "id": "7065300004", "name": "USPS COLLECTION BOX - PO LOBBY", "address": {"city": "MERRYVILLE", "state": "LA", "street": "3035 HIGHWAY 110 W", "postcode": "70653"}}},
{"geometry": {"type": "Point", "coordinates": [-93.5406733721, 30.7528755095]}, "type": "Feature", "properties": {"collection_times": [{"days": "Mon-Fri", "time": "3:45pm"}, {"days": "Sat", "time": "10:45am"}, {"days": "Sun", "time": "Closed"}], "id": "7065300005", "name": "USPS COLLECTION BOX - BLUE BOX", "address": {"city": "MERRYVILLE", "state": "LA", "street": "3035 HIGHWAY 110 W", "postcode": "70653"}}},
{"geometry": {"type": "Point", "coordinates": [-92.8868370399, 30.694581144]}, "type": "Feature", "properties": {"collection_times": [{"days": "Mon-Fri", "time": "3:15pm"}, {"days": "Sat", "time": "10:30am"}, {"days": "Sun", "time": "Closed"}], "id": "7065400001", "name": "USPS COLLECTION BOX - BLUE BOX", "address": {"city": "MITTIE", "state": "LA", "street": "12330 HIGHWAY 26", "postcode": "70654"}}},
{"geometry": {"type": "Point", "coordinates": [-92.8868370399, 30.694581144]}, "type": "Feature", "properties": {"collection_times": [{"days": "Mon-Fri", "time": "3:15pm"}, {"days": "Sat", "time": "10:30am"}, {"days": "Sun", "time": "Closed"}], "id": "7065400002", "name": "USPS COLLECTION BOX - PO LOBBY", "address": {"city": "MITTIE", "state": "LA", "street": "12330 HIGHWAY 26", "postcode": "70654"}}},
{"geometry": {"type": "Point", "coordinates": [-92.7647118194, 30.6206794648]}, "type": "Feature", "properties": {"collection_times": [{"days": "Mon-Fri", "time": "3:45pm"}, {"days": "Sat", "time": "8:45am"}, {"days": "Sun", "time": "Closed"}], "id": "7065500003", "name": "USPS COLLECTION BOX - BLUE BOX", "address": {"city": "OBERLIN", "state": "LA", "street": "110 N 7TH ST", "postcode": "70655"}}},
{"geometry": {"type": "Point", "coordinates": [-92.7647118194, 30.6206794648]}, "type": "Feature", "properties": {"collection_times": [{"days": "Mon-Fri", "time": "3:45pm"}, {"days": "Sat-Sun", "time": "Closed"}], "id": "7065500004", "name": "USPS COLLECTION BOX - PO LOBBY", "address": {"city": "OBERLIN", "state": "LA", "street": "110 N 7TH ST", "postcode": "70655"}}},
{"geometry": {"type": "Point", "coordinates": [-92.7647118194, 30.6206794648]}, "type": "Feature", "properties": {"collection_times": [{"days": "Mon-Fri", "time": "3:45pm"}, {"days": "Sat-Sun", "time": "Closed"}], "id": "7065500005", "name": "USPS COLLECTION BOX - PO LOBBY", "address": {"city": "OBERLIN", "state": "LA", "street": "110 N 7TH ST", "postcode": "70655"}}},
{"geometry": {"type": "Point", "coordinates": [-92.9343577722, 30.9339974156]}, "type": "Feature", "properties": {"collection_times": [{"days": "Mon-Fri", "time": "3:30pm"}, {"days": "Sat", "time": "10:45am"}, {"days": "Sun", "time": "Closed"}], "id": "7065600001", "name": "USPS COLLECTION BOX - PO LOBBY", "address": {"city": "PITKIN", "state": "LA", "street": "12949 HIGHWAY 10", "postcode": "70656"}}},
{"geometry": {"type": "Point", "coordinates": [-92.9343577722, 30.9339974156]}, "type": "Feature", "properties": {"collection_times": [{"days": "Mon-Fri", "time": "3:30pm"}, {"days": "Sat", "time": "10:45am"}, {"days": "Sun", "time": "Closed"}], "id": "7065600002", "name": "USPS COLLECTION BOX - BLUE BOX", "address": {"city": "PITKIN", "state": "LA", "street": "12949 HIGHWAY 10", "postcode": "70656"}}},
{"geometry": {"type": "Point", "coordinates": [-92.9157034646, 30.9322702025]}, "type": "Feature", "properties": {"collection_times": [{"days": "Mon-Sat", "time": "8:30am"}, {"days": "Sun", "time": "Closed"}], "id": "7065600004", "name": "USPS COLLECTION BOX - BLUE BOX", "address": {"city": "PITKIN", "state": "LA", "street": "13496 HIGHWAY 10", "postcode": "70656"}}},
{"geometry": {"type": "Point", "coordinates": [-93.1649331311, 30.4951291845]}, "type": "Feature", "properties": {"collection_times": [{"days": "Mon-Fri", "time": "3:30pm"}, {"days": "Sat", "time": "9:30am"}, {"days": "Sun", "time": "Closed"}], "id": "7065700001", "name": "USPS COLLECTION BOX - PO LOBBY", "address": {"city": "RAGLEY", "state": "LA", "street": "7619 HIGHWAY 190", "postcode": "70657"}}},
{"geometry": {"type": "Point", "coordinates": [-93.1649331311, 30.4951291845]}, "type": "Feature", "properties": {"collection_times": [{"days": "Mon-Fri", "time": "3:30pm"}, {"days": "Sat", "time": "9:30am"}, {"days": "Sun", "time": "Closed"}], "id": "7065700002", "name": "USPS COLLECTION BOX - BLUE BOX", "address": {"city": "RAGLEY", "state": "LA", "street": "7619 HIGHWAY 190", "postcode": "70657"}}},
{"geometry": {"type": "Point", "coordinates": [-93.0030378123, 30.5186146094]}, "type": "Feature", "properties": {"collection_times": [{"days": "Mon-Fri", "time": "3:00pm"}, {"days": "Sat", "time": "8:30am"}, {"days": "Sun", "time": "Closed"}], "id": "7065800001", "name": "USPS COLLECTION BOX - PO LOBBY", "address": {"city": "REEVES", "state": "LA", "street": "18320 HIGHWAY 190", "postcode": "70658"}}},
{"geometry": {"type": "Point", "coordinates": [-93.0030378123, 30.5186146094]}, "type": "Feature", "properties": {"collection_times": [{"days": "Mon-Fri", "time": "3:00pm"}, {"days": "Sat", "time": "8:30am"}, {"days": "Sun", "time": "Closed"}], "id": "7065800002", "name": "USPS COLLECTION BOX - BLUE BOX", "address": {"city": "REEVES", "state": "LA", "street": "18320 HIGHWAY 190", "postcode": "70658"}}},
{"geometry": {"type": "Point", "coordinates": [-93.2822941494, 30.9208760286]}, "type": "Feature", "properties": {"collection_times": [{"days": "Mon-Fri", "time": "2:00pm"}, {"days": "Sat", "time": "11:00am"}, {"days": "Sun", "time": "Closed"}], "id": "7065900001", "name": "USPS COLLECTION BOX - PO LOBBY", "address": {"city": "ROSEPINE", "state": "LA", "street": "18327 JOHNNY B HALL MEMORIAL HWY", "postcode": "70659"}}},
{"geometry": {"type": "Point", "coordinates": [-93.2822941494, 30.9208760286]}, "type": "Feature", "properties": {"collection_times": [{"days": "Mon-Fri", "time": "2:00pm"}, {"days": "Sat", "time": "11:00am"}, {"days": "Sun", "time": "Closed"}], "id": "7065900002", "name": "USPS COLLECTION BOX - BLUE BOX", "address": {"city": "ROSEPINE", "state": "LA", "street": "18327 JOHNNY B HALL MEMORIAL HWY", "postcode": "70659"}}},
{"geometry": {"type": "Point", "coordinates": [-93.4139975187, 30.6512429009]}, "type": "Feature", "properties": {"collection_times": [{"days": "Mon-Fri", "time": "3:45pm"}, {"days": "Sat", "time": "10:00am"}, {"days": "Sun", "time": "Closed"}], "id": "7066000002", "name": "USPS COLLECTION BOX - BLUE BOX", "address": {"city": "SINGER", "state": "LA", "street": "9068 HIGHWAY 27", "postcode": "70660"}}},
{"geometry": {"type": "Point", "coordinates": [-93.6614225885, 30.3144518503]}, "type": "Feature", "properties": {"collection_times": [{"days": "Mon-Fri", "time": "3:30pm"}, {"days": "Sat", "time": "10:45am"}, {"days": "Sun", "time": "Closed"}], "id": "7066100001", "name": "USPS COLLECTION BOX - PO LOBBY", "address": {"city": "STARKS", "state": "LA", "street": "106 BIG WOODS RD", "postcode": "70661"}}},
{"geometry": {"type": "Point", "coordinates": [-93.6614225885, 30.3144518503]}, "type": "Feature", "properties": {"collection_times": [{"days": "Mon-Fri", "time": "3:30pm"}, {"days": "Sat", "time": "10:45am"}, {"days": "Sun", "time": "Closed"}], "id": "7066100002", "name": "USPS COLLECTION BOX - BLUE BOX", "address": {"city": "STARKS", "state": "LA", "street": "106 BIG WOODS RD", "postcode": "70661"}}},
{"geometry": {"type": "Point", "coordinates": [-93.3507696846, 30.2242323433]}, "type": "Feature", "properties": {"collection_times": [{"days": "Mon-Fri", "time": "5:00pm"}, {"days": "Sat", "time": "4:00pm"}, {"days": "Sun", "time": "Closed"}], "id": "7066300001", "name": "USPS COLLECTION BOX - PO LOBBY", "address": {"city": "SULPHUR", "state": "LA", "street": "800 S POST OAK RD", "postcode": "70663"}}},
{"geometry": {"type": "Point", "coordinates": [-93.3507696846, 30.2242323433]}, "type": "Feature", "properties": {"collection_times": [{"days": "Mon-Fri", "time": "5:00pm"}, {"days": "Sat", "time": "4:00pm"}, {"days": "Sun", "time": "Closed"}], "id": "7066300003", "name": "USPS COLLECTION BOX - PO LOBBY", "address": {"city": "SULPHUR", "state": "LA", "street": "800 S POST OAK RD", "postcode": "70663"}}},
{"geometry": {"type": "Point", "coordinates": [-93.377377928, 30.2395838851]}, "type": "Feature", "properties": {"collection_times": [{"days": "Mon-Sat", "time": "12:45pm"}, {"days": "Sun", "time": "Closed"}], "id": "7066300010", "name": "USPS COLLECTION BOX - BLUE BOX", "address": {"city": "SULPHUR", "state": "LA", "street": "106 E LINCOLN ST", "postcode": "70663"}}},
{"geometry": {"type": "Point", "coordinates": [-93.3762691151, 30.2257007393]}, "type": "Feature", "properties": {"collection_times": [{"days": "Mon-Sat", "time": "2:00pm"}, {"days": "Sun", "time": "Closed"}], "id": "7066300012", "name": "USPS COLLECTION BOX - BLUE BOX", "address": {"city": "SULPHUR", "state": "LA", "street": "1600 RUTH ST", "postcode": "70663"}}},
{"geometry": {"type": "Point", "coordinates": [-93.325605144, 30.232691368]}, "type": "Feature", "properties": {"collection_times": [{"days": "Mon-Fri", "time": "1:30pm"}, {"days": "Sat", "time": "1:00pm"}, {"days": "Sun", "time": "Closed"}], "id": "7066300019", "name": "USPS COLLECTION BOX - BLUE BOX", "address": {"city": "SULPHUR", "state": "LA", "street": "525 N CITIES SERVICE HWY", "postcode": "70663"}}},
{"geometry": {"type": "Point", "coordinates": [-93.3507696846, 30.2242323433]}, "type": "Feature", "properties": {"collection_times": [{"days": "Mon-Fri", "time": "5:00pm"}, {"days": "Sat", "time": "4:00pm"}, {"days": "Sun", "time": "Closed"}], "id": "7066300020", "name": "USPS COLLECTION BOX - BLUE BOX", "address": {"city": "SULPHUR", "state": "LA", "street": "800 S POST OAK RD", "postcode": "70663"}}},
{"geometry": {"type": "Point", "coordinates": [-93.3507696846, 30.2242323433]}, "type": "Feature", "properties": {"collection_times": [{"days": "Mon-Fri", "time": "5:00pm"}, {"days": "Sat", "time": "4:00pm"}, {"days": "Sun", "time": "Closed"}], "id": "7066300021", "name": "USPS COLLECTION BOX - BLUE BOX", "address": {"city": "SULPHUR", "state": "LA", "street": "800 S POST OAK RD", "postcode": "70663"}}},
{"geometry": {"type": "Point", "coordinates": [-93.5813380367, 30.1891465743]}, "type": "Feature", "properties": {"collection_times": [{"days": "Mon-Fri", "time": "4:00pm"}, {"days": "Sat", "time": "12:00pm"}, {"days": "Sun", "time": "Closed"}], "id": "7066800001", "name": "USPS COLLECTION BOX - PO LOBBY", "address": {"city": "VINTON", "state": "LA", "street": "1354 HORRIDGE ST", "postcode": "70668"}}},
{"geometry": {"type": "Point", "coordinates": [-93.5813380367, 30.1891465743]}, "type": "Feature", "properties": {"collection_times": [{"days": "Mon-Fri", "time": "4:00pm"}, {"days": "Sat", "time": "12:00pm"}, {"days": "Sun", "time": "Closed"}], "id": "7066800002", "name": "USPS COLLECTION BOX - BLUE BOX", "address": {"city": "VINTON", "state": "LA", "street": "1354 HORRIDGE ST", "postcode": "70668"}}},
{"geometry": {"type": "Point", "coordinates": [-93.26646142, 30.2519794255]}, "type": "Feature", "properties": {"collection_times": [{"days": "Mon-Fri", "time": "5:00pm"}, {"days": "Sat", "time": "2:00pm"}, {"days": "Sun", "time": "Closed"}], "id": "7066900001", "name": "USPS COLLECTION BOX - PO LOBBY", "address": {"city": "WESTLAKE", "state": "LA", "street": "1504 GUILLORY ST", "postcode": "70669"}}},
{"geometry": {"type": "Point", "coordinates": [-93.26646142, 30.2519794255]}, "type": "Feature", "properties": {"collection_times": [{"days": "Mon-Fri", "time": "5:00pm"}, {"days": "Sat", "time": "2:00pm"}, {"days": "Sun", "time": "Closed"}], "id": "7066900002", "name": "USPS COLLECTION BOX - BLUE BOX", "address": {"city": "WESTLAKE", "state": "LA", "street": "1504 GUILLORY ST", "postcode": "70669"}}},
{"geometry": {"type": "Point", "coordinates": [-93.26646142, 30.2519794255]}, "type": "Feature", "properties": {"collection_times": [{"days": "Mon-Fri", "time": "5:00pm"}, {"days": "Sat", "time": "2:00pm"}, {"days": "Sun", "time": "Closed"}], "id": "7066900003", "name": "USPS COLLECTION BOX - BLUE BOX", "address": {"city": "WESTLAKE", "state": "LA", "street": "1504 GUILLORY ST", "postcode": "70669"}}},
{"geometry": {"type": "Point", "coordinates": [-93.2615598947, 30.2589522006]}, "type": "Feature", "properties": {"collection_times": [{"days": "Mon-Sat", "time": "10:00am"}, {"days": "Sun", "time": "Closed"}], "id": "7066900012", "name": "USPS COLLECTION BOX - BLUE BOX", "address": {"city": "WESTLAKE", "state": "LA", "street": "804 P P G DR", "postcode": "70669"}}},
{"geometry": {"type": "Point", "coordinates": [-93.26646142, 30.2519794255]}, "type": "Feature", "properties": {"collection_times": [{"days": "Mon-Fri", "time": "5:00pm"}, {"days": "Sat", "time": "2:00pm"}, {"days": "Sun", "time": "Closed"}], "id": "7066900015", "name": "USPS COLLECTION BOX - PO LOBBY", "address": {"city": "WESTLAKE", "state": "LA", "street": "1504 GUILLORY ST", "postcode": "70669"}}},
{"geometry": {"type": "Point", "coordinates": [-93.256234622, 30.2477937794]}, "type": "Feature", "properties": {"collection_times": [{"days": "Mon-Sat", "time": "1:00pm"}, {"days": "Sun", "time": "Closed"}], "id": "7066900016", "name": "USPS COLLECTION BOX - BLUE BOX", "address": {"city": "WESTLAKE", "state": "LA", "street": "820 MCKINLEY ST", "postcode": "70669"}}},
{"geometry": {"type": "Point", "coordinates": [-93.26646142, 30.2519794255]}, "type": "Feature", "properties": {"collection_times": [{"days": "Mon-Fri", "time": "5:00pm"}, {"days": "Sat", "time": "2:00pm"}, {"days": "Sun", "time": "Closed"}], "id": "7066900017", "name": "USPS COLLECTION BOX - PO LOBBY", "address": {"city": "WESTLAKE", "state": "LA", "street": "1504 GUILLORY ST", "postcode": "70669"}}}
]}
