{"type": "FeatureCollection", "features": [
{"geometry": {"type": "Point", "coordinates": [-91.2642837648, 30.3531738682]}, "type": "Feature", "properties": {"collection_times": [{"days": "Mon-Fri", "time": "4:00pm"}, {"days": "Sat", "time": "10:30am"}, {"days": "Sun", "time": "Closed"}], "id": "7071000001", "name": "USPS COLLECTION BOX - PO LOBBY", "address": {"city": "ADDIS", "state": "LA", "street": "4260 FORET ST", "postcode": "70710"}}},
{"geometry": {"type": "Point", "coordinates": [-91.2642837648, 30.3531738682]}, "type": "Feature", "properties": {"collection_times": [{"days": "Mon-Fri", "time": "4:00pm"}, {"days": "Sat", "time": "10:30am"}, {"days": "Sun", "time": "Closed"}], "id": "7071000002", "name": "USPS COLLECTION BOX - BLUE BOX", "address": {"city": "ADDIS", "state": "LA", "street": "4260 FORET ST", "postcode": "70710"}}},
{"geometry": {"type": "Point", "coordinates": [-90.5826953965, 30.4991306779]}, "type": "Feature", "properties": {"collection_times": [{"days": "Mon-Fri", "time": "3:45pm"}, {"days": "Sat", "time": "10:30am"}, {"days": "Sun", "time": "Closed"}], "id": "7071100001", "name": "USPS COLLECTION BOX - PO LOBBY", "address": {"city": "ALBANY", "state": "LA", "street": "29683 S MONTPELIER RD", "postcode": "70711"}}},
{"geometry": {"type": "Point", "coordinates": [-90.5826953965, 30.4991306779]}, "type": "Feature", "properties": {"collection_times": [{"days": "Mon-Fri", "time": "3:45pm"}, {"days": "Sat", "time": "10:30am"}, {"days": "Sun", "time": "Closed"}], "id": "7071100002", "name": "USPS COLLECTION BOX - BLUE BOX", "address": {"city": "ALBANY", "state": "LA", "street": "29683 S MONTPELIER RD", "postcode": "70711"}}},
{"geometry": {"type": "Point", "coordinates": [-91.5992237849, 30.9692678758]}, "type": "Feature", "properties": {"collection_times": [{"days": "Mon-Fri", "time": "3:30pm"}, {"days": "Sat", "time": "9:00am"}, {"days": "Sun", "time": "Closed"}], "id": "7071200001", "name": "USPS COLLECTION BOX - PO LOBBY", "address": {"city": "ANGOLA", "state": "LA", "street": "11200 MAIN ST", "postcode": "70712"}}},
{"geometry": {"type": "Point", "coordinates": [-91.5992237849, 30.9692678758]}, "type": "Feature", "properties": {"collection_times": [{"days": "Mon-Fri", "time": "3:30pm"}, {"days": "Sat", "time": "9:00am"}, {"days": "Sun", "time": "Closed"}], "id": "7071200002", "name": "USPS COLLECTION BOX - BLUE BOX", "address": {"city": "ANGOLA", "state": "LA", "street": "11200 MAIN ST", "postcode": "70712"}}},
{"geometry": {"type": "Point", "coordinates": [-91.1691977118, 30.5862337115]}, "type": "Feature", "properties": {"collection_times": [{"days": "Mon-Fri", "time": "5:00pm"}, {"days": "Sat", "time": "2:00pm"}, {"days": "Sun", "time": "Closed"}], "id": "7071400001", "name": "USPS COLLECTION BOX - PO LOBBY", "address": {"city": "BAKER", "state": "LA", "street": "3009 RAY WEILAND DR", "postcode": "70714"}}},
{"geometry": {"type": "Point", "coordinates": [-91.1691977118, 30.5862337115]}, "type": "Feature", "properties": {"collection_times": [{"days": "Mon-Fri", "time": "5:00pm"}, {"days": "Sat", "time": "2:00pm"}, {"days": "Sun", "time": "Closed"}], "id": "7071400002", "name": "USPS COLLECTION BOX - PO LOBBY", "address": {"city": "BAKER", "state": "LA", "street": "3009 RAY WEILAND DR", "postcode": "70714"}}},
{"geometry": {"type": "Point", "coordinates": [-91.1691977118, 30.5862337115]}, "type": "Feature", "properties": {"collection_times": [{"days": "Mon-Fri", "time": "5:00pm"}, {"days": "Sat", "time": "2:00pm"}, {"days": "Sun", "time": "Closed"}], "id": "7071400006", "name": "USPS COLLECTION BOX - BLUE BOX", "address": {"city": "BAKER", "state": "LA", "street": "3009 RAY WEILAND DR", "postcode": "70714"}}},
{"geometry": {"type": "Point", "coordinates": [-91.1691977118, 30.5862337115]}, "type": "Feature", "properties": {"collection_times": [{"days": "Mon-Fri", "time": "5:00pm"}, {"days": "Sat", "time": "2:00pm"}, {"days": "Sun", "time": "Closed"}], "id": "7071400007", "name": "USPS COLLECTION BOX - BLUE BOX", "address": {"city": "BAKER", "state": "LA", "street": "3009 RAY WEILAND DR", "postcode": "70714"}}},
{"geometry": {"type": "Point", "coordinates": [-91.1654951597, 30.5885970632]}, "type": "Feature", "properties": {"collection_times": [{"days": "Mon-Fri", "time": "2:00pm"}, {"days": "Sat", "time": "1:00pm"}, {"days": "Sun", "time": "Closed"}], "id": "7071400017", "name": "USPS COLLECTION BOX - BLUE BOX", "address": {"city": "BAKER", "state": "LA", "street": "1300 ALABAMA ST", "postcode": "70714"}}},
{"geometry": {"type": "Point", "coordinates": [-91.6242937353, 30.7835033911]}, "type": "Feature", "properties": {"collection_times": [{"days": "Mon-Fri", "time": "1:00pm"}, {"days": "Sat", "time": "10:00am"}, {"days": "Sun", "time": "Closed"}], "id": "7071500001", "name": "USPS COLLECTION BOX - PO LOBBY", "address": {"city": "BATCHELOR", "state": "LA", "street": "4992 LA HIGHWAY 1", "postcode": "70715"}}},
{"geometry": {"type": "Point", "coordinates": [-91.6242937353, 30.7835033911]}, "type": "Feature", "properties": {"collection_times": [{"days": "Mon-Fri", "time": "1:00pm"}, {"days": "Sat", "time": "10:00am"}, {"days": "Sun", "time": "Closed"}], "id": "7071500002", "name": "USPS COLLECTION BOX - BLUE BOX", "address": {"city": "BATCHELOR", "state": "LA", "street": "4992 LA HIGHWAY 1", "postcode": "70715"}}},
{"geometry": {"type": "Point", "coordinates": [-90.9205900861, 30.2198932911]}, "type": "Feature", "properties": {"collection_times": [{"days": "Mon-Fri", "time": "4:00pm"}, {"days": "Sat", "time": "11:00am"}, {"days": "Sun", "time": "Closed"}], "id": "7071800001", "name": "USPS COLLECTION BOX - PO LOBBY", "address": {"city": "BRITTANY", "state": "LA", "street": "1830 E HIGHWAY 30", "postcode": "70718"}}},
{"geometry": {"type": "Point", "coordinates": [-90.9205900861, 30.2198932911]}, "type": "Feature", "properties": {"collection_times": [{"days": "Mon-Fri", "time": "4:00pm"}, {"days": "Sat", "time": "11:00am"}, {"days": "Sun", "time": "Closed"}], "id": "7071800002", "name": "USPS COLLECTION BOX - BLUE BOX", "address": {"city": "BRITTANY", "state": "LA", "street": "1830 E HIGHWAY 30", "postcode": "70718"}}},
{"geometry": {"type": "Point", "coordinates": [-91.2400911334, 30.3891780184]}, "type": "Feature", "properties": {"collection_times": [{"days": "Mon-Fri", "time": "4:00pm"}, {"days": "Sat", "time": "11:00am"}, {"days": "Sun", "time": "Closed"}], "id": "7071900001", "name": "USPS COLLECTION BOX - PO LOBBY", "address": {"city": "BRUSLY", "state": "LA", "street": "315 E MAIN ST", "postcode": "70719"}}},
{"geometry": {"type": "Point", "coordinates": [-91.2400911334, 30.3891780184]}, "type": "Feature", "properties": {"collection_times": [{"days": "Mon-Fri", "time": "4:00pm"}, {"days": "Sat", "time": "11:00am"}, {"days": "Sun", "time": "Closed"}], "id": "7071900002", "name": "USPS COLLECTION BOX - BLUE BOX", "address": {"city": "BRUSLY", "state": "LA", "street": "315 E MAIN ST", "postcode": "70719"}}},
{"geometry": {"type": "Point", "coordinates": [-91.2439928065, 30.386098089]}, "type": "Feature", "properties": {"collection_times": [{"days": "Mon-Fri", "time": "12:30pm"}, {"days": "Sat", "time": "11:00am"}, {"days": "Sun", "time": "Closed"}], "id": "7071900003", "name": "USPS COLLECTION BOX - BLUE BOX", "address": {"city": "BRUSLY", "state": "LA", "street": "150 E SAINT FRANCIS ST", "postcode": "70719"}}},
{"geometry": {"type": "Point", "coordinates": [-91.0763529652, 30.2190801849]}, "type": "Feature", "properties": {"collection_times": [{"days": "Mon-Fri", "time": "3:45pm"}, {"days": "Sat", "time": "10:45am"}, {"days": "Sun", "time": "Closed"}], "id": "7072100001", "name": "USPS COLLECTION BOX - PO LOBBY", "address": {"city": "CARVILLE", "state": "LA", "street": "5715 HIGHWAY 75", "postcode": "70721"}}},
{"geometry": {"type": "Point", "coordinates": [-91.0763529652, 30.2190801849]}, "type": "Feature", "properties": {"collection_times": [{"days": "Mon-Fri", "time": "4:00pm"}, {"days": "Sat", "time": "11:00am"}, {"days": "Sun", "time": "Closed"}], "id": "7072100002", "name": "USPS COLLECTION BOX - BLUE BOX", "address": {"city": "CARVILLE", "state": "LA", "street": "5715 HIGHWAY 75", "postcode": "70721"}}},
{"geometry": {"type": "Point", "coordinates": [-91.113662631, 30.204101707]}, "type": "Feature", "properties": {"collection_times": [{"days": "Mon-Sat", "time": "9:00am"}, {"days": "Sun", "time": "Closed"}], "id": "7072100004", "name": "USPS COLLECTION BOX - BLUE BOX", "address": {"city": "CARVILLE", "state": "LA", "street": "5445 POINT CLAIR RD", "postcode": "70721"}}},
{"geometry": {"type": "Point", "coordinates": [-91.0121810536, 30.8592237591]}, "type": "Feature", "properties": {"collection_times": [{"days": "Mon-Fri", "time": "3:45pm"}, {"days": "Sat", "time": "11:15am"}, {"days": "Sun", "time": "Closed"}], "id": "7072200001", "name": "USPS COLLECTION BOX - PO LOBBY", "address": {"city": "CLINTON", "state": "LA", "street": "10497 PLANK RD", "postcode": "70722"}}},
{"geometry": {"type": "Point", "coordinates": [-91.0121810536, 30.8592237591]}, "type": "Feature", "properties": {"collection_times": [{"days": "Mon-Fri", "time": "3:45pm"}, {"days": "Sat", "time": "11:15am"}, {"days": "Sun", "time": "Closed"}], "id": "7072200002", "name": "USPS COLLECTION BOX - BLUE BOX", "address": {"city": "CLINTON", "state": "LA", "street": "10497 PLANK RD", "postcode": "70722"}}},
{"geometry": {"type": "Point", "coordinates": [-91.0121810536, 30.8592237591]}, "type": "Feature", "properties": {"collection_times": [{"days": "Mon-Fri", "time": "3:45pm"}, {"days": "Sat", "time": "11:15am"}, {"days": "Sun", "time": "Closed"}], "id": "7072200003", "name": "USPS COLLECTION BOX - BLUE BOX", "address": {"city": "CLINTON", "state": "LA", "street": "10497 PLANK RD", "postcode": "70722"}}},
{"geometry": {"type": "Point", "coordinates": [-90.8296674889, 30.0196648508]}, "type": "Feature", "properties": {"collection_times": [{"days": "Mon-Fri", "time": "4:00pm"}, {"days": "Sat", "time": "10:00am"}, {"days": "Sun", "time": "Closed"}], "id": "7072300001", "name": "USPS COLLECTION BOX - PO LOBBY", "address": {"city": "CONVENT", "state": "LA", "street": "6574 LA 44", "postcode": "70723"}}},
{"geometry": {"type": "Point", "coordinates": [-90.8296674889, 30.0196648508]}, "type": "Feature", "properties": {"collection_times": [{"days": "Mon-Fri", "time": "4:00pm"}, {"days": "Sat", "time": "10:00am"}, {"days": "Sun", "time": "Closed"}], "id": "7072300002", "name": "USPS COLLECTION BOX - BLUE BOX", "address": {"city": "CONVENT", "state": "LA", "street": "6574 LA 44", "postcode": "70723"}}},
{"geometry": {"type": "Point", "coordinates": [-90.9866654993, 30.1171524962]}, "type": "Feature", "properties": {"collection_times": [{"days": "Mon-Fri", "time": "4:00pm"}, {"days": "Sat", "time": "11:00am"}, {"days": "Sun", "time": "Closed"}], "id": "7072500001", "name": "USPS COLLECTION BOX - PO LOBBY", "address": {"city": "DARROW", "state": "LA", "street": "37142 HIGHWAY 22", "postcode": "70725"}}},
{"geometry": {"type": "Point", "coordinates": [-90.9866654993, 30.1171524962]}, "type": "Feature", "properties": {"collection_times": [{"days": "Mon-Fri", "time": "4:00pm"}, {"days": "Sat", "time": "11:00am"}, {"days": "Sun", "time": "Closed"}], "id": "7072500002", "name": "USPS COLLECTION BOX - BLUE BOX", "address": {"city": "DARROW", "state": "LA", "street": "37142 HIGHWAY 22", "postcode": "70725"}}},
{"geometry": {"type": "Point", "coordinates": [-90.9553811512, 30.4699728611]}, "type": "Feature", "properties": {"collection_times": [{"days": "Mon-Fri", "time": "5:00pm"}, {"days": "Sat", "time": "12:00pm"}, {"days": "Sun", "time": "Closed"}], "id": "7072600002", "name": "USPS COLLECTION BOX - PO LOBBY", "address": {"city": "DENHAM SPRINGS", "state": "LA", "street": "140 DEL ORLEANS", "postcode": "70726"}}},
{"geometry": {"type": "Point", "coordinates": [-90.9553811512, 30.4699728611]}, "type": "Feature", "properties": {"collection_times": [{"days": "Mon-Fri", "time": "5:00pm"}, {"days": "Sat", "time": "12:00pm"}, {"days": "Sun", "time": "Closed"}], "id": "7072600003", "name": "USPS COLLECTION BOX - PO LOBBY", "address": {"city": "DENHAM SPRINGS", "state": "LA", "street": "140 DEL ORLEANS", "postcode": "70726"}}},
{"geometry": {"type": "Point", "coordinates": [-90.9553811512, 30.4699728611]}, "type": "Feature", "properties": {"collection_times": [{"days": "Mon-Fri", "time": "5:00pm"}, {"days": "Sat", "time": "12:00pm"}, {"days": "Sun", "time": "Closed"}], "id": "7072600004", "name": "USPS COLLECTION BOX - BLUE BOX", "address": {"city": "DENHAM SPRINGS", "state": "LA", "street": "140 DEL ORLEANS", "postcode": "70726"}}},
{"geometry": {"type": "Point", "coordinates": [-90.9553811512, 30.4699728611]}, "type": "Feature", "properties": {"collection_times": [{"days": "Mon-Fri", "time": "5:00pm"}, {"days": "Sat", "time": "12:00pm"}, {"days": "Sun", "time": "Closed"}], "id": "7072600005", "name": "USPS COLLECTION BOX - BLUE BOX", "address": {"city": "DENHAM SPRINGS", "state": "LA", "street": "140 DEL ORLEANS", "postcode": "70726"}}},
{"geometry": {"type": "Point", "coordinates": [-90.9553811512, 30.4699728611]}, "type": "Feature", "properties": {"collection_times": [{"days": "Mon-Fri", "time": "5:00pm"}, {"days": "Sat", "time": "12:00pm"}, {"days": "Sun", "time": "Closed"}], "id": "7072600006", "name": "USPS COLLECTION BOX - BLUE BOX", "address": {"city": "DENHAM SPRINGS", "state": "LA", "street": "140 DEL ORLEANS", "postcode": "70726"}}},
{"geometry": {"type": "Point", "coordinates": [-90.9553811512, 30.4699728611]}, "type": "Feature", "properties": {"collection_times": [{"days": "Mon-Fri", "time": "5:00pm"}, {"days": "Sat", "time": "12:00pm"}, {"days": "Sun", "time": "Closed"}], "id": "7072600007", "name": "USPS COLLECTION BOX - BLUE BOX", "address": {"city": "DENHAM SPRINGS", "state": "LA", "street": "140 DEL ORLEANS", "postcode": "70726"}}},
{"geometry": {"type": "Point", "coordinates": [-90.9564503948, 30.4569781065]}, "type": "Feature", "properties": {"collection_times": [{"days": "Mon-Sat", "time": "1:30pm"}, {"days": "Sun", "time": "Closed"}], "id": "7072600009", "name": "USPS COLLECTION BOX - BLUE BOX", "address": {"city": "DENHAM SPRINGS", "state": "LA", "street": "2308 S RANGE AVE", "postcode": "70726"}}},
{"geometry": {"type": "Point", "coordinates": [-90.935213491, 30.5055426035]}, "type": "Feature", "properties": {"collection_times": [{"days": "Mon-Sat", "time": "10:00am"}, {"days": "Sun", "time": "Closed"}], "id": "7072600010", "name": "USPS COLLECTION BOX - BLUE BOX", "address": {"city": "DENHAM SPRINGS", "state": "LA", "street": "9174 COCKERHAM RD", "postcode": "70726"}}},
{"geometry": {"type": "Point", "coordinates": [-90.943453712, 30.4962778307]}, "type": "Feature", "properties": {"collection_times": [{"days": "Mon-Sat", "time": "10:00am"}, {"days": "Sun", "time": "Closed"}], "id": "7072600011", "name": "USPS COLLECTION BOX - BLUE BOX", "address": {"city": "DENHAM SPRINGS", "state": "LA", "street": "865 HATCHELL LN", "postcode": "70726"}}},
{"geometry": {"type": "Point", "coordinates": [-90.9562234628, 30.4855279202]}, "type": "Feature", "properties": {"collection_times": [{"days": "Mon-Sat", "time": "10:00am"}, {"days": "Sun", "time": "Closed"}], "id": "7072600012", "name": "USPS COLLECTION BOX - BLUE BOX", "address": {"city": "DENHAM SPRINGS", "state": "LA", "street": "210 N RANGE AVE", "postcode": "70726"}}},
{"geometry": {"type": "Point", "coordinates": [-90.9551216974, 30.4871417755]}, "type": "Feature", "properties": {"collection_times": [{"days": "Mon-Sat", "time": "10:30am"}, {"days": "Sun", "time": "Closed"}], "id": "7072600013", "name": "USPS COLLECTION BOX - BLUE BOX", "address": {"city": "DENHAM SPRINGS", "state": "LA", "street": "114 CENTERVILLE ST", "postcode": "70726"}}},
{"geometry": {"type": "Point", "coordinates": [-90.9566028658, 30.4666623752]}, "type": "Feature", "properties": {"collection_times": [{"days": "Mon-Sat", "time": "1:30pm"}, {"days": "Sun", "time": "Closed"}], "id": "7072600014", "name": "USPS COLLECTION BOX - BLUE BOX", "address": {"city": "DENHAM SPRINGS", "state": "LA", "street": "1509 S RANGE AVE", "postcode": "70726"}}},
{"geometry": {"type": "Point", "coordinates": [-90.9561863086, 30.4763990052]}, "type": "Feature", "properties": {"collection_times": [{"days": "Mon-Sat", "time": "10:00am"}, {"days": "Sun", "time": "Closed"}], "id": "7072600016", "name": "USPS COLLECTION BOX - BLUE BOX", "address": {"city": "DENHAM SPRINGS", "state": "LA", "street": "700 S RANGE AVE", "postcode": "70726"}}},
{"geometry": {"type": "Point", "coordinates": [-90.961957711, 30.4802122778]}, "type": "Feature", "properties": {"collection_times": [{"days": "Mon-Sat", "time": "10:00am"}, {"days": "Sun", "time": "Closed"}], "id": "7072600017", "name": "USPS COLLECTION BOX - BLUE BOX", "address": {"city": "DENHAM SPRINGS", "state": "LA", "street": "949 GOVERNMENT ST", "postcode": "70726"}}},
{"geometry": {"type": "Point", "coordinates": [-90.8460548239, 30.3333565249]}, "type": "Feature", "properties": {"collection_times": [{"days": "Mon-Sat", "time": "10:30am"}, {"days": "Sun", "time": "Closed"}], "id": "7072600019", "name": "USPS COLLECTION BOX - BLUE BOX", "address": {"city": "DENHAM SPRINGS", "state": "LA", "street": "18295 LA HIGHWAY 42", "postcode": "70726"}}},
{"geometry": {"type": "Point", "coordinates": [-90.950210612, 30.2693252433]}, "type": "Feature", "properties": {"collection_times": [{"days": "Mon-Fri", "time": "4:00pm"}, {"days": "Sat", "time": "11:30am"}, {"days": "Sun", "time": "Closed"}], "id": "7072800001", "name": "USPS COLLECTION BOX - PO LOBBY", "address": {"city": "DUPLESSIS", "state": "LA", "street": "39265 HIGHWAY 621", "postcode": "70728"}}},
{"geometry": {"type": "Point", "coordinates": [-90.950210612, 30.2693252433]}, "type": "Feature", "properties": {"collection_times": [{"days": "Mon-Fri", "time": "3:45pm"}, {"days": "Sat", "time": "11:15am"}, {"days": "Sun", "time": "Closed"}], "id": "7072800002", "name": "USPS COLLECTION BOX - BLUE BOX", "address": {"city": "DUPLESSIS", "state": "LA", "street": "39265 HIGHWAY 621", "postcode": "70728"}}},
{"geometry": {"type": "Point", "coordinates": [-91.3290643564, 30.5968502875]}, "type": "Feature", "properties": {"collection_times": [{"days": "Mon-Fri", "time": "3:50pm"}, {"days": "Sat", "time": "10:50am"}, {"days": "Sun", "time": "Closed"}], "id": "7072900001", "name": "USPS COLLECTION BOX - PO LOBBY", "address": {"city": "ERWINVILLE", "state": "LA", "street": "4710 POYDRAS BAYOU RD", "postcode": "70729"}}},
{"geometry": {"type": "Point", "coordinates": [-91.3290643564, 30.5968502875]}, "type": "Feature", "properties": {"collection_times": [{"days": "Mon-Fri", "time": "4:00pm"}, {"days": "Sat", "time": "11:00am"}, {"days": "Sun", "time": "Closed"}], "id": "7072900002", "name": "USPS COLLECTION BOX - BLUE BOX", "address": {"city": "ERWINVILLE", "state": "LA", "street": "4710 POYDRAS BAYOU RD", "postcode": "70729"}}},
{"geometry": {"type": "Point", "coordinates": [-91.135098026, 30.757655206]}, "type": "Feature", "properties": {"collection_times": [{"days": "Mon-Fri", "time": "4:00pm"}, {"days": "Sat", "time": "10:30am"}, {"days": "Sun", "time": "Closed"}], "id": "7073000001", "name": "USPS COLLECTION BOX - PO LOBBY", "address": {"city": "ETHEL", "state": "LA", "street": "3457 HIGHWAY 19", "postcode": "70730"}}},
{"geometry": {"type": "Point", "coordinates": [-91.135098026, 30.757655206]}, "type": "Feature", "properties": {"collection_times": [{"days": "Mon-Fri", "time": "4:00pm"}, {"days": "Sat", "time": "10:30am"}, {"days": "Sun", "time": "Closed"}], "id": "7073000002", "name": "USPS COLLECTION BOX - BLUE BOX", "address": {"city": "ETHEL", "state": "LA", "street": "3457 HIGHWAY 19", "postcode": "70730"}}},
{"geometry": {"type": "Point", "coordinates": [-91.5680562988, 30.5699828296]}, "type": "Feature", "properties": {"collection_times": [{"days": "Mon-Fri", "time": "4:00pm"}, {"days": "Sat", "time": "11:00am"}, {"days": "Sun", "time": "Closed"}], "id": "7073200001", "name": "USPS COLLECTION BOX - PO LOBBY", "address": {"city": "FORDOCHE", "state": "LA", "street": "5246 FORDOCHE RD", "postcode": "70732"}}},
{"geometry": {"type": "Point", "coordinates": [-91.5680562988, 30.5699828296]}, "type": "Feature", "properties": {"collection_times": [{"days": "Mon-Fri", "time": "3:30pm"}, {"days": "Sat", "time": "10:30am"}, {"days": "Sun", "time": "Closed"}], "id": "7073200002", "name": "USPS COLLECTION BOX - BLUE BOX", "address": {"city": "FORDOCHE", "state": "LA", "street": "5246 FORDOCHE RD", "postcode": "70732"}}},
{"geometry": {"type": "Point", "coordinates": [-90.7996024349, 30.3018358]}, "type": "Feature", "properties": {"collection_times": [{"days": "Mon-Fri", "time": "4:00pm"}, {"days": "Sat", "time": "11:30am"}, {"days": "Sun", "time": "Closed"}], "id": "7073300001", "name": "USPS COLLECTION BOX - PO LOBBY", "address": {"city": "FRENCH SETTLEMEN", "state": "LA", "street": "16169 LA HIGHWAY 16", "postcode": "70733"}}},
{"geometry": {"type": "Point", "coordinates": [-90.7996024349, 30.3018358]}, "type": "Feature", "properties": {"collection_times": [{"days": "Mon-Fri", "time": "4:00pm"}, {"days": "Sat", "time": "11:30am"}, {"days": "Sun", "time": "Closed"}], "id": "7073300002", "name": "USPS COLLECTION BOX - BLUE BOX", "address": {"city": "FRENCH SETTLEMEN", "state": "LA", "street": "16169 LA HIGHWAY 16", "postcode": "70733"}}},
{"geometry": {"type": "Point", "coordinates": [-91.0106008213, 30.2155942643]}, "type": "Feature", "properties": {"collection_times": [{"days": "Mon-Fri", "time": "3:30pm"}, {"days": "Sat", "time": "10:00am"}, {"days": "Sun", "time": "Closed"}], "id": "7073400001", "name": "USPS COLLECTION BOX - PO LOBBY", "address": {"city": "GEISMAR", "state": "LA", "street": "6223 HIGHWAY 73", "postcode": "70734"}}},
{"geometry": {"type": "Point", "coordinates": [-91.0106008213, 30.2155942643]}, "type": "Feature", "properties": {"collection_times": [{"days": "Mon-Fri", "time": "3:30pm"}, {"days": "Sat", "time": "10:00am"}, {"days": "Sun", "time": "Closed"}], "id": "7073400003", "name": "USPS COLLECTION BOX - BLUE BOX", "address": {"city": "GEISMAR", "state": "LA", "street": "6223 HIGHWAY 73", "postcode": "70734"}}},
{"geometry": {"type": "Point", "coordinates": [-91.0106008213, 30.2155942643]}, "type": "Feature", "properties": {"collection_times": [{"days": "Mon-Fri", "time": "3:30pm"}, {"days": "Sat", "time": "10:00am"}, {"days": "Sun", "time": "Closed"}], "id": "7073400004", "name": "USPS COLLECTION BOX - BLUE BOX", "address": {"city": "GEISMAR", "state": "LA", "street": "6223 HIGHWAY 73", "postcode": "70734"}}},
{"geometry": {"type": "Point", "coordinates": [-91.0106008213, 30.2155942643]}, "type": "Feature", "properties": {"collection_times": [{"days": "Mon-Fri", "time": "3:30pm"}, {"days": "Sat", "time": "10:00am"}, {"days": "Sun", "time": "Closed"}], "id": "7073400005", "name": "USPS COLLECTION BOX - PO LOBBY", "address": {"city": "GEISMAR", "state": "LA", "street": "6223 HIGHWAY 73", "postcode": "70734"}}},
{"geometry": {"type": "Point", "coordinates": [-91.3391357649, 30.6452192312]}, "type": "Feature", "properties": {"collection_times": [{"days": "Mon-Fri", "time": "3:15pm"}, {"days": "Sat", "time": "9:15am"}, {"days": "Sun", "time": "Closed"}], "id": "7073600001", "name": "USPS COLLECTION BOX - BLUE BOX", "address": {"city": "GLYNN", "state": "LA", "street": "14140 LA HIGHWAY 416", "postcode": "70736"}}},
{"geometry": {"type": "Point", "coordinates": [-91.3391357649, 30.6452192312]}, "type": "Feature", "properties": {"collection_times": [{"days": "Mon-Fri", "time": "3:15pm"}, {"days": "Sat", "time": "9:15am"}, {"days": "Sun", "time": "Closed"}], "id": "7073600002", "name": "USPS COLLECTION BOX - PO LOBBY", "address": {"city": "GLYNN", "state": "LA", "street": "14140 LA HIGHWAY 416", "postcode": "70736"}}},
{"geometry": {"type": "Point", "coordinates": [-90.920538799, 30.219812431]}, "type": "Feature", "properties": {"collection_times": [{"days": "Mon-Fri", "time": "4:30pm"}, {"days": "Sat", "time": "3:30pm"}, {"days": "Sun", "time": "Closed"}], "id": "7073700001", "name": "USPS COLLECTION BOX - PO LOBBY", "address": {"city": "GONZALES", "state": "LA", "street": "1706 S BURNSIDE AVE", "postcode": "70737"}}},
{"geometry": {"type": "Point", "coordinates": [-90.913665882, 30.2263642093]}, "type": "Feature", "properties": {"collection_times": [{"days": "Mon-Fri", "time": "2:30pm"}, {"days": "Sat", "time": "2:00pm"}, {"days": "Sun", "time": "Closed"}], "id": "7073700003", "name": "USPS COLLECTION BOX - BLUE BOX", "address": {"city": "GONZALES", "state": "LA", "street": "828 S IRMA BLVD", "postcode": "70737"}}},
{"geometry": {"type": "Point", "coordinates": [-90.9207374999, 30.2438032108]}, "type": "Feature", "properties": {"collection_times": [{"days": "Mon-Sat", "time": "12:00pm"}, {"days": "Sun", "time": "Closed"}], "id": "7073700005", "name": "USPS COLLECTION BOX - BLUE BOX", "address": {"city": "GONZALES", "state": "LA", "street": "1434 N BURNSIDE AVE", "postcode": "70737"}}},
{"geometry": {"type": "Point", "coordinates": [-90.920538799, 30.219812431]}, "type": "Feature", "properties": {"collection_times": [{"days": "Mon-Fri", "time": "5:00pm"}, {"days": "Sat", "time": "3:30pm"}, {"days": "Sun", "time": "Closed"}], "id": "7073700008", "name": "USPS COLLECTION BOX - BLUE BOX", "address": {"city": "GONZALES", "state": "LA", "street": "1706 S BURNSIDE AVE", "postcode": "70737"}}},
{"geometry": {"type": "Point", "coordinates": [-90.920538799, 30.219812431]}, "type": "Feature", "properties": {"collection_times": [{"days": "Mon-Fri", "time": "5:00pm"}, {"days": "Sat", "time": "3:30pm"}, {"days": "Sun", "time": "Closed"}], "id": "7073700009", "name": "USPS COLLECTION BOX - BLUE BOX", "address": {"city": "GONZALES", "state": "LA", "street": "1706 S BURNSIDE AVE", "postcode": "70737"}}},
{"geometry": {"type": "Point", "coordinates": [-90.9202178404, 30.2316588118]}, "type": "Feature", "properties": {"collection_times": [{"days": "Mon-Sat", "time": "10:00am"}, {"days": "Sun", "time": "Closed"}], "id": "7073700010", "name": "USPS COLLECTION BOX - BLUE BOX", "address": {"city": "GONZALES", "state": "LA", "street": "2647 S SAINT ELIZABETH BLVD", "postcode": "70737"}}},
{"geometry": {"type": "Point", "coordinates": [-90.920538799, 30.219812431]}, "type": "Feature", "properties": {"collection_times": [{"days": "Mon-Fri", "time": "5:00pm"}, {"days": "Sat", "time": "3:30pm"}, {"days": "Sun", "time": "Closed"}], "id": "7073700012", "name": "USPS COLLECTION BOX - BLUE BOX", "address": {"city": "GONZALES", "state": "LA", "street": "1706 S BURNSIDE AVE", "postcode": "70737"}}},
{"geometry": {"type": "Point", "coordinates": [-90.920538799, 30.219812431]}, "type": "Feature", "properties": {"collection_times": [{"days": "Mon-Fri", "time": "4:30pm"}, {"days": "Sat", "time": "3:30pm"}, {"days": "Sun", "time": "Closed"}], "id": "7073700013", "name": "USPS COLLECTION BOX - PO LOBBY", "address": {"city": "GONZALES", "state": "LA", "street": "1706 S BURNSIDE AVE", "postcode": "70737"}}},
{"geometry": {"type": "Point", "coordinates": [-90.920538799, 30.219812431]}, "type": "Feature", "properties": {"collection_times": [{"days": "Mon-Fri", "time": "4:30pm"}, {"days": "Sat", "time": "3:30pm"}, {"days": "Sun", "time": "Closed"}], "id": "7073700014", "name": "USPS COLLECTION BOX - PO LOBBY", "address": {"city": "GONZALES", "state": "LA", "street": "1706 S BURNSIDE AVE", "postcode": "70737"}}},
{"geometry": {"type": "Point", "coordinates": [-90.9926697624, 30.5728553688]}, "type": "Feature", "properties": {"collection_times": [{"days": "Mon-Fri", "time": "4:15pm"}, {"days": "Sat", "time": "11:15am"}, {"days": "Sun", "time": "Closed"}], "id": "7073900001", "name": "USPS COLLECTION BOX - BLUE BOX", "address": {"city": "GREENWEL SPGS", "state": "LA", "street": "22801 GREENWELL SPRINGS RD", "postcode": "70739"}}},
{"geometry": {"type": "Point", "coordinates": [-90.9926697624, 30.5728553688]}, "type": "Feature", "properties": {"collection_times": [{"days": "Mon-Fri", "time": "4:00pm"}, {"days": "Sat", "time": "11:15am"}, {"days": "Sun", "time": "Closed"}], "id": "7073900003", "name": "USPS COLLECTION BOX - PO LOBBY", "address": {"city": "GREENWEL SPGS", "state": "LA", "street": "22801 GREENWELL SPRINGS RD", "postcode": "70739"}}},
{"geometry": {"type": "Point", "coordinates": [-91.0278945105, 30.5140576155]}, "type": "Feature", "properties": {"collection_times": [{"days": "Mon-Sat", "time": "1:00pm"}, {"days": "Sun", "time": "Closed"}], "id": "7073900005", "name": "USPS COLLECTION BOX - BLUE BOX", "address": {"city": "GREENWEL SPGS", "state": "LA", "street": "14415 GREENWELL SPRINGS RD", "postcode": "70739"}}},
{"geometry": {"type": "Point", "coordinates": [-91.4338980215, 30.4115909418]}, "type": "Feature", "properties": {"collection_times": [{"days": "Mon-Fri", "time": "3:00pm"}, {"days": "Sat", "time": "11:00am"}, {"days": "Sun", "time": "Closed"}], "id": "7074000001", "name": "USPS COLLECTION BOX - BLUE BOX", "address": {"city": "GROSSE TETE", "state": "LA", "street": "76760 CEDAR ST", "postcode": "70740"}}},
{"geometry": {"type": "Point", "coordinates": [-91.4338980215, 30.4115909418]}, "type": "Feature", "properties": {"collection_times": [{"days": "Mon-Fri", "time": "3:00pm"}, {"days": "Sat", "time": "11:00am"}, {"days": "Sun", "time": "Closed"}], "id": "7074000003", "name": "USPS COLLECTION BOX - PO LOBBY", "address": {"city": "GROSSE TETE", "state": "LA", "street": "76760 CEDAR ST", "postcode": "70740"}}},
{"geometry": {"type": "Point", "coordinates": [-90.7631017506, 30.0200172556]}, "type": "Feature", "properties": {"collection_times": [{"days": "Mon-Fri", "time": "4:00pm"}, {"days": "Sat", "time": "10:15am"}, {"days": "Sun", "time": "Closed"}], "id": "7074300001", "name": "USPS COLLECTION BOX - PO LOBBY", "address": {"city": "HESTER", "state": "LA", "street": "4163 KAHN ST", "postcode": "70743"}}},
{"geometry": {"type": "Point", "coordinates": [-90.7631017506, 30.0200172556]}, "type": "Feature", "properties": {"collection_times": [{"days": "Mon-Fri", "time": "4:00pm"}, {"days": "Sat", "time": "10:15am"}, {"days": "Sun", "time": "Closed"}], "id": "7074300002", "name": "USPS COLLECTION BOX - BLUE BOX", "address": {"city": "HESTER", "state": "LA", "street": "4163 KAHN ST", "postcode": "70743"}}},
{"geometry": {"type": "Point", "coordinates": [-90.6678804755, 30.5016224437]}, "type": "Feature", "properties": {"collection_times": [{"days": "Mon-Fri", "time": "3:30pm"}, {"days": "Sat", "time": "10:30am"}, {"days": "Sun", "time": "Closed"}], "id": "7074400001", "name": "USPS COLLECTION BOX - PO LOBBY", "address": {"city": "HOLDEN", "state": "LA", "street": "30165 LA HIGHWAY 441", "postcode": "70744"}}},
{"geometry": {"type": "Point", "coordinates": [-90.6678804755, 30.5016224437]}, "type": "Feature", "properties": {"collection_times": [{"days": "Mon-Fri", "time": "3:30pm"}, {"days": "Sat", "time": "10:30am"}, {"days": "Sun", "time": "Closed"}], "id": "7074400002", "name": "USPS COLLECTION BOX - BLUE BOX", "address": {"city": "HOLDEN", "state": "LA", "street": "30165 LA HIGHWAY 441", "postcode": "70744"}}},
{"geometry": {"type": "Point", "coordinates": [-91.6346638463, 30.7995309527]}, "type": "Feature", "properties": {"collection_times": [{"days": "Mon-Fri", "time": "4:00pm"}, {"days": "Sat", "time": "11:00am"}, {"days": "Sun", "time": "Closed"}], "id": "7074700001", "name": "USPS COLLECTION BOX - PO LOBBY", "address": {"city": "INNIS", "state": "LA", "street": "6535 LA HIGHWAY 1", "postcode": "70747"}}},
{"geometry": {"type": "Point", "coordinates": [-91.6346638463, 30.7995309527]}, "type": "Feature", "properties": {"collection_times": [{"days": "Mon-Fri", "time": "4:00pm"}, {"days": "Sat", "time": "11:00am"}, {"days": "Sun", "time": "Closed"}], "id": "7074700002", "name": "USPS COLLECTION BOX - BLUE BOX", "address": {"city": "INNIS", "state": "LA", "street": "6535 LA HIGHWAY 1", "postcode": "70747"}}},
{"geometry": {"type": "Point", "coordinates": [-91.2153609313, 30.8364247503]}, "type": "Feature", "properties": {"collection_times": [{"days": "Mon-Fri", "time": "3:45pm"}, {"days": "Sat", "time": "10:45am"}, {"days": "Sun", "time": "Closed"}], "id": "7074800002", "name": "USPS COLLECTION BOX - BLUE BOX", "address": {"city": "JACKSON", "state": "LA", "street": "3016 BANK ST", "postcode": "70748"}}},
{"geometry": {"type": "Point", "coordinates": [-91.2153609313, 30.8364247503]}, "type": "Feature", "properties": {"collection_times": [{"days": "Mon-Fri", "time": "3:45pm"}, {"days": "Sat", "time": "10:45am"}, {"days": "Sun", "time": "Closed"}], "id": "7074800005", "name": "USPS COLLECTION BOX - PO LOBBY", "address": {"city": "JACKSON", "state": "LA", "street": "3016 BANK ST", "postcode": "70748"}}},
{"geometry": {"type": "Point", "coordinates": [-91.436465922, 30.618270621]}, "type": "Feature", "properties": {"collection_times": [{"days": "Mon-Fri", "time": "4:00pm"}, {"days": "Sat", "time": "9:00am"}, {"days": "Sun", "time": "Closed"}], "id": "7074900001", "name": "USPS COLLECTION BOX - PO LOBBY", "address": {"city": "JARREAU", "state": "LA", "street": "5341 BOULEVARD D ISLE", "postcode": "70749"}}},
{"geometry": {"type": "Point", "coordinates": [-91.436465922, 30.618270621]}, "type": "Feature", "properties": {"collection_times": [{"days": "Mon-Fri", "time": "4:00pm"}, {"days": "Sat", "time": "9:00am"}, {"days": "Sun", "time": "Closed"}], "id": "7074900002", "name": "USPS COLLECTION BOX - BLUE BOX", "address": {"city": "JARREAU", "state": "LA", "street": "5341 BOULEVARD D ISLE", "postcode": "70749"}}},
{"geometry": {"type": "Point", "coordinates": [-91.7560583345, 30.5420139736]}, "type": "Feature", "properties": {"collection_times": [{"days": "Mon-Fri", "time": "4:30pm"}, {"days": "Sat", "time": "11:30am"}, {"days": "Sun", "time": "Closed"}], "id": "7075000001", "name": "USPS COLLECTION BOX - PO LOBBY", "address": {"city": "KROTZ SPRINGS", "state": "LA", "street": "427 FLORIDA ST", "postcode": "70750"}}},
{"geometry": {"type": "Point", "coordinates": [-91.7560583345, 30.5420139736]}, "type": "Feature", "properties": {"collection_times": [{"days": "Mon-Fri", "time": "4:30pm"}, {"days": "Sat", "time": "11:30am"}, {"days": "Sun", "time": "Closed"}], "id": "7075000002", "name": "USPS COLLECTION BOX - BLUE BOX", "address": {"city": "KROTZ SPRINGS", "state": "LA", "street": "427 FLORIDA ST", "postcode": "70750"}}},
{"geometry": {"type": "Point", "coordinates": [-91.4259917307, 30.5732283159]}, "type": "Feature", "properties": {"collection_times": [{"days": "Mon-Fri", "time": "4:00pm"}, {"days": "Sat", "time": "11:00am"}, {"days": "Sun", "time": "Closed"}], "id": "7075200001", "name": "USPS COLLECTION BOX - BLUE BOX", "address": {"city": "LAKELAND", "state": "LA", "street": "12158 LA HIGHWAY 416", "postcode": "70752"}}},
{"geometry": {"type": "Point", "coordinates": [-91.4259917307, 30.5732283159]}, "type": "Feature", "properties": {"collection_times": [{"days": "Mon-Fri", "time": "4:00pm"}, {"days": "Sat", "time": "11:00am"}, {"days": "Sun", "time": "Closed"}], "id": "7075200002", "name": "USPS COLLECTION BOX - PO LOBBY", "address": {"city": "LAKELAND", "state": "LA", "street": "12158 LA HIGHWAY 416", "postcode": "70752"}}},
{"geometry": {"type": "Point", "coordinates": [-91.6998643758, 30.9219936656]}, "type": "Feature", "properties": {"collection_times": [{"days": "Mon-Fri", "time": "1:00pm"}, {"days": "Sat", "time": "9:00am"}, {"days": "Sun", "time": "Closed"}], "id": "7075300001", "name": "USPS COLLECTION BOX - PO LOBBY", "address": {"city": "LETTSWORTH", "state": "LA", "street": "9863 LA HIGHWAY 1", "postcode": "70753"}}},
{"geometry": {"type": "Point", "coordinates": [-91.6998643758, 30.9219936656]}, "type": "Feature", "properties": {"collection_times": [{"days": "Mon-Fri", "time": "1:00pm"}, {"days": "Sat", "time": "9:00am"}, {"days": "Sun", "time": "Closed"}], "id": "7075300002", "name": "USPS COLLECTION BOX - BLUE BOX", "address": {"city": "LETTSWORTH", "state": "LA", "street": "9863 LA HIGHWAY 1", "postcode": "70753"}}},
{"geometry": {"type": "Point", "coordinates": [-90.7482822777, 30.4995102386]}, "type": "Feature", "properties": {"collection_times": [{"days": "Mon-Fri", "time": "4:00pm"}, {"days": "Sat", "time": "11:00am"}, {"days": "Sun", "time": "Closed"}], "id": "7075400001", "name": "USPS COLLECTION BOX - PO LOBBY", "address": {"city": "LIVINGSTON", "state": "LA", "street": "29728 S FROST RD", "postcode": "70754"}}},
{"geometry": {"type": "Point", "coordinates": [-90.7482822777, 30.4995102386]}, "type": "Feature", "properties": {"collection_times": [{"days": "Mon-Fri", "time": "4:00pm"}, {"days": "Sat", "time": "11:00am"}, {"days": "Sun", "time": "Closed"}], "id": "7075400004", "name": "USPS COLLECTION BOX - BLUE BOX", "address": {"city": "LIVINGSTON", "state": "LA", "street": "29728 S FROST RD", "postcode": "70754"}}},
{"geometry": {"type": "Point", "coordinates": [-91.5558388125, 30.5588930054]}, "type": "Feature", "properties": {"collection_times": [{"days": "Mon-Fri", "time": "4:00pm"}, {"days": "Sat", "time": "12:00pm"}, {"days": "Sun", "time": "Closed"}], "id": "7075500001", "name": "USPS COLLECTION BOX - PO LOBBY", "address": {"city": "LIVONIA", "state": "LA", "street": "3050 LA HIGHWAY 78", "postcode": "70755"}}},
{"geometry": {"type": "Point", "coordinates": [-91.5558388125, 30.5588930054]}, "type": "Feature", "properties": {"collection_times": [{"days": "Mon-Fri", "time": "4:00pm"}, {"days": "Sat", "time": "12:00pm"}, {"days": "Sun", "time": "Closed"}], "id": "7075500002", "name": "USPS COLLECTION BOX - BLUE BOX", "address": {"city": "LIVONIA", "state": "LA", "street": "3050 LA HIGHWAY 78", "postcode": "70755"}}},
{"geometry": {"type": "Point", "coordinates": [-91.5558388125, 30.5588930054]}, "type": "Feature", "properties": {"collection_times": [{"days": "Mon-Fri", "time": "4:00pm"}, {"days": "Sat", "time": "12:00pm"}, {"days": "Sun", "time": "Closed"}], "id": "7075500003", "name": "USPS COLLECTION BOX - PO LOBBY", "address": {"city": "LIVONIA", "state": "LA", "street": "3050 LA HIGHWAY 78", "postcode": "70755"}}},
{"geometry": {"type": "Point", "coordinates": [-91.6400912447, 30.5229751497]}, "type": "Feature", "properties": {"collection_times": [{"days": "Mon-Fri", "time": "3:30pm"}, {"days": "Sat", "time": "10:30am"}, {"days": "Sun", "time": "Closed"}], "id": "7075600001", "name": "USPS COLLECTION BOX - PO LOBBY", "address": {"city": "LOTTIE", "state": "LA", "street": "5422 LA 81 E", "postcode": "70756"}}},
{"geometry": {"type": "Point", "coordinates": [-91.6400912447, 30.5229751497]}, "type": "Feature", "properties": {"collection_times": [{"days": "Mon-Fri", "time": "3:30pm"}, {"days": "Sat", "time": "10:30am"}, {"days": "Sun", "time": "Closed"}], "id": "7075600002", "name": "USPS COLLECTION BOX - BLUE BOX", "address": {"city": "LOTTIE", "state": "LA", "street": "5422 LA 81 E", "postcode": "70756"}}},
{"geometry": {"type": "Point", "coordinates": [-91.518247009, 30.492304123]}, "type": "Feature", "properties": {"collection_times": [{"days": "Mon-Fri", "time": "3:15pm"}, {"days": "Sat", "time": "10:15am"}, {"days": "Sun", "time": "Closed"}], "id": "7075700001", "name": "USPS COLLECTION BOX - PO LOBBY", "address": {"city": "MARINGOUIN", "state": "LA", "street": "77330 LANDRY DR", "postcode": "70757"}}},
{"geometry": {"type": "Point", "coordinates": [-91.518247009, 30.492304123]}, "type": "Feature", "properties": {"collection_times": [{"days": "Mon-Fri", "time": "3:15pm"}, {"days": "Sat", "time": "10:15am"}, {"days": "Sun", "time": "Closed"}], "id": "7075700002", "name": "USPS COLLECTION BOX - BLUE BOX", "address": {"city": "MARINGOUIN", "state": "LA", "street": "77330 LANDRY DR", "postcode": "70757"}}},
{"geometry": {"type": "Point", "coordinates": [-91.5866622026, 30.7277908662]}, "type": "Feature", "properties": {"collection_times": [{"days": "Mon-Fri", "time": "4:00pm"}, {"days": "Sat", "time": "11:00am"}, {"days": "Sun", "time": "Closed"}], "id": "7075900002", "name": "USPS COLLECTION BOX - BLUE BOX", "address": {"city": "MORGANZA", "state": "LA", "street": "1081 S LA 1", "postcode": "70759"}}},
{"geometry": {"type": "Point", "coordinates": [-91.5866622026, 30.7277908662]}, "type": "Feature", "properties": {"collection_times": [{"days": "Mon-Fri", "time": "4:00pm"}, {"days": "Sat", "time": "11:00am"}, {"days": "Sun", "time": "Closed"}], "id": "7075900004", "name": "USPS COLLECTION BOX - PO LOBBY", "address": {"city": "MORGANZA", "state": "LA", "street": "1081 S LA 1", "postcode": "70759"}}},
{"geometry": {"type": "Point", "coordinates": [-91.4341166389, 30.6940149263]}, "type": "Feature", "properties": {"collection_times": [{"days": "Mon-Fri", "time": "5:00pm"}, {"days": "Sat", "time": "11:30am"}, {"days": "Sun", "time": "Closed"}], "id": "7076000001", "name": "USPS COLLECTION BOX - PO LOBBY", "address": {"city": "NEW ROADS", "state": "LA", "street": "148 NEW ROADS ST", "postcode": "70760"}}},
{"geometry": {"type": "Point", "coordinates": [-91.4341166389, 30.6940149263]}, "type": "Feature", "properties": {"collection_times": [{"days": "Mon-Fri", "time": "5:00pm"}, {"days": "Sat", "time": "11:30am"}, {"days": "Sun", "time": "Closed"}], "id": "7076000002", "name": "USPS COLLECTION BOX - PO LOBBY", "address": {"city": "NEW ROADS", "state": "LA", "street": "148 NEW ROADS ST", "postcode": "70760"}}},
{"geometry": {"type": "Point", "coordinates": [-91.4341166389, 30.6940149263]}, "type": "Feature", "properties": {"collection_times": [{"days": "Mon-Fri", "time": "5:00pm"}, {"days": "Sat", "time": "11:00am"}, {"days": "Sun", "time": "Closed"}], "id": "7076000003", "name": "USPS COLLECTION BOX - BLUE BOX", "address": {"city": "NEW ROADS", "state": "LA", "street": "148 NEW ROADS ST", "postcode": "70760"}}},
{"geometry": {"type": "Point", "coordinates": [-91.4341166389, 30.6940149263]}, "type": "Feature", "properties": {"collection_times": [{"days": "Mon-Fri", "time": "5:00pm"}, {"days": "Sat", "time": "11:00am"}, {"days": "Sun", "time": "Closed"}], "id": "7076000004", "name": "USPS COLLECTION BOX - BLUE BOX", "address": {"city": "NEW ROADS", "state": "LA", "street": "148 NEW ROADS ST", "postcode": "70760"}}},
{"geometry": {"type": "Point", "coordinates": [-91.4627671162, 30.6831193484]}, "type": "Feature", "properties": {"collection_times": [{"days": "Mon-Sat", "time": "12:00pm"}, {"days": "Sun", "time": "Closed"}], "id": "7076000007", "name": "USPS COLLECTION BOX - BLUE BOX", "address": {"city": "NEW ROADS", "state": "LA", "street": "300 HOSPITAL RD", "postcode": "70760"}}},
{"geometry": {"type": "Point", "coordinates": [-91.4627671162, 30.6831193484]}, "type": "Feature", "properties": {"collection_times": [{"days": "Mon-Sat", "time": "12:00pm"}, {"days": "Sun", "time": "Closed"}], "id": "7076000009", "name": "USPS COLLECTION BOX - BLUE BOX", "address": {"city": "NEW ROADS", "state": "LA", "street": "300 HOSPITAL RD", "postcode": "70760"}}},
{"geometry": {"type": "Point", "coordinates": [-91.103195059, 30.9747435812]}, "type": "Feature", "properties": {"collection_times": [{"days": "Mon-Fri", "time": "3:30pm"}, {"days": "Sat", "time": "11:15am"}, {"days": "Sun", "time": "Closed"}], "id": "7076100001", "name": "USPS COLLECTION BOX - PO LOBBY", "address": {"city": "NORWOOD", "state": "LA", "street": "3822 CAMELLIA ST", "postcode": "70761"}}},
{"geometry": {"type": "Point", "coordinates": [-91.103195059, 30.9747435812]}, "type": "Feature", "properties": {"collection_times": [{"days": "Mon-Fri", "time": "3:30pm"}, {"days": "Sat", "time": "11:15am"}, {"days": "Sun", "time": "Closed"}], "id": "7076100002", "name": "USPS COLLECTION BOX - BLUE BOX", "address": {"city": "NORWOOD", "state": "LA", "street": "3822 CAMELLIA ST", "postcode": "70761"}}},
{"geometry": {"type": "Point", "coordinates": [-91.4845906757, 30.6285734567]}, "type": "Feature", "properties": {"collection_times": [{"days": "Mon-Fri", "time": "3:45pm"}, {"days": "Sat", "time": "10:45am"}, {"days": "Sun", "time": "Closed"}], "id": "7076200001", "name": "USPS COLLECTION BOX - BLUE BOX", "address": {"city": "OSCAR", "state": "LA", "street": "8105 FALSE RIVER RD", "postcode": "70762"}}},
{"geometry": {"type": "Point", "coordinates": [-91.4845906757, 30.6285734567]}, "type": "Feature", "properties": {"collection_times": [{"days": "Mon-Fri", "time": "3:45pm"}, {"days": "Sat", "time": "10:45am"}, {"days": "Sun", "time": "Closed"}], "id": "7076200002", "name": "USPS COLLECTION BOX - PO LOBBY", "address": {"city": "OSCAR", "state": "LA", "street": "8105 FALSE RIVER RD", "postcode": "70762"}}},
{"geometry": {"type": "Point", "coordinates": [-90.7080864017, 30.0293467369]}, "type": "Feature", "properties": {"collection_times": [{"days": "Mon-Fri", "time": "3:45pm"}, {"days": "Sat", "time": "12:00pm"}, {"days": "Sun", "time": "Closed"}], "id": "7076300001", "name": "USPS COLLECTION BOX - PO LOBBY", "address": {"city": "PAULINA", "state": "LA", "street": "2388 LA HIGHWAY 44", "postcode": "70763"}}},
{"geometry": {"type": "Point", "coordinates": [-90.7080864017, 30.0293467369]}, "type": "Feature", "properties": {"collection_times": [{"days": "Mon-Fri", "time": "3:45pm"}, {"days": "Sat", "time": "12:00pm"}, {"days": "Sun", "time": "Closed"}], "id": "7076300002", "name": "USPS COLLECTION BOX - BLUE BOX", "address": {"city": "PAULINA", "state": "LA", "street": "2388 LA HIGHWAY 44", "postcode": "70763"}}},
{"geometry": {"type": "Point", "coordinates": [-91.2312735197, 30.2813193333]}, "type": "Feature", "properties": {"collection_times": [{"days": "Mon-Fri", "time": "5:00pm"}, {"days": "Sat", "time": "3:30pm"}, {"days": "Sun", "time": "Closed"}], "id": "7076400001", "name": "USPS COLLECTION BOX - PO LOBBY", "address": {"city": "PLAQUEMINE", "state": "LA", "street": "58015 CANAL ST", "postcode": "70764"}}},
{"geometry": {"type": "Point", "coordinates": [-91.2312735197, 30.2813193333]}, "type": "Feature", "properties": {"collection_times": [{"days": "Mon-Fri", "time": "5:00pm"}, {"days": "Sat", "time": "3:30pm"}, {"days": "Sun", "time": "Closed"}], "id": "7076400003", "name": "USPS COLLECTION BOX - BLUE BOX", "address": {"city": "PLAQUEMINE", "state": "LA", "street": "58015 CANAL ST", "postcode": "70764"}}},
{"geometry": {"type": "Point", "coordinates": [-91.2312735197, 30.2813193333]}, "type": "Feature", "properties": {"collection_times": [{"days": "Mon-Fri", "time": "5:00pm"}, {"days": "Sat", "time": "3:30pm"}, {"days": "Sun", "time": "Closed"}], "id": "7076400004", "name": "USPS COLLECTION BOX - BLUE BOX", "address": {"city": "PLAQUEMINE", "state": "LA", "street": "58015 CANAL ST", "postcode": "70764"}}},
{"geometry": {"type": "Point", "coordinates": [-91.2460743784, 30.262007642]}, "type": "Feature", "properties": {"collection_times": [{"days": "Mon-Sat", "time": "12:30pm"}, {"days": "Sun", "time": "Closed"}], "id": "7076400028", "name": "USPS COLLECTION BOX - BLUE BOX", "address": {"city": "PLAQUEMINE", "state": "LA", "street": "59335 RIVER WEST DR", "postcode": "70764"}}},
{"geometry": {"type": "Point", "coordinates": [-91.2067427861, 30.4524630756]}, "type": "Feature", "properties": {"collection_times": [{"days": "Mon-Fri", "time": "5:00pm"}, {"days": "Sat", "time": "3:00pm"}, {"days": "Sun", "time": "Closed"}], "id": "7076700002", "name": "USPS COLLECTION BOX - BLUE BOX", "address": {"city": "PORT ALLEN", "state": "LA", "street": "600 COURT ST", "postcode": "70767"}}},
{"geometry": {"type": "Point", "coordinates": [-91.2067427861, 30.4524630756]}, "type": "Feature", "properties": {"collection_times": [{"days": "Mon-Fri", "time": "5:00pm"}, {"days": "Sat", "time": "3:00pm"}, {"days": "Sun", "time": "Closed"}], "id": "7076700003", "name": "USPS COLLECTION BOX - BLUE BOX", "address": {"city": "PORT ALLEN", "state": "LA", "street": "600 COURT ST", "postcode": "70767"}}},
{"geometry": {"type": "Point", "coordinates": [-91.2121641034, 30.4998491596]}, "type": "Feature", "properties": {"collection_times": [{"days": "Mon-Sat", "time": "12:30pm"}, {"days": "Sun", "time": "Closed"}], "id": "7076700013", "name": "USPS COLLECTION BOX - BLUE BOX", "address": {"city": "PORT ALLEN", "state": "LA", "street": "1150 NORTHWEST DR", "postcode": "70767"}}},
{"geometry": {"type": "Point", "coordinates": [-91.2067427861, 30.4524630756]}, "type": "Feature", "properties": {"collection_times": [{"days": "Mon-Fri", "time": "5:00pm"}, {"days": "Sat", "time": "3:00pm"}, {"days": "Sun", "time": "Closed"}], "id": "7076700016", "name": "USPS COLLECTION BOX - PO LOBBY", "address": {"city": "PORT ALLEN", "state": "LA", "street": "600 COURT ST", "postcode": "70767"}}},
{"geometry": {"type": "Point", "coordinates": [-90.9663703251, 30.2963847041]}, "type": "Feature", "properties": {"collection_times": [{"days": "Mon-Fri", "time": "3:30pm"}, {"days": "Sat", "time": "12:30pm"}, {"days": "Sun", "time": "Closed"}], "id": "7076900001", "name": "USPS COLLECTION BOX - PO LOBBY", "address": {"city": "PRAIRIEVILLE", "state": "LA", "street": "15655 AIRLINE HWY", "postcode": "70769"}}},
{"geometry": {"type": "Point", "coordinates": [-90.9663703251, 30.2963847041]}, "type": "Feature", "properties": {"collection_times": [{"days": "Mon-Fri", "time": "3:30pm"}, {"days": "Sat", "time": "12:30pm"}, {"days": "Sun", "time": "Closed"}], "id": "7076900003", "name": "USPS COLLECTION BOX - BLUE BOX", "address": {"city": "PRAIRIEVILLE", "state": "LA", "street": "15655 AIRLINE HWY", "postcode": "70769"}}},
{"geometry": {"type": "Point", "coordinates": [-90.9663703251, 30.2963847041]}, "type": "Feature", "properties": {"collection_times": [{"days": "Mon-Fri", "time": "3:30pm"}, {"days": "Sat", "time": "12:30pm"}, {"days": "Sun", "time": "Closed"}], "id": "7076900006", "name": "USPS COLLECTION BOX - BLUE BOX", "address": {"city": "PRAIRIEVILLE", "state": "LA", "street": "15655 AIRLINE HWY", "postcode": "70769"}}},
{"geometry": {"type": "Point", "coordinates": [-90.9764083035, 30.6938234189]}, "type": "Feature", "properties": {"collection_times": [{"days": "Mon-Fri", "time": "3:30pm"}, {"days": "Sat", "time": "10:00am"}, {"days": "Sun", "time": "Closed"}], "id": "7077000001", "name": "USPS COLLECTION BOX - PO LOBBY", "address": {"city": "PRIDE", "state": "LA", "street": "16524 PRIDE PORT HUDSON RD", "postcode": "70770"}}},
{"geometry": {"type": "Point", "coordinates": [-90.9764083035, 30.6938234189]}, "type": "Feature", "properties": {"collection_times": [{"days": "Mon-Fri", "time": "3:30pm"}, {"days": "Sat", "time": "10:00am"}, {"days": "Sun", "time": "Closed"}], "id": "7077000002", "name": "USPS COLLECTION BOX - BLUE BOX", "address": {"city": "PRIDE", "state": "LA", "street": "16524 PRIDE PORT HUDSON RD", "postcode": "70770"}}},
{"geometry": {"type": "Point", "coordinates": [-91.4582909095, 30.4445772963]}, "type": "Feature", "properties": {"collection_times": [{"days": "Mon-Fri", "time": "3:30pm"}, {"days": "Sat", "time": "10:30am"}, {"days": "Sun", "time": "Closed"}], "id": "7077200001", "name": "USPS COLLECTION BOX - PO LOBBY", "address": {"city": "ROSEDALE", "state": "LA", "street": "15600 HIGHWAY 77", "postcode": "70772"}}},
{"geometry": {"type": "Point", "coordinates": [-91.4582909095, 30.4445772963]}, "type": "Feature", "properties": {"collection_times": [{"days": "Mon-Fri", "time": "3:30pm"}, {"days": "Sat", "time": "10:30am"}, {"days": "Sun", "time": "Closed"}], "id": "7077200002", "name": "USPS COLLECTION BOX - BLUE BOX", "address": {"city": "ROSEDALE", "state": "LA", "street": "15600 HIGHWAY 77", "postcode": "70772"}}},
{"geometry": {"type": "Point", "coordinates": [-91.3713964417, 30.6146220787]}, "type": "Feature", "properties": {"collection_times": [{"days": "Mon-Fri", "time": "4:15pm"}, {"days": "Sat", "time": "11:15am"}, {"days": "Sun", "time": "Closed"}], "id": "7077300001", "name": "USPS COLLECTION BOX - PO LOBBY", "address": {"city": "ROUGON", "state": "LA", "street": "13236 LA HIGHWAY 416", "postcode": "70773"}}},
{"geometry": {"type": "Point", "coordinates": [-91.3713964417, 30.6146220787]}, "type": "Feature", "properties": {"collection_times": [{"days": "Mon-Fri", "time": "4:00pm"}, {"days": "Sat", "time": "11:15am"}, {"days": "Sun", "time": "Closed"}], "id": "7077300002", "name": "USPS COLLECTION BOX - BLUE BOX", "address": {"city": "ROUGON", "state": "LA", "street": "13236 LA HIGHWAY 416", "postcode": "70773"}}},
{"geometry": {"type": "Point", "coordinates": [-90.8599469893, 30.2234580969]}, "type": "Feature", "properties": {"collection_times": [{"days": "Mon-Fri", "time": "4:00pm"}, {"days": "Sat", "time": "11:00am"}, {"days": "Sun", "time": "Closed"}], "id": "7077400001", "name": "USPS COLLECTION BOX - PO LOBBY", "address": {"city": "ST AMANT", "state": "LA", "street": "44473 HIGHWAY 429", "postcode": "70774"}}},
{"geometry": {"type": "Point", "coordinates": [-90.8599469893, 30.2234580969]}, "type": "Feature", "properties": {"collection_times": [{"days": "Mon-Fri", "time": "4:00pm"}, {"days": "Sat", "time": "11:00am"}, {"days": "Sun", "time": "Closed"}], "id": "7077400002", "name": "USPS COLLECTION BOX - BLUE BOX", "address": {"city": "ST AMANT", "state": "LA", "street": "44473 HIGHWAY 429", "postcode": "70774"}}},
{"geometry": {"type": "Point", "coordinates": [-91.3660382103, 30.8681002467]}, "type": "Feature", "properties": {"collection_times": [{"days": "Mon-Fri", "time": "4:00pm"}, {"days": "Sat", "time": "11:00am"}, {"days": "Sun", "time": "Closed"}], "id": "7077500001", "name": "USPS COLLECTION BOX - PO LOBBY", "address": {"city": "ST FRANCISVILLE", "state": "LA", "street": "5613 COMMERCE ST", "postcode": "70775"}}},
{"geometry": {"type": "Point", "coordinates": [-91.3660382103, 30.8681002467]}, "type": "Feature", "properties": {"collection_times": [{"days": "Mon-Fri", "time": "4:00pm"}, {"days": "Sat", "time": "11:00am"}, {"days": "Sun", "time": "Closed"}], "id": "7077500003", "name": "USPS COLLECTION BOX - BLUE BOX", "address": {"city": "ST FRANCISVILLE", "state": "LA", "street": "5613 COMMERCE ST", "postcode": "70775"}}},
{"geometry": {"type": "Point", "coordinates": [-91.3660382103, 30.8681002467]}, "type": "Feature", "properties": {"collection_times": [{"days": "Mon-Sat", "time": "11:00am"}, {"days": "Sun", "time": "Closed"}], "id": "7077500004", "name": "USPS COLLECTION BOX - BLUE BOX", "address": {"city": "ST FRANCISVILLE", "state": "LA", "street": "7911 US HIGHWAY 61", "postcode": "70775"}}},
{"geometry": {"type": "Point", "coordinates": [-91.3660382103, 30.8681002467]}, "type": "Feature", "properties": {"collection_times": [{"days": "Mon-Sat", "time": "11:00am"}, {"days": "Sun", "time": "Closed"}], "id": "7077500005", "name": "USPS COLLECTION BOX - BLUE BOX", "address": {"city": "ST FRANCISVILLE", "state": "LA", "street": "7135 US HIGHWAY 61", "postcode": "70775"}}},
{"geometry": {"type": "Point", "coordinates": [-91.3660382103, 30.8681002467]}, "type": "Feature", "properties": {"collection_times": [{"days": "Mon-Fri", "time": "4:00pm"}, {"days": "Sat", "time": "11:00am"}, {"days": "Sun", "time": "Closed"}], "id": "7077500006", "name": "USPS COLLECTION BOX - PO LOBBY", "address": {"city": "ST FRANCISVILLE", "state": "LA", "street": "5613 COMMERCE ST", "postcode": "70775"}}},
{"geometry": {"type": "Point", "coordinates": [-91.3660382103, 30.8681002467]}, "type": "Feature", "properties": {"collection_times": [{"days": "Mon-Fri", "time": "4:00pm"}, {"days": "Sat", "time": "11:00am"}, {"days": "Sun", "time": "Closed"}], "id": "7077500007", "name": "USPS COLLECTION BOX - PO LOBBY", "address": {"city": "ST FRANCISVILLE", "state": "LA", "street": "5613 COMMERCE ST", "postcode": "70775"}}},
{"geometry": {"type": "Point", "coordinates": [-91.3660382103, 30.8681002467]}, "type": "Feature", "properties": {"collection_times": [{"days": "Mon-Fri", "time": "4:00pm"}, {"days": "Sat", "time": "11:00am"}, {"days": "Sun", "time": "Closed"}], "id": "7077500008", "name": "USPS COLLECTION BOX - BLUE BOX", "address": {"city": "ST FRANCISVILLE", "state": "LA", "street": "5613 COMMERCE ST", "postcode": "70775"}}},
{"geometry": {"type": "Point", "coordinates": [-91.0516687499, 30.2554241119]}, "type": "Feature", "properties": {"collection_times": [{"days": "Mon-Fri", "time": "4:00pm"}, {"days": "Sat", "time": "11:00am"}, {"days": "Sun", "time": "Closed"}], "id": "7077600001", "name": "USPS COLLECTION BOX - PO LOBBY", "address": {"city": "SAINT GABRIEL", "state": "LA", "street": "6080 HIGHWAY 74", "postcode": "70776"}}},
{"geometry": {"type": "Point", "coordinates": [-91.0516687499, 30.2554241119]}, "type": "Feature", "properties": {"collection_times": [{"days": "Mon-Fri", "time": "3:30pm"}, {"days": "Sat", "time": "10:30am"}, {"days": "Sun", "time": "Closed"}], "id": "7077600002", "name": "USPS COLLECTION BOX - BLUE BOX", "address": {"city": "SAINT GABRIEL", "state": "LA", "street": "6080 HIGHWAY 74", "postcode": "70776"}}},
{"geometry": {"type": "Point", "coordinates": [-91.0516687499, 30.2554241119]}, "type": "Feature", "properties": {"collection_times": [{"days": "Mon-Fri", "time": "4:00pm"}, {"days": "Sat", "time": "11:00am"}, {"days": "Sun", "time": "Closed"}], "id": "7077600004", "name": "USPS COLLECTION BOX - PO LOBBY", "address": {"city": "SAINT GABRIEL", "state": "LA", "street": "6080 HIGHWAY 74", "postcode": "70776"}}},
{"geometry": {"type": "Point", "coordinates": [-91.1484233969, 30.7181606316]}, "type": "Feature", "properties": {"collection_times": [{"days": "Mon-Fri", "time": "3:30pm"}, {"days": "Sat", "time": "9:30am"}, {"days": "Sun", "time": "Closed"}], "id": "7077700003", "name": "USPS COLLECTION BOX - BLUE BOX", "address": {"city": "SLAUGHTER", "state": "LA", "street": "3147 CHURCH ST", "postcode": "70777"}}},
{"geometry": {"type": "Point", "coordinates": [-91.1484233969, 30.7181606316]}, "type": "Feature", "properties": {"collection_times": [{"days": "Mon-Fri", "time": "3:30pm"}, {"days": "Sat", "time": "9:30am"}, {"days": "Sun", "time": "Closed"}], "id": "7077700004", "name": "USPS COLLECTION BOX - PO LOBBY", "address": {"city": "SLAUGHTER", "state": "LA", "street": "3147 CHURCH ST", "postcode": "70777"}}},
{"geometry": {"type": "Point", "coordinates": [-90.8586153729, 30.1885842396]}, "type": "Feature", "properties": {"collection_times": [{"days": "Mon-Fri", "time": "4:00pm"}, {"days": "Sat", "time": "10:45am"}, {"days": "Sun", "time": "Closed"}], "id": "7077800001", "name": "USPS COLLECTION BOX - PO LOBBY", "address": {"city": "SORRENTO", "state": "LA", "street": "8213 JOHN LEBLANC BLVD", "postcode": "70778"}}},
{"geometry": {"type": "Point", "coordinates": [-90.8586153729, 30.1885842396]}, "type": "Feature", "properties": {"collection_times": [{"days": "Mon-Fri", "time": "4:00pm"}, {"days": "Sat", "time": "10:45am"}, {"days": "Sun", "time": "Closed"}], "id": "7077800002", "name": "USPS COLLECTION BOX - BLUE BOX", "address": {"city": "SORRENTO", "state": "LA", "street": "8213 JOHN LEBLANC BLVD", "postcode": "70778"}}},
{"geometry": {"type": "Point", "coordinates": [-91.1284652062, 30.2795857098]}, "type": "Feature", "properties": {"collection_times": [{"days": "Mon-Fri", "time": "3:30pm"}, {"days": "Sat", "time": "11:00am"}, {"days": "Sun", "time": "Closed"}], "id": "7078000001", "name": "USPS COLLECTION BOX - PO LOBBY", "address": {"city": "SUNSHINE", "state": "LA", "street": "2135 BESSON LN", "postcode": "70780"}}},
{"geometry": {"type": "Point", "coordinates": [-91.1284652062, 30.2795857098]}, "type": "Feature", "properties": {"collection_times": [{"days": "Mon-Fri", "time": "3:30pm"}, {"days": "Sat", "time": "11:00am"}, {"days": "Sun", "time": "Closed"}], "id": "7078000002", "name": "USPS COLLECTION BOX - BLUE BOX", "address": {"city": "SUNSHINE", "state": "LA", "street": "2135 BESSON LN", "postcode": "70780"}}},
{"geometry": {"type": "Point", "coordinates": [-91.4080926811, 30.8030005097]}, "type": "Feature", "properties": {"collection_times": [{"days": "Mon-Fri", "time": "4:00pm"}, {"days": "Sat", "time": "11:30am"}, {"days": "Sun", "time": "Closed"}], "id": "7078200002", "name": "USPS COLLECTION BOX - BLUE BOX", "address": {"city": "TUNICA", "state": "LA", "street": "16630 TUNICA TRCE", "postcode": "70782"}}},
{"geometry": {"type": "Point", "coordinates": [-91.4080926811, 30.8030005097]}, "type": "Feature", "properties": {"collection_times": [{"days": "Mon-Fri", "time": "4:00pm"}, {"days": "Sat", "time": "11:30am"}, {"days": "Sun", "time": "Closed"}], "id": "7078200003", "name": "USPS COLLECTION BOX - PO LOBBY", "address": {"city": "TUNICA", "state": "LA", "street": "16630 TUNICA TRCE", "postcode": "70782"}}},
{"geometry": {"type": "Point", "coordinates": [-91.4068575131, 30.6848964305]}, "type": "Feature", "properties": {"collection_times": [{"days": "Mon-Fri", "time": "3:45pm"}, {"days": "Sat", "time": "11:45am"}, {"days": "Sun", "time": "Closed"}], "id": "7078300002", "name": "USPS COLLECTION BOX - BLUE BOX", "address": {"city": "VENTRESS", "state": "LA", "street": "7741 LEGION RD", "postcode": "70783"}}},
{"geometry": {"type": "Point", "coordinates": [-91.3736102289, 30.8574194172]}, "type": "Feature", "properties": {"collection_times": [{"days": "Mon-Fri", "time": "4:45pm"}, {"days": "Sat", "time": "10:45am"}, {"days": "Sun", "time": "Closed"}], "id": "7078400001", "name": "USPS COLLECTION BOX - BLUE BOX", "address": {"city": "WAKEFIELD", "state": "LA", "street": "11206 U S HIGHWAY 61", "postcode": "70784"}}},
{"geometry": {"type": "Point", "coordinates": [-91.3736102289, 30.8574194172]}, "type": "Feature", "properties": {"collection_times": [{"days": "Mon-Fri", "time": "4:45pm"}, {"days": "Sat", "time": "10:45am"}, {"days": "Sun", "time": "Closed"}], "id": "7078400002", "name": "USPS COLLECTION BOX - PO LOBBY", "address": {"city": "WAKEFIELD", "state": "LA", "street": "11206 U S HIGHWAY 61", "postcode": "70784"}}},
{"geometry": {"type": "Point", "coordinates": [-90.9160356243, 30.4829632926]}, "type": "Feature", "properties": {"collection_times": [{"days": "Mon-Fri", "time": "4:30pm"}, {"days": "Sat", "time": "12:00pm"}, {"days": "Sun", "time": "Closed"}], "id": "7078500001", "name": "USPS COLLECTION BOX - PO LOBBY", "address": {"city": "WALKER", "state": "LA", "street": "10053 FLORIDA BLVD", "postcode": "70785"}}},
{"geometry": {"type": "Point", "coordinates": [-90.9160356243, 30.4829632926]}, "type": "Feature", "properties": {"collection_times": [{"days": "Mon-Fri", "time": "4:30pm"}, {"days": "Sat", "time": "12:00pm"}, {"days": "Sun", "time": "Closed"}], "id": "7078500004", "name": "USPS COLLECTION BOX - BLUE BOX", "address": {"city": "WALKER", "state": "LA", "street": "10053 FLORIDA BLVD", "postcode": "70785"}}},
{"geometry": {"type": "Point", "coordinates": [-90.9160356243, 30.4829632926]}, "type": "Feature", "properties": {"collection_times": [{"days": "Mon-Fri", "time": "4:30pm"}, {"days": "Sat", "time": "12:00pm"}, {"days": "Sun", "time": "Closed"}], "id": "7078500005", "name": "USPS COLLECTION BOX - BLUE BOX", "address": {"city": "WALKER", "state": "LA", "street": "10053 FLORIDA BLVD", "postcode": "70785"}}},
{"geometry": {"type": "Point", "coordinates": [-90.9160356243, 30.4829632926]}, "type": "Feature", "properties": {"collection_times": [{"days": "Mon-Fri", "time": "4:30pm"}, {"days": "Sat", "time": "12:00pm"}, {"days": "Sun", "time": "Closed"}], "id": "7078500007", "name": "USPS COLLECTION BOX - PO LOBBY", "address": {"city": "WALKER", "state": "LA", "street": "10053 FLORIDA BLVD", "postcode": "70785"}}},
{"geometry": {"type": "Point", "coordinates": [-90.9556877382, 30.5828683422]}, "type": "Feature", "properties": {"collection_times": [{"days": "Mon-Fri", "time": "4:15pm"}, {"days": "Sat", "time": "10:30am"}, {"days": "Sun", "time": "Closed"}], "id": "7078600001", "name": "USPS COLLECTION BOX - PO LOBBY", "address": {"city": "WATSON", "state": "LA", "street": "8040 WATSON CIR", "postcode": "70786"}}},
{"geometry": {"type": "Point", "coordinates": [-90.9556877382, 30.5828683422]}, "type": "Feature", "properties": {"collection_times": [{"days": "Mon-Fri", "time": "4:15pm"}, {"days": "Sat", "time": "10:30am"}, {"days": "Sun", "time": "Closed"}], "id": "7078600002", "name": "USPS COLLECTION BOX - BLUE BOX", "address": {"city": "WATSON", "state": "LA", "street": "8040 WATSON CIR", "postcode": "70786"}}},
{"geometry": {"type": "Point", "coordinates": [-90.9556877382, 30.5828683422]}, "type": "Feature", "properties": {"collection_times": [{"days": "Mon-Fri", "time": "4:15pm"}, {"days": "Sat", "time": "10:30am"}, {"days": "Sun", "time": "Closed"}], "id": "7078600003", "name": "USPS COLLECTION BOX - BLUE BOX", "address": {"city": "WATSON", "state": "LA", "street": "8040 WATSON CIR", "postcode": "70786"}}},
{"geometry": {"type": "Point", "coordinates": [-91.4713673416, 30.9664263057]}, "type": "Feature", "properties": {"collection_times": [{"days": "Mon-Fri", "time": "4:45pm"}, {"days": "Sat", "time": "11:30am"}, {"days": "Sun", "time": "Closed"}], "id": "7078700002", "name": "USPS COLLECTION BOX - BLUE BOX", "address": {"city": "WEYANOKE", "state": "LA", "street": "6220 OUIDA IRONDALE RD", "postcode": "70787"}}},
{"geometry": {"type": "Point", "coordinates": [-91.1485071131, 30.1706901721]}, "type": "Feature", "properties": {"collection_times": [{"days": "Mon-Fri", "time": "4:00pm"}, {"days": "Sat", "time": "11:00am"}, {"days": "Sun", "time": "Closed"}], "id": "7078800001", "name": "USPS COLLECTION BOX - PO LOBBY", "address": {"city": "WHITE CASTLE", "state": "LA", "street": "32495 LEONA AVE", "postcode": "70788"}}},
{"geometry": {"type": "Point", "coordinates": [-91.1485071131, 30.1706901721]}, "type": "Feature", "properties": {"collection_times": [{"days": "Mon-Fri", "time": "3:45pm"}, {"days": "Sat", "time": "11:00am"}, {"days": "Sun", "time": "Closed"}], "id": "7078800002", "name": "USPS COLLECTION BOX - BLUE BOX", "address": {"city": "WHITE CASTLE", "state": "LA", "street": "32495 LEONA AVE", "postcode": "70788"}}},
{"geometry": {"type": "Point", "coordinates": [-91.1155001837, 30.9177125044]}, "type": "Feature", "properties": {"collection_times": [{"days": "Mon-Fri", "time": "3:30pm"}, {"days": "Sat", "time": "10:30am"}, {"days": "Sun", "time": "Closed"}], "id": "7078900001", "name": "USPS COLLECTION BOX - PO LOBBY", "address": {"city": "WILSON", "state": "LA", "street": "10029 HIGHWAY 19", "postcode": "70789"}}},
{"geometry": {"type": "Point", "coordinates": [-91.1155001837, 30.9177125044]}, "type": "Feature", "properties": {"collection_times": [{"days": "Mon-Fri", "time": "3:30pm"}, {"days": "Sat", "time": "10:30am"}, {"days": "Sun", "time": "Closed"}], "id": "7078900002", "name": "USPS COLLECTION BOX - BLUE BOX", "address": {"city": "WILSON", "state": "LA", "street": "10029 HIGHWAY 19", "postcode": "70789"}}},
{"geometry": {"type": "Point", "coordinates": [-91.1419570448, 30.6490123571]}, "type": "Feature", "properties": {"collection_times": [{"days": "Mon-Fri", "time": "4:30pm"}, {"days": "Sat", "time": "3:00pm"}, {"days": "Sun", "time": "Closed"}], "id": "7079100003", "name": "USPS COLLECTION BOX - BLUE BOX", "address": {"city": "ZACHARY", "state": "LA", "street": "6001 MAIN ST", "postcode": "70791"}}},
{"geometry": {"type": "Point", "coordinates": [-91.1419570448, 30.6490123571]}, "type": "Feature", "properties": {"collection_times": [{"days": "Mon-Fri", "time": "4:30pm"}, {"days": "Sat", "time": "3:00pm"}, {"days": "Sun", "time": "Closed"}], "id": "7079100004", "name": "USPS COLLECTION BOX - BLUE BOX", "address": {"city": "ZACHARY", "state": "LA", "street": "6001 MAIN ST", "postcode": "70791"}}},
{"geometry": {"type": "Point", "coordinates": [-91.1381726569, 30.6501072279]}, "type": "Feature", "properties": {"collection_times": [{"days": "Mon-Fri", "time": "10:30am"}, {"days": "Sat", "time": "9:30am"}, {"days": "Sun", "time": "Closed"}], "id": "7079100006", "name": "USPS COLLECTION BOX - BLUE BOX", "address": {"city": "ZACHARY", "state": "LA", "street": "6300 MAIN ST", "postcode": "70791"}}},
{"geometry": {"type": "Point", "coordinates": [-91.1594819549, 30.648741927]}, "type": "Feature", "properties": {"collection_times": [{"days": "Mon-Sat", "time": "1:00pm"}, {"days": "Sun", "time": "Closed"}], "id": "7079100007", "name": "USPS COLLECTION BOX - BLUE BOX", "address": {"city": "ZACHARY", "state": "LA", "street": "4336 MAIN ST", "postcode": "70791"}}},
{"geometry": {"type": "Point", "coordinates": [-91.1863906019, 30.6537201269]}, "type": "Feature", "properties": {"collection_times": [{"days": "Mon-Fri", "time": "1:00pm"}, {"days": "Sat", "time": "12:00pm"}, {"days": "Sun", "time": "Closed"}], "id": "7079100009", "name": "USPS COLLECTION BOX - BLUE BOX", "address": {"city": "ZACHARY", "state": "LA", "street": "1700 CHURCH ST", "postcode": "70791"}}},
{"geometry": {"type": "Point", "coordinates": [-91.1419570448, 30.6490123571]}, "type": "Feature", "properties": {"collection_times": [{"days": "Mon-Fri", "time": "4:30pm"}, {"days": "Sat", "time": "3:00pm"}, {"days": "Sun", "time": "Closed"}], "id": "7079100010", "name": "USPS COLLECTION BOX - PO LOBBY", "address": {"city": "ZACHARY", "state": "LA", "street": "6001 MAIN ST", "postcode": "70791"}}},
{"geometry": {"type": "Point", "coordinates": [-91.1419570448, 30.6490123571]}, "type": "Feature", "properties": {"collection_times": [{"days": "Mon-Fri", "time": "4:30pm"}, {"days": "Sat", "time": "3:00pm"}, {"days": "Sun", "time": "Closed"}], "id": "7079100011", "name": "USPS COLLECTION BOX - PO LOBBY", "address": {"city": "ZACHARY", "state": "LA", "street": "6001 MAIN ST", "postcode": "70791"}}}
]}
