{"type": "FeatureCollection", "features": [
{"geometry": {"type": "Point", "coordinates": [-91.182241171, 30.449508262]}, "type": "Feature", "properties": {"collection_times": [{"days": "Mon-Fri", "time": "12:00pm"}, {"days": "Sat-Sun", "time": "Closed"}], "id": "7080100012", "name": "USPS COLLECTION BOX - BLUE BOX", "address": {"city": "BATON ROUGE", "state": "LA", "street": "777 FLORIDA ST", "postcode": "70801"}}},
{"geometry": {"type": "Point", "coordinates": [-91.182570052, 30.449442944]}, "type": "Feature", "properties": {"collection_times": [{"days": "Mon-Fri", "time": "5:00pm"}, {"days": "Sat", "time": "12:30pm"}, {"days": "Sun", "time": "Closed"}], "id": "7080200003", "name": "USPS COLLECTION BOX - BLUE BOX", "address": {"city": "BATON ROUGE", "state": "LA", "street": "750 FLORIDA ST", "postcode": "70802"}}},
{"geometry": {"type": "Point", "coordinates": [-91.182570052, 30.449442944]}, "type": "Feature", "properties": {"collection_times": [{"days": "Mon-Fri", "time": "5:00pm"}, {"days": "Sat", "time": "12:30pm"}, {"days": "Sun", "time": "Closed"}], "id": "7080200006", "name": "USPS COLLECTION BOX - BLUE BOX", "address": {"city": "BATON ROUGE", "state": "LA", "street": "750 FLORIDA ST", "postcode": "70802"}}},
{"geometry": {"type": "Point", "coordinates": [-91.182570052, 30.449442944]}, "type": "Feature", "properties": {"collection_times": [{"days": "Mon-Fri", "time": "5:00pm"}, {"days": "Sat", "time": "12:30pm"}, {"days": "Sun", "time": "Closed"}], "id": "7080200007", "name": "USPS COLLECTION BOX - BLUE BOX", "address": {"city": "BATON ROUGE", "state": "LA", "street": "750 FLORIDA ST", "postcode": "70802"}}},
{"geometry": {"type": "Point", "coordinates": [-91.186541896, 30.444857144]}, "type": "Feature", "properties": {"collection_times": [{"days": "Mon-Fri", "time": "12:15pm"}, {"days": "Sat-Sun", "time": "Closed"}], "id": "7080200039", "name": "USPS COLLECTION BOX - BLUE BOX", "address": {"city": "BATON ROUGE", "state": "LA", "street": "400 LOUISIANA AVE", "postcode": "70802"}}},
{"geometry": {"type": "Point", "coordinates": [-91.1832988207, 30.451576159]}, "type": "Feature", "properties": {"collection_times": [{"days": "Mon-Fri", "time": "12:00pm"}, {"days": "Sat-Sun", "time": "Closed"}], "id": "7080200045", "name": "USPS COLLECTION BOX - BLUE BOX", "address": {"city": "BATON ROUGE", "state": "LA", "street": "701 MAIN ST", "postcode": "70802"}}},
{"geometry": {"type": "Point", "coordinates": [-91.1824946566, 30.4428978358]}, "type": "Feature", "properties": {"collection_times": [{"days": "Mon-Fri", "time": "12:45pm"}, {"days": "Sat-Sun", "time": "Closed"}], "id": "7080200050", "name": "USPS COLLECTION BOX - BLUE BOX", "address": {"city": "BATON ROUGE", "state": "LA", "street": "800 FRANCE ST", "postcode": "70802"}}},
{"geometry": {"type": "Point", "coordinates": [-91.18460146, 30.446989779]}, "type": "Feature", "properties": {"collection_times": [{"days": "Mon-Fri", "time": "12:15pm"}, {"days": "Sat-Sun", "time": "Closed"}], "id": "7080200054", "name": "USPS COLLECTION BOX - BLUE BOX", "address": {"city": "BATON ROUGE", "state": "LA", "street": "600 NORTH BLVD", "postcode": "70802"}}},
{"geometry": {"type": "Point", "coordinates": [-91.180835233, 30.468298152]}, "type": "Feature", "properties": {"collection_times": [{"days": "Mon-Fri", "time": "2:15pm"}, {"days": "Sat-Sun", "time": "Closed"}], "id": "7080200055", "name": "USPS COLLECTION BOX - BLUE BOX", "address": {"city": "BATON ROUGE", "state": "LA", "street": "2400 SORREL AVE", "postcode": "70802"}}},
{"geometry": {"type": "Point", "coordinates": [-91.187557505, 30.418102012]}, "type": "Feature", "properties": {"collection_times": [{"days": "Mon-Fri", "time": "2:00pm"}, {"days": "Sat-Sun", "time": "Closed"}], "id": "7080200060", "name": "USPS COLLECTION BOX - BLUE BOX", "address": {"city": "BATON ROUGE", "state": "LA", "street": "3550 NICHOLSON DR", "postcode": "70802"}}},
{"geometry": {"type": "Point", "coordinates": [-91.187545232, 30.450477346]}, "type": "Feature", "properties": {"collection_times": [{"days": "Mon-Fri", "time": "12:00pm"}, {"days": "Sat-Sun", "time": "Closed"}], "id": "7080200068", "name": "USPS COLLECTION BOX - BLUE BOX", "address": {"city": "BATON ROUGE", "state": "LA", "street": "359 LAUREL ST", "postcode": "70802"}}},
{"geometry": {"type": "Point", "coordinates": [-91.183421477, 30.454808183]}, "type": "Feature", "properties": {"collection_times": [{"days": "Mon-Fri", "time": "12:00pm"}, {"days": "Sat-Sun", "time": "Closed"}], "id": "7080200070", "name": "USPS COLLECTION BOX - BLUE BOX", "address": {"city": "BATON ROUGE", "state": "LA", "street": "701 SPANISH TOWN RD", "postcode": "70802"}}},
{"geometry": {"type": "Point", "coordinates": [-91.180829596, 30.427357943]}, "type": "Feature", "properties": {"collection_times": [{"days": "Mon-Fri", "time": "1:30pm"}, {"days": "Sat-Sun", "time": "Closed"}], "id": "7080200075", "name": "USPS COLLECTION BOX - BLUE BOX", "address": {"city": "BATON ROUGE", "state": "LA", "street": "2200 HIGHLAND RD", "postcode": "70802"}}},
{"geometry": {"type": "Point", "coordinates": [-91.188378521, 30.452724325]}, "type": "Feature", "properties": {"collection_times": [{"days": "Mon-Fri", "time": "12:00pm"}, {"days": "Sat-Sun", "time": "Closed"}], "id": "7080200105", "name": "USPS COLLECTION BOX - BLUE BOX", "address": {"city": "BATON ROUGE", "state": "LA", "street": "617 N 3RD ST", "postcode": "70802"}}},
{"geometry": {"type": "Point", "coordinates": [-91.182570052, 30.449442944]}, "type": "Feature", "properties": {"collection_times": [{"days": "Mon-Fri", "time": "5:00pm"}, {"days": "Sat", "time": "12:30pm"}, {"days": "Sun", "time": "Closed"}], "id": "7080200108", "name": "USPS COLLECTION BOX - PO LOBBY", "address": {"city": "BATON ROUGE", "state": "LA", "street": "750 FLORIDA ST", "postcode": "70802"}}},
{"geometry": {"type": "Point", "coordinates": [-91.1822885737, 30.449471675]}, "type": "Feature", "properties": {"collection_times": [{"days": "Mon-Fri", "time": "5:00pm"}, {"days": "Sat", "time": "12:30pm"}, {"days": "Sun", "time": "Closed"}], "id": "7080200109", "name": "USPS COLLECTION BOX - PO LOBBY", "address": {"city": "BATON ROUGE", "state": "LA", "street": "750 FLORIDA ST", "postcode": "70802"}}},
{"geometry": {"type": "Point", "coordinates": [-91.182570052, 30.449442944]}, "type": "Feature", "properties": {"collection_times": [{"days": "Mon-Fri", "time": "5:00pm"}, {"days": "Sat", "time": "12:30pm"}, {"days": "Sun", "time": "Closed"}], "id": "7080200110", "name": "USPS COLLECTION BOX - PO LOBBY", "address": {"city": "BATON ROUGE", "state": "LA", "street": "750 FLORIDA ST", "postcode": "70802"}}},
{"geometry": {"type": "Point", "coordinates": [-91.187641934, 30.446188506]}, "type": "Feature", "properties": {"collection_times": [{"days": "Mon-Fri", "time": "12:15pm"}, {"days": "Sat-Sun", "time": "Closed"}], "id": "7080200115", "name": "USPS COLLECTION BOX - BLUE BOX", "address": {"city": "BATON ROUGE", "state": "LA", "street": "222 SAINT LOUIS ST", "postcode": "70802"}}},
{"geometry": {"type": "Point", "coordinates": [-91.188225739, 30.451498001]}, "type": "Feature", "properties": {"collection_times": [{"days": "Mon-Fri", "time": "12:00pm"}, {"days": "Sat-Sun", "time": "Closed"}], "id": "7080200116", "name": "USPS COLLECTION BOX - BLUE BOX", "address": {"city": "BATON ROUGE", "state": "LA", "street": "301 MAIN ST", "postcode": "70802"}}},
{"geometry": {"type": "Point", "coordinates": [-91.170676221, 30.416325958]}, "type": "Feature", "properties": {"collection_times": [{"days": "Mon-Fri", "time": "12:15pm"}, {"days": "Sat-Sun", "time": "Closed"}], "id": "7080300000", "name": "USPS COLLECTION BOX - BLUE BOX", "address": {"city": "BATON ROUGE", "state": "LA", "street": "3810 W LAKESHORE DR", "postcode": "70803"}}},
{"geometry": {"type": "Point", "coordinates": [-91.168899384, 30.415671218]}, "type": "Feature", "properties": {"collection_times": [{"days": "Mon-Fri", "time": "12:15pm"}, {"days": "Sat-Sun", "time": "Closed"}], "id": "7080300003", "name": "USPS COLLECTION BOX - BLUE BOX", "address": {"city": "BATON ROUGE", "state": "LA", "street": "3838 W LAKESHORE DR", "postcode": "70803"}}},
{"geometry": {"type": "Point", "coordinates": [-91.178109518, 30.413274213]}, "type": "Feature", "properties": {"collection_times": [{"days": "Mon-Fri", "time": "12:15pm"}, {"days": "Sat-Sun", "time": "Closed"}], "id": "7080300006", "name": "USPS COLLECTION BOX - BLUE BOX", "address": {"city": "BATON ROUGE", "state": "LA", "street": "00 RAPHEL SEMMES RD", "postcode": "70803"}}},
{"geometry": {"type": "Point", "coordinates": [-91.171775723, 30.416842548]}, "type": "Feature", "properties": {"collection_times": [{"days": "Mon-Fri", "time": "12:15pm"}, {"days": "Sat-Sun", "time": "Closed"}], "id": "7080300008", "name": "USPS COLLECTION BOX - BLUE BOX", "address": {"city": "BATON ROUGE", "state": "LA", "street": "00 DALRYMPLE DR", "postcode": "70803"}}},
{"geometry": {"type": "Point", "coordinates": [-91.175098735, 30.415763127]}, "type": "Feature", "properties": {"collection_times": [{"days": "Mon-Fri", "time": "12:15pm"}, {"days": "Sat-Sun", "time": "Closed"}], "id": "7080300009", "name": "USPS COLLECTION BOX - BLUE BOX", "address": {"city": "BATON ROUGE", "state": "LA", "street": "00 W CAMPUS DR", "postcode": "70803"}}},
{"geometry": {"type": "Point", "coordinates": [-91.188871704, 30.401509494]}, "type": "Feature", "properties": {"collection_times": [{"days": "Mon-Fri", "time": "12:15pm"}, {"days": "Sat-Sun", "time": "Closed"}], "id": "7080300012", "name": "USPS COLLECTION BOX - BLUE BOX", "address": {"city": "BATON ROUGE", "state": "LA", "street": "00 S STADIUM", "postcode": "70803"}}},
{"geometry": {"type": "Point", "coordinates": [-91.1572370517, 30.4983207825]}, "type": "Feature", "properties": {"collection_times": [{"days": "Mon-Fri", "time": "5:00pm"}, {"days": "Sat", "time": "3:30pm"}, {"days": "Sun", "time": "Closed"}], "id": "7080500001", "name": "USPS COLLECTION BOX - PO LOBBY", "address": {"city": "BATON ROUGE", "state": "LA", "street": "5200 LONGFELLOW DR", "postcode": "70805"}}},
{"geometry": {"type": "Point", "coordinates": [-91.1572370517, 30.4983207825]}, "type": "Feature", "properties": {"collection_times": [{"days": "Mon-Fri", "time": "5:00pm"}, {"days": "Sat", "time": "3:30pm"}, {"days": "Sun", "time": "Closed"}], "id": "7080500004", "name": "USPS COLLECTION BOX - BLUE BOX", "address": {"city": "BATON ROUGE", "state": "LA", "street": "5200 LONGFELLOW DR", "postcode": "70805"}}},
{"geometry": {"type": "Point", "coordinates": [-91.1572370517, 30.4983207825]}, "type": "Feature", "properties": {"collection_times": [{"days": "Mon-Fri", "time": "5:00pm"}, {"days": "Sat", "time": "3:30pm"}, {"days": "Sun", "time": "Closed"}], "id": "7080500007", "name": "USPS COLLECTION BOX - BLUE BOX", "address": {"city": "BATON ROUGE", "state": "LA", "street": "5200 LONGFELLOW DR", "postcode": "70805"}}},
{"geometry": {"type": "Point", "coordinates": [-91.1572370517, 30.4983207825]}, "type": "Feature", "properties": {"collection_times": [{"days": "Mon-Fri", "time": "5:00pm"}, {"days": "Sat", "time": "3:30pm"}, {"days": "Sun", "time": "Closed"}], "id": "7080500008", "name": "USPS COLLECTION BOX - BLUE BOX", "address": {"city": "BATON ROUGE", "state": "LA", "street": "5200 LONGFELLOW DR", "postcode": "70805"}}},
{"geometry": {"type": "Point", "coordinates": [-91.1572370517, 30.4983207825]}, "type": "Feature", "properties": {"collection_times": [{"days": "Mon-Fri", "time": "5:00pm"}, {"days": "Sat", "time": "3:30pm"}, {"days": "Sun", "time": "Closed"}], "id": "7080500009", "name": "USPS COLLECTION BOX - BLUE BOX", "address": {"city": "BATON ROUGE", "state": "LA", "street": "5200 LONGFELLOW DR", "postcode": "70805"}}},
{"geometry": {"type": "Point", "coordinates": [-91.1165136893, 30.479825219]}, "type": "Feature", "properties": {"collection_times": [{"days": "Mon-Fri", "time": "2:30pm"}, {"days": "Sat-Sun", "time": "Closed"}], "id": "7080500013", "name": "USPS COLLECTION BOX - BLUE BOX", "address": {"city": "BATON ROUGE", "state": "LA", "street": "7201 WINBOURNE AVE", "postcode": "70805"}}},
{"geometry": {"type": "Point", "coordinates": [-91.1310594898, 30.5019313616]}, "type": "Feature", "properties": {"collection_times": [{"days": "Mon-Fri", "time": "2:45pm"}, {"days": "Sat-Sun", "time": "Closed"}], "id": "7080500015", "name": "USPS COLLECTION BOX - BLUE BOX", "address": {"city": "BATON ROUGE", "state": "LA", "street": "5932 AIRLINE HWY", "postcode": "70805"}}},
{"geometry": {"type": "Point", "coordinates": [-91.1633496928, 30.4703242228]}, "type": "Feature", "properties": {"collection_times": [{"days": "Mon-Fri", "time": "2:15pm"}, {"days": "Sat-Sun", "time": "Closed"}], "id": "7080500019", "name": "USPS COLLECTION BOX - BLUE BOX", "address": {"city": "BATON ROUGE", "state": "LA", "street": "2520 PLANK RD", "postcode": "70805"}}},
{"geometry": {"type": "Point", "coordinates": [-91.1464413682, 30.4786339794]}, "type": "Feature", "properties": {"collection_times": [{"days": "Mon-Fri", "time": "2:30pm"}, {"days": "Sat-Sun", "time": "Closed"}], "id": "7080500029", "name": "USPS COLLECTION BOX - BLUE BOX", "address": {"city": "BATON ROUGE", "state": "LA", "street": "4365 WINBOURNE AVE", "postcode": "70805"}}},
{"geometry": {"type": "Point", "coordinates": [-91.1572370517, 30.4983207825]}, "type": "Feature", "properties": {"collection_times": [{"days": "Mon-Fri", "time": "5:00pm"}, {"days": "Sat", "time": "3:30pm"}, {"days": "Sun", "time": "Closed"}], "id": "7080500036", "name": "USPS COLLECTION BOX - PO LOBBY", "address": {"city": "BATON ROUGE", "state": "LA", "street": "5200 LONGFELLOW DR", "postcode": "70805"}}},
{"geometry": {"type": "Point", "coordinates": [-91.1266854107, 30.5024152112]}, "type": "Feature", "properties": {"collection_times": [{"days": "Mon-Fri", "time": "2:45pm"}, {"days": "Sat-Sun", "time": "Closed"}], "id": "7080500037", "name": "USPS COLLECTION BOX - BLUE BOX", "address": {"city": "BATON ROUGE", "state": "LA", "street": "6500 GREENWELL ST", "postcode": "70805"}}},
{"geometry": {"type": "Point", "coordinates": [-91.1161422402, 30.4730042776]}, "type": "Feature", "properties": {"collection_times": [{"days": "Mon-Fri", "time": "12:30pm"}, {"days": "Sat-Sun", "time": "Closed"}], "id": "7080500039", "name": "USPS COLLECTION BOX - BLUE BOX", "address": {"city": "BATON ROUGE", "state": "LA", "street": "2521 WOODDALE BLVD", "postcode": "70805"}}},
{"geometry": {"type": "Point", "coordinates": [-91.1433372839, 30.4444334527]}, "type": "Feature", "properties": {"collection_times": [{"days": "Mon-Fri", "time": "5:00pm"}, {"days": "Sat", "time": "3:15pm"}, {"days": "Sun", "time": "Closed"}], "id": "7080600003", "name": "USPS COLLECTION BOX - BLUE BOX", "address": {"city": "BATON ROUGE", "state": "LA", "street": "4500 GOVERNMENT ST", "postcode": "70806"}}},
{"geometry": {"type": "Point", "coordinates": [-91.1433372839, 30.4444334527]}, "type": "Feature", "properties": {"collection_times": [{"days": "Mon-Fri", "time": "5:00pm"}, {"days": "Sat", "time": "3:15pm"}, {"days": "Sun", "time": "Closed"}], "id": "7080600004", "name": "USPS COLLECTION BOX - BLUE BOX", "address": {"city": "BATON ROUGE", "state": "LA", "street": "4500 GOVERNMENT ST", "postcode": "70806"}}},
{"geometry": {"type": "Point", "coordinates": [-91.1433372839, 30.4444334527]}, "type": "Feature", "properties": {"collection_times": [{"days": "Mon-Fri", "time": "5:00pm"}, {"days": "Sat", "time": "3:15pm"}, {"days": "Sun", "time": "Closed"}], "id": "7080600005", "name": "USPS COLLECTION BOX - BLUE BOX", "address": {"city": "BATON ROUGE", "state": "LA", "street": "4500 GOVERNMENT ST", "postcode": "70806"}}},
{"geometry": {"type": "Point", "coordinates": [-91.1433372839, 30.4444334527]}, "type": "Feature", "properties": {"collection_times": [{"days": "Mon-Fri", "time": "5:00pm"}, {"days": "Sat", "time": "3:15pm"}, {"days": "Sun", "time": "Closed"}], "id": "7080600006", "name": "USPS COLLECTION BOX - BLUE BOX", "address": {"city": "BATON ROUGE", "state": "LA", "street": "4500 GOVERNMENT ST", "postcode": "70806"}}},
{"geometry": {"type": "Point", "coordinates": [-91.1433372839, 30.4444334527]}, "type": "Feature", "properties": {"collection_times": [{"days": "Mon-Fri", "time": "5:00pm"}, {"days": "Sat", "time": "3:15pm"}, {"days": "Sun", "time": "Closed"}], "id": "7080600008", "name": "USPS COLLECTION BOX - PO LOBBY", "address": {"city": "BATON ROUGE", "state": "LA", "street": "4500 GOVERNMENT ST", "postcode": "70806"}}},
{"geometry": {"type": "Point", "coordinates": [-91.1433372839, 30.4444334527]}, "type": "Feature", "properties": {"collection_times": [{"days": "Mon-Fri", "time": "5:00pm"}, {"days": "Sat", "time": "3:15pm"}, {"days": "Sun", "time": "Closed"}], "id": "7080600009", "name": "USPS COLLECTION BOX - PO LOBBY", "address": {"city": "BATON ROUGE", "state": "LA", "street": "4500 GOVERNMENT ST", "postcode": "70806"}}},
{"geometry": {"type": "Point", "coordinates": [-91.0989786886, 30.4447173629]}, "type": "Feature", "properties": {"collection_times": [{"days": "Mon-Fri", "time": "11:00am"}, {"days": "Sat-Sun", "time": "Closed"}], "id": "7080600013", "name": "USPS COLLECTION BOX - BLUE BOX", "address": {"city": "BATON ROUGE", "state": "LA", "street": "606 COLONIAL DR", "postcode": "70806"}}},
{"geometry": {"type": "Point", "coordinates": [-91.1389851778, 30.4502713552]}, "type": "Feature", "properties": {"collection_times": [{"days": "Mon-Fri", "time": "10:30am"}, {"days": "Sat-Sun", "time": "Closed"}], "id": "7080600017", "name": "USPS COLLECTION BOX - BLUE BOX", "address": {"city": "BATON ROUGE", "state": "LA", "street": "4962 FLORIDA BLVD", "postcode": "70806"}}},
{"geometry": {"type": "Point", "coordinates": [-91.1317170779, 30.4509965091]}, "type": "Feature", "properties": {"collection_times": [{"days": "Mon-Fri", "time": "9:30am"}, {"days": "Sat-Sun", "time": "Closed"}], "id": "7080600021", "name": "USPS COLLECTION BOX - BLUE BOX", "address": {"city": "BATON ROUGE", "state": "LA", "street": "5700 FLORIDA BLVD", "postcode": "70806"}}},
{"geometry": {"type": "Point", "coordinates": [-91.1258850902, 30.4511869655]}, "type": "Feature", "properties": {"collection_times": [{"days": "Mon-Fri", "time": "11:30am"}, {"days": "Sat-Sun", "time": "Closed"}], "id": "7080600024", "name": "USPS COLLECTION BOX - BLUE BOX", "address": {"city": "BATON ROUGE", "state": "LA", "street": "6208 FLORIDA BLVD", "postcode": "70806"}}},
{"geometry": {"type": "Point", "coordinates": [-91.1063674503, 30.4424307032]}, "type": "Feature", "properties": {"collection_times": [{"days": "Mon-Fri", "time": "12:00pm"}, {"days": "Sat-Sun", "time": "Closed"}], "id": "7080600036", "name": "USPS COLLECTION BOX - BLUE BOX", "address": {"city": "BATON ROUGE", "state": "LA", "street": "7711 GOODWOOD BLVD", "postcode": "70806"}}},
{"geometry": {"type": "Point", "coordinates": [-91.1136651241, 30.4657941428]}, "type": "Feature", "properties": {"collection_times": [{"days": "Mon-Fri", "time": "1:00pm"}, {"days": "Sat-Sun", "time": "Closed"}], "id": "7080600037", "name": "USPS COLLECTION BOX - BLUE BOX", "address": {"city": "BATON ROUGE", "state": "LA", "street": "1885 WOODDALE BLVD", "postcode": "70806"}}},
{"geometry": {"type": "Point", "coordinates": [-91.142602516, 30.4485398874]}, "type": "Feature", "properties": {"collection_times": [{"days": "Mon-Fri", "time": "2:30pm"}, {"days": "Sat-Sun", "time": "Closed"}], "id": "7080600053", "name": "USPS COLLECTION BOX - BLUE BOX", "address": {"city": "BATON ROUGE", "state": "LA", "street": "4550 NORTH BLVD", "postcode": "70806"}}},
{"geometry": {"type": "Point", "coordinates": [-91.1422085965, 30.448660836]}, "type": "Feature", "properties": {"collection_times": [{"days": "Mon-Fri", "time": "10:00am"}, {"days": "Sat-Sun", "time": "Closed"}], "id": "7080600054", "name": "USPS COLLECTION BOX - BLUE BOX", "address": {"city": "BATON ROUGE", "state": "LA", "street": "4601 NORTH BLVD", "postcode": "70806"}}},
{"geometry": {"type": "Point", "coordinates": [-91.1144576673, 30.4674112344]}, "type": "Feature", "properties": {"collection_times": [{"days": "Mon-Fri", "time": "10:30am"}, {"days": "Sat-Sun", "time": "Closed"}], "id": "7080600069", "name": "USPS COLLECTION BOX - BLUE BOX", "address": {"city": "BATON ROUGE", "state": "LA", "street": "2036 WOODDALE BLVD", "postcode": "70806"}}},
{"geometry": {"type": "Point", "coordinates": [-91.1690783656, 30.4410539665]}, "type": "Feature", "properties": {"collection_times": [{"days": "Mon-Fri", "time": "12:00pm"}, {"days": "Sat-Sun", "time": "Closed"}], "id": "7080600073", "name": "USPS COLLECTION BOX - BLUE BOX", "address": {"city": "BATON ROUGE", "state": "LA", "street": "800 PARK BLVD", "postcode": "70806"}}},
{"geometry": {"type": "Point", "coordinates": [-91.1027925483, 30.4520564403]}, "type": "Feature", "properties": {"collection_times": [{"days": "Mon-Fri", "time": "2:00pm"}, {"days": "Sat-Sun", "time": "Closed"}], "id": "7080600087", "name": "USPS COLLECTION BOX - BLUE BOX", "address": {"city": "BATON ROUGE", "state": "LA", "street": "8149 FLORIDA BLVD", "postcode": "70806"}}},
{"geometry": {"type": "Point", "coordinates": [-91.1433372839, 30.4444334527]}, "type": "Feature", "properties": {"collection_times": [{"days": "Mon-Fri", "time": "5:00pm"}, {"days": "Sat", "time": "3:15pm"}, {"days": "Sun", "time": "Closed"}], "id": "7080600090", "name": "USPS COLLECTION BOX - APC", "address": {"city": "BATON ROUGE", "state": "LA", "street": "4500 GOVERNMENT ST", "postcode": "70806"}}},
{"geometry": {"type": "Point", "coordinates": [-91.1453956325, 30.5212311487]}, "type": "Feature", "properties": {"collection_times": [{"days": "Mon-Fri", "time": "5:00pm"}, {"days": "Sat", "time": "3:45pm"}, {"days": "Sun", "time": "Closed"}], "id": "7080700008", "name": "USPS COLLECTION BOX - BLUE BOX", "address": {"city": "BATON ROUGE", "state": "LA", "street": "7980 PLANK RD", "postcode": "70807"}}},
{"geometry": {"type": "Point", "coordinates": [-91.1453956325, 30.5212311487]}, "type": "Feature", "properties": {"collection_times": [{"days": "Mon-Fri", "time": "5:00pm"}, {"days": "Sat", "time": "3:45pm"}, {"days": "Sun", "time": "Closed"}], "id": "7080700012", "name": "USPS COLLECTION BOX - PO LOBBY", "address": {"city": "BATON ROUGE", "state": "LA", "street": "7980 PLANK RD", "postcode": "70807"}}},
{"geometry": {"type": "Point", "coordinates": [-91.1453956325, 30.5212311487]}, "type": "Feature", "properties": {"collection_times": [{"days": "Mon-Fri", "time": "5:00pm"}, {"days": "Sat", "time": "3:45pm"}, {"days": "Sun", "time": "Closed"}], "id": "7080700013", "name": "USPS COLLECTION BOX - PO LOBBY", "address": {"city": "BATON ROUGE", "state": "LA", "street": "7980 PLANK RD", "postcode": "70807"}}},
{"geometry": {"type": "Point", "coordinates": [-91.1396452689, 30.4207163084]}, "type": "Feature", "properties": {"collection_times": [{"days": "Mon-Fri", "time": "5:00pm"}, {"days": "Sat", "time": "4:00pm"}, {"days": "Sun", "time": "Closed"}], "id": "7080800002", "name": "USPS COLLECTION BOX - BLUE BOX", "address": {"city": "BATON ROUGE", "state": "LA", "street": "4535 BENNINGTON AVE", "postcode": "70808"}}},
{"geometry": {"type": "Point", "coordinates": [-91.1396452689, 30.4207163084]}, "type": "Feature", "properties": {"collection_times": [{"days": "Mon-Fri", "time": "5:00pm"}, {"days": "Sat", "time": "4:00pm"}, {"days": "Sun", "time": "Closed"}], "id": "7080800003", "name": "USPS COLLECTION BOX - BLUE BOX", "address": {"city": "BATON ROUGE", "state": "LA", "street": "4535 BENNINGTON AVE", "postcode": "70808"}}},
{"geometry": {"type": "Point", "coordinates": [-91.1396452689, 30.4207163084]}, "type": "Feature", "properties": {"collection_times": [{"days": "Mon-Fri", "time": "5:00pm"}, {"days": "Sat", "time": "4:00pm"}, {"days": "Sun", "time": "Closed"}], "id": "7080800007", "name": "USPS COLLECTION BOX - BLUE BOX", "address": {"city": "BATON ROUGE", "state": "LA", "street": "4535 BENNINGTON AVE", "postcode": "70808"}}},
{"geometry": {"type": "Point", "coordinates": [-91.1396452689, 30.4207163084]}, "type": "Feature", "properties": {"collection_times": [{"days": "Mon-Fri", "time": "5:00pm"}, {"days": "Sat", "time": "4:00pm"}, {"days": "Sun", "time": "Closed"}], "id": "7080800009", "name": "USPS COLLECTION BOX - BLUE BOX", "address": {"city": "BATON ROUGE", "state": "LA", "street": "4535 BENNINGTON AVE", "postcode": "70808"}}},
{"geometry": {"type": "Point", "coordinates": [-91.1396452689, 30.4207163084]}, "type": "Feature", "properties": {"collection_times": [{"days": "Mon-Fri", "time": "5:00pm"}, {"days": "Sat", "time": "4:00pm"}, {"days": "Sun", "time": "Closed"}], "id": "7080800010", "name": "USPS COLLECTION BOX - PO LOBBY", "address": {"city": "BATON ROUGE", "state": "LA", "street": "4535 BENNINGTON AVE", "postcode": "70808"}}},
{"geometry": {"type": "Point", "coordinates": [-91.1396452689, 30.4207163084]}, "type": "Feature", "properties": {"collection_times": [{"days": "Mon-Fri", "time": "5:00pm"}, {"days": "Sat", "time": "4:00pm"}, {"days": "Sun", "time": "Closed"}], "id": "7080800012", "name": "USPS COLLECTION BOX - PO LOBBY", "address": {"city": "BATON ROUGE", "state": "LA", "street": "4535 BENNINGTON AVE", "postcode": "70808"}}},
{"geometry": {"type": "Point", "coordinates": [-91.1526863361, 30.4322204979]}, "type": "Feature", "properties": {"collection_times": [{"days": "Mon-Fri", "time": "2:20pm"}, {"days": "Sat-Sun", "time": "Closed"}], "id": "7080800019", "name": "USPS COLLECTION BOX - BLUE BOX", "address": {"city": "BATON ROUGE", "state": "LA", "street": "1800 S ACADIAN TWY", "postcode": "70808"}}},
{"geometry": {"type": "Point", "coordinates": [-91.1338821044, 30.4259047845]}, "type": "Feature", "properties": {"collection_times": [{"days": "Mon-Fri", "time": "2:05pm"}, {"days": "Sat-Sun", "time": "Closed"}], "id": "7080800038", "name": "USPS COLLECTION BOX - BLUE BOX", "address": {"city": "BATON ROUGE", "state": "LA", "street": "2400 PARK PLAZA DR", "postcode": "70808"}}},
{"geometry": {"type": "Point", "coordinates": [-91.1621939203, 30.4320747637]}, "type": "Feature", "properties": {"collection_times": [{"days": "Mon-Fri", "time": "2:20pm"}, {"days": "Sat-Sun", "time": "Closed"}], "id": "7080800041", "name": "USPS COLLECTION BOX - BLUE BOX", "address": {"city": "BATON ROUGE", "state": "LA", "street": "1900 PERKINS RD", "postcode": "70808"}}},
{"geometry": {"type": "Point", "coordinates": [-91.1255318207, 30.4070006624]}, "type": "Feature", "properties": {"collection_times": [{"days": "Mon-Fri", "time": "1:30pm"}, {"days": "Sat-Sun", "time": "Closed"}], "id": "7080800048", "name": "USPS COLLECTION BOX - BLUE BOX", "address": {"city": "BATON ROUGE", "state": "LA", "street": "6160 PERKINS RD", "postcode": "70808"}}},
{"geometry": {"type": "Point", "coordinates": [-91.110672238, 30.395619834]}, "type": "Feature", "properties": {"collection_times": [{"days": "Mon-Fri", "time": "1:30pm"}, {"days": "Sat-Sun", "time": "Closed"}], "id": "7080800051", "name": "USPS COLLECTION BOX - BLUE BOX", "address": {"city": "BATON ROUGE", "state": "LA", "street": "7515 PERKINS RD", "postcode": "70808"}}},
{"geometry": {"type": "Point", "coordinates": [-91.1277021152, 30.4232442917]}, "type": "Feature", "properties": {"collection_times": [{"days": "Mon-Fri", "time": "1:55pm"}, {"days": "Sat-Sun", "time": "Closed"}], "id": "7080800054", "name": "USPS COLLECTION BOX - BLUE BOX", "address": {"city": "BATON ROUGE", "state": "LA", "street": "2600 CITIPLACE CT", "postcode": "70808"}}},
{"geometry": {"type": "Point", "coordinates": [-91.1575339744, 30.3921443006]}, "type": "Feature", "properties": {"collection_times": [{"days": "Mon-Fri", "time": "12:00pm"}, {"days": "Sat-Sun", "time": "Closed"}], "id": "7080800060", "name": "USPS COLLECTION BOX - BLUE BOX", "address": {"city": "BATON ROUGE", "state": "LA", "street": "5505 HIGHLAND RD", "postcode": "70808"}}},
{"geometry": {"type": "Point", "coordinates": [-91.1232357147, 30.3692607162]}, "type": "Feature", "properties": {"collection_times": [{"days": "Mon-Fri", "time": "12:00pm"}, {"days": "Sat-Sun", "time": "Closed"}], "id": "7080800063", "name": "USPS COLLECTION BOX - BLUE BOX", "address": {"city": "BATON ROUGE", "state": "LA", "street": "7353 HIGHLAND RD", "postcode": "70808"}}},
{"geometry": {"type": "Point", "coordinates": [-91.1409339505, 30.4057802775]}, "type": "Feature", "properties": {"collection_times": [{"days": "Mon-Fri", "time": "2:30pm"}, {"days": "Sat-Sun", "time": "Closed"}], "id": "7080800068", "name": "USPS COLLECTION BOX - BLUE BOX", "address": {"city": "BATON ROUGE", "state": "LA", "street": "5000 HENNESSY BLVD", "postcode": "70808"}}},
{"geometry": {"type": "Point", "coordinates": [-91.1516594002, 30.4229047825]}, "type": "Feature", "properties": {"collection_times": [{"days": "Mon-Fri", "time": "2:25pm"}, {"days": "Sat-Sun", "time": "Closed"}], "id": "7080800069", "name": "USPS COLLECTION BOX - BLUE BOX", "address": {"city": "BATON ROUGE", "state": "LA", "street": "2431 S ACADIAN TWY", "postcode": "70808"}}},
{"geometry": {"type": "Point", "coordinates": [-91.1572074777, 30.4239185784]}, "type": "Feature", "properties": {"collection_times": [{"days": "Mon-Fri", "time": "2:20pm"}, {"days": "Sat-Sun", "time": "Closed"}], "id": "7080800074", "name": "USPS COLLECTION BOX - BLUE BOX", "address": {"city": "BATON ROUGE", "state": "LA", "street": "3109 PERKINS RD", "postcode": "70808"}}},
{"geometry": {"type": "Point", "coordinates": [-91.1396452689, 30.4207163084]}, "type": "Feature", "properties": {"collection_times": [{"days": "Mon-Fri", "time": "5:00pm"}, {"days": "Sat", "time": "4:00pm"}, {"days": "Sun", "time": "Closed"}], "id": "7080800082", "name": "USPS COLLECTION BOX - APC", "address": {"city": "BATON ROUGE", "state": "LA", "street": "4535 BENNINGTON AVE", "postcode": "70808"}}},
{"geometry": {"type": "Point", "coordinates": [-91.1506810931, 30.4263566568]}, "type": "Feature", "properties": {"collection_times": [{"days": "Mon-Fri", "time": "9:00am"}, {"days": "Sat-Sun", "time": "Closed"}], "id": "7080800084", "name": "USPS COLLECTION BOX - BLUE BOX", "address": {"city": "BATON ROUGE", "state": "LA", "street": "2237 S ACADIAN TRWY", "postcode": "70808"}}},
{"geometry": {"type": "Point", "coordinates": [-91.0858052576, 30.3977325987]}, "type": "Feature", "properties": {"collection_times": [{"days": "Mon-Fri", "time": "2:00pm"}, {"days": "Sat-Sun", "time": "Closed"}], "id": "7080900005", "name": "USPS COLLECTION BOX - BLUE BOX", "address": {"city": "BATON ROUGE", "state": "LA", "street": "9100 BLUEBONNET CENTRE BLVD", "postcode": "70809"}}},
{"geometry": {"type": "Point", "coordinates": [-91.0824846917, 30.4282470252]}, "type": "Feature", "properties": {"collection_times": [{"days": "Mon-Fri", "time": "1:45pm"}, {"days": "Sat-Sun", "time": "Closed"}], "id": "7080900008", "name": "USPS COLLECTION BOX - BLUE BOX", "address": {"city": "BATON ROUGE", "state": "LA", "street": "9522 BROOKLINE AVE", "postcode": "70809"}}},
{"geometry": {"type": "Point", "coordinates": [-91.0492210686, 30.384548521]}, "type": "Feature", "properties": {"collection_times": [{"days": "Mon-Fri", "time": "3:15pm"}, {"days": "Sat-Sun", "time": "Closed"}], "id": "7080900019", "name": "USPS COLLECTION BOX - BLUE BOX", "address": {"city": "BATON ROUGE", "state": "LA", "street": "11920 INDUSTRIPLEX BLVD", "postcode": "70809"}}},
{"geometry": {"type": "Point", "coordinates": [-91.0576591149, 30.3884369072]}, "type": "Feature", "properties": {"collection_times": [{"days": "Mon-Fri", "time": "3:15pm"}, {"days": "Sat-Sun", "time": "Closed"}], "id": "7080900022", "name": "USPS COLLECTION BOX - BLUE BOX", "address": {"city": "BATON ROUGE", "state": "LA", "street": "11211 INDUSTRIPLEX BLVD", "postcode": "70809"}}},
{"geometry": {"type": "Point", "coordinates": [-91.0998801033, 30.4055850803]}, "type": "Feature", "properties": {"collection_times": [{"days": "Mon-Fri", "time": "2:45pm"}, {"days": "Sat-Sun", "time": "Closed"}], "id": "7080900027", "name": "USPS COLLECTION BOX - BLUE BOX", "address": {"city": "BATON ROUGE", "state": "LA", "street": "8116 ONE CALAIS AVE", "postcode": "70809"}}},
{"geometry": {"type": "Point", "coordinates": [-91.1016929144, 30.4221052678]}, "type": "Feature", "properties": {"collection_times": [{"days": "Mon-Fri", "time": "12:00pm"}, {"days": "Sat-Sun", "time": "Closed"}], "id": "7080900032", "name": "USPS COLLECTION BOX - BLUE BOX", "address": {"city": "BATON ROUGE", "state": "LA", "street": "7900 WRENWOOD BLVD", "postcode": "70809"}}},
{"geometry": {"type": "Point", "coordinates": [-91.1016929144, 30.4221052678]}, "type": "Feature", "properties": {"collection_times": [{"days": "Mon-Fri", "time": "12:00pm"}, {"days": "Sat-Sun", "time": "Closed"}], "id": "7080900033", "name": "USPS COLLECTION BOX - BLUE BOX", "address": {"city": "BATON ROUGE", "state": "LA", "street": "7900 WRENWOOD BLVD", "postcode": "70809"}}},
{"geometry": {"type": "Point", "coordinates": [-91.1024150561, 30.4192846758]}, "type": "Feature", "properties": {"collection_times": [{"days": "Mon-Fri", "time": "12:00pm"}, {"days": "Sat-Sun", "time": "Closed"}], "id": "7080900040", "name": "USPS COLLECTION BOX - BLUE BOX", "address": {"city": "BATON ROUGE", "state": "LA", "street": "7814 OFFICE PARK BLVD", "postcode": "70809"}}},
{"geometry": {"type": "Point", "coordinates": [-91.0933643653, 30.3770426464]}, "type": "Feature", "properties": {"collection_times": [{"days": "Mon-Fri", "time": "5:00pm"}, {"days": "Sat", "time": "4:15pm"}, {"days": "Sun", "time": "Closed"}], "id": "7081000002", "name": "USPS COLLECTION BOX - BLUE BOX", "address": {"city": "BATON ROUGE", "state": "LA", "street": "10380 PERKINS RD", "postcode": "70810"}}},
{"geometry": {"type": "Point", "coordinates": [-91.0933643653, 30.3770426464]}, "type": "Feature", "properties": {"collection_times": [{"days": "Mon-Fri", "time": "5:00pm"}, {"days": "Sat", "time": "4:15pm"}, {"days": "Sun", "time": "Closed"}], "id": "7081000003", "name": "USPS COLLECTION BOX - BLUE BOX", "address": {"city": "BATON ROUGE", "state": "LA", "street": "10380 PERKINS RD", "postcode": "70810"}}},
{"geometry": {"type": "Point", "coordinates": [-91.0933643653, 30.3770426464]}, "type": "Feature", "properties": {"collection_times": [{"days": "Mon-Fri", "time": "5:00pm"}, {"days": "Sat", "time": "4:15pm"}, {"days": "Sun", "time": "Closed"}], "id": "7081000004", "name": "USPS COLLECTION BOX - BLUE BOX", "address": {"city": "BATON ROUGE", "state": "LA", "street": "10380 PERKINS RD", "postcode": "70810"}}},
{"geometry": {"type": "Point", "coordinates": [-91.0933643653, 30.3770426464]}, "type": "Feature", "properties": {"collection_times": [{"days": "Mon-Fri", "time": "3:45pm"}, {"days": "Sat", "time": "4:15pm"}, {"days": "Sun", "time": "Closed"}], "id": "7081000006", "name": "USPS COLLECTION BOX - PO LOBBY", "address": {"city": "BATON ROUGE", "state": "LA", "street": "10380 PERKINS RD", "postcode": "70810"}}},
{"geometry": {"type": "Point", "coordinates": [-91.0769373167, 30.3689820831]}, "type": "Feature", "properties": {"collection_times": [{"days": "Mon-Fri", "time": "3:30pm"}, {"days": "Sat-Sun", "time": "Closed"}], "id": "7081000011", "name": "USPS COLLECTION BOX - BLUE BOX", "address": {"city": "BATON ROUGE", "state": "LA", "street": "12646 PERKINS RD", "postcode": "70810"}}},
{"geometry": {"type": "Point", "coordinates": [-91.1117194182, 30.390348096]}, "type": "Feature", "properties": {"collection_times": [{"days": "Mon-Fri", "time": "12:30pm"}, {"days": "Sat-Sun", "time": "Closed"}], "id": "7081000017", "name": "USPS COLLECTION BOX - BLUE BOX", "address": {"city": "BATON ROUGE", "state": "LA", "street": "1900 STARING LN", "postcode": "70810"}}},
{"geometry": {"type": "Point", "coordinates": [-91.0933643653, 30.3770426464]}, "type": "Feature", "properties": {"collection_times": [{"days": "Mon-Fri", "time": "3:45pm"}, {"days": "Sat", "time": "4:15pm"}, {"days": "Sun", "time": "Closed"}], "id": "7081000030", "name": "USPS COLLECTION BOX - PO LOBBY", "address": {"city": "BATON ROUGE", "state": "LA", "street": "10380 PERKINS RD", "postcode": "70810"}}},
{"geometry": {"type": "Point", "coordinates": [-91.0933643653, 30.3770426464]}, "type": "Feature", "properties": {"collection_times": [{"days": "Mon-Fri", "time": "3:45pm"}, {"days": "Sat", "time": "4:15pm"}, {"days": "Sun", "time": "Closed"}], "id": "7081000042", "name": "USPS COLLECTION BOX - APC", "address": {"city": "BATON ROUGE", "state": "LA", "street": "10380 PERKINS RD", "postcode": "70810"}}},
{"geometry": {"type": "Point", "coordinates": [-91.0769058573, 30.4543442829]}, "type": "Feature", "properties": {"collection_times": [{"days": "Mon-Fri", "time": "4:30pm"}, {"days": "Sat", "time": "12:30pm"}, {"days": "Sun", "time": "Closed"}], "id": "7081400006", "name": "USPS COLLECTION BOX - BLUE BOX", "address": {"city": "BATON ROUGE", "state": "LA", "street": "235 MARILYN DR", "postcode": "70814"}}},
{"geometry": {"type": "Point", "coordinates": [-91.0769058573, 30.4543442829]}, "type": "Feature", "properties": {"collection_times": [{"days": "Mon-Fri", "time": "4:30pm"}, {"days": "Sat", "time": "12:30pm"}, {"days": "Sun", "time": "Closed"}], "id": "7081400009", "name": "USPS COLLECTION BOX - PO LOBBY", "address": {"city": "BATON ROUGE", "state": "LA", "street": "235 MARILYN DR", "postcode": "70814"}}},
{"geometry": {"type": "Point", "coordinates": [-91.0769058573, 30.4543442829]}, "type": "Feature", "properties": {"collection_times": [{"days": "Mon-Fri", "time": "4:30pm"}, {"days": "Sat", "time": "12:30pm"}, {"days": "Sun", "time": "Closed"}], "id": "7081400010", "name": "USPS COLLECTION BOX - PO LOBBY", "address": {"city": "BATON ROUGE", "state": "LA", "street": "235 MARILYN DR", "postcode": "70814"}}},
{"geometry": {"type": "Point", "coordinates": [-91.0769058573, 30.4543442829]}, "type": "Feature", "properties": {"collection_times": [{"days": "Mon-Fri", "time": "4:30pm"}, {"days": "Sat", "time": "12:30pm"}, {"days": "Sun", "time": "Closed"}], "id": "7081400020", "name": "USPS COLLECTION BOX - BLUE BOX", "address": {"city": "BATON ROUGE", "state": "LA", "street": "235 MARILYN DR", "postcode": "70814"}}},
{"geometry": {"type": "Point", "coordinates": [-91.0769058573, 30.4543442829]}, "type": "Feature", "properties": {"collection_times": [{"days": "Mon-Fri", "time": "4:30pm"}, {"days": "Sat", "time": "12:30pm"}, {"days": "Sun", "time": "Closed"}], "id": "7081400021", "name": "USPS COLLECTION BOX - APC", "address": {"city": "BATON ROUGE", "state": "LA", "street": "235 MARILYN DR", "postcode": "70814"}}},
{"geometry": {"type": "Point", "coordinates": [-91.0953741485, 30.4606178287]}, "type": "Feature", "properties": {"collection_times": [{"days": "Mon-Fri", "time": "2:45pm"}, {"days": "Sat-Sun", "time": "Closed"}], "id": "7081500001", "name": "USPS COLLECTION BOX - BLUE BOX", "address": {"city": "BATON ROUGE", "state": "LA", "street": "9500 CORTANA PL", "postcode": "70815"}}},
{"geometry": {"type": "Point", "coordinates": [-91.0510132514, 30.459762235]}, "type": "Feature", "properties": {"collection_times": [{"days": "Mon-Fri", "time": "12:30pm"}, {"days": "Sat-Sun", "time": "Closed"}], "id": "7081500026", "name": "USPS COLLECTION BOX - BLUE BOX", "address": {"city": "BATON ROUGE", "state": "LA", "street": "11920 FLORIDA BLVD", "postcode": "70815"}}},
{"geometry": {"type": "Point", "coordinates": [-91.0903359904, 30.4450225663]}, "type": "Feature", "properties": {"collection_times": [{"days": "Mon-Fri", "time": "10:30am"}, {"days": "Sat-Sun", "time": "Closed"}], "id": "7081500034", "name": "USPS COLLECTION BOX - BLUE BOX", "address": {"city": "BATON ROUGE", "state": "LA", "street": "9050 AIRLINE HWY", "postcode": "70815"}}},
{"geometry": {"type": "Point", "coordinates": [-91.0921774824, 30.4475161292]}, "type": "Feature", "properties": {"collection_times": [{"days": "Mon-Fri", "time": "10:30am"}, {"days": "Sat-Sun", "time": "Closed"}], "id": "7081500036", "name": "USPS COLLECTION BOX - BLUE BOX", "address": {"city": "BATON ROUGE", "state": "LA", "street": "9000 AIRLINE HWY", "postcode": "70815"}}},
{"geometry": {"type": "Point", "coordinates": [-91.0630200785, 30.4352709362]}, "type": "Feature", "properties": {"collection_times": [{"days": "Mon-Fri", "time": "5:00pm"}, {"days": "Sat", "time": "12:30pm"}, {"days": "Sun", "time": "Closed"}], "id": "7081500043", "name": "USPS COLLECTION BOX - BLUE BOX", "address": {"city": "BATON ROUGE", "state": "LA", "street": "10936 OLD HAMMOND HWY", "postcode": "70815"}}},
{"geometry": {"type": "Point", "coordinates": [-91.0630200785, 30.4352709362]}, "type": "Feature", "properties": {"collection_times": [{"days": "Mon-Fri", "time": "5:00pm"}, {"days": "Sat", "time": "12:30pm"}, {"days": "Sun", "time": "Closed"}], "id": "7081500044", "name": "USPS COLLECTION BOX - BLUE BOX", "address": {"city": "BATON ROUGE", "state": "LA", "street": "10936 OLD HAMMOND HWY", "postcode": "70815"}}},
{"geometry": {"type": "Point", "coordinates": [-91.0630200785, 30.4352709362]}, "type": "Feature", "properties": {"collection_times": [{"days": "Mon-Fri", "time": "5:00pm"}, {"days": "Sat", "time": "12:30pm"}, {"days": "Sun", "time": "Closed"}], "id": "7081500045", "name": "USPS COLLECTION BOX - PO LOBBY", "address": {"city": "BATON ROUGE", "state": "LA", "street": "10936 OLD HAMMOND HWY", "postcode": "70815"}}},
{"geometry": {"type": "Point", "coordinates": [-91.0630200785, 30.4352709362]}, "type": "Feature", "properties": {"collection_times": [{"days": "Mon-Fri", "time": "5:00pm"}, {"days": "Sat", "time": "12:30pm"}, {"days": "Sun", "time": "Closed"}], "id": "7081500046", "name": "USPS COLLECTION BOX - PO LOBBY", "address": {"city": "BATON ROUGE", "state": "LA", "street": "10936 OLD HAMMOND HWY", "postcode": "70815"}}},
{"geometry": {"type": "Point", "coordinates": [-91.0558032748, 30.4275966779]}, "type": "Feature", "properties": {"collection_times": [{"days": "Mon-Fri", "time": "12:00pm"}, {"days": "Sat-Sun", "time": "Closed"}], "id": "7081600015", "name": "USPS COLLECTION BOX - BLUE BOX", "address": {"city": "BATON ROUGE", "state": "LA", "street": "2644 S SHERWOOD FOREST BLVD", "postcode": "70816"}}},
{"geometry": {"type": "Point", "coordinates": [-91.024389577, 30.4517725301]}, "type": "Feature", "properties": {"collection_times": [{"days": "Mon-Fri", "time": "4:30pm"}, {"days": "Sat-Sun", "time": "Closed"}], "id": "7081600020", "name": "USPS COLLECTION BOX - BLUE BOX", "address": {"city": "BATON ROUGE", "state": "LA", "street": "14520 OLD HAMMOND HWY", "postcode": "70816"}}},
{"geometry": {"type": "Point", "coordinates": [-91.0484344009, 30.4223582555]}, "type": "Feature", "properties": {"collection_times": [{"days": "Mon-Fri", "time": "12:15pm"}, {"days": "Sat-Sun", "time": "Closed"}], "id": "7081600022", "name": "USPS COLLECTION BOX - BLUE BOX", "address": {"city": "BATON ROUGE", "state": "LA", "street": "11888 LONGRIDGE AVE", "postcode": "70816"}}},
{"geometry": {"type": "Point", "coordinates": [-91.0212313924, 30.4285625651]}, "type": "Feature", "properties": {"collection_times": [{"days": "Mon-Fri", "time": "12:00pm"}, {"days": "Sat-Sun", "time": "Closed"}], "id": "7081600028", "name": "USPS COLLECTION BOX - BLUE BOX", "address": {"city": "BATON ROUGE", "state": "LA", "street": "17000 MEDICAL CENTER DR", "postcode": "70816"}}},
{"geometry": {"type": "Point", "coordinates": [-91.0075182162, 30.4374054935]}, "type": "Feature", "properties": {"collection_times": [{"days": "Mon-Fri", "time": "12:00pm"}, {"days": "Sat-Sun", "time": "Closed"}], "id": "7081600032", "name": "USPS COLLECTION BOX - BLUE BOX", "address": {"city": "BATON ROUGE", "state": "LA", "street": "2171 ONEAL LN", "postcode": "70816"}}},
{"geometry": {"type": "Point", "coordinates": [-91.0591020371, 30.4148495198]}, "type": "Feature", "properties": {"collection_times": [{"days": "Mon-Fri", "time": "12:00pm"}, {"days": "Sat-Sun", "time": "Closed"}], "id": "7081600033", "name": "USPS COLLECTION BOX - BLUE BOX", "address": {"city": "BATON ROUGE", "state": "LA", "street": "10942 COURSEY BLVD", "postcode": "70816"}}},
{"geometry": {"type": "Point", "coordinates": [-91.032402941, 30.4082313595]}, "type": "Feature", "properties": {"collection_times": [{"days": "Mon-Fri", "time": "5:00pm"}, {"days": "Sat", "time": "3:00pm"}, {"days": "Sun", "time": "Closed"}], "id": "7081700003", "name": "USPS COLLECTION BOX - BLUE BOX", "address": {"city": "BATON ROUGE", "state": "LA", "street": "4700 MILLWOOD DR", "postcode": "70817"}}},
{"geometry": {"type": "Point", "coordinates": [-91.0342793842, 30.3936573708]}, "type": "Feature", "properties": {"collection_times": [{"days": "Mon-Fri", "time": "12:00pm"}, {"days": "Sat-Sun", "time": "Closed"}], "id": "7081700014", "name": "USPS COLLECTION BOX - BLUE BOX", "address": {"city": "BATON ROUGE", "state": "LA", "street": "6400 QUIN DR", "postcode": "70817"}}},
{"geometry": {"type": "Point", "coordinates": [-91.032402941, 30.4082313595]}, "type": "Feature", "properties": {"collection_times": [{"days": "Mon-Fri", "time": "5:00pm"}, {"days": "Sat", "time": "3:00pm"}, {"days": "Sun", "time": "Closed"}], "id": "7081700015", "name": "USPS COLLECTION BOX - PO LOBBY", "address": {"city": "BATON ROUGE", "state": "LA", "street": "4700 MILLWOOD DR", "postcode": "70817"}}},
{"geometry": {"type": "Point", "coordinates": [-91.032402941, 30.4082313595]}, "type": "Feature", "properties": {"collection_times": [{"days": "Mon-Fri", "time": "5:00pm"}, {"days": "Sat", "time": "3:00pm"}, {"days": "Sun", "time": "Closed"}], "id": "7081700016", "name": "USPS COLLECTION BOX - PO LOBBY", "address": {"city": "BATON ROUGE", "state": "LA", "street": "4700 MILLWOOD DR", "postcode": "70817"}}},
{"geometry": {"type": "Point", "coordinates": [-91.032402941, 30.4082313595]}, "type": "Feature", "properties": {"collection_times": [{"days": "Mon-Fri", "time": "5:00pm"}, {"days": "Sat", "time": "3:00pm"}, {"days": "Sun", "time": "Closed"}], "id": "7081700019", "name": "USPS COLLECTION BOX - APC", "address": {"city": "BATON ROUGE", "state": "LA", "street": "4700 MILLWOOD DR", "postcode": "70817"}}},
{"geometry": {"type": "Point", "coordinates": [-91.032402941, 30.4082313595]}, "type": "Feature", "properties": {"collection_times": [{"days": "Mon-Fri", "time": "5:00pm"}, {"days": "Sat", "time": "3:00pm"}, {"days": "Sun", "time": "Closed"}], "id": "7081700020", "name": "USPS COLLECTION BOX - BLUE BOX", "address": {"city": "BATON ROUGE", "state": "LA", "street": "4700 MILLWOOD DR", "postcode": "70817"}}},
{"geometry": {"type": "Point", "coordinates": [-90.9998063867, 30.3838102787]}, "type": "Feature", "properties": {"collection_times": [{"days": "Mon-Fri", "time": "3:30pm"}, {"days": "Sat-Sun", "time": "Closed"}], "id": "7081700021", "name": "USPS COLLECTION BOX - BLUE BOX", "address": {"city": "BATON ROUGE", "state": "LA", "street": "500 RUE DE LA VIE ST", "postcode": "70817"}}},
{"geometry": {"type": "Point", "coordinates": [-91.0368377258, 30.5543685018]}, "type": "Feature", "properties": {"collection_times": [{"days": "Mon-Fri", "time": "3:30pm"}, {"days": "Sat", "time": "12:30pm"}, {"days": "Sun", "time": "Closed"}], "id": "7081800002", "name": "USPS COLLECTION BOX - BLUE BOX", "address": {"city": "BATON ROUGE", "state": "LA", "street": "13515 HOOPER RD", "postcode": "70818"}}},
{"geometry": {"type": "Point", "coordinates": [-91.0368377258, 30.5543685018]}, "type": "Feature", "properties": {"collection_times": [{"days": "Mon-Fri", "time": "3:30pm"}, {"days": "Sat", "time": "12:30pm"}, {"days": "Sun", "time": "Closed"}], "id": "7081800003", "name": "USPS COLLECTION BOX - PO LOBBY", "address": {"city": "BATON ROUGE", "state": "LA", "street": "13515 HOOPER RD", "postcode": "70818"}}},
{"geometry": {"type": "Point", "coordinates": [-91.0368377258, 30.5543685018]}, "type": "Feature", "properties": {"collection_times": [{"days": "Mon-Fri", "time": "3:30pm"}, {"days": "Sat", "time": "12:30pm"}, {"days": "Sun", "time": "Closed"}], "id": "7081800005", "name": "USPS COLLECTION BOX - PO LOBBY", "address": {"city": "BATON ROUGE", "state": "LA", "street": "13515 HOOPER RD", "postcode": "70818"}}},
{"geometry": {"type": "Point", "coordinates": [-91.180437758, 30.395911032]}, "type": "Feature", "properties": {"collection_times": [{"days": "Mon-Fri", "time": "12:45pm"}, {"days": "Sat-Sun", "time": "Closed"}], "id": "7082000001", "name": "USPS COLLECTION BOX - BLUE BOX", "address": {"city": "BATON ROUGE", "state": "LA", "street": "4400 ALVIN DARK AVE", "postcode": "70820"}}},
{"geometry": {"type": "Point", "coordinates": [-91.0991608643, 30.3765529014]}, "type": "Feature", "properties": {"collection_times": [{"days": "Mon-Sat", "time": "6:00pm"}, {"days": "Sun", "time": "Closed"}], "id": "7082600003", "name": "USPS COLLECTION BOX - BLUE BOX", "address": {"city": "BATON ROUGE", "state": "LA", "street": "8101 BLUEBONNET BLVD", "postcode": "70826"}}},
{"geometry": {"type": "Point", "coordinates": [-91.0991608643, 30.3765529014]}, "type": "Feature", "properties": {"collection_times": [{"days": "Mon-Sat", "time": "6:00pm"}, {"days": "Sun", "time": "Closed"}], "id": "7082600004", "name": "USPS COLLECTION BOX - BLUE BOX", "address": {"city": "BATON ROUGE", "state": "LA", "street": "8101 BLUEBONNET BLVD", "postcode": "70826"}}},
{"geometry": {"type": "Point", "coordinates": [-91.0991608643, 30.3765529014]}, "type": "Feature", "properties": {"collection_times": [{"days": "Mon-Sat", "time": "6:00pm"}, {"days": "Sun", "time": "Closed"}], "id": "7082600005", "name": "USPS COLLECTION BOX - BLUE BOX", "address": {"city": "BATON ROUGE", "state": "LA", "street": "8101 BLUEBONNET BLVD", "postcode": "70826"}}},
{"geometry": {"type": "Point", "coordinates": [-91.1826572532, 30.4494111717]}, "type": "Feature", "properties": {"collection_times": [{"days": "Mon-Sat", "time": "6:00pm"}, {"days": "Sun", "time": "Closed"}], "id": "7082600006", "name": "USPS COLLECTION BOX - EXPRESS", "address": {"city": "BATON ROUGE", "state": "LA", "street": "8101 BLUEBONNET BLVD", "postcode": "70826"}}},
{"geometry": {"type": "Point", "coordinates": [-91.0603616584, 30.4354012487]}, "type": "Feature", "properties": {"collection_times": [{"days": "Mon-Fri", "time": "4:30pm"}, {"days": "Sat-Sun", "time": "Closed"}], "id": "7083500007", "name": "USPS COLLECTION BOX - BLUE BOX", "address": {"city": "BATON ROUGE", "state": "LA", "street": "1843 W MURIEL DR", "postcode": "70835"}}},
{"geometry": {"type": "Point", "coordinates": [-91.0603616584, 30.4354012487]}, "type": "Feature", "properties": {"collection_times": [{"days": "Mon-Fri", "time": "4:30pm"}, {"days": "Sat-Sun", "time": "Closed"}], "id": "7083500008", "name": "USPS COLLECTION BOX - BLUE BOX", "address": {"city": "BATON ROUGE", "state": "LA", "street": "1843 W MURIEL DR", "postcode": "70835"}}}
]}
