{"type": "FeatureCollection", "features": [
{"geometry": {"type": "Point", "coordinates": [-92.923791843, 32.5508198407]}, "type": "Feature", "properties": {"collection_times": [{"days": "Mon-Fri", "time": "3:00pm"}, {"days": "Sat", "time": "9:45am"}, {"days": "Sun", "time": "Closed"}], "id": "7100100003", "name": "USPS COLLECTION BOX - BLUE BOX", "address": {"city": "ARCADIA", "state": "LA", "street": "2711 BEECH ST", "postcode": "71001"}}},
{"geometry": {"type": "Point", "coordinates": [-92.9231823826, 32.5484291]}, "type": "Feature", "properties": {"collection_times": [{"days": "Mon-Fri", "time": "3:15pm"}, {"days": "Sat-Sun", "time": "Closed"}], "id": "7100100004", "name": "USPS COLLECTION BOX - BLUE BOX", "address": {"city": "ARCADIA", "state": "LA", "street": "1979 RAILROAD AVE", "postcode": "71001"}}},
{"geometry": {"type": "Point", "coordinates": [-92.9231823826, 32.5484291]}, "type": "Feature", "properties": {"collection_times": [{"days": "Mon-Fri", "time": "3:15pm"}, {"days": "Sat-Sun", "time": "Closed"}], "id": "7100100005", "name": "USPS COLLECTION BOX - BLUE BOX", "address": {"city": "ARCADIA", "state": "LA", "street": "1979 RAILROAD AVE", "postcode": "71001"}}},
{"geometry": {"type": "Point", "coordinates": [-92.9231823826, 32.5484291]}, "type": "Feature", "properties": {"collection_times": [{"days": "Mon-Fri", "time": "3:15pm"}, {"days": "Sat-Sun", "time": "Closed"}], "id": "7100100006", "name": "USPS COLLECTION BOX - PO LOBBY", "address": {"city": "ARCADIA", "state": "LA", "street": "1979 RAILROAD AVE", "postcode": "71001"}}},
{"geometry": {"type": "Point", "coordinates": [-92.9231823826, 32.5484291]}, "type": "Feature", "properties": {"collection_times": [{"days": "Mon-Fri", "time": "3:15pm"}, {"days": "Sat-Sun", "time": "Closed"}], "id": "7100100007", "name": "USPS COLLECTION BOX - PO LOBBY", "address": {"city": "ARCADIA", "state": "LA", "street": "1979 RAILROAD AVE", "postcode": "71001"}}},
{"geometry": {"type": "Point", "coordinates": [-92.9231823826, 32.5484291]}, "type": "Feature", "properties": {"collection_times": [{"days": "Mon-Fri", "time": "3:15pm"}, {"days": "Sat-Sun", "time": "Closed"}], "id": "7100100008", "name": "USPS COLLECTION BOX - BLUE BOX", "address": {"city": "ARCADIA", "state": "LA", "street": "1979 RAILROAD AVE", "postcode": "71001"}}},
{"geometry": {"type": "Point", "coordinates": [-92.9145605782, 32.5541822605]}, "type": "Feature", "properties": {"collection_times": [{"days": "Mon-Fri", "time": "3:00pm"}, {"days": "Sat", "time": "9:45am"}, {"days": "Sun", "time": "Closed"}], "id": "7100100009", "name": "USPS COLLECTION BOX - BLUE BOX", "address": {"city": "ARCADIA", "state": "LA", "street": "1175 PINE ST", "postcode": "71001"}}},
{"geometry": {"type": "Point", "coordinates": [-93.098906243, 32.1429324305]}, "type": "Feature", "properties": {"collection_times": [{"days": "Mon-Fri", "time": "3:15pm"}, {"days": "Sat", "time": "8:00am"}, {"days": "Sun", "time": "Closed"}], "id": "7100200001", "name": "USPS COLLECTION BOX - BLUE BOX", "address": {"city": "ASHLAND", "state": "LA", "street": "521 HIGHWAY 153", "postcode": "71002"}}},
{"geometry": {"type": "Point", "coordinates": [-93.098906243, 32.1429324305]}, "type": "Feature", "properties": {"collection_times": [{"days": "Mon-Fri", "time": "3:15pm"}, {"days": "Sat-Sun", "time": "Closed"}], "id": "7100200002", "name": "USPS COLLECTION BOX - PO LOBBY", "address": {"city": "ASHLAND", "state": "LA", "street": "521 HIGHWAY 153", "postcode": "71002"}}},
{"geometry": {"type": "Point", "coordinates": [-93.0251692796, 32.65529588]}, "type": "Feature", "properties": {"collection_times": [{"days": "Mon-Fri", "time": "12:00pm"}, {"days": "Sat-Sun", "time": "Closed"}], "id": "7100300001", "name": "USPS COLLECTION BOX - BLUE BOX", "address": {"city": "ATHENS", "state": "LA", "street": "258 HIGHWAY 805", "postcode": "71003"}}},
{"geometry": {"type": "Point", "coordinates": [-93.0251692796, 32.65529588]}, "type": "Feature", "properties": {"collection_times": [{"days": "Mon-Fri", "time": "12:00pm"}, {"days": "Sat-Sun", "time": "Closed"}], "id": "7100300002", "name": "USPS COLLECTION BOX - PO LOBBY", "address": {"city": "ATHENS", "state": "LA", "street": "258 HIGHWAY 805", "postcode": "71003"}}},
{"geometry": {"type": "Point", "coordinates": [-93.8347241339, 32.7510446205]}, "type": "Feature", "properties": {"collection_times": [{"days": "Mon-Fri", "time": "11:45am"}, {"days": "Sat", "time": "7:45am"}, {"days": "Sun", "time": "Closed"}], "id": "7100400001", "name": "USPS COLLECTION BOX - BLUE BOX", "address": {"city": "BELCHER", "state": "LA", "street": "714 RAILROAD ST", "postcode": "71004"}}},
{"geometry": {"type": "Point", "coordinates": [-93.8347241339, 32.7510446205]}, "type": "Feature", "properties": {"collection_times": [{"days": "Mon-Fri", "time": "11:45am"}, {"days": "Sat", "time": "7:45am"}, {"days": "Sun", "time": "Closed"}], "id": "7100400003", "name": "USPS COLLECTION BOX - PO LOBBY", "address": {"city": "BELCHER", "state": "LA", "street": "714 RAILROAD ST", "postcode": "71004"}}},
{"geometry": {"type": "Point", "coordinates": [-93.7429718195, 32.6792512003]}, "type": "Feature", "properties": {"collection_times": [{"days": "Mon-Fri", "time": "4:15pm"}, {"days": "Sat", "time": "7:00am"}, {"days": "Sun", "time": "Closed"}], "id": "7100600001", "name": "USPS COLLECTION BOX - BLUE BOX", "address": {"city": "BENTON", "state": "LA", "street": "180 BURT BLVD", "postcode": "71006"}}},
{"geometry": {"type": "Point", "coordinates": [-93.7429718195, 32.6792512003]}, "type": "Feature", "properties": {"collection_times": [{"days": "Mon-Fri", "time": "4:15pm"}, {"days": "Sat", "time": "7:00am"}, {"days": "Sun", "time": "Closed"}], "id": "7100600003", "name": "USPS COLLECTION BOX - PO LOBBY", "address": {"city": "BENTON", "state": "LA", "street": "180 BURT BLVD", "postcode": "71006"}}},
{"geometry": {"type": "Point", "coordinates": [-93.7429718195, 32.6792512003]}, "type": "Feature", "properties": {"collection_times": [{"days": "Mon-Fri", "time": "4:15pm"}, {"days": "Sat", "time": "7:00am"}, {"days": "Sun", "time": "Closed"}], "id": "7100600005", "name": "USPS COLLECTION BOX - BLUE BOX", "address": {"city": "BENTON", "state": "LA", "street": "180 BURT BLVD", "postcode": "71006"}}},
{"geometry": {"type": "Point", "coordinates": [-94.034799948, 32.3740325355]}, "type": "Feature", "properties": {"collection_times": [{"days": "Mon-Fri", "time": "3:30pm"}, {"days": "Sat", "time": "7:30am"}, {"days": "Sun", "time": "Closed"}], "id": "7100700001", "name": "USPS COLLECTION BOX - BLUE BOX", "address": {"city": "BETHANY", "state": "LA", "street": "10085 HIGHWAY 79", "postcode": "71007"}}},
{"geometry": {"type": "Point", "coordinates": [-94.034799948, 32.3740325355]}, "type": "Feature", "properties": {"collection_times": [{"days": "Mon-Fri", "time": "3:30pm"}, {"days": "Sat", "time": "7:30am"}, {"days": "Sun", "time": "Closed"}], "id": "7100700003", "name": "USPS COLLECTION BOX - PO LOBBY", "address": {"city": "BETHANY", "state": "LA", "street": "10085 HIGHWAY 79", "postcode": "71007"}}},
{"geometry": {"type": "Point", "coordinates": [-92.9802913904, 32.354676814]}, "type": "Feature", "properties": {"collection_times": [{"days": "Mon-Fri", "time": "12:00pm"}, {"days": "Sat", "time": "8:00am"}, {"days": "Sun", "time": "Closed"}], "id": "7100800001", "name": "USPS COLLECTION BOX - BLUE BOX", "address": {"city": "BIENVILLE", "state": "LA", "street": "25549 HIGHWAY 9", "postcode": "71008"}}},
{"geometry": {"type": "Point", "coordinates": [-92.9802913904, 32.354676814]}, "type": "Feature", "properties": {"collection_times": [{"days": "Mon-Fri", "time": "12:00pm"}, {"days": "Sat", "time": "8:00am"}, {"days": "Sun", "time": "Closed"}], "id": "7100800003", "name": "USPS COLLECTION BOX - PO LOBBY", "address": {"city": "BIENVILLE", "state": "LA", "street": "25549 HIGHWAY 9", "postcode": "71008"}}},
{"geometry": {"type": "Point", "coordinates": [-93.8924106007, 32.5816327261]}, "type": "Feature", "properties": {"collection_times": [{"days": "Mon-Fri", "time": "3:30pm"}, {"days": "Sat", "time": "7:00am"}, {"days": "Sun", "time": "Closed"}], "id": "7100900002", "name": "USPS COLLECTION BOX - BLUE BOX", "address": {"city": "BLANCHARD", "state": "LA", "street": "130 MAIN ST", "postcode": "71009"}}},
{"geometry": {"type": "Point", "coordinates": [-93.8924106007, 32.5816327261]}, "type": "Feature", "properties": {"collection_times": [{"days": "Mon-Fri", "time": "3:30pm"}, {"days": "Sat", "time": "7:00am"}, {"days": "Sun", "time": "Closed"}], "id": "7100900003", "name": "USPS COLLECTION BOX - BLUE BOX", "address": {"city": "BLANCHARD", "state": "LA", "street": "130 MAIN ST", "postcode": "71009"}}},
{"geometry": {"type": "Point", "coordinates": [-93.8924106007, 32.5816327261]}, "type": "Feature", "properties": {"collection_times": [{"days": "Mon-Fri", "time": "3:30pm"}, {"days": "Sat", "time": "7:00am"}, {"days": "Sun", "time": "Closed"}], "id": "7100900005", "name": "USPS COLLECTION BOX - PO LOBBY", "address": {"city": "BLANCHARD", "state": "LA", "street": "130 MAIN ST", "postcode": "71009"}}},
{"geometry": {"type": "Point", "coordinates": [-93.1664595029, 32.2530006096]}, "type": "Feature", "properties": {"collection_times": [{"days": "Mon-Fri", "time": "1:45pm"}, {"days": "Sat", "time": "7:00am"}, {"days": "Sun", "time": "Closed"}], "id": "7101600001", "name": "USPS COLLECTION BOX - BLUE BOX", "address": {"city": "CASTOR", "state": "LA", "street": "8992 HIGHWAY 4", "postcode": "71016"}}},
{"geometry": {"type": "Point", "coordinates": [-93.1664595029, 32.2530006096]}, "type": "Feature", "properties": {"collection_times": [{"days": "Mon-Fri", "time": "1:45pm"}, {"days": "Sat-Sun", "time": "Closed"}], "id": "7101600003", "name": "USPS COLLECTION BOX - PO LOBBY", "address": {"city": "CASTOR", "state": "LA", "street": "8992 HIGHWAY 4", "postcode": "71016"}}},
{"geometry": {"type": "Point", "coordinates": [-93.422058088, 32.8171793926]}, "type": "Feature", "properties": {"collection_times": [{"days": "Mon-Fri", "time": "3:00pm"}, {"days": "Sat-Sun", "time": "Closed"}], "id": "7101800002", "name": "USPS COLLECTION BOX - BLUE BOX", "address": {"city": "COTTON VALLEY", "state": "LA", "street": "439 RESIDENT ST", "postcode": "71018"}}},
{"geometry": {"type": "Point", "coordinates": [-93.422058088, 32.8171793926]}, "type": "Feature", "properties": {"collection_times": [{"days": "Mon-Fri", "time": "3:00pm"}, {"days": "Sat-Sun", "time": "Closed"}], "id": "7101800004", "name": "USPS COLLECTION BOX - PO LOBBY", "address": {"city": "COTTON VALLEY", "state": "LA", "street": "439 RESIDENT ST", "postcode": "71018"}}},
{"geometry": {"type": "Point", "coordinates": [-93.3374688848, 32.0216566129]}, "type": "Feature", "properties": {"collection_times": [{"days": "Mon-Fri", "time": "4:00pm"}, {"days": "Sat", "time": "2:00pm"}, {"days": "Sun", "time": "Closed"}], "id": "7101900001", "name": "USPS COLLECTION BOX - BLUE BOX", "address": {"city": "COUSHATTA", "state": "LA", "street": "5036 CUT OFF RD", "postcode": "71019"}}},
{"geometry": {"type": "Point", "coordinates": [-93.3374688848, 32.0216566129]}, "type": "Feature", "properties": {"collection_times": [{"days": "Mon-Fri", "time": "4:00pm"}, {"days": "Sat", "time": "2:00pm"}, {"days": "Sun", "time": "Closed"}], "id": "7101900007", "name": "USPS COLLECTION BOX - PO LOBBY", "address": {"city": "COUSHATTA", "state": "LA", "street": "5036 CUT OFF RD", "postcode": "71019"}}},
{"geometry": {"type": "Point", "coordinates": [-93.3374688848, 32.0216566129]}, "type": "Feature", "properties": {"collection_times": [{"days": "Mon-Fri", "time": "4:00pm"}, {"days": "Sat", "time": "2:00pm"}, {"days": "Sun", "time": "Closed"}], "id": "7101900009", "name": "USPS COLLECTION BOX - BLUE BOX", "address": {"city": "COUSHATTA", "state": "LA", "street": "5036 CUT OFF RD", "postcode": "71019"}}},
{"geometry": {"type": "Point", "coordinates": [-93.4557780869, 32.971658711]}, "type": "Feature", "properties": {"collection_times": [{"days": "Mon-Fri", "time": "3:45pm"}, {"days": "Sat", "time": "7:30am"}, {"days": "Sun", "time": "Closed"}], "id": "7102100001", "name": "USPS COLLECTION BOX - BLUE BOX", "address": {"city": "CULLEN", "state": "LA", "street": "511 COYLE AVE", "postcode": "71021"}}},
{"geometry": {"type": "Point", "coordinates": [-93.4557780869, 32.971658711]}, "type": "Feature", "properties": {"collection_times": [{"days": "Mon-Fri", "time": "3:45pm"}, {"days": "Sat", "time": "7:30am"}, {"days": "Sun", "time": "Closed"}], "id": "7102100005", "name": "USPS COLLECTION BOX - PO LOBBY", "address": {"city": "CULLEN", "state": "LA", "street": "511 COYLE AVE", "postcode": "71021"}}},
{"geometry": {"type": "Point", "coordinates": [-93.4086260407, 32.5305836086]}, "type": "Feature", "properties": {"collection_times": [{"days": "Mon-Fri", "time": "4:00pm"}, {"days": "Sat", "time": "9:30am"}, {"days": "Sun", "time": "Closed"}], "id": "7102300001", "name": "USPS COLLECTION BOX - BLUE BOX", "address": {"city": "DOYLINE", "state": "LA", "street": "125 PILGRIM REST RD", "postcode": "71023"}}},
{"geometry": {"type": "Point", "coordinates": [-93.4086260407, 32.5305836086]}, "type": "Feature", "properties": {"collection_times": [{"days": "Mon-Fri", "time": "4:00pm"}, {"days": "Sat", "time": "9:30am"}, {"days": "Sun", "time": "Closed"}], "id": "7102300002", "name": "USPS COLLECTION BOX - PO LOBBY", "address": {"city": "DOYLINE", "state": "LA", "street": "125 PILGRIM REST RD", "postcode": "71023"}}},
{"geometry": {"type": "Point", "coordinates": [-93.2428965967, 32.5457540865]}, "type": "Feature", "properties": {"collection_times": [{"days": "Mon-Fri", "time": "11:30am"}, {"days": "Sat", "time": "8:30am"}, {"days": "Sun", "time": "Closed"}], "id": "7102400001", "name": "USPS COLLECTION BOX - BLUE BOX", "address": {"city": "DUBBERLY", "state": "LA", "street": "3193 HIGHWAY 531", "postcode": "71024"}}},
{"geometry": {"type": "Point", "coordinates": [-93.2428965967, 32.5457540865]}, "type": "Feature", "properties": {"collection_times": [{"days": "Mon-Fri", "time": "11:30am"}, {"days": "Sat", "time": "8:30am"}, {"days": "Sun", "time": "Closed"}], "id": "7102400002", "name": "USPS COLLECTION BOX - PO LOBBY", "address": {"city": "DUBBERLY", "state": "LA", "street": "3193 HIGHWAY 531", "postcode": "71024"}}},
{"geometry": {"type": "Point", "coordinates": [-93.6996763224, 32.2403533114]}, "type": "Feature", "properties": {"collection_times": [{"days": "Mon-Fri", "time": "11:15am"}, {"days": "Sat", "time": "8:00am"}, {"days": "Sun", "time": "Closed"}], "id": "7102700001", "name": "USPS COLLECTION BOX - BLUE BOX", "address": {"city": "FRIERSON", "state": "LA", "street": "5400 HIGHWAY 175", "postcode": "71027"}}},
{"geometry": {"type": "Point", "coordinates": [-93.6996763224, 32.2403533114]}, "type": "Feature", "properties": {"collection_times": [{"days": "Mon-Fri", "time": "11:30am"}, {"days": "Sat-Sun", "time": "Closed"}], "id": "7102700002", "name": "USPS COLLECTION BOX - PO LOBBY", "address": {"city": "FRIERSON", "state": "LA", "street": "5400 HIGHWAY 175", "postcode": "71027"}}},
{"geometry": {"type": "Point", "coordinates": [-93.0525886925, 32.5438990716]}, "type": "Feature", "properties": {"collection_times": [{"days": "Mon-Fri", "time": "3:30pm"}, {"days": "Sat", "time": "9:00am"}, {"days": "Sun", "time": "Closed"}], "id": "7102800001", "name": "USPS COLLECTION BOX - BLUE BOX", "address": {"city": "GIBSLAND", "state": "LA", "street": "1259 S 3RD ST", "postcode": "71028"}}},
{"geometry": {"type": "Point", "coordinates": [-93.0525886925, 32.5438990716]}, "type": "Feature", "properties": {"collection_times": [{"days": "Mon-Fri", "time": "3:30pm"}, {"days": "Sat", "time": "9:00am"}, {"days": "Sun", "time": "Closed"}], "id": "7102800003", "name": "USPS COLLECTION BOX - PO LOBBY", "address": {"city": "GIBSLAND", "state": "LA", "street": "1259 S 3RD ST", "postcode": "71028"}}},
{"geometry": {"type": "Point", "coordinates": [-93.8471682371, 32.8271150992]}, "type": "Feature", "properties": {"collection_times": [{"days": "Mon-Fri", "time": "11:45am"}, {"days": "Sat", "time": "8:00am"}, {"days": "Sun", "time": "Closed"}], "id": "7102900001", "name": "USPS COLLECTION BOX - BLUE BOX", "address": {"city": "GILLIAM", "state": "LA", "street": "5517 1ST ST", "postcode": "71029"}}},
{"geometry": {"type": "Point", "coordinates": [-93.8471682371, 32.8271150992]}, "type": "Feature", "properties": {"collection_times": [{"days": "Mon-Fri", "time": "11:45am"}, {"days": "Sat", "time": "8:00am"}, {"days": "Sun", "time": "Closed"}], "id": "7102900002", "name": "USPS COLLECTION BOX - PO LOBBY", "address": {"city": "GILLIAM", "state": "LA", "street": "5517 1ST ST", "postcode": "71029"}}},
{"geometry": {"type": "Point", "coordinates": [-93.8180258838, 32.1915469488]}, "type": "Feature", "properties": {"collection_times": [{"days": "Mon-Fri", "time": "11:30am"}, {"days": "Sat", "time": "8:00am"}, {"days": "Sun", "time": "Closed"}], "id": "7103000001", "name": "USPS COLLECTION BOX - BLUE BOX", "address": {"city": "GLOSTER", "state": "LA", "street": "125 MAIN ST", "postcode": "71030"}}},
{"geometry": {"type": "Point", "coordinates": [-93.8180258838, 32.1915469488]}, "type": "Feature", "properties": {"collection_times": [{"days": "Mon-Fri", "time": "11:30am"}, {"days": "Sat", "time": "8:00am"}, {"days": "Sun", "time": "Closed"}], "id": "7103000002", "name": "USPS COLLECTION BOX - PO LOBBY", "address": {"city": "GLOSTER", "state": "LA", "street": "125 MAIN ST", "postcode": "71030"}}},
{"geometry": {"type": "Point", "coordinates": [-92.9078226756, 32.0164105051]}, "type": "Feature", "properties": {"collection_times": [{"days": "Mon-Fri", "time": "11:30am"}, {"days": "Sat", "time": "9:00am"}, {"days": "Sun", "time": "Closed"}], "id": "7103100001", "name": "USPS COLLECTION BOX - BLUE BOX", "address": {"city": "GOLDONNA", "state": "LA", "street": "3153 MAIN ST", "postcode": "71031"}}},
{"geometry": {"type": "Point", "coordinates": [-92.9078226756, 32.0164105051]}, "type": "Feature", "properties": {"collection_times": [{"days": "Mon-Fri", "time": "11:30am"}, {"days": "Sat", "time": "9:00am"}, {"days": "Sun", "time": "Closed"}], "id": "7103100002", "name": "USPS COLLECTION BOX - PO LOBBY", "address": {"city": "GOLDONNA", "state": "LA", "street": "3153 MAIN ST", "postcode": "71031"}}},
{"geometry": {"type": "Point", "coordinates": [-93.8096799725, 32.0857433968]}, "type": "Feature", "properties": {"collection_times": [{"days": "Mon-Fri", "time": "3:00pm"}, {"days": "Sat", "time": "8:00am"}, {"days": "Sun", "time": "Closed"}], "id": "7103200001", "name": "USPS COLLECTION BOX - BLUE BOX", "address": {"city": "GRAND CANE", "state": "LA", "street": "719 MAIN ST", "postcode": "71032"}}},
{"geometry": {"type": "Point", "coordinates": [-93.8096799725, 32.0857433968]}, "type": "Feature", "properties": {"collection_times": [{"days": "Mon-Fri", "time": "3:00pm"}, {"days": "Sat", "time": "8:00am"}, {"days": "Sun", "time": "Closed"}], "id": "7103200002", "name": "USPS COLLECTION BOX - PO LOBBY", "address": {"city": "GRAND CANE", "state": "LA", "street": "719 MAIN ST", "postcode": "71032"}}},
{"geometry": {"type": "Point", "coordinates": [-93.9439114959, 32.4410165497]}, "type": "Feature", "properties": {"collection_times": [{"days": "Mon-Fri", "time": "3:30pm"}, {"days": "Sat", "time": "8:30am"}, {"days": "Sun", "time": "Closed"}], "id": "7103300001", "name": "USPS COLLECTION BOX - BLUE BOX", "address": {"city": "GREENWOOD", "state": "LA", "street": "7070 ADAMS LN", "postcode": "71033"}}},
{"geometry": {"type": "Point", "coordinates": [-93.9439114959, 32.4410165497]}, "type": "Feature", "properties": {"collection_times": [{"days": "Mon-Fri", "time": "3:30pm"}, {"days": "Sat", "time": "8:30am"}, {"days": "Sun", "time": "Closed"}], "id": "7103300005", "name": "USPS COLLECTION BOX - PO LOBBY", "address": {"city": "GREENWOOD", "state": "LA", "street": "7070 ADAMS LN", "postcode": "71033"}}},
{"geometry": {"type": "Point", "coordinates": [-93.305526912, 32.1767518551]}, "type": "Feature", "properties": {"collection_times": [{"days": "Mon-Fri", "time": "3:45pm"}, {"days": "Sat", "time": "7:00am"}, {"days": "Sun", "time": "Closed"}], "id": "7103400001", "name": "USPS COLLECTION BOX - BLUE BOX", "address": {"city": "HALL SUMMIT", "state": "LA", "street": "7101 CARTER AVE", "postcode": "71034"}}},
{"geometry": {"type": "Point", "coordinates": [-93.305526912, 32.1767518551]}, "type": "Feature", "properties": {"collection_times": [{"days": "Mon-Fri", "time": "3:45pm"}, {"days": "Sat-Sun", "time": "Closed"}], "id": "7103400002", "name": "USPS COLLECTION BOX - PO LOBBY", "address": {"city": "HALL SUMMIT", "state": "LA", "street": "7101 CARTER AVE", "postcode": "71034"}}},
{"geometry": {"type": "Point", "coordinates": [-93.5147306695, 32.5331232512]}, "type": "Feature", "properties": {"collection_times": [{"days": "Mon-Fri", "time": "2:00pm"}, {"days": "Sat", "time": "1:00pm"}, {"days": "Sun", "time": "Closed"}], "id": "7103700002", "name": "USPS COLLECTION BOX - BLUE BOX", "address": {"city": "HAUGHTON", "state": "LA", "street": "399 W MCKINLEY AVE", "postcode": "71037"}}},
{"geometry": {"type": "Point", "coordinates": [-93.5139415948, 32.5331058586]}, "type": "Feature", "properties": {"collection_times": [{"days": "Mon-Fri", "time": "2:00pm"}, {"days": "Sat", "time": "1:00pm"}, {"days": "Sun", "time": "Closed"}], "id": "7103700004", "name": "USPS COLLECTION BOX - PO LOBBY", "address": {"city": "HAUGHTON", "state": "LA", "street": "399 W MCKINLEY AVE", "postcode": "71037"}}},
{"geometry": {"type": "Point", "coordinates": [-93.6167083639, 32.5562486134]}, "type": "Feature", "properties": {"collection_times": [{"days": "Mon-Sat", "time": "9:30am"}, {"days": "Sun", "time": "Closed"}], "id": "7103700007", "name": "USPS COLLECTION BOX - BLUE BOX", "address": {"city": "HAUGHTON", "state": "LA", "street": "1075 HIGHWAY 80", "postcode": "71037"}}},
{"geometry": {"type": "Point", "coordinates": [-93.0938425151, 32.9143962204]}, "type": "Feature", "properties": {"collection_times": [{"days": "Mon-Sat", "time": "3:00pm"}, {"days": "Sun", "time": "Closed"}], "id": "7103800005", "name": "USPS COLLECTION BOX - BLUE BOX", "address": {"city": "HAYNESVILLE", "state": "LA", "street": "10007 HIGHWAY 79", "postcode": "71038"}}},
{"geometry": {"type": "Point", "coordinates": [-93.0938425151, 32.9143962204]}, "type": "Feature", "properties": {"collection_times": [{"days": "Mon-Sat", "time": "3:00pm"}, {"days": "Sun", "time": "Closed"}], "id": "7103800011", "name": "USPS COLLECTION BOX - PO LOBBY", "address": {"city": "HAYNESVILLE", "state": "LA", "street": "10007 HIGHWAY 79", "postcode": "71038"}}},
{"geometry": {"type": "Point", "coordinates": [-93.2640321855, 32.4560813509]}, "type": "Feature", "properties": {"collection_times": [{"days": "Mon-Fri", "time": "11:30am"}, {"days": "Sat", "time": "8:45am"}, {"days": "Sun", "time": "Closed"}], "id": "7103900001", "name": "USPS COLLECTION BOX - BLUE BOX", "address": {"city": "HEFLIN", "state": "LA", "street": "106 N MAIN ST", "postcode": "71039"}}},
{"geometry": {"type": "Point", "coordinates": [-93.2640321855, 32.4560813509]}, "type": "Feature", "properties": {"collection_times": [{"days": "Mon-Fri", "time": "11:30am"}, {"days": "Sat-Sun", "time": "Closed"}], "id": "7103900002", "name": "USPS COLLECTION BOX - PO LOBBY", "address": {"city": "HEFLIN", "state": "LA", "street": "106 N MAIN ST", "postcode": "71039"}}},
{"geometry": {"type": "Point", "coordinates": [-93.0561324003, 32.7920093681]}, "type": "Feature", "properties": {"collection_times": [{"days": "Mon-Fri", "time": "5:00pm"}, {"days": "Sat", "time": "3:45pm"}, {"days": "Sun", "time": "Closed"}], "id": "7104000002", "name": "USPS COLLECTION BOX - BLUE BOX", "address": {"city": "HOMER", "state": "LA", "street": "612 N MAIN ST", "postcode": "71040"}}},
{"geometry": {"type": "Point", "coordinates": [-93.0561324003, 32.7920093681]}, "type": "Feature", "properties": {"collection_times": [{"days": "Mon-Fri", "time": "5:00pm"}, {"days": "Sat", "time": "3:45pm"}, {"days": "Sun", "time": "Closed"}], "id": "7104000003", "name": "USPS COLLECTION BOX - BLUE BOX", "address": {"city": "HOMER", "state": "LA", "street": "612 N MAIN ST", "postcode": "71040"}}},
{"geometry": {"type": "Point", "coordinates": [-93.0561324003, 32.7920093681]}, "type": "Feature", "properties": {"collection_times": [{"days": "Mon-Fri", "time": "5:00pm"}, {"days": "Sat", "time": "3:45pm"}, {"days": "Sun", "time": "Closed"}], "id": "7104000013", "name": "USPS COLLECTION BOX - PO LOBBY", "address": {"city": "HOMER", "state": "LA", "street": "612 N MAIN ST", "postcode": "71040"}}},
{"geometry": {"type": "Point", "coordinates": [-93.8756326181, 32.8858795701]}, "type": "Feature", "properties": {"collection_times": [{"days": "Mon-Fri", "time": "3:45pm"}, {"days": "Sat", "time": "1:00pm"}, {"days": "Sun", "time": "Closed"}], "id": "7104300001", "name": "USPS COLLECTION BOX - BLUE BOX", "address": {"city": "HOSSTON", "state": "LA", "street": "14836 PARKWAY DR", "postcode": "71043"}}},
{"geometry": {"type": "Point", "coordinates": [-93.8756326181, 32.8858795701]}, "type": "Feature", "properties": {"collection_times": [{"days": "Mon-Fri", "time": "3:45pm"}, {"days": "Sat-Sun", "time": "Closed"}], "id": "7104300003", "name": "USPS COLLECTION BOX - PO LOBBY", "address": {"city": "HOSSTON", "state": "LA", "street": "14836 PARKWAY DR", "postcode": "71043"}}},
{"geometry": {"type": "Point", "coordinates": [-93.8923059806, 33.0035228707]}, "type": "Feature", "properties": {"collection_times": [{"days": "Mon-Fri", "time": "11:45am"}, {"days": "Sat", "time": "8:30am"}, {"days": "Sun", "time": "Closed"}], "id": "7104400001", "name": "USPS COLLECTION BOX - BLUE BOX", "address": {"city": "IDA", "state": "LA", "street": "6994 E MAGNOLIA LN", "postcode": "71044"}}},
{"geometry": {"type": "Point", "coordinates": [-93.8923059806, 33.0035228707]}, "type": "Feature", "properties": {"collection_times": [{"days": "Mon-Fri", "time": "11:45am"}, {"days": "Sat", "time": "8:30am"}, {"days": "Sun", "time": "Closed"}], "id": "7104400002", "name": "USPS COLLECTION BOX - PO LOBBY", "address": {"city": "IDA", "state": "LA", "street": "6994 E MAGNOLIA LN", "postcode": "71044"}}},
{"geometry": {"type": "Point", "coordinates": [-93.2121692378, 32.3448187822]}, "type": "Feature", "properties": {"collection_times": [{"days": "Mon-Fri", "time": "3:00pm"}, {"days": "Sat", "time": "8:30am"}, {"days": "Sun", "time": "Closed"}], "id": "7104500001", "name": "USPS COLLECTION BOX - BLUE BOX", "address": {"city": "JAMESTOWN", "state": "LA", "street": "4143 E FRONT ST", "postcode": "71045"}}},
{"geometry": {"type": "Point", "coordinates": [-93.2121692378, 32.3448187822]}, "type": "Feature", "properties": {"collection_times": [{"days": "Mon-Fri", "time": "3:00pm"}, {"days": "Sat-Sun", "time": "Closed"}], "id": "7104500003", "name": "USPS COLLECTION BOX - PO LOBBY", "address": {"city": "JAMESTOWN", "state": "LA", "street": "4143 E FRONT ST", "postcode": "71045"}}},
{"geometry": {"type": "Point", "coordinates": [-93.918316489, 32.167565182]}, "type": "Feature", "properties": {"collection_times": [{"days": "Mon-Fri", "time": "12:00pm"}, {"days": "Sat", "time": "9:00am"}, {"days": "Sun", "time": "Closed"}], "id": "7104600001", "name": "USPS COLLECTION BOX - BLUE BOX", "address": {"city": "KEATCHIE", "state": "LA", "street": "9892 HIGHWAY 5", "postcode": "71046"}}},
{"geometry": {"type": "Point", "coordinates": [-93.918316489, 32.167565182]}, "type": "Feature", "properties": {"collection_times": [{"days": "Mon-Fri", "time": "12:00pm"}, {"days": "Sat", "time": "9:00am"}, {"days": "Sun", "time": "Closed"}], "id": "7104600004", "name": "USPS COLLECTION BOX - PO LOBBY", "address": {"city": "KEATCHIE", "state": "LA", "street": "9892 HIGHWAY 5", "postcode": "71046"}}},
{"geometry": {"type": "Point", "coordinates": [-93.8283825405, 32.3051593309]}, "type": "Feature", "properties": {"collection_times": [{"days": "Mon-Fri", "time": "3:30pm"}, {"days": "Sat", "time": "9:00am"}, {"days": "Sun", "time": "Closed"}], "id": "7104700001", "name": "USPS COLLECTION BOX - BLUE BOX", "address": {"city": "KEITHVILLE", "state": "LA", "street": "12395 MANSFIELD RD", "postcode": "71047"}}},
{"geometry": {"type": "Point", "coordinates": [-93.8283825405, 32.3051593309]}, "type": "Feature", "properties": {"collection_times": [{"days": "Mon-Fri", "time": "3:30pm"}, {"days": "Sat-Sun", "time": "Closed"}], "id": "7104700002", "name": "USPS COLLECTION BOX - PO LOBBY", "address": {"city": "KEITHVILLE", "state": "LA", "street": "12395 MANSFIELD RD", "postcode": "71047"}}},
{"geometry": {"type": "Point", "coordinates": [-92.8572706613, 32.845584979]}, "type": "Feature", "properties": {"collection_times": [{"days": "Mon-Fri", "time": "3:30pm"}, {"days": "Sat", "time": "11:30am"}, {"days": "Sun", "time": "Closed"}], "id": "7104800001", "name": "USPS COLLECTION BOX - BLUE BOX", "address": {"city": "LISBON", "state": "LA", "street": "20018 HIGHWAY 2", "postcode": "71048"}}},
{"geometry": {"type": "Point", "coordinates": [-92.8572706613, 32.845584979]}, "type": "Feature", "properties": {"collection_times": [{"days": "Mon-Fri", "time": "3:30pm"}, {"days": "Sat", "time": "11:30am"}, {"days": "Sun", "time": "Closed"}], "id": "7104800002", "name": "USPS COLLECTION BOX - PO LOBBY", "address": {"city": "LISBON", "state": "LA", "street": "20018 HIGHWAY 2", "postcode": "71048"}}},
{"geometry": {"type": "Point", "coordinates": [-94.0029282145, 31.9736378292]}, "type": "Feature", "properties": {"collection_times": [{"days": "Mon-Fri", "time": "3:30pm"}, {"days": "Sat", "time": "7:00am"}, {"days": "Sun", "time": "Closed"}], "id": "7104900003", "name": "USPS COLLECTION BOX - BLUE BOX", "address": {"city": "LOGANSPORT", "state": "LA", "street": "108 N 4TH ST", "postcode": "71049"}}},
{"geometry": {"type": "Point", "coordinates": [-94.0029282145, 31.9736378292]}, "type": "Feature", "properties": {"collection_times": [{"days": "Mon-Fri", "time": "3:30pm"}, {"days": "Sat", "time": "7:00am"}, {"days": "Sun", "time": "Closed"}], "id": "7104900005", "name": "USPS COLLECTION BOX - PO LOBBY", "address": {"city": "LOGANSPORT", "state": "LA", "street": "108 N 4TH ST", "postcode": "71049"}}},
{"geometry": {"type": "Point", "coordinates": [-93.4801038878, 32.2650678098]}, "type": "Feature", "properties": {"collection_times": [{"days": "Mon-Fri", "time": "3:45pm"}, {"days": "Sat", "time": "8:45am"}, {"days": "Sun", "time": "Closed"}], "id": "7105100001", "name": "USPS COLLECTION BOX - BLUE BOX", "address": {"city": "ELM GROVE", "state": "LA", "street": "10718 HIGHWAY 71", "postcode": "71051"}}},
{"geometry": {"type": "Point", "coordinates": [-93.4801038878, 32.2650678098]}, "type": "Feature", "properties": {"collection_times": [{"days": "Mon-Fri", "time": "3:45pm"}, {"days": "Sat", "time": "8:45am"}, {"days": "Sun", "time": "Closed"}], "id": "7105100002", "name": "USPS COLLECTION BOX - PO LOBBY", "address": {"city": "ELM GROVE", "state": "LA", "street": "10718 HIGHWAY 71", "postcode": "71051"}}},
{"geometry": {"type": "Point", "coordinates": [-93.7046449238, 32.0376094229]}, "type": "Feature", "properties": {"collection_times": [{"days": "Mon-Fri", "time": "4:30pm"}, {"days": "Sat", "time": "3:15pm"}, {"days": "Sun", "time": "Closed"}], "id": "7105200001", "name": "USPS COLLECTION BOX - BLUE BOX", "address": {"city": "MANSFIELD", "state": "LA", "street": "100 CROSBY ST", "postcode": "71052"}}},
{"geometry": {"type": "Point", "coordinates": [-93.7046449238, 32.0376094229]}, "type": "Feature", "properties": {"collection_times": [{"days": "Mon-Fri", "time": "4:30pm"}, {"days": "Sat", "time": "3:15pm"}, {"days": "Sun", "time": "Closed"}], "id": "7105200002", "name": "USPS COLLECTION BOX - BLUE BOX", "address": {"city": "MANSFIELD", "state": "LA", "street": "100 CROSBY ST", "postcode": "71052"}}},
{"geometry": {"type": "Point", "coordinates": [-93.7046449238, 32.0376094229]}, "type": "Feature", "properties": {"collection_times": [{"days": "Mon-Fri", "time": "4:30pm"}, {"days": "Sat", "time": "3:15pm"}, {"days": "Sun", "time": "Closed"}], "id": "7105200004", "name": "USPS COLLECTION BOX - BLUE BOX", "address": {"city": "MANSFIELD", "state": "LA", "street": "100 CROSBY ST", "postcode": "71052"}}},
{"geometry": {"type": "Point", "coordinates": [-93.7046449238, 32.0376094229]}, "type": "Feature", "properties": {"collection_times": [{"days": "Mon-Fri", "time": "4:30pm"}, {"days": "Sat", "time": "3:15pm"}, {"days": "Sun", "time": "Closed"}], "id": "7105200013", "name": "USPS COLLECTION BOX - PO LOBBY", "address": {"city": "MANSFIELD", "state": "LA", "street": "100 CROSBY ST", "postcode": "71052"}}},
{"geometry": {"type": "Point", "coordinates": [-93.2885520392, 32.6160348733]}, "type": "Feature", "properties": {"collection_times": [{"days": "Mon-Fri", "time": "5:00pm"}, {"days": "Sat", "time": "2:15pm"}, {"days": "Sun", "time": "Closed"}], "id": "7105500002", "name": "USPS COLLECTION BOX - BLUE BOX", "address": {"city": "MINDEN", "state": "LA", "street": "111 S MONROE ST", "postcode": "71055"}}},
{"geometry": {"type": "Point", "coordinates": [-93.2885520392, 32.6160348733]}, "type": "Feature", "properties": {"collection_times": [{"days": "Mon-Fri", "time": "5:00pm"}, {"days": "Sat", "time": "2:15pm"}, {"days": "Sun", "time": "Closed"}], "id": "7105500003", "name": "USPS COLLECTION BOX - BLUE BOX", "address": {"city": "MINDEN", "state": "LA", "street": "111 S MONROE ST", "postcode": "71055"}}},
{"geometry": {"type": "Point", "coordinates": [-93.2885520392, 32.6160348733]}, "type": "Feature", "properties": {"collection_times": [{"days": "Mon-Fri", "time": "5:00pm"}, {"days": "Sat", "time": "2:15pm"}, {"days": "Sun", "time": "Closed"}], "id": "7105500007", "name": "USPS COLLECTION BOX - BLUE BOX", "address": {"city": "MINDEN", "state": "LA", "street": "111 S MONROE ST", "postcode": "71055"}}},
{"geometry": {"type": "Point", "coordinates": [-93.2885520392, 32.6160348733]}, "type": "Feature", "properties": {"collection_times": [{"days": "Mon-Fri", "time": "5:00pm"}, {"days": "Sat", "time": "2:15pm"}, {"days": "Sun", "time": "Closed"}], "id": "7105500008", "name": "USPS COLLECTION BOX - BLUE BOX", "address": {"city": "MINDEN", "state": "LA", "street": "111 S MONROE ST", "postcode": "71055"}}},
{"geometry": {"type": "Point", "coordinates": [-93.2873841954, 32.6150353085]}, "type": "Feature", "properties": {"collection_times": [{"days": "Mon-Fri", "time": "4:30pm"}, {"days": "Sat", "time": "2:00pm"}, {"days": "Sun", "time": "Closed"}], "id": "7105500009", "name": "USPS COLLECTION BOX - BLUE BOX", "address": {"city": "MINDEN", "state": "LA", "street": "410 MAIN ST", "postcode": "71055"}}},
{"geometry": {"type": "Point", "coordinates": [-93.2857819344, 32.6163446565]}, "type": "Feature", "properties": {"collection_times": [{"days": "Mon-Fri", "time": "4:30pm"}, {"days": "Sat", "time": "2:00pm"}, {"days": "Sun", "time": "Closed"}], "id": "7105500011", "name": "USPS COLLECTION BOX - BLUE BOX", "address": {"city": "MINDEN", "state": "LA", "street": "519 MAIN ST", "postcode": "71055"}}},
{"geometry": {"type": "Point", "coordinates": [-93.2885520392, 32.6160348733]}, "type": "Feature", "properties": {"collection_times": [{"days": "Mon-Fri", "time": "4:45pm"}, {"days": "Sat", "time": "2:15pm"}, {"days": "Sun", "time": "Closed"}], "id": "7105500019", "name": "USPS COLLECTION BOX - PO LOBBY", "address": {"city": "MINDEN", "state": "LA", "street": "111 S MONROE ST", "postcode": "71055"}}},
{"geometry": {"type": "Point", "coordinates": [-93.2885520392, 32.6160348733]}, "type": "Feature", "properties": {"collection_times": [{"days": "Mon-Fri", "time": "4:45pm"}, {"days": "Sat", "time": "2:15pm"}, {"days": "Sun", "time": "Closed"}], "id": "7105500022", "name": "USPS COLLECTION BOX - PO LOBBY", "address": {"city": "MINDEN", "state": "LA", "street": "111 S MONROE ST", "postcode": "71055"}}},
{"geometry": {"type": "Point", "coordinates": [-93.2751294636, 32.6216256778]}, "type": "Feature", "properties": {"collection_times": [{"days": "Mon-Fri", "time": "4:15pm"}, {"days": "Sat", "time": "2:00pm"}, {"days": "Sun", "time": "Closed"}], "id": "7105500024", "name": "USPS COLLECTION BOX - BLUE BOX", "address": {"city": "MINDEN", "state": "LA", "street": "326 HOMER RD", "postcode": "71055"}}},
{"geometry": {"type": "Point", "coordinates": [-93.3030561668, 32.6794284341]}, "type": "Feature", "properties": {"collection_times": [{"days": "Mon-Sat", "time": "10:30am"}, {"days": "Sun", "time": "Closed"}], "id": "7105500025", "name": "USPS COLLECTION BOX - BLUE BOX", "address": {"city": "MINDEN", "state": "LA", "street": "201 LOUISIANA BLVD", "postcode": "71055"}}},
{"geometry": {"type": "Point", "coordinates": [-93.9604166724, 32.6918239849]}, "type": "Feature", "properties": {"collection_times": [{"days": "Mon-Fri", "time": "3:15pm"}, {"days": "Sat", "time": "8:15am"}, {"days": "Sun", "time": "Closed"}], "id": "7106000002", "name": "USPS COLLECTION BOX - BLUE BOX", "address": {"city": "MOORINGSPORT", "state": "LA", "street": "117 CROOM ST", "postcode": "71060"}}},
{"geometry": {"type": "Point", "coordinates": [-93.9604166724, 32.6918239849]}, "type": "Feature", "properties": {"collection_times": [{"days": "Mon-Fri", "time": "3:15pm"}, {"days": "Sat", "time": "8:15am"}, {"days": "Sun", "time": "Closed"}], "id": "7106000004", "name": "USPS COLLECTION BOX - PO LOBBY", "address": {"city": "MOORINGSPORT", "state": "LA", "street": "117 CROOM ST", "postcode": "71060"}}},
{"geometry": {"type": "Point", "coordinates": [-93.9725833213, 32.7434171671]}, "type": "Feature", "properties": {"collection_times": [{"days": "Mon-Fri", "time": "3:15pm"}, {"days": "Sat", "time": "7:00am"}, {"days": "Sun", "time": "Closed"}], "id": "7106100001", "name": "USPS COLLECTION BOX - BLUE BOX", "address": {"city": "OIL CITY", "state": "LA", "street": "200 FURMAN ST", "postcode": "71061"}}},
{"geometry": {"type": "Point", "coordinates": [-93.9725833213, 32.7434171671]}, "type": "Feature", "properties": {"collection_times": [{"days": "Mon-Fri", "time": "3:15pm"}, {"days": "Sat-Sun", "time": "Closed"}], "id": "7106100003", "name": "USPS COLLECTION BOX - PO LOBBY", "address": {"city": "OIL CITY", "state": "LA", "street": "200 FURMAN ST", "postcode": "71061"}}},
{"geometry": {"type": "Point", "coordinates": [-93.5863269416, 31.8820660251]}, "type": "Feature", "properties": {"collection_times": [{"days": "Mon-Fri", "time": "4:00pm"}, {"days": "Sat", "time": "7:30am"}, {"days": "Sun", "time": "Closed"}], "id": "7106300001", "name": "USPS COLLECTION BOX - BLUE BOX", "address": {"city": "PELICAN", "state": "LA", "street": "151 JACKSON ST", "postcode": "71063"}}},
{"geometry": {"type": "Point", "coordinates": [-93.5863269416, 31.8820660251]}, "type": "Feature", "properties": {"collection_times": [{"days": "Mon-Fri", "time": "4:00pm"}, {"days": "Sat", "time": "7:30am"}, {"days": "Sun", "time": "Closed"}], "id": "7106300003", "name": "USPS COLLECTION BOX - PO LOBBY", "address": {"city": "PELICAN", "state": "LA", "street": "151 JACKSON ST", "postcode": "71063"}}},
{"geometry": {"type": "Point", "coordinates": [-93.7027024442, 32.9064790234]}, "type": "Feature", "properties": {"collection_times": [{"days": "Mon-Fri", "time": "4:00pm"}, {"days": "Sat", "time": "8:00am"}, {"days": "Sun", "time": "Closed"}], "id": "7106400001", "name": "USPS COLLECTION BOX - BLUE BOX", "address": {"city": "PLAIN DEALING", "state": "LA", "street": "301 W MARY LEE ST", "postcode": "71064"}}},
{"geometry": {"type": "Point", "coordinates": [-93.7027024442, 32.9064790234]}, "type": "Feature", "properties": {"collection_times": [{"days": "Mon-Fri", "time": "4:00pm"}, {"days": "Sat", "time": "8:00am"}, {"days": "Sun", "time": "Closed"}], "id": "7106400002", "name": "USPS COLLECTION BOX - PO LOBBY", "address": {"city": "PLAIN DEALING", "state": "LA", "street": "301 W MARY LEE ST", "postcode": "71064"}}},
{"geometry": {"type": "Point", "coordinates": [-93.5146283286, 31.8196963094]}, "type": "Feature", "properties": {"collection_times": [{"days": "Mon-Fri", "time": "3:30pm"}, {"days": "Sat", "time": "7:30am"}, {"days": "Sun", "time": "Closed"}], "id": "7106500001", "name": "USPS COLLECTION BOX - BLUE BOX", "address": {"city": "PLEASANT HILL", "state": "LA", "street": "2212 W MAIN ST", "postcode": "71065"}}},
{"geometry": {"type": "Point", "coordinates": [-93.5146283286, 31.8196963094]}, "type": "Feature", "properties": {"collection_times": [{"days": "Mon-Fri", "time": "3:30pm"}, {"days": "Sat", "time": "7:30am"}, {"days": "Sun", "time": "Closed"}], "id": "7106500003", "name": "USPS COLLECTION BOX - PO LOBBY", "address": {"city": "PLEASANT HILL", "state": "LA", "street": "2212 W MAIN ST", "postcode": "71065"}}},
{"geometry": {"type": "Point", "coordinates": [-93.2131295495, 31.878297796]}, "type": "Feature", "properties": {"collection_times": [{"days": "Mon-Fri", "time": "3:45pm"}, {"days": "Sat-Sun", "time": "Closed"}], "id": "7106600001", "name": "USPS COLLECTION BOX - BLUE BOX", "address": {"city": "POWHATAN", "state": "LA", "street": "1812 HIGHWAY 1 N", "postcode": "71066"}}},
{"geometry": {"type": "Point", "coordinates": [-93.2131295495, 31.878297796]}, "type": "Feature", "properties": {"collection_times": [{"days": "Mon-Fri", "time": "3:45pm"}, {"days": "Sat-Sun", "time": "Closed"}], "id": "7106600002", "name": "USPS COLLECTION BOX - PO LOBBY", "address": {"city": "POWHATAN", "state": "LA", "street": "1812 HIGHWAY 1 N", "postcode": "71066"}}},
{"geometry": {"type": "Point", "coordinates": [-93.5482426926, 32.5580331027]}, "type": "Feature", "properties": {"collection_times": [{"days": "Mon-Fri", "time": "4:00pm"}, {"days": "Sat", "time": "10:00am"}, {"days": "Sun", "time": "Closed"}], "id": "7106700006", "name": "USPS COLLECTION BOX - PO LOBBY", "address": {"city": "PRINCETON", "state": "LA", "street": "5491 HIGHWAY 80", "postcode": "71067"}}},
{"geometry": {"type": "Point", "coordinates": [-93.5482426926, 32.5580331027]}, "type": "Feature", "properties": {"collection_times": [{"days": "Mon-Fri", "time": "4:00pm"}, {"days": "Sat", "time": "10:00am"}, {"days": "Sun", "time": "Closed"}], "id": "7106700007", "name": "USPS COLLECTION BOX - BLUE BOX", "address": {"city": "PRINCETON", "state": "LA", "street": "5491 HIGHWAY 80", "postcode": "71067"}}},
{"geometry": {"type": "Point", "coordinates": [-93.2848756925, 32.3286805474]}, "type": "Feature", "properties": {"collection_times": [{"days": "Mon-Fri", "time": "4:00pm"}, {"days": "Sat", "time": "12:00pm"}, {"days": "Sun", "time": "Closed"}], "id": "7106800001", "name": "USPS COLLECTION BOX - BLUE BOX", "address": {"city": "RINGGOLD", "state": "LA", "street": "2325 MILL ST", "postcode": "71068"}}},
{"geometry": {"type": "Point", "coordinates": [-93.2848756925, 32.3286805474]}, "type": "Feature", "properties": {"collection_times": [{"days": "Mon-Fri", "time": "4:00pm"}, {"days": "Sat", "time": "12:00pm"}, {"days": "Sun", "time": "Closed"}], "id": "7106800004", "name": "USPS COLLECTION BOX - PO LOBBY", "address": {"city": "RINGGOLD", "state": "LA", "street": "2325 MILL ST", "postcode": "71068"}}},
{"geometry": {"type": "Point", "coordinates": [-93.9958241074, 32.9726686514]}, "type": "Feature", "properties": {"collection_times": [{"days": "Mon-Fri", "time": "11:45am"}, {"days": "Sat", "time": "8:30am"}, {"days": "Sun", "time": "Closed"}], "id": "7106900001", "name": "USPS COLLECTION BOX - BLUE BOX", "address": {"city": "RODESSA", "state": "LA", "street": "20065 W FRONT ST", "postcode": "71069"}}},
{"geometry": {"type": "Point", "coordinates": [-93.9958241074, 32.9726686514]}, "type": "Feature", "properties": {"collection_times": [{"days": "Mon-Fri", "time": "11:45am"}, {"days": "Sat-Sun", "time": "Closed"}], "id": "7106900003", "name": "USPS COLLECTION BOX - PO LOBBY", "address": {"city": "RODESSA", "state": "LA", "street": "20065 W FRONT ST", "postcode": "71069"}}},
{"geometry": {"type": "Point", "coordinates": [-92.9744321116, 32.1632141134]}, "type": "Feature", "properties": {"collection_times": [{"days": "Mon-Fri", "time": "3:30pm"}, {"days": "Sat", "time": "8:30am"}, {"days": "Sun", "time": "Closed"}], "id": "7107000001", "name": "USPS COLLECTION BOX - BLUE BOX", "address": {"city": "SALINE", "state": "LA", "street": "1032 COOPER ST", "postcode": "71070"}}},
{"geometry": {"type": "Point", "coordinates": [-92.9744321116, 32.1632141134]}, "type": "Feature", "properties": {"collection_times": [{"days": "Mon-Fri", "time": "3:30pm"}, {"days": "Sat", "time": "8:30am"}, {"days": "Sun", "time": "Closed"}], "id": "7107000003", "name": "USPS COLLECTION BOX - PO LOBBY", "address": {"city": "SALINE", "state": "LA", "street": "1032 COOPER ST", "postcode": "71070"}}},
{"geometry": {"type": "Point", "coordinates": [-93.4509629563, 32.9002111984]}, "type": "Feature", "properties": {"collection_times": [{"days": "Mon-Fri", "time": "3:00pm"}, {"days": "Sat", "time": "8:30am"}, {"days": "Sun", "time": "Closed"}], "id": "7107100001", "name": "USPS COLLECTION BOX - BLUE BOX", "address": {"city": "SAREPTA", "state": "LA", "street": "24468 HIGHWAY 371", "postcode": "71071"}}},
{"geometry": {"type": "Point", "coordinates": [-93.4509629563, 32.9002111984]}, "type": "Feature", "properties": {"collection_times": [{"days": "Mon-Fri", "time": "3:00pm"}, {"days": "Sat", "time": "8:30am"}, {"days": "Sun", "time": "Closed"}], "id": "7107100003", "name": "USPS COLLECTION BOX - PO LOBBY", "address": {"city": "SAREPTA", "state": "LA", "street": "24468 HIGHWAY 371", "postcode": "71071"}}},
{"geometry": {"type": "Point", "coordinates": [-93.2961906141, 32.9389203518]}, "type": "Feature", "properties": {"collection_times": [{"days": "Mon-Fri", "time": "12:00pm"}, {"days": "Sat", "time": "7:15am"}, {"days": "Sun", "time": "Closed"}], "id": "7107200001", "name": "USPS COLLECTION BOX - BLUE BOX", "address": {"city": "SHONGALOO", "state": "LA", "street": "11270 HIGHWAY 2", "postcode": "71072"}}},
{"geometry": {"type": "Point", "coordinates": [-93.2961906141, 32.9389203518]}, "type": "Feature", "properties": {"collection_times": [{"days": "Mon-Fri", "time": "12:00pm"}, {"days": "Sat-Sun", "time": "Closed"}], "id": "7107200002", "name": "USPS COLLECTION BOX - PO LOBBY", "address": {"city": "SHONGALOO", "state": "LA", "street": "11270 HIGHWAY 2", "postcode": "71072"}}},
{"geometry": {"type": "Point", "coordinates": [-93.2959651894, 32.5395775449]}, "type": "Feature", "properties": {"collection_times": [{"days": "Mon-Fri", "time": "3:00pm"}, {"days": "Sat", "time": "9:00am"}, {"days": "Sun", "time": "Closed"}], "id": "7107300002", "name": "USPS COLLECTION BOX - PO LOBBY", "address": {"city": "SIBLEY", "state": "LA", "street": "219 N MAIN ST", "postcode": "71073"}}},
{"geometry": {"type": "Point", "coordinates": [-93.2959651894, 32.5395775449]}, "type": "Feature", "properties": {"collection_times": [{"days": "Mon-Fri", "time": "3:00pm"}, {"days": "Sat", "time": "9:00am"}, {"days": "Sun", "time": "Closed"}], "id": "7107300003", "name": "USPS COLLECTION BOX - BLUE BOX", "address": {"city": "SIBLEY", "state": "LA", "street": "219 N MAIN ST", "postcode": "71073"}}},
{"geometry": {"type": "Point", "coordinates": [-93.461931195, 33.0062132352]}, "type": "Feature", "properties": {"collection_times": [{"days": "Mon-Sat", "time": "2:30pm"}, {"days": "Sun", "time": "Closed"}], "id": "7107500003", "name": "USPS COLLECTION BOX - BLUE BOX", "address": {"city": "SPRINGHILL", "state": "LA", "street": "501 N GILES ST", "postcode": "71075"}}},
{"geometry": {"type": "Point", "coordinates": [-93.461931195, 33.0062132352]}, "type": "Feature", "properties": {"collection_times": [{"days": "Mon-Sat", "time": "2:30pm"}, {"days": "Sun", "time": "Closed"}], "id": "7107500009", "name": "USPS COLLECTION BOX - PO LOBBY", "address": {"city": "SPRINGHILL", "state": "LA", "street": "501 N GILES ST", "postcode": "71075"}}},
{"geometry": {"type": "Point", "coordinates": [-93.461931195, 33.0062132352]}, "type": "Feature", "properties": {"collection_times": [{"days": "Mon-Sat", "time": "2:30pm"}, {"days": "Sun", "time": "Closed"}], "id": "7107500011", "name": "USPS COLLECTION BOX - BLUE BOX", "address": {"city": "SPRINGHILL", "state": "LA", "street": "501 N GILES ST", "postcode": "71075"}}},
{"geometry": {"type": "Point", "coordinates": [-93.8256477013, 32.2887010107]}, "type": "Feature", "properties": {"collection_times": [{"days": "Mon-Fri", "time": "3:30pm"}, {"days": "Sat", "time": "8:00am"}, {"days": "Sun", "time": "Closed"}], "id": "7107800001", "name": "USPS COLLECTION BOX - BLUE BOX", "address": {"city": "STONEWALL", "state": "LA", "street": "986 HIGHWAY 171", "postcode": "71078"}}},
{"geometry": {"type": "Point", "coordinates": [-93.8256477013, 32.2887010107]}, "type": "Feature", "properties": {"collection_times": [{"days": "Mon-Fri", "time": "3:30pm"}, {"days": "Sat-Sun", "time": "Closed"}], "id": "7107800003", "name": "USPS COLLECTION BOX - PO LOBBY", "address": {"city": "STONEWALL", "state": "LA", "street": "986 HIGHWAY 171", "postcode": "71078"}}},
{"geometry": {"type": "Point", "coordinates": [-92.7882011707, 32.9246394832]}, "type": "Feature", "properties": {"collection_times": [{"days": "Mon-Fri", "time": "3:00pm"}, {"days": "Sat", "time": "12:00pm"}, {"days": "Sun", "time": "Closed"}], "id": "7107900001", "name": "USPS COLLECTION BOX - BLUE BOX", "address": {"city": "SUMMERFIELD", "state": "LA", "street": "4306 HIGHWAY 9", "postcode": "71079"}}},
{"geometry": {"type": "Point", "coordinates": [-92.7882011707, 32.9246394832]}, "type": "Feature", "properties": {"collection_times": [{"days": "Mon-Fri", "time": "3:00pm"}, {"days": "Sat", "time": "12:00pm"}, {"days": "Sun", "time": "Closed"}], "id": "7107900003", "name": "USPS COLLECTION BOX - PO LOBBY", "address": {"city": "SUMMERFIELD", "state": "LA", "street": "4306 HIGHWAY 9", "postcode": "71079"}}},
{"geometry": {"type": "Point", "coordinates": [-93.1178809938, 32.5457183566]}, "type": "Feature", "properties": {"collection_times": [{"days": "Mon-Fri", "time": "4:00pm"}, {"days": "Sat-Sun", "time": "Closed"}], "id": "7108000001", "name": "USPS COLLECTION BOX - BLUE BOX", "address": {"city": "TAYLOR", "state": "LA", "street": "107 SHORT ST", "postcode": "71080"}}},
{"geometry": {"type": "Point", "coordinates": [-93.1178809938, 32.5457183566]}, "type": "Feature", "properties": {"collection_times": [{"days": "Mon-Fri", "time": "4:00pm"}, {"days": "Sat-Sun", "time": "Closed"}], "id": "7108000002", "name": "USPS COLLECTION BOX - PO LOBBY", "address": {"city": "TAYLOR", "state": "LA", "street": "107 SHORT ST", "postcode": "71080"}}},
{"geometry": {"type": "Point", "coordinates": [-93.9877323186, 32.8728767937]}, "type": "Feature", "properties": {"collection_times": [{"days": "Mon-Fri", "time": "4:00pm"}, {"days": "Sat", "time": "3:30pm"}, {"days": "Sun", "time": "Closed"}], "id": "7108200001", "name": "USPS COLLECTION BOX - BLUE BOX", "address": {"city": "VIVIAN", "state": "LA", "street": "203 W LOUISIANA AVE", "postcode": "71082"}}},
{"geometry": {"type": "Point", "coordinates": [-93.9877323186, 32.8728767937]}, "type": "Feature", "properties": {"collection_times": [{"days": "Mon-Fri", "time": "4:00pm"}, {"days": "Sat", "time": "3:30pm"}, {"days": "Sun", "time": "Closed"}], "id": "7108200002", "name": "USPS COLLECTION BOX - BLUE BOX", "address": {"city": "VIVIAN", "state": "LA", "street": "203 W LOUISIANA AVE", "postcode": "71082"}}},
{"geometry": {"type": "Point", "coordinates": [-93.9877323186, 32.8728767937]}, "type": "Feature", "properties": {"collection_times": [{"days": "Mon-Fri", "time": "4:00pm"}, {"days": "Sat-Sun", "time": "Closed"}], "id": "7108200009", "name": "USPS COLLECTION BOX - PO LOBBY", "address": {"city": "VIVIAN", "state": "LA", "street": "203 W LOUISIANA AVE", "postcode": "71082"}}}
]}
