{"type": "FeatureCollection", "features": [
{"geometry": {"type": "Point", "coordinates": [-93.7493007142, 32.5141995667]}, "type": "Feature", "properties": {"collection_times": [{"days": "Mon-Fri", "time": "3:30pm"}, {"days": "Sat", "time": "3:00pm"}, {"days": "Sun", "time": "Closed"}], "id": "7110100006", "name": "USPS COLLECTION BOX - BLUE BOX", "address": {"city": "SHREVEPORT", "state": "LA", "street": "425 EDWARDS ST", "postcode": "71101"}}},
{"geometry": {"type": "Point", "coordinates": [-93.745960991, 32.5140698801]}, "type": "Feature", "properties": {"collection_times": [{"days": "Mon-Fri", "time": "3:30pm"}, {"days": "Sat", "time": "2:30pm"}, {"days": "Sun", "time": "Closed"}], "id": "7110100008", "name": "USPS COLLECTION BOX - BLUE BOX", "address": {"city": "SHREVEPORT", "state": "LA", "street": "600 SPRING ST", "postcode": "71101"}}},
{"geometry": {"type": "Point", "coordinates": [-93.7467031177, 32.5132818787]}, "type": "Feature", "properties": {"collection_times": [{"days": "Mon-Fri", "time": "3:45pm"}, {"days": "Sat", "time": "2:30pm"}, {"days": "Sun", "time": "Closed"}], "id": "7110100009", "name": "USPS COLLECTION BOX - BLUE BOX", "address": {"city": "SHREVEPORT", "state": "LA", "street": "619 MARKET ST", "postcode": "71101"}}},
{"geometry": {"type": "Point", "coordinates": [-93.7506024668, 32.5137126895]}, "type": "Feature", "properties": {"collection_times": [{"days": "Mon-Fri", "time": "3:30pm"}, {"days": "Sat", "time": "3:00pm"}, {"days": "Sun", "time": "Closed"}], "id": "7110100016", "name": "USPS COLLECTION BOX - BLUE BOX", "address": {"city": "SHREVEPORT", "state": "LA", "street": "500 TRAVIS ST", "postcode": "71101"}}},
{"geometry": {"type": "Point", "coordinates": [-93.745912006, 32.5140563019]}, "type": "Feature", "properties": {"collection_times": [{"days": "Mon-Fri", "time": "3:30pm"}, {"days": "Sat", "time": "2:30pm"}, {"days": "Sun", "time": "Closed"}], "id": "7110100029", "name": "USPS COLLECTION BOX - BLUE BOX", "address": {"city": "SHREVEPORT", "state": "LA", "street": "201 MILAM ST", "postcode": "71101"}}},
{"geometry": {"type": "Point", "coordinates": [-93.7487935456, 32.5118684898]}, "type": "Feature", "properties": {"collection_times": [{"days": "Mon-Fri", "time": "3:30pm"}, {"days": "Sat", "time": "2:15pm"}, {"days": "Sun", "time": "Closed"}], "id": "7110100031", "name": "USPS COLLECTION BOX - BLUE BOX", "address": {"city": "SHREVEPORT", "state": "LA", "street": "610 MARSHALL ST", "postcode": "71101"}}},
{"geometry": {"type": "Point", "coordinates": [-93.749763804, 32.5128745237]}, "type": "Feature", "properties": {"collection_times": [{"days": "Mon-Fri", "time": "3:45pm"}, {"days": "Sat", "time": "3:15pm"}, {"days": "Sun", "time": "Closed"}], "id": "7110100035", "name": "USPS COLLECTION BOX - BLUE BOX", "address": {"city": "SHREVEPORT", "state": "LA", "street": "502 TEXAS ST", "postcode": "71101"}}},
{"geometry": {"type": "Point", "coordinates": [-93.7507550202, 32.5105651981]}, "type": "Feature", "properties": {"collection_times": [{"days": "Mon-Fri", "time": "3:15pm"}, {"days": "Sat", "time": "2:15pm"}, {"days": "Sun", "time": "Closed"}], "id": "7110100039", "name": "USPS COLLECTION BOX - BLUE BOX", "address": {"city": "SHREVEPORT", "state": "LA", "street": "701 MILAM ST", "postcode": "71101"}}},
{"geometry": {"type": "Point", "coordinates": [-93.749246565, 32.5103992061]}, "type": "Feature", "properties": {"collection_times": [{"days": "Mon-Fri", "time": "3:15pm"}, {"days": "Sat", "time": "2:00pm"}, {"days": "Sun", "time": "Closed"}], "id": "7110100041", "name": "USPS COLLECTION BOX - BLUE BOX", "address": {"city": "SHREVEPORT", "state": "LA", "street": "620 CROCKETT ST", "postcode": "71101"}}},
{"geometry": {"type": "Point", "coordinates": [-93.7445359271, 32.5126267476]}, "type": "Feature", "properties": {"collection_times": [{"days": "Mon-Fri", "time": "3:30pm"}, {"days": "Sat", "time": "2:15pm"}, {"days": "Sun", "time": "Closed"}], "id": "7110100044", "name": "USPS COLLECTION BOX - BLUE BOX", "address": {"city": "SHREVEPORT", "state": "LA", "street": "800 SPRING ST", "postcode": "71101"}}},
{"geometry": {"type": "Point", "coordinates": [-93.7696111995, 32.5136644623]}, "type": "Feature", "properties": {"collection_times": [{"days": "Mon-Fri", "time": "2:45pm"}, {"days": "Sat", "time": "2:30pm"}, {"days": "Sun", "time": "Closed"}], "id": "7110100059", "name": "USPS COLLECTION BOX - BLUE BOX", "address": {"city": "SHREVEPORT", "state": "LA", "street": "400 N DALE AVE", "postcode": "71101"}}},
{"geometry": {"type": "Point", "coordinates": [-93.7467601089, 32.4982366133]}, "type": "Feature", "properties": {"collection_times": [{"days": "Mon-Fri", "time": "2:45pm"}, {"days": "Sat", "time": "1:45pm"}, {"days": "Sun", "time": "Closed"}], "id": "7110100066", "name": "USPS COLLECTION BOX - BLUE BOX", "address": {"city": "SHREVEPORT", "state": "LA", "street": "820 JORDAN ST", "postcode": "71101"}}},
{"geometry": {"type": "Point", "coordinates": [-93.7390016664, 32.5026629416]}, "type": "Feature", "properties": {"collection_times": [{"days": "Mon-Fri", "time": "2:45pm"}, {"days": "Sat", "time": "1:30pm"}, {"days": "Sun", "time": "Closed"}], "id": "7110100086", "name": "USPS COLLECTION BOX - BLUE BOX", "address": {"city": "SHREVEPORT", "state": "LA", "street": "1000 HIGHLAND AVE", "postcode": "71101"}}},
{"geometry": {"type": "Point", "coordinates": [-93.7418164675, 32.4980957985]}, "type": "Feature", "properties": {"collection_times": [{"days": "Mon-Fri", "time": "2:30pm"}, {"days": "Sat", "time": "1:30pm"}, {"days": "Sun", "time": "Closed"}], "id": "7110100093", "name": "USPS COLLECTION BOX - BLUE BOX", "address": {"city": "SHREVEPORT", "state": "LA", "street": "1500 CRESWELL AVE", "postcode": "71101"}}},
{"geometry": {"type": "Point", "coordinates": [-93.7471934693, 32.5131205975]}, "type": "Feature", "properties": {"collection_times": [{"days": "Mon-Fri", "time": "5:00pm"}, {"days": "Sat-Sun", "time": "Closed"}], "id": "7110100097", "name": "USPS COLLECTION BOX - PO LOBBY", "address": {"city": "SHREVEPORT", "state": "LA", "street": "333 MILAM ST", "postcode": "71101"}}},
{"geometry": {"type": "Point", "coordinates": [-93.7471934693, 32.5131205975]}, "type": "Feature", "properties": {"collection_times": [{"days": "Mon-Fri", "time": "5:00pm"}, {"days": "Sat-Sun", "time": "Closed"}], "id": "7110100098", "name": "USPS COLLECTION BOX - PO LOBBY", "address": {"city": "SHREVEPORT", "state": "LA", "street": "333 MILAM ST", "postcode": "71101"}}},
{"geometry": {"type": "Point", "coordinates": [-93.7471934693, 32.5131205975]}, "type": "Feature", "properties": {"collection_times": [{"days": "Mon-Sat", "time": "5:00pm"}, {"days": "Sun", "time": "Closed"}], "id": "7110100100", "name": "USPS COLLECTION BOX - BLUE BOX", "address": {"city": "SHREVEPORT", "state": "LA", "street": "333 MILAM ST", "postcode": "71101"}}},
{"geometry": {"type": "Point", "coordinates": [-93.7471934693, 32.5131205975]}, "type": "Feature", "properties": {"collection_times": [{"days": "Mon-Sat", "time": "5:00pm"}, {"days": "Sun", "time": "Closed"}], "id": "7110100101", "name": "USPS COLLECTION BOX - BLUE BOX", "address": {"city": "SHREVEPORT", "state": "LA", "street": "333 MILAM ST", "postcode": "71101"}}},
{"geometry": {"type": "Point", "coordinates": [-93.7471934693, 32.5131205975]}, "type": "Feature", "properties": {"collection_times": [{"days": "Mon-Sat", "time": "5:00pm"}, {"days": "Sun", "time": "Closed"}], "id": "7110100102", "name": "USPS COLLECTION BOX - BLUE BOX", "address": {"city": "SHREVEPORT", "state": "LA", "street": "333 MILAM ST", "postcode": "71101"}}},
{"geometry": {"type": "Point", "coordinates": [-93.7471934693, 32.5131205975]}, "type": "Feature", "properties": {"collection_times": [{"days": "Mon-Sat", "time": "5:00pm"}, {"days": "Sun", "time": "Closed"}], "id": "7110100103", "name": "USPS COLLECTION BOX - BLUE BOX", "address": {"city": "SHREVEPORT", "state": "LA", "street": "333 MILAM ST", "postcode": "71101"}}},
{"geometry": {"type": "Point", "coordinates": [-93.7471934693, 32.5131205975]}, "type": "Feature", "properties": {"collection_times": [{"days": "Mon-Sat", "time": "5:00pm"}, {"days": "Sun", "time": "Closed"}], "id": "7110100104", "name": "USPS COLLECTION BOX - BLUE BOX", "address": {"city": "SHREVEPORT", "state": "LA", "street": "333 MILAM ST", "postcode": "71101"}}},
{"geometry": {"type": "Point", "coordinates": [-93.7507550202, 32.5105651981]}, "type": "Feature", "properties": {"collection_times": [{"days": "Mon-Fri", "time": "3:15pm"}, {"days": "Sat", "time": "2:15pm"}, {"days": "Sun", "time": "Closed"}], "id": "7110100110", "name": "USPS COLLECTION BOX - BLUE BOX", "address": {"city": "SHREVEPORT", "state": "LA", "street": "701 MILAM ST", "postcode": "71101"}}},
{"geometry": {"type": "Point", "coordinates": [-93.746811798, 32.514889671]}, "type": "Feature", "properties": {"collection_times": [{"days": "Mon-Fri", "time": "3:30pm"}, {"days": "Sat", "time": "2:30pm"}, {"days": "Sun", "time": "Closed"}], "id": "7110100112", "name": "USPS COLLECTION BOX - BLUE BOX", "address": {"city": "SHREVEPORT", "state": "LA", "street": "500 SPRING ST", "postcode": "71101"}}},
{"geometry": {"type": "Point", "coordinates": [-93.7415610424, 32.5028214865]}, "type": "Feature", "properties": {"collection_times": [{"days": "Mon-Fri", "time": "2:30pm"}, {"days": "Sat", "time": "1:30pm"}, {"days": "Sun", "time": "Closed"}], "id": "7110100113", "name": "USPS COLLECTION BOX - BLUE BOX", "address": {"city": "SHREVEPORT", "state": "LA", "street": "1035 CRESWELL AVE", "postcode": "71101"}}},
{"geometry": {"type": "Point", "coordinates": [-93.7476203994, 32.5141953073]}, "type": "Feature", "properties": {"collection_times": [{"days": "Mon-Fri", "time": "3:45pm"}, {"days": "Sat", "time": "2:30pm"}, {"days": "Sun", "time": "Closed"}], "id": "7110100115", "name": "USPS COLLECTION BOX - BLUE BOX", "address": {"city": "SHREVEPORT", "state": "LA", "street": "509 MARKET ST", "postcode": "71101"}}},
{"geometry": {"type": "Point", "coordinates": [-93.7546017665, 32.501136593]}, "type": "Feature", "properties": {"collection_times": [{"days": "Mon-Fri", "time": "4:00pm"}, {"days": "Sat", "time": "3:00pm"}, {"days": "Sun", "time": "Closed"}], "id": "7110100121", "name": "USPS COLLECTION BOX - BLUE BOX", "address": {"city": "SHREVEPORT", "state": "LA", "street": "1230 TEXAS AVE", "postcode": "71101"}}},
{"geometry": {"type": "Point", "coordinates": [-93.7521785939, 32.5125924461]}, "type": "Feature", "properties": {"collection_times": [{"days": "Mon-Fri", "time": "3:30pm"}, {"days": "Sat", "time": "3:00pm"}, {"days": "Sun", "time": "Closed"}], "id": "7110100122", "name": "USPS COLLECTION BOX - BLUE BOX", "address": {"city": "SHREVEPORT", "state": "LA", "street": "666 TRAVIS ST", "postcode": "71101"}}},
{"geometry": {"type": "Point", "coordinates": [-93.7546142989, 32.5010708914]}, "type": "Feature", "properties": {"collection_times": [{"days": "Mon-Fri", "time": "4:00pm"}, {"days": "Sat", "time": "3:00pm"}, {"days": "Sun", "time": "Closed"}], "id": "7110100125", "name": "USPS COLLECTION BOX - BLUE BOX", "address": {"city": "SHREVEPORT", "state": "LA", "street": "1234 TEXAS AVE", "postcode": "71101"}}},
{"geometry": {"type": "Point", "coordinates": [-93.7535883738, 32.496022625]}, "type": "Feature", "properties": {"collection_times": [{"days": "Mon-Fri", "time": "2:30pm"}, {"days": "Sat", "time": "1:30pm"}, {"days": "Sun", "time": "Closed"}], "id": "7110100137", "name": "USPS COLLECTION BOX - BLUE BOX", "address": {"city": "SHREVEPORT", "state": "LA", "street": "1700 BUCKNER ST", "postcode": "71101"}}},
{"geometry": {"type": "Point", "coordinates": [-93.7546457367, 32.5009071529]}, "type": "Feature", "properties": {"collection_times": [{"days": "Mon-Fri", "time": "4:00pm"}, {"days": "Sat", "time": "3:00pm"}, {"days": "Sun", "time": "Closed"}], "id": "7110100138", "name": "USPS COLLECTION BOX - BLUE BOX", "address": {"city": "SHREVEPORT", "state": "LA", "street": "1244 TEXAS AVE", "postcode": "71101"}}},
{"geometry": {"type": "Point", "coordinates": [-93.7523508544, 32.4944134858]}, "type": "Feature", "properties": {"collection_times": [{"days": "Mon-Fri", "time": "2:30pm"}, {"days": "Sat", "time": "1:15pm"}, {"days": "Sun", "time": "Closed"}], "id": "7110100139", "name": "USPS COLLECTION BOX - BLUE BOX", "address": {"city": "SHREVEPORT", "state": "LA", "street": "1801 FAIRFIELD AVE", "postcode": "71101"}}},
{"geometry": {"type": "Point", "coordinates": [-93.7363178866, 32.402411699]}, "type": "Feature", "properties": {"collection_times": [{"days": "Mon-Fri", "time": "3:00pm"}, {"days": "Sat", "time": "2:30pm"}, {"days": "Sun", "time": "Closed"}], "id": "7110100142", "name": "USPS COLLECTION BOX - BLUE BOX", "address": {"city": "SHREVEPORT", "state": "LA", "street": "9091 ELLERBE RD", "postcode": "71101"}}},
{"geometry": {"type": "Point", "coordinates": [-93.7692669819, 32.4871880396]}, "type": "Feature", "properties": {"collection_times": [{"days": "Mon-Sat", "time": "6:00pm"}, {"days": "Sun", "time": "Closed"}], "id": "7110300020", "name": "USPS COLLECTION BOX - BLUE BOX", "address": {"city": "SHREVEPORT", "state": "LA", "street": "2400 TEXAS AVE", "postcode": "71103"}}},
{"geometry": {"type": "Point", "coordinates": [-93.7692669819, 32.4871880396]}, "type": "Feature", "properties": {"collection_times": [{"days": "Mon-Sat", "time": "6:00pm"}, {"days": "Sun", "time": "Closed"}], "id": "7110300022", "name": "USPS COLLECTION BOX - BLUE BOX", "address": {"city": "SHREVEPORT", "state": "LA", "street": "2400 TEXAS AVE", "postcode": "71103"}}},
{"geometry": {"type": "Point", "coordinates": [-93.7692669819, 32.4871880396]}, "type": "Feature", "properties": {"collection_times": [{"days": "Mon-Sat", "time": "6:00pm"}, {"days": "Sun", "time": "Closed"}], "id": "7110300023", "name": "USPS COLLECTION BOX - BLUE BOX", "address": {"city": "SHREVEPORT", "state": "LA", "street": "2400 TEXAS AVE", "postcode": "71103"}}},
{"geometry": {"type": "Point", "coordinates": [-93.7692669819, 32.4871880396]}, "type": "Feature", "properties": {"collection_times": [{"days": "Mon-Sat", "time": "6:00pm"}, {"days": "Sun", "time": "Closed"}], "id": "7110300025", "name": "USPS COLLECTION BOX - BLUE BOX", "address": {"city": "SHREVEPORT", "state": "LA", "street": "2400 TEXAS AVE", "postcode": "71103"}}},
{"geometry": {"type": "Point", "coordinates": [-93.7692669819, 32.4871880396]}, "type": "Feature", "properties": {"collection_times": [{"days": "Mon-Sat", "time": "6:00pm"}, {"days": "Sun", "time": "Closed"}], "id": "7110300027", "name": "USPS COLLECTION BOX - PO LOBBY", "address": {"city": "SHREVEPORT", "state": "LA", "street": "2400 TEXAS AVE", "postcode": "71103"}}},
{"geometry": {"type": "Point", "coordinates": [-93.7692669819, 32.4871880396]}, "type": "Feature", "properties": {"collection_times": [{"days": "Mon-Sat", "time": "6:00pm"}, {"days": "Sun", "time": "Closed"}], "id": "7110300028", "name": "USPS COLLECTION BOX - PO LOBBY", "address": {"city": "SHREVEPORT", "state": "LA", "street": "2400 TEXAS AVE", "postcode": "71103"}}},
{"geometry": {"type": "Point", "coordinates": [-93.7692669819, 32.4871880396]}, "type": "Feature", "properties": {"collection_times": [{"days": "Mon-Sat", "time": "6:00pm"}, {"days": "Sun", "time": "Closed"}], "id": "7110300031", "name": "USPS COLLECTION BOX - BLUE BOX", "address": {"city": "SHREVEPORT", "state": "LA", "street": "2400 TEXAS AVE", "postcode": "71103"}}},
{"geometry": {"type": "Point", "coordinates": [-93.7692669819, 32.4871880396]}, "type": "Feature", "properties": {"collection_times": [{"days": "Mon-Sat", "time": "6:00pm"}, {"days": "Sun", "time": "Closed"}], "id": "7110300032", "name": "USPS COLLECTION BOX - BLUE BOX", "address": {"city": "SHREVEPORT", "state": "LA", "street": "2400 TEXAS AVE", "postcode": "71103"}}},
{"geometry": {"type": "Point", "coordinates": [-93.7712019869, 32.4909058916]}, "type": "Feature", "properties": {"collection_times": [{"days": "Mon-Sat", "time": "11:15am"}, {"days": "Sun", "time": "Closed"}], "id": "7110300033", "name": "USPS COLLECTION BOX - BLUE BOX", "address": {"city": "SHREVEPORT", "state": "LA", "street": "2748 ALBERT L BICKNELL DR", "postcode": "71103"}}},
{"geometry": {"type": "Point", "coordinates": [-93.7269352136, 32.4818132192]}, "type": "Feature", "properties": {"collection_times": [{"days": "Mon-Fri", "time": "1:30pm"}, {"days": "Sat", "time": "12:30pm"}, {"days": "Sun", "time": "Closed"}], "id": "7110400003", "name": "USPS COLLECTION BOX - BLUE BOX", "address": {"city": "SHREVEPORT", "state": "LA", "street": "312 E KINGS HWY", "postcode": "71104"}}},
{"geometry": {"type": "Point", "coordinates": [-93.7504005306, 32.4721175887]}, "type": "Feature", "properties": {"collection_times": [{"days": "Mon-Sat", "time": "1:30pm"}, {"days": "Sun", "time": "Closed"}], "id": "7110400011", "name": "USPS COLLECTION BOX - BLUE BOX", "address": {"city": "SHREVEPORT", "state": "LA", "street": "3820 FAIRFIELD AVE", "postcode": "71104"}}},
{"geometry": {"type": "Point", "coordinates": [-93.737250993, 32.4719725044]}, "type": "Feature", "properties": {"collection_times": [{"days": "Mon-Sat", "time": "1:30pm"}, {"days": "Sun", "time": "Closed"}], "id": "7110400014", "name": "USPS COLLECTION BOX - BLUE BOX", "address": {"city": "SHREVEPORT", "state": "LA", "street": "3825 GILBERT DR", "postcode": "71104"}}},
{"geometry": {"type": "Point", "coordinates": [-93.7363882343, 32.4818169533]}, "type": "Feature", "properties": {"collection_times": [{"days": "Mon-Sat", "time": "4:30pm"}, {"days": "Sun", "time": "Closed"}], "id": "7110400018", "name": "USPS COLLECTION BOX - BLUE BOX", "address": {"city": "SHREVEPORT", "state": "LA", "street": "326 KINGS HWY", "postcode": "71104"}}},
{"geometry": {"type": "Point", "coordinates": [-93.7363882343, 32.4818169533]}, "type": "Feature", "properties": {"collection_times": [{"days": "Mon-Sat", "time": "4:30pm"}, {"days": "Sun", "time": "Closed"}], "id": "7110400019", "name": "USPS COLLECTION BOX - BLUE BOX", "address": {"city": "SHREVEPORT", "state": "LA", "street": "326 KINGS HWY", "postcode": "71104"}}},
{"geometry": {"type": "Point", "coordinates": [-93.7363882343, 32.4818169533]}, "type": "Feature", "properties": {"collection_times": [{"days": "Mon-Sat", "time": "4:30pm"}, {"days": "Sun", "time": "Closed"}], "id": "7110400020", "name": "USPS COLLECTION BOX - BLUE BOX", "address": {"city": "SHREVEPORT", "state": "LA", "street": "326 KINGS HWY", "postcode": "71104"}}},
{"geometry": {"type": "Point", "coordinates": [-93.7363882343, 32.4818169533]}, "type": "Feature", "properties": {"collection_times": [{"days": "Mon-Sat", "time": "4:30pm"}, {"days": "Sun", "time": "Closed"}], "id": "7110400021", "name": "USPS COLLECTION BOX - BLUE BOX", "address": {"city": "SHREVEPORT", "state": "LA", "street": "326 KINGS HWY", "postcode": "71104"}}},
{"geometry": {"type": "Point", "coordinates": [-93.7363882343, 32.4818169533]}, "type": "Feature", "properties": {"collection_times": [{"days": "Mon-Sat", "time": "4:30pm"}, {"days": "Sun", "time": "Closed"}], "id": "7110400022", "name": "USPS COLLECTION BOX - BLUE BOX", "address": {"city": "SHREVEPORT", "state": "LA", "street": "326 KINGS HWY", "postcode": "71104"}}},
{"geometry": {"type": "Point", "coordinates": [-93.7257561737, 32.4848537602]}, "type": "Feature", "properties": {"collection_times": [{"days": "Mon-Fri", "time": "1:15pm"}, {"days": "Sat", "time": "12:30pm"}, {"days": "Sun", "time": "Closed"}], "id": "7110400032", "name": "USPS COLLECTION BOX - BLUE BOX", "address": {"city": "SHREVEPORT", "state": "LA", "street": "400 E WASHINGTON ST", "postcode": "71104"}}},
{"geometry": {"type": "Point", "coordinates": [-93.705974249, 32.4898996299]}, "type": "Feature", "properties": {"collection_times": [{"days": "Mon-Fri", "time": "1:15pm"}, {"days": "Sat", "time": "12:15pm"}, {"days": "Sun", "time": "Closed"}], "id": "7110400038", "name": "USPS COLLECTION BOX - BLUE BOX", "address": {"city": "SHREVEPORT", "state": "LA", "street": "2900 DEE ST", "postcode": "71104"}}},
{"geometry": {"type": "Point", "coordinates": [-93.7363882343, 32.4818169533]}, "type": "Feature", "properties": {"collection_times": [{"days": "Mon-Sat", "time": "4:30pm"}, {"days": "Sun", "time": "Closed"}], "id": "7110400041", "name": "USPS COLLECTION BOX - BLUE BOX", "address": {"city": "SHREVEPORT", "state": "LA", "street": "326 KINGS HWY", "postcode": "71104"}}},
{"geometry": {"type": "Point", "coordinates": [-93.7238523086, 32.4872370251]}, "type": "Feature", "properties": {"collection_times": [{"days": "Mon-Fri", "time": "1:15pm"}, {"days": "Sat", "time": "12:30pm"}, {"days": "Sun", "time": "Closed"}], "id": "7110400042", "name": "USPS COLLECTION BOX - BLUE BOX", "address": {"city": "SHREVEPORT", "state": "LA", "street": "2525 YOUREE DR", "postcode": "71104"}}},
{"geometry": {"type": "Point", "coordinates": [-93.706570121, 32.486452881]}, "type": "Feature", "properties": {"collection_times": [{"days": "Mon-Sat", "time": "2:30pm"}, {"days": "Sun", "time": "Closed"}], "id": "7110500003", "name": "USPS COLLECTION BOX - BLUE BOX", "address": {"city": "SHREVEPORT", "state": "LA", "street": "1201 SHREVEPORT BARKSDALE HWY", "postcode": "71105"}}},
{"geometry": {"type": "Point", "coordinates": [-93.709501305, 32.456588191]}, "type": "Feature", "properties": {"collection_times": [{"days": "Mon-Fri", "time": "4:30pm"}, {"days": "Sat", "time": "3:30pm"}, {"days": "Sun", "time": "Closed"}], "id": "7110500011", "name": "USPS COLLECTION BOX - BLUE BOX", "address": {"city": "SHREVEPORT", "state": "LA", "street": "105 SOUTHFIELD RD", "postcode": "71105"}}},
{"geometry": {"type": "Point", "coordinates": [-93.704431855, 32.48125283]}, "type": "Feature", "properties": {"collection_times": [{"days": "Mon-Fri", "time": "2:45pm"}, {"days": "Sat", "time": "3:00pm"}, {"days": "Sun", "time": "Closed"}], "id": "7110500016", "name": "USPS COLLECTION BOX - BLUE BOX", "address": {"city": "SHREVEPORT", "state": "LA", "street": "3007 KNIGHT ST", "postcode": "71105"}}},
{"geometry": {"type": "Point", "coordinates": [-93.702103328, 32.479083587]}, "type": "Feature", "properties": {"collection_times": [{"days": "Mon-Sat", "time": "2:45pm"}, {"days": "Sun", "time": "Closed"}], "id": "7110500017", "name": "USPS COLLECTION BOX - BLUE BOX", "address": {"city": "SHREVEPORT", "state": "LA", "street": "3200 EASTWOOD DR", "postcode": "71105"}}},
{"geometry": {"type": "Point", "coordinates": [-93.710061238, 32.486114748]}, "type": "Feature", "properties": {"collection_times": [{"days": "Mon-Sat", "time": "2:45pm"}, {"days": "Sun", "time": "Closed"}], "id": "7110500021", "name": "USPS COLLECTION BOX - BLUE BOX", "address": {"city": "SHREVEPORT", "state": "LA", "street": "2924 KNIGHT ST", "postcode": "71105"}}},
{"geometry": {"type": "Point", "coordinates": [-93.704782813, 32.481430966]}, "type": "Feature", "properties": {"collection_times": [{"days": "Mon-Sat", "time": "2:45pm"}, {"days": "Sun", "time": "Closed"}], "id": "7110500022", "name": "USPS COLLECTION BOX - BLUE BOX", "address": {"city": "SHREVEPORT", "state": "LA", "street": "3020 KNIGHT ST", "postcode": "71105"}}},
{"geometry": {"type": "Point", "coordinates": [-93.70535089, 32.482082483]}, "type": "Feature", "properties": {"collection_times": [{"days": "Mon-Sat", "time": "3:00pm"}, {"days": "Sun", "time": "Closed"}], "id": "7110500024", "name": "USPS COLLECTION BOX - BLUE BOX", "address": {"city": "SHREVEPORT", "state": "LA", "street": "3003 KNIGHT ST", "postcode": "71105"}}},
{"geometry": {"type": "Point", "coordinates": [-93.710417042, 32.443483013]}, "type": "Feature", "properties": {"collection_times": [{"days": "Mon-Fri", "time": "5:00pm"}, {"days": "Sat", "time": "4:30pm"}, {"days": "Sun", "time": "Closed"}], "id": "7110500025", "name": "USPS COLLECTION BOX - PO LOBBY", "address": {"city": "SHREVEPORT", "state": "LA", "street": "1925 E 70TH ST", "postcode": "71105"}}},
{"geometry": {"type": "Point", "coordinates": [-93.713200524, 32.433733745]}, "type": "Feature", "properties": {"collection_times": [{"days": "Mon-Fri", "time": "2:45pm"}, {"days": "Sat", "time": "2:15pm"}, {"days": "Sun", "time": "Closed"}], "id": "7110500028", "name": "USPS COLLECTION BOX - BLUE BOX", "address": {"city": "SHREVEPORT", "state": "LA", "street": "7800 YOUREE DR", "postcode": "71105"}}},
{"geometry": {"type": "Point", "coordinates": [-93.710417042, 32.443483013]}, "type": "Feature", "properties": {"collection_times": [{"days": "Mon-Fri", "time": "5:00pm"}, {"days": "Sat", "time": "4:30pm"}, {"days": "Sun", "time": "Closed"}], "id": "7110500031", "name": "USPS COLLECTION BOX - PO LOBBY", "address": {"city": "SHREVEPORT", "state": "LA", "street": "1925 E 70TH ST", "postcode": "71105"}}},
{"geometry": {"type": "Point", "coordinates": [-93.710417042, 32.443483013]}, "type": "Feature", "properties": {"collection_times": [{"days": "Mon-Fri", "time": "5:00pm"}, {"days": "Sat", "time": "4:30pm"}, {"days": "Sun", "time": "Closed"}], "id": "7110500032", "name": "USPS COLLECTION BOX - BLUE BOX", "address": {"city": "SHREVEPORT", "state": "LA", "street": "1925 E 70TH ST", "postcode": "71105"}}},
{"geometry": {"type": "Point", "coordinates": [-93.710417042, 32.443483013]}, "type": "Feature", "properties": {"collection_times": [{"days": "Mon-Fri", "time": "5:00pm"}, {"days": "Sat", "time": "4:30pm"}, {"days": "Sun", "time": "Closed"}], "id": "7110500034", "name": "USPS COLLECTION BOX - BLUE BOX", "address": {"city": "SHREVEPORT", "state": "LA", "street": "1925 E 70TH ST", "postcode": "71105"}}},
{"geometry": {"type": "Point", "coordinates": [-93.710417042, 32.443483013]}, "type": "Feature", "properties": {"collection_times": [{"days": "Mon-Fri", "time": "5:00pm"}, {"days": "Sat", "time": "4:30pm"}, {"days": "Sun", "time": "Closed"}], "id": "7110500035", "name": "USPS COLLECTION BOX - BLUE BOX", "address": {"city": "SHREVEPORT", "state": "LA", "street": "1925 E 70TH ST", "postcode": "71105"}}},
{"geometry": {"type": "Point", "coordinates": [-93.710417042, 32.443483013]}, "type": "Feature", "properties": {"collection_times": [{"days": "Mon-Fri", "time": "5:00pm"}, {"days": "Sat", "time": "4:30pm"}, {"days": "Sun", "time": "Closed"}], "id": "7110500036", "name": "USPS COLLECTION BOX - BLUE BOX", "address": {"city": "SHREVEPORT", "state": "LA", "street": "1925 E 70TH ST", "postcode": "71105"}}},
{"geometry": {"type": "Point", "coordinates": [-93.710417042, 32.443483013]}, "type": "Feature", "properties": {"collection_times": [{"days": "Mon-Fri", "time": "5:00pm"}, {"days": "Sat", "time": "4:30pm"}, {"days": "Sun", "time": "Closed"}], "id": "7110500037", "name": "USPS COLLECTION BOX - BLUE BOX", "address": {"city": "SHREVEPORT", "state": "LA", "street": "1925 E 70TH ST", "postcode": "71105"}}},
{"geometry": {"type": "Point", "coordinates": [-93.712701049, 32.433633934]}, "type": "Feature", "properties": {"collection_times": [{"days": "Mon-Fri", "time": "1:15pm"}, {"days": "Sat", "time": "12:15pm"}, {"days": "Sun", "time": "Closed"}], "id": "7110500038", "name": "USPS COLLECTION BOX - BLUE BOX", "address": {"city": "SHREVEPORT", "state": "LA", "street": "7829 YOUREE DR", "postcode": "71105"}}},
{"geometry": {"type": "Point", "coordinates": [-93.710417042, 32.443483013]}, "type": "Feature", "properties": {"collection_times": [{"days": "Mon-Fri", "time": "5:00pm"}, {"days": "Sat", "time": "4:30pm"}, {"days": "Sun", "time": "Closed"}], "id": "7110500040", "name": "USPS COLLECTION BOX - BLUE BOX", "address": {"city": "SHREVEPORT", "state": "LA", "street": "1925 E 70TH ST", "postcode": "71105"}}},
{"geometry": {"type": "Point", "coordinates": [-93.702931834, 32.483467911]}, "type": "Feature", "properties": {"collection_times": [{"days": "Mon-Fri", "time": "3:00pm"}, {"days": "Sat", "time": "3:15pm"}, {"days": "Sun", "time": "Closed"}], "id": "7110500046", "name": "USPS COLLECTION BOX - BLUE BOX", "address": {"city": "SHREVEPORT", "state": "LA", "street": "1120 S POINTE PKWY", "postcode": "71105"}}},
{"geometry": {"type": "Point", "coordinates": [-93.712701049, 32.433633934]}, "type": "Feature", "properties": {"collection_times": [{"days": "Mon-Fri", "time": "1:15pm"}, {"days": "Sat", "time": "12:15pm"}, {"days": "Sun", "time": "Closed"}], "id": "7110500047", "name": "USPS COLLECTION BOX - BLUE BOX", "address": {"city": "SHREVEPORT", "state": "LA", "street": "7829 YOUREE DR", "postcode": "71105"}}},
{"geometry": {"type": "Point", "coordinates": [-93.716300241, 32.44344749]}, "type": "Feature", "properties": {"collection_times": [{"days": "Mon-Fri", "time": "4:00pm"}, {"days": "Sat", "time": "3:15pm"}, {"days": "Sun", "time": "Closed"}], "id": "7110500049", "name": "USPS COLLECTION BOX - BLUE BOX", "address": {"city": "SHREVEPORT", "state": "LA", "street": "1714 E 70TH ST", "postcode": "71105"}}},
{"geometry": {"type": "Point", "coordinates": [-93.703150707, 32.487522207]}, "type": "Feature", "properties": {"collection_times": [{"days": "Mon-Fri", "time": "3:00pm"}, {"days": "Sat", "time": "3:15pm"}, {"days": "Sun", "time": "Closed"}], "id": "7110500050", "name": "USPS COLLECTION BOX - BLUE BOX", "address": {"city": "SHREVEPORT", "state": "LA", "street": "3115 DEE ST", "postcode": "71105"}}},
{"geometry": {"type": "Point", "coordinates": [-93.729494466, 32.442292393]}, "type": "Feature", "properties": {"collection_times": [{"days": "Mon-Fri", "time": "2:30pm"}, {"days": "Sat", "time": "2:00pm"}, {"days": "Sun", "time": "Closed"}], "id": "7110500052", "name": "USPS COLLECTION BOX - BLUE BOX", "address": {"city": "SHREVEPORT", "state": "LA", "street": "7000 FERN AVE", "postcode": "71105"}}},
{"geometry": {"type": "Point", "coordinates": [-93.704539572, 32.481267727]}, "type": "Feature", "properties": {"collection_times": [{"days": "Mon-Sat", "time": "2:45pm"}, {"days": "Sun", "time": "Closed"}], "id": "7110500054", "name": "USPS COLLECTION BOX - BLUE BOX", "address": {"city": "SHREVEPORT", "state": "LA", "street": "3010 KNIGHT ST", "postcode": "71105"}}},
{"geometry": {"type": "Point", "coordinates": [-93.722162813, 32.455079814]}, "type": "Feature", "properties": {"collection_times": [{"days": "Mon-Fri", "time": "1:30pm"}, {"days": "Sat", "time": "2:30pm"}, {"days": "Sun", "time": "Closed"}], "id": "7110500062", "name": "USPS COLLECTION BOX - BLUE BOX", "address": {"city": "SHREVEPORT", "state": "LA", "street": "5750 YOUREE DR", "postcode": "71105"}}},
{"geometry": {"type": "Point", "coordinates": [-93.722147916, 32.478561043]}, "type": "Feature", "properties": {"collection_times": [{"days": "Mon-Fri", "time": "4:30pm"}, {"days": "Sat", "time": "3:45pm"}, {"days": "Sun", "time": "Closed"}], "id": "7110500064", "name": "USPS COLLECTION BOX - BLUE BOX", "address": {"city": "SHREVEPORT", "state": "LA", "street": "3321 YOUREE DR", "postcode": "71105"}}},
{"geometry": {"type": "Point", "coordinates": [-93.710417042, 32.443483013]}, "type": "Feature", "properties": {"collection_times": [{"days": "Mon-Fri", "time": "5:00pm"}, {"days": "Sat", "time": "4:30pm"}, {"days": "Sun", "time": "Closed"}], "id": "7110500065", "name": "USPS COLLECTION BOX - APC", "address": {"city": "SHREVEPORT", "state": "LA", "street": "1925 E 70TH ST", "postcode": "71105"}}},
{"geometry": {"type": "Point", "coordinates": [-93.728541599, 32.436369396]}, "type": "Feature", "properties": {"collection_times": [{"days": "Mon-Fri", "time": "2:30pm"}, {"days": "Sat", "time": "2:00pm"}, {"days": "Sun", "time": "Closed"}], "id": "7110500067", "name": "USPS COLLECTION BOX - BLUE BOX", "address": {"city": "SHREVEPORT", "state": "LA", "street": "7600 FERN AVE", "postcode": "71105"}}},
{"geometry": {"type": "Point", "coordinates": [-93.711493881, 32.455529099]}, "type": "Feature", "properties": {"collection_times": [{"days": "Mon-Fri", "time": "2:30pm"}, {"days": "Sat", "time": "2:15pm"}, {"days": "Sun", "time": "Closed"}], "id": "7110500068", "name": "USPS COLLECTION BOX - BLUE BOX", "address": {"city": "SHREVEPORT", "state": "LA", "street": "1610 E BERT KOUNS LOOP", "postcode": "71105"}}},
{"geometry": {"type": "Point", "coordinates": [-93.710350578, 32.456613067]}, "type": "Feature", "properties": {"collection_times": [{"days": "Mon-Fri", "time": "4:15pm"}, {"days": "Sat", "time": "3:30pm"}, {"days": "Sun", "time": "Closed"}], "id": "7110500069", "name": "USPS COLLECTION BOX - BLUE BOX", "address": {"city": "SHREVEPORT", "state": "LA", "street": "109 SOUTHFIELD RD", "postcode": "71105"}}},
{"geometry": {"type": "Point", "coordinates": [-93.728541599, 32.436369396]}, "type": "Feature", "properties": {"collection_times": [{"days": "Mon-Fri", "time": "2:30pm"}, {"days": "Sat", "time": "2:00pm"}, {"days": "Sun", "time": "Closed"}], "id": "7110500070", "name": "USPS COLLECTION BOX - BLUE BOX", "address": {"city": "SHREVEPORT", "state": "LA", "street": "7600 FERN AVE", "postcode": "71105"}}},
{"geometry": {"type": "Point", "coordinates": [-93.7594604249, 32.4221983383]}, "type": "Feature", "properties": {"collection_times": [{"days": "Mon-Fri", "time": "5:00pm"}, {"days": "Sat", "time": "4:30pm"}, {"days": "Sun", "time": "Closed"}], "id": "7110600007", "name": "USPS COLLECTION BOX - BLUE BOX", "address": {"city": "SHREVEPORT", "state": "LA", "street": "241 LYNBROOK BLVD", "postcode": "71106"}}},
{"geometry": {"type": "Point", "coordinates": [-93.7594604249, 32.4221983383]}, "type": "Feature", "properties": {"collection_times": [{"days": "Mon-Fri", "time": "5:00pm"}, {"days": "Sat", "time": "4:30pm"}, {"days": "Sun", "time": "Closed"}], "id": "7110600008", "name": "USPS COLLECTION BOX - BLUE BOX", "address": {"city": "SHREVEPORT", "state": "LA", "street": "241 LYNBROOK BLVD", "postcode": "71106"}}},
{"geometry": {"type": "Point", "coordinates": [-93.7594604249, 32.4221983383]}, "type": "Feature", "properties": {"collection_times": [{"days": "Mon-Fri", "time": "5:00pm"}, {"days": "Sat", "time": "4:30pm"}, {"days": "Sun", "time": "Closed"}], "id": "7110600009", "name": "USPS COLLECTION BOX - BLUE BOX", "address": {"city": "SHREVEPORT", "state": "LA", "street": "241 LYNBROOK BLVD", "postcode": "71106"}}},
{"geometry": {"type": "Point", "coordinates": [-93.7594604249, 32.4221983383]}, "type": "Feature", "properties": {"collection_times": [{"days": "Mon-Fri", "time": "5:00pm"}, {"days": "Sat", "time": "4:30pm"}, {"days": "Sun", "time": "Closed"}], "id": "7110600010", "name": "USPS COLLECTION BOX - BLUE BOX", "address": {"city": "SHREVEPORT", "state": "LA", "street": "241 LYNBROOK BLVD", "postcode": "71106"}}},
{"geometry": {"type": "Point", "coordinates": [-93.7486343324, 32.4547588703]}, "type": "Feature", "properties": {"collection_times": [{"days": "Mon-Fri", "time": "3:30pm"}, {"days": "Sat", "time": "3:00pm"}, {"days": "Sun", "time": "Closed"}], "id": "7110600015", "name": "USPS COLLECTION BOX - BLUE BOX", "address": {"city": "SHREVEPORT", "state": "LA", "street": "910 PIERREMONT RD", "postcode": "71106"}}},
{"geometry": {"type": "Point", "coordinates": [-93.7461107081, 32.4560457129]}, "type": "Feature", "properties": {"collection_times": [{"days": "Mon-Fri", "time": "3:15pm"}, {"days": "Sat", "time": "3:00pm"}, {"days": "Sun", "time": "Closed"}], "id": "7110600017", "name": "USPS COLLECTION BOX - BLUE BOX", "address": {"city": "SHREVEPORT", "state": "LA", "street": "5828 LINE AVE", "postcode": "71106"}}},
{"geometry": {"type": "Point", "coordinates": [-93.7461107081, 32.4560457129]}, "type": "Feature", "properties": {"collection_times": [{"days": "Mon-Fri", "time": "3:15pm"}, {"days": "Sat", "time": "3:00pm"}, {"days": "Sun", "time": "Closed"}], "id": "7110600018", "name": "USPS COLLECTION BOX - BLUE BOX", "address": {"city": "SHREVEPORT", "state": "LA", "street": "5828 LINE AVE", "postcode": "71106"}}},
{"geometry": {"type": "Point", "coordinates": [-93.7481958153, 32.4547588703]}, "type": "Feature", "properties": {"collection_times": [{"days": "Mon-Fri", "time": "3:30pm"}, {"days": "Sat", "time": "3:00pm"}, {"days": "Sun", "time": "Closed"}], "id": "7110600026", "name": "USPS COLLECTION BOX - BLUE BOX", "address": {"city": "SHREVEPORT", "state": "LA", "street": "900 PIERREMONT RD", "postcode": "71106"}}},
{"geometry": {"type": "Point", "coordinates": [-93.7490728495, 32.4547588703]}, "type": "Feature", "properties": {"collection_times": [{"days": "Mon-Fri", "time": "3:30pm"}, {"days": "Sat", "time": "3:00pm"}, {"days": "Sun", "time": "Closed"}], "id": "7110600028", "name": "USPS COLLECTION BOX - BLUE BOX", "address": {"city": "SHREVEPORT", "state": "LA", "street": "920 PIERREMONT RD", "postcode": "71106"}}},
{"geometry": {"type": "Point", "coordinates": [-93.7594604249, 32.4221983383]}, "type": "Feature", "properties": {"collection_times": [{"days": "Mon-Fri", "time": "5:00pm"}, {"days": "Sat", "time": "4:30pm"}, {"days": "Sun", "time": "Closed"}], "id": "7110600030", "name": "USPS COLLECTION BOX - PO LOBBY", "address": {"city": "SHREVEPORT", "state": "LA", "street": "241 LYNBROOK BLVD", "postcode": "71106"}}},
{"geometry": {"type": "Point", "coordinates": [-93.7486343324, 32.4547588703]}, "type": "Feature", "properties": {"collection_times": [{"days": "Mon-Fri", "time": "3:30pm"}, {"days": "Sat", "time": "3:00pm"}, {"days": "Sun", "time": "Closed"}], "id": "7110600032", "name": "USPS COLLECTION BOX - BLUE BOX", "address": {"city": "SHREVEPORT", "state": "LA", "street": "910 PIERREMONT RD", "postcode": "71106"}}},
{"geometry": {"type": "Point", "coordinates": [-93.7356592083, 32.4181370637]}, "type": "Feature", "properties": {"collection_times": [{"days": "Mon-Fri", "time": "2:45pm"}, {"days": "Sat", "time": "2:30pm"}, {"days": "Sun", "time": "Closed"}], "id": "7110600036", "name": "USPS COLLECTION BOX - BLUE BOX", "address": {"city": "SHREVEPORT", "state": "LA", "street": "411 ASHLEY RIDGE BLVD", "postcode": "71106"}}},
{"geometry": {"type": "Point", "coordinates": [-93.7356592083, 32.4181370637]}, "type": "Feature", "properties": {"collection_times": [{"days": "Mon-Fri", "time": "2:45pm"}, {"days": "Sat", "time": "2:30pm"}, {"days": "Sun", "time": "Closed"}], "id": "7110600037", "name": "USPS COLLECTION BOX - BLUE BOX", "address": {"city": "SHREVEPORT", "state": "LA", "street": "411 ASHLEY RIDGE BLVD", "postcode": "71106"}}},
{"geometry": {"type": "Point", "coordinates": [-93.7490728495, 32.4547588703]}, "type": "Feature", "properties": {"collection_times": [{"days": "Mon-Fri", "time": "3:30pm"}, {"days": "Sat", "time": "3:00pm"}, {"days": "Sun", "time": "Closed"}], "id": "7110600038", "name": "USPS COLLECTION BOX - BLUE BOX", "address": {"city": "SHREVEPORT", "state": "LA", "street": "920 PIERREMONT RD", "postcode": "71106"}}},
{"geometry": {"type": "Point", "coordinates": [-93.7644964216, 32.536967218]}, "type": "Feature", "properties": {"collection_times": [{"days": "Mon-Fri", "time": "5:00pm"}, {"days": "Sat", "time": "4:45pm"}, {"days": "Sun", "time": "Closed"}], "id": "7110700003", "name": "USPS COLLECTION BOX - BLUE BOX", "address": {"city": "SHREVEPORT", "state": "LA", "street": "1446 HAWN AVE", "postcode": "71107"}}},
{"geometry": {"type": "Point", "coordinates": [-93.7718652581, 32.5354931546]}, "type": "Feature", "properties": {"collection_times": [{"days": "Mon-Fri", "time": "3:00pm"}, {"days": "Sat", "time": "2:30pm"}, {"days": "Sun", "time": "Closed"}], "id": "7110700011", "name": "USPS COLLECTION BOX - BLUE BOX", "address": {"city": "SHREVEPORT", "state": "LA", "street": "1620 FULLERTON ST", "postcode": "71107"}}},
{"geometry": {"type": "Point", "coordinates": [-93.833327564, 32.543626082]}, "type": "Feature", "properties": {"collection_times": [{"days": "Mon-Fri", "time": "3:15pm"}, {"days": "Sat", "time": "2:00pm"}, {"days": "Sun", "time": "Closed"}], "id": "7110700016", "name": "USPS COLLECTION BOX - BLUE BOX", "address": {"city": "SHREVEPORT", "state": "LA", "street": "3050 DR MARTIN LUTHER KING DR", "postcode": "71107"}}},
{"geometry": {"type": "Point", "coordinates": [-93.7644964216, 32.536967218]}, "type": "Feature", "properties": {"collection_times": [{"days": "Mon-Fri", "time": "5:00pm"}, {"days": "Sat", "time": "4:45pm"}, {"days": "Sun", "time": "Closed"}], "id": "7110700017", "name": "USPS COLLECTION BOX - BLUE BOX", "address": {"city": "SHREVEPORT", "state": "LA", "street": "1446 HAWN AVE", "postcode": "71107"}}},
{"geometry": {"type": "Point", "coordinates": [-93.7835529397, 32.5581568856]}, "type": "Feature", "properties": {"collection_times": [{"days": "Mon-Fri", "time": "2:30pm"}, {"days": "Sat", "time": "1:45pm"}, {"days": "Sun", "time": "Closed"}], "id": "7110700018", "name": "USPS COLLECTION BOX - BLUE BOX", "address": {"city": "SHREVEPORT", "state": "LA", "street": "3000 N MARKET ST", "postcode": "71107"}}},
{"geometry": {"type": "Point", "coordinates": [-93.7643433956, 32.5390582287]}, "type": "Feature", "properties": {"collection_times": [{"days": "Mon-Fri", "time": "3:00pm"}, {"days": "Sat", "time": "2:45pm"}, {"days": "Sun", "time": "Closed"}], "id": "7110700035", "name": "USPS COLLECTION BOX - BLUE BOX", "address": {"city": "SHREVEPORT", "state": "LA", "street": "1324 N HEARNE AVE", "postcode": "71107"}}},
{"geometry": {"type": "Point", "coordinates": [-93.8363997769, 32.5782727325]}, "type": "Feature", "properties": {"collection_times": [{"days": "Mon-Fri", "time": "5:00pm"}, {"days": "Sat", "time": "4:45pm"}, {"days": "Sun", "time": "Closed"}], "id": "7110700037", "name": "USPS COLLECTION BOX - PO LOBBY", "address": {"city": "SHREVEPORT", "state": "LA", "street": "1446 HAWN AVE", "postcode": "71107"}}},
{"geometry": {"type": "Point", "coordinates": [-93.8363997769, 32.5782727325]}, "type": "Feature", "properties": {"collection_times": [{"days": "Mon-Fri", "time": "5:00pm"}, {"days": "Sat", "time": "4:45pm"}, {"days": "Sun", "time": "Closed"}], "id": "7110700038", "name": "USPS COLLECTION BOX - PO LOBBY", "address": {"city": "SHREVEPORT", "state": "LA", "street": "1446 HAWN AVE", "postcode": "71107"}}},
{"geometry": {"type": "Point", "coordinates": [-93.7874422877, 32.421329854]}, "type": "Feature", "properties": {"collection_times": [{"days": "Mon-Fri", "time": "5:00pm"}, {"days": "Sat", "time": "4:30pm"}, {"days": "Sun", "time": "Closed"}], "id": "7110800002", "name": "USPS COLLECTION BOX - BLUE BOX", "address": {"city": "SHREVEPORT", "state": "LA", "street": "8340 MANSFIELD RD", "postcode": "71108"}}},
{"geometry": {"type": "Point", "coordinates": [-93.7874422877, 32.421329854]}, "type": "Feature", "properties": {"collection_times": [{"days": "Mon-Fri", "time": "5:00pm"}, {"days": "Sat", "time": "4:30pm"}, {"days": "Sun", "time": "Closed"}], "id": "7110800012", "name": "USPS COLLECTION BOX - BLUE BOX", "address": {"city": "SHREVEPORT", "state": "LA", "street": "8340 MANSFIELD RD", "postcode": "71108"}}},
{"geometry": {"type": "Point", "coordinates": [-93.7813780352, 32.4418646742]}, "type": "Feature", "properties": {"collection_times": [{"days": "Mon-Sat", "time": "11:45am"}, {"days": "Sun", "time": "Closed"}], "id": "7110800016", "name": "USPS COLLECTION BOX - BLUE BOX", "address": {"city": "SHREVEPORT", "state": "LA", "street": "2705 W 70TH ST", "postcode": "71108"}}},
{"geometry": {"type": "Point", "coordinates": [-93.7874422877, 32.421329854]}, "type": "Feature", "properties": {"collection_times": [{"days": "Mon-Fri", "time": "5:00pm"}, {"days": "Sat", "time": "4:30pm"}, {"days": "Sun", "time": "Closed"}], "id": "7110800018", "name": "USPS COLLECTION BOX - PO LOBBY", "address": {"city": "SHREVEPORT", "state": "LA", "street": "8340 MANSFIELD RD", "postcode": "71108"}}},
{"geometry": {"type": "Point", "coordinates": [-93.7874422877, 32.421329854]}, "type": "Feature", "properties": {"collection_times": [{"days": "Mon-Fri", "time": "5:00pm"}, {"days": "Sat", "time": "4:30pm"}, {"days": "Sun", "time": "Closed"}], "id": "7110800019", "name": "USPS COLLECTION BOX - PO LOBBY", "address": {"city": "SHREVEPORT", "state": "LA", "street": "8340 MANSFIELD RD", "postcode": "71108"}}},
{"geometry": {"type": "Point", "coordinates": [-93.7874422877, 32.421329854]}, "type": "Feature", "properties": {"collection_times": [{"days": "Mon-Fri", "time": "5:00pm"}, {"days": "Sat", "time": "4:30pm"}, {"days": "Sun", "time": "Closed"}], "id": "7110800020", "name": "USPS COLLECTION BOX - PO LOBBY", "address": {"city": "SHREVEPORT", "state": "LA", "street": "8340 MANSFIELD RD", "postcode": "71108"}}},
{"geometry": {"type": "Point", "coordinates": [-93.7773457244, 32.455302605]}, "type": "Feature", "properties": {"collection_times": [{"days": "Mon-Sat", "time": "11:45am"}, {"days": "Sun", "time": "Closed"}], "id": "7110800022", "name": "USPS COLLECTION BOX - BLUE BOX", "address": {"city": "SHREVEPORT", "state": "LA", "street": "5836 MANSFIELD RD", "postcode": "71108"}}},
{"geometry": {"type": "Point", "coordinates": [-93.7971754539, 32.4769115072]}, "type": "Feature", "properties": {"collection_times": [{"days": "Mon-Fri", "time": "11:15am"}, {"days": "Sat", "time": "11:00am"}, {"days": "Sun", "time": "Closed"}], "id": "7110900006", "name": "USPS COLLECTION BOX - BLUE BOX", "address": {"city": "SHREVEPORT", "state": "LA", "street": "3749 JEWELLA AVE", "postcode": "71109"}}},
{"geometry": {"type": "Point", "coordinates": [-93.7980476765, 32.4927417256]}, "type": "Feature", "properties": {"collection_times": [{"days": "Mon-Fri", "time": "11:30am"}, {"days": "Sat", "time": "11:00am"}, {"days": "Sun", "time": "Closed"}], "id": "7110900011", "name": "USPS COLLECTION BOX - BLUE BOX", "address": {"city": "SHREVEPORT", "state": "LA", "street": "3730 LAKESHORE DR", "postcode": "71109"}}},
{"geometry": {"type": "Point", "coordinates": [-93.805889995, 32.4565044126]}, "type": "Feature", "properties": {"collection_times": [{"days": "Mon-Fri", "time": "11:45am"}, {"days": "Sat", "time": "11:30am"}, {"days": "Sun", "time": "Closed"}], "id": "7110900014", "name": "USPS COLLECTION BOX - BLUE BOX", "address": {"city": "SHREVEPORT", "state": "LA", "street": "4101 HOLLYWOOD AVE", "postcode": "71109"}}},
{"geometry": {"type": "Point", "coordinates": [-93.6793934494, 32.4898729188]}, "type": "Feature", "properties": {"collection_times": [{"days": "Mon-Fri", "time": "12:45pm"}, {"days": "Sat", "time": "11:45am"}, {"days": "Sun", "time": "Closed"}], "id": "7111000000", "name": "USPS COLLECTION BOX - BLUE BOX", "address": {"city": "SHREVEPORT", "state": "LA", "street": "1265 TWINING DR", "postcode": "71110"}}},
{"geometry": {"type": "Point", "coordinates": [-93.6763604348, 32.5018194246]}, "type": "Feature", "properties": {"collection_times": [{"days": "Mon-Fri", "time": "1:00pm"}, {"days": "Sat", "time": "11:45am"}, {"days": "Sun", "time": "Closed"}], "id": "7111000001", "name": "USPS COLLECTION BOX - BLUE BOX", "address": {"city": "SHREVEPORT", "state": "LA", "street": "245 DAVIS AVE E", "postcode": "71110"}}},
{"geometry": {"type": "Point", "coordinates": [-93.6793934494, 32.4898729188]}, "type": "Feature", "properties": {"collection_times": [{"days": "Mon-Fri", "time": "12:45pm"}, {"days": "Sat", "time": "11:45am"}, {"days": "Sun", "time": "Closed"}], "id": "7111000004", "name": "USPS COLLECTION BOX - BLUE BOX", "address": {"city": "SHREVEPORT", "state": "LA", "street": "1265 TWINING DR", "postcode": "71110"}}},
{"geometry": {"type": "Point", "coordinates": [-93.6787339644, 32.4976474757]}, "type": "Feature", "properties": {"collection_times": [{"days": "Mon-Fri", "time": "1:00pm"}, {"days": "Sat", "time": "11:45am"}, {"days": "Sun", "time": "Closed"}], "id": "7111000012", "name": "USPS COLLECTION BOX - BLUE BOX", "address": {"city": "SHREVEPORT", "state": "LA", "street": "800 KENNEY AVE", "postcode": "71110"}}},
{"geometry": {"type": "Point", "coordinates": [-93.6774899455, 32.4936155005]}, "type": "Feature", "properties": {"collection_times": [{"days": "Mon-Fri", "time": "12:45pm"}, {"days": "Sat", "time": "11:45am"}, {"days": "Sun", "time": "Closed"}], "id": "7111000015", "name": "USPS COLLECTION BOX - BLUE BOX", "address": {"city": "SHREVEPORT", "state": "LA", "street": "455 CURTISS RD", "postcode": "71110"}}},
{"geometry": {"type": "Point", "coordinates": [-93.721134069, 32.5371544842]}, "type": "Feature", "properties": {"collection_times": [{"days": "Mon-Fri", "time": "12:45pm"}, {"days": "Sat", "time": "11:00am"}, {"days": "Sun", "time": "Closed"}], "id": "7111100008", "name": "USPS COLLECTION BOX - BLUE BOX", "address": {"city": "BOSSIER CITY", "state": "LA", "street": "1911 BENTON RD", "postcode": "71111"}}},
{"geometry": {"type": "Point", "coordinates": [-93.708489956, 32.5419847248]}, "type": "Feature", "properties": {"collection_times": [{"days": "Mon-Fri", "time": "1:00pm"}, {"days": "Sat", "time": "11:30am"}, {"days": "Sun", "time": "Closed"}], "id": "7111100018", "name": "USPS COLLECTION BOX - BLUE BOX", "address": {"city": "BOSSIER CITY", "state": "LA", "street": "2341 AIRLINE DR", "postcode": "71111"}}},
{"geometry": {"type": "Point", "coordinates": [-93.7098902517, 32.538542872]}, "type": "Feature", "properties": {"collection_times": [{"days": "Mon-Fri", "time": "1:00pm"}, {"days": "Sat", "time": "11:30am"}, {"days": "Sun", "time": "Closed"}], "id": "7111100019", "name": "USPS COLLECTION BOX - BLUE BOX", "address": {"city": "BOSSIER CITY", "state": "LA", "street": "2801 NORTHSIDE DR", "postcode": "71111"}}},
{"geometry": {"type": "Point", "coordinates": [-93.6741669922, 32.5432832989]}, "type": "Feature", "properties": {"collection_times": [{"days": "Mon-Fri", "time": "1:15pm"}, {"days": "Sat", "time": "11:45am"}, {"days": "Sun", "time": "Closed"}], "id": "7111100026", "name": "USPS COLLECTION BOX - BLUE BOX", "address": {"city": "BOSSIER CITY", "state": "LA", "street": "4609 SHED RD", "postcode": "71111"}}},
{"geometry": {"type": "Point", "coordinates": [-93.6997291281, 32.5289003428]}, "type": "Feature", "properties": {"collection_times": [{"days": "Mon-Fri", "time": "1:30pm"}, {"days": "Sat", "time": "12:30pm"}, {"days": "Sun", "time": "Closed"}], "id": "7111100030", "name": "USPS COLLECTION BOX - BLUE BOX", "address": {"city": "BOSSIER CITY", "state": "LA", "street": "3121 E TEXAS ST", "postcode": "71111"}}},
{"geometry": {"type": "Point", "coordinates": [-93.7040975628, 32.5286739511]}, "type": "Feature", "properties": {"collection_times": [{"days": "Mon-Fri", "time": "1:30pm"}, {"days": "Sat", "time": "12:30pm"}, {"days": "Sun", "time": "Closed"}], "id": "7111100033", "name": "USPS COLLECTION BOX - BLUE BOX", "address": {"city": "BOSSIER CITY", "state": "LA", "street": "2950 E TEXAS ST", "postcode": "71111"}}},
{"geometry": {"type": "Point", "coordinates": [-93.7172299303, 32.5251697085]}, "type": "Feature", "properties": {"collection_times": [{"days": "Mon-Fri", "time": "12:45pm"}, {"days": "Sat", "time": "11:00am"}, {"days": "Sun", "time": "Closed"}], "id": "7111100038", "name": "USPS COLLECTION BOX - BLUE BOX", "address": {"city": "BOSSIER CITY", "state": "LA", "street": "718 BENTON RD", "postcode": "71111"}}},
{"geometry": {"type": "Point", "coordinates": [-93.7167603035, 32.5174283115]}, "type": "Feature", "properties": {"collection_times": [{"days": "Mon-Fri", "time": "5:00pm"}, {"days": "Sat", "time": "4:00pm"}, {"days": "Sun", "time": "Closed"}], "id": "7111100041", "name": "USPS COLLECTION BOX - BLUE BOX", "address": {"city": "BOSSIER CITY", "state": "LA", "street": "150 BENTON RD", "postcode": "71111"}}},
{"geometry": {"type": "Point", "coordinates": [-93.7167603035, 32.5174283115]}, "type": "Feature", "properties": {"collection_times": [{"days": "Mon-Fri", "time": "5:00pm"}, {"days": "Sat", "time": "4:00pm"}, {"days": "Sun", "time": "Closed"}], "id": "7111100045", "name": "USPS COLLECTION BOX - PO LOBBY", "address": {"city": "BOSSIER CITY", "state": "LA", "street": "150 BENTON RD", "postcode": "71111"}}},
{"geometry": {"type": "Point", "coordinates": [-93.7167603035, 32.5174283115]}, "type": "Feature", "properties": {"collection_times": [{"days": "Mon-Fri", "time": "5:00pm"}, {"days": "Sat", "time": "4:00pm"}, {"days": "Sun", "time": "Closed"}], "id": "7111100046", "name": "USPS COLLECTION BOX - PO LOBBY", "address": {"city": "BOSSIER CITY", "state": "LA", "street": "150 BENTON RD", "postcode": "71111"}}},
{"geometry": {"type": "Point", "coordinates": [-93.7167603035, 32.5174283115]}, "type": "Feature", "properties": {"collection_times": [{"days": "Mon-Fri", "time": "5:00pm"}, {"days": "Sat", "time": "4:00pm"}, {"days": "Sun", "time": "Closed"}], "id": "7111100047", "name": "USPS COLLECTION BOX - BLUE BOX", "address": {"city": "BOSSIER CITY", "state": "LA", "street": "150 BENTON RD", "postcode": "71111"}}},
{"geometry": {"type": "Point", "coordinates": [-93.7167603035, 32.5174283115]}, "type": "Feature", "properties": {"collection_times": [{"days": "Mon-Fri", "time": "5:00pm"}, {"days": "Sat", "time": "4:00pm"}, {"days": "Sun", "time": "Closed"}], "id": "7111100048", "name": "USPS COLLECTION BOX - BLUE BOX", "address": {"city": "BOSSIER CITY", "state": "LA", "street": "150 BENTON RD", "postcode": "71111"}}},
{"geometry": {"type": "Point", "coordinates": [-93.6408936944, 32.5650206413]}, "type": "Feature", "properties": {"collection_times": [{"days": "Mon-Fri", "time": "1:15pm"}, {"days": "Sat", "time": "11:45am"}, {"days": "Sun", "time": "Closed"}], "id": "7111100049", "name": "USPS COLLECTION BOX - BLUE BOX", "address": {"city": "BOSSIER CITY", "state": "LA", "street": "2220 MIDDLE CREEK BLVD", "postcode": "71111"}}},
{"geometry": {"type": "Point", "coordinates": [-93.7234751093, 32.5577048871]}, "type": "Feature", "properties": {"collection_times": [{"days": "Mon-Fri", "time": "1:00pm"}, {"days": "Sat", "time": "11:15am"}, {"days": "Sun", "time": "Closed"}], "id": "7111100053", "name": "USPS COLLECTION BOX - BLUE BOX", "address": {"city": "BOSSIER CITY", "state": "LA", "street": "2300 HOSPITAL DR", "postcode": "71111"}}},
{"geometry": {"type": "Point", "coordinates": [-93.7098902517, 32.538542872]}, "type": "Feature", "properties": {"collection_times": [{"days": "Mon-Fri", "time": "1:00pm"}, {"days": "Sat", "time": "11:30am"}, {"days": "Sun", "time": "Closed"}], "id": "7111100054", "name": "USPS COLLECTION BOX - BLUE BOX", "address": {"city": "BOSSIER CITY", "state": "LA", "street": "2801 NORTHSIDE DR", "postcode": "71111"}}},
{"geometry": {"type": "Point", "coordinates": [-93.7223805233, 32.5425569076]}, "type": "Feature", "properties": {"collection_times": [{"days": "Mon-Fri", "time": "12:45pm"}, {"days": "Sat", "time": "11:00am"}, {"days": "Sun", "time": "Closed"}], "id": "7111100056", "name": "USPS COLLECTION BOX - BLUE BOX", "address": {"city": "BOSSIER CITY", "state": "LA", "street": "2285 BENTON RD", "postcode": "71111"}}},
{"geometry": {"type": "Point", "coordinates": [-93.7212424653, 32.5552693495]}, "type": "Feature", "properties": {"collection_times": [{"days": "Mon-Fri", "time": "12:45pm"}, {"days": "Sat", "time": "11:15am"}, {"days": "Sun", "time": "Closed"}], "id": "7111100057", "name": "USPS COLLECTION BOX - BLUE BOX", "address": {"city": "BOSSIER CITY", "state": "LA", "street": "2539 VIKING DR", "postcode": "71111"}}},
{"geometry": {"type": "Point", "coordinates": [-93.6264376015, 32.5525178488]}, "type": "Feature", "properties": {"collection_times": [{"days": "Mon-Fri", "time": "1:30pm"}, {"days": "Sat-Sun", "time": "Closed"}], "id": "7111100058", "name": "USPS COLLECTION BOX - BLUE BOX", "address": {"city": "BOSSIER CITY", "state": "LA", "street": "8000 E TEXAS ST", "postcode": "71111"}}},
{"geometry": {"type": "Point", "coordinates": [-93.720957827, 32.536999371]}, "type": "Feature", "properties": {"collection_times": [{"days": "Mon-Fri", "time": "12:45pm"}, {"days": "Sat", "time": "11:00am"}, {"days": "Sun", "time": "Closed"}], "id": "7111100060", "name": "USPS COLLECTION BOX - BLUE BOX", "address": {"city": "BOSSIER CITY", "state": "LA", "street": "1824 BENTON RD", "postcode": "71111"}}},
{"geometry": {"type": "Point", "coordinates": [-93.7044922632, 32.5156808355]}, "type": "Feature", "properties": {"collection_times": [{"days": "Mon-Fri", "time": "2:30pm"}, {"days": "Sat", "time": "1:30pm"}, {"days": "Sun", "time": "Closed"}], "id": "7111200010", "name": "USPS COLLECTION BOX - BLUE BOX", "address": {"city": "BOSSIER CITY", "state": "LA", "street": "79 GRACE LN", "postcode": "71112"}}},
{"geometry": {"type": "Point", "coordinates": [-93.6715198536, 32.4831735511]}, "type": "Feature", "properties": {"collection_times": [{"days": "Mon-Fri", "time": "2:00pm"}, {"days": "Sat", "time": "1:00pm"}, {"days": "Sun", "time": "Closed"}], "id": "7111200013", "name": "USPS COLLECTION BOX - BLUE BOX", "address": {"city": "BOSSIER CITY", "state": "LA", "street": "1201 SHADY GROVE DR", "postcode": "71112"}}},
{"geometry": {"type": "Point", "coordinates": [-93.6963509394, 32.5209209411]}, "type": "Feature", "properties": {"collection_times": [{"days": "Mon-Fri", "time": "2:15pm"}, {"days": "Sat", "time": "1:15pm"}, {"days": "Sun", "time": "Closed"}], "id": "7111200015", "name": "USPS COLLECTION BOX - BLUE BOX", "address": {"city": "BOSSIER CITY", "state": "LA", "street": "1870 AIRLINE DR", "postcode": "71112"}}},
{"geometry": {"type": "Point", "coordinates": [-93.6932855165, 32.5117672327]}, "type": "Feature", "properties": {"collection_times": [{"days": "Mon-Fri", "time": "2:15pm"}, {"days": "Sat", "time": "1:15pm"}, {"days": "Sun", "time": "Closed"}], "id": "7111200020", "name": "USPS COLLECTION BOX - BLUE BOX", "address": {"city": "BOSSIER CITY", "state": "LA", "street": "1450 AIRLINE DR", "postcode": "71112"}}},
{"geometry": {"type": "Point", "coordinates": [-93.6707370761, 32.4711176889]}, "type": "Feature", "properties": {"collection_times": [{"days": "Mon-Fri", "time": "4:30pm"}, {"days": "Sat", "time": "4:00pm"}, {"days": "Sun", "time": "Closed"}], "id": "7111200024", "name": "USPS COLLECTION BOX - BLUE BOX", "address": {"city": "BOSSIER CITY", "state": "LA", "street": "4310 BARKSDALE BLVD", "postcode": "71112"}}},
{"geometry": {"type": "Point", "coordinates": [-93.6707370761, 32.4711176889]}, "type": "Feature", "properties": {"collection_times": [{"days": "Mon-Fri", "time": "4:30pm"}, {"days": "Sat", "time": "4:00pm"}, {"days": "Sun", "time": "Closed"}], "id": "7111200025", "name": "USPS COLLECTION BOX - BLUE BOX", "address": {"city": "BOSSIER CITY", "state": "LA", "street": "4310 BARKSDALE BLVD", "postcode": "71112"}}},
{"geometry": {"type": "Point", "coordinates": [-93.6707370761, 32.4711176889]}, "type": "Feature", "properties": {"collection_times": [{"days": "Mon-Fri", "time": "4:30pm"}, {"days": "Sat", "time": "4:00pm"}, {"days": "Sun", "time": "Closed"}], "id": "7111200026", "name": "USPS COLLECTION BOX - BLUE BOX", "address": {"city": "BOSSIER CITY", "state": "LA", "street": "4310 BARKSDALE BLVD", "postcode": "71112"}}},
{"geometry": {"type": "Point", "coordinates": [-93.6707370761, 32.4711176889]}, "type": "Feature", "properties": {"collection_times": [{"days": "Mon-Fri", "time": "4:30pm"}, {"days": "Sat", "time": "4:00pm"}, {"days": "Sun", "time": "Closed"}], "id": "7111200027", "name": "USPS COLLECTION BOX - PO LOBBY", "address": {"city": "BOSSIER CITY", "state": "LA", "street": "4310 BARKSDALE BLVD", "postcode": "71112"}}},
{"geometry": {"type": "Point", "coordinates": [-93.6707370761, 32.4711176889]}, "type": "Feature", "properties": {"collection_times": [{"days": "Mon-Fri", "time": "4:30pm"}, {"days": "Sat", "time": "4:00pm"}, {"days": "Sun", "time": "Closed"}], "id": "7111200028", "name": "USPS COLLECTION BOX - PO LOBBY", "address": {"city": "BOSSIER CITY", "state": "LA", "street": "4310 BARKSDALE BLVD", "postcode": "71112"}}},
{"geometry": {"type": "Point", "coordinates": [-93.6931349863, 32.5221294731]}, "type": "Feature", "properties": {"collection_times": [{"days": "Mon-Fri", "time": "2:15pm"}, {"days": "Sat", "time": "1:15pm"}, {"days": "Sun", "time": "Closed"}], "id": "7111200033", "name": "USPS COLLECTION BOX - BLUE BOX", "address": {"city": "BOSSIER CITY", "state": "LA", "street": "3022 OLD MINDEN RD", "postcode": "71112"}}},
{"geometry": {"type": "Point", "coordinates": [-93.7024803644, 32.5223703056]}, "type": "Feature", "properties": {"collection_times": [{"days": "Mon-Fri", "time": "2:30pm"}, {"days": "Sat", "time": "1:30pm"}, {"days": "Sun", "time": "Closed"}], "id": "7111200034", "name": "USPS COLLECTION BOX - BLUE BOX", "address": {"city": "BOSSIER CITY", "state": "LA", "street": "2701 VILLAGE LN", "postcode": "71112"}}},
{"geometry": {"type": "Point", "coordinates": [-93.7085992671, 32.400997995]}, "type": "Feature", "properties": {"collection_times": [{"days": "Mon-Fri", "time": "12:30pm"}, {"days": "Sat", "time": "11:00am"}, {"days": "Sun", "time": "Closed"}], "id": "7111500008", "name": "USPS COLLECTION BOX - BLUE BOX", "address": {"city": "SHREVEPORT", "state": "LA", "street": "600 E FLOURNOY LUCAS RD", "postcode": "71115"}}},
{"geometry": {"type": "Point", "coordinates": [-93.7203354401, 32.421882167]}, "type": "Feature", "properties": {"collection_times": [{"days": "Mon-Fri", "time": "2:45pm"}, {"days": "Sat", "time": "2:30pm"}, {"days": "Sun", "time": "Closed"}], "id": "7111500013", "name": "USPS COLLECTION BOX - BLUE BOX", "address": {"city": "SHREVEPORT", "state": "LA", "street": "1205 MERCEDEZ BENZ DR", "postcode": "71115"}}},
{"geometry": {"type": "Point", "coordinates": [-93.805374822, 32.4012099736]}, "type": "Feature", "properties": {"collection_times": [{"days": "Mon-Fri", "time": "12:30pm"}, {"days": "Sat", "time": "12:15pm"}, {"days": "Sun", "time": "Closed"}], "id": "7111800001", "name": "USPS COLLECTION BOX - BLUE BOX", "address": {"city": "SHREVEPORT", "state": "LA", "street": "9250 MANSFIELD RD", "postcode": "71118"}}},
{"geometry": {"type": "Point", "coordinates": [-93.805970065, 32.4005838047]}, "type": "Feature", "properties": {"collection_times": [{"days": "Mon-Fri", "time": "12:30pm"}, {"days": "Sat", "time": "12:15pm"}, {"days": "Sun", "time": "Closed"}], "id": "7111800004", "name": "USPS COLLECTION BOX - BLUE BOX", "address": {"city": "SHREVEPORT", "state": "LA", "street": "9300 MANSFIELD RD", "postcode": "71118"}}},
{"geometry": {"type": "Point", "coordinates": [-93.7975264376, 32.415305198]}, "type": "Feature", "properties": {"collection_times": [{"days": "Mon-Sat", "time": "12:00pm"}, {"days": "Sun", "time": "Closed"}], "id": "7111800005", "name": "USPS COLLECTION BOX - BLUE BOX", "address": {"city": "SHREVEPORT", "state": "LA", "street": "8924 JEWELLA AVE", "postcode": "71118"}}},
{"geometry": {"type": "Point", "coordinates": [-93.7804390856, 32.4075985829]}, "type": "Feature", "properties": {"collection_times": [{"days": "Mon-Fri", "time": "1:00pm"}, {"days": "Sat", "time": "12:45pm"}, {"days": "Sun", "time": "Closed"}], "id": "7111800012", "name": "USPS COLLECTION BOX - BLUE BOX", "address": {"city": "SHREVEPORT", "state": "LA", "street": "8936 KINGSTON RD", "postcode": "71118"}}},
{"geometry": {"type": "Point", "coordinates": [-93.7977244833, 32.4091023705]}, "type": "Feature", "properties": {"collection_times": [{"days": "Mon-Fri", "time": "12:15pm"}, {"days": "Sat", "time": "12:00pm"}, {"days": "Sun", "time": "Closed"}], "id": "7111800019", "name": "USPS COLLECTION BOX - BLUE BOX", "address": {"city": "SHREVEPORT", "state": "LA", "street": "9060 MANSFIELD RD", "postcode": "71118"}}},
{"geometry": {"type": "Point", "coordinates": [-93.8050962341, 32.3925307373]}, "type": "Feature", "properties": {"collection_times": [{"days": "Mon-Fri", "time": "12:30pm"}, {"days": "Sat", "time": "12:00pm"}, {"days": "Sun", "time": "Closed"}], "id": "7111800024", "name": "USPS COLLECTION BOX - BLUE BOX", "address": {"city": "SHREVEPORT", "state": "LA", "street": "3301 BERT KOUNS INDUSTRIAL LOOP", "postcode": "71118"}}},
{"geometry": {"type": "Point", "coordinates": [-93.7977244833, 32.4091023705]}, "type": "Feature", "properties": {"collection_times": [{"days": "Mon-Fri", "time": "12:15pm"}, {"days": "Sat", "time": "12:00pm"}, {"days": "Sun", "time": "Closed"}], "id": "7111800029", "name": "USPS COLLECTION BOX - BLUE BOX", "address": {"city": "SHREVEPORT", "state": "LA", "street": "9060 MANSFIELD RD", "postcode": "71118"}}},
{"geometry": {"type": "Point", "coordinates": [-93.8067129789, 32.3958697988]}, "type": "Feature", "properties": {"collection_times": [{"days": "Mon-Fri", "time": "12:45pm"}, {"days": "Sat", "time": "12:30pm"}, {"days": "Sun", "time": "Closed"}], "id": "7111800032", "name": "USPS COLLECTION BOX - BLUE BOX", "address": {"city": "SHREVEPORT", "state": "LA", "street": "9333 NORMANDIE DR", "postcode": "71118"}}},
{"geometry": {"type": "Point", "coordinates": [-93.7987224038, 32.4019928253]}, "type": "Feature", "properties": {"collection_times": [{"days": "Mon-Sat", "time": "12:45pm"}, {"days": "Sun", "time": "Closed"}], "id": "7111800033", "name": "USPS COLLECTION BOX - BLUE BOX", "address": {"city": "SHREVEPORT", "state": "LA", "street": "2533 BERT KOUNS INDUSTRIAL LOOP", "postcode": "71118"}}},
{"geometry": {"type": "Point", "coordinates": [-93.7987224038, 32.4019928253]}, "type": "Feature", "properties": {"collection_times": [{"days": "Mon-Sat", "time": "12:45pm"}, {"days": "Sun", "time": "Closed"}], "id": "7111800034", "name": "USPS COLLECTION BOX - BLUE BOX", "address": {"city": "SHREVEPORT", "state": "LA", "street": "2533 BERT KOUNS INDUSTRIAL LOOP", "postcode": "71118"}}},
{"geometry": {"type": "Point", "coordinates": [-93.7985549933, 32.4021011148]}, "type": "Feature", "properties": {"collection_times": [{"days": "Mon-Sat", "time": "1:00pm"}, {"days": "Sun", "time": "Closed"}], "id": "7111800041", "name": "USPS COLLECTION BOX - BLUE BOX", "address": {"city": "SHREVEPORT", "state": "LA", "street": "2520 BERT KOUNS INDUSTRIAL LOOP", "postcode": "71118"}}},
{"geometry": {"type": "Point", "coordinates": [-93.8813662393, 32.4786634354]}, "type": "Feature", "properties": {"collection_times": [{"days": "Mon-Fri", "time": "12:00pm"}, {"days": "Sat", "time": "11:30am"}, {"days": "Sun", "time": "Closed"}], "id": "7111900006", "name": "USPS COLLECTION BOX - BLUE BOX", "address": {"city": "SHREVEPORT", "state": "LA", "street": "6301 WESTPORT AVE", "postcode": "71119"}}},
{"geometry": {"type": "Point", "coordinates": [-93.8657926929, 32.4808198379]}, "type": "Feature", "properties": {"collection_times": [{"days": "Mon-Fri", "time": "11:45am"}, {"days": "Sat", "time": "11:15am"}, {"days": "Sun", "time": "Closed"}], "id": "7111900007", "name": "USPS COLLECTION BOX - BLUE BOX", "address": {"city": "SHREVEPORT", "state": "LA", "street": "3620 PINES RD", "postcode": "71119"}}},
{"geometry": {"type": "Point", "coordinates": [-93.8715692678, 32.4052272352]}, "type": "Feature", "properties": {"collection_times": [{"days": "Mon-Fri", "time": "12:15pm"}, {"days": "Sat", "time": "12:00pm"}, {"days": "Sun", "time": "Closed"}], "id": "7112900008", "name": "USPS COLLECTION BOX - BLUE BOX", "address": {"city": "SHREVEPORT", "state": "LA", "street": "6201 INDUSTRIAL LOOP", "postcode": "71129"}}},
{"geometry": {"type": "Point", "coordinates": [-93.8999219348, 32.4429031038]}, "type": "Feature", "properties": {"collection_times": [{"days": "Mon-Fri", "time": "12:00pm"}, {"days": "Sat", "time": "11:30am"}, {"days": "Sun", "time": "Closed"}], "id": "7112900022", "name": "USPS COLLECTION BOX - BLUE BOX", "address": {"city": "SHREVEPORT", "state": "LA", "street": "6969 W BERT KOUNS INDUSTRIAL LOOP", "postcode": "71129"}}},
{"geometry": {"type": "Point", "coordinates": [-93.8647619665, 32.4477586941]}, "type": "Feature", "properties": {"collection_times": [{"days": "Mon-Fri", "time": "5:00pm"}, {"days": "Sat", "time": "4:30pm"}, {"days": "Sun", "time": "Closed"}], "id": "7112900023", "name": "USPS COLLECTION BOX - BLUE BOX", "address": {"city": "SHREVEPORT", "state": "LA", "street": "6719 PINES RD", "postcode": "71129"}}},
{"geometry": {"type": "Point", "coordinates": [-93.8647619665, 32.4477586941]}, "type": "Feature", "properties": {"collection_times": [{"days": "Mon-Fri", "time": "5:00pm"}, {"days": "Sat", "time": "4:30pm"}, {"days": "Sun", "time": "Closed"}], "id": "7112900024", "name": "USPS COLLECTION BOX - BLUE BOX", "address": {"city": "SHREVEPORT", "state": "LA", "street": "6719 PINES RD", "postcode": "71129"}}},
{"geometry": {"type": "Point", "coordinates": [-93.8647619665, 32.4477586941]}, "type": "Feature", "properties": {"collection_times": [{"days": "Mon-Fri", "time": "5:00pm"}, {"days": "Sat", "time": "4:30pm"}, {"days": "Sun", "time": "Closed"}], "id": "7112900025", "name": "USPS COLLECTION BOX - BLUE BOX", "address": {"city": "SHREVEPORT", "state": "LA", "street": "6719 PINES RD", "postcode": "71129"}}},
{"geometry": {"type": "Point", "coordinates": [-93.8647619665, 32.4477586941]}, "type": "Feature", "properties": {"collection_times": [{"days": "Mon-Fri", "time": "5:00pm"}, {"days": "Sat", "time": "4:30pm"}, {"days": "Sun", "time": "Closed"}], "id": "7112900026", "name": "USPS COLLECTION BOX - BLUE BOX", "address": {"city": "SHREVEPORT", "state": "LA", "street": "6719 PINES RD", "postcode": "71129"}}},
{"geometry": {"type": "Point", "coordinates": [-93.8614140986, 32.4338138309]}, "type": "Feature", "properties": {"collection_times": [{"days": "Mon-Fri", "time": "1:15pm"}, {"days": "Sat", "time": "1:00pm"}, {"days": "Sun", "time": "Closed"}], "id": "7112900027", "name": "USPS COLLECTION BOX - BLUE BOX", "address": {"city": "SHREVEPORT", "state": "LA", "street": "7621 PINES RD", "postcode": "71129"}}},
{"geometry": {"type": "Point", "coordinates": [-93.8647619665, 32.4477586941]}, "type": "Feature", "properties": {"collection_times": [{"days": "Mon-Fri", "time": "5:00pm"}, {"days": "Sat", "time": "4:30pm"}, {"days": "Sun", "time": "Closed"}], "id": "7112900029", "name": "USPS COLLECTION BOX - PO LOBBY", "address": {"city": "SHREVEPORT", "state": "LA", "street": "6719 PINES RD", "postcode": "71129"}}}
]}
