{"type": "FeatureCollection", "features": [
{"geometry": {"type": "Point", "coordinates": [-92.0930567428, 32.533884991]}, "type": "Feature", "properties": {"collection_times": [{"days": "Mon-Fri", "time": "2:45pm"}, {"days": "Sat-Sun", "time": "Closed"}], "id": "7120100006", "name": "USPS COLLECTION BOX - BLUE BOX", "address": {"city": "MONROE", "state": "LA", "street": "2805 EVANGELINE ST", "postcode": "71201"}}},
{"geometry": {"type": "Point", "coordinates": [-92.0939164588, 32.5301507685]}, "type": "Feature", "properties": {"collection_times": [{"days": "Mon-Fri", "time": "2:45pm"}, {"days": "Sat-Sun", "time": "Closed"}], "id": "7120100008", "name": "USPS COLLECTION BOX - BLUE BOX", "address": {"city": "MONROE", "state": "LA", "street": "1509 LAMY LN", "postcode": "71201"}}},
{"geometry": {"type": "Point", "coordinates": [-92.1047428572, 32.522299598]}, "type": "Feature", "properties": {"collection_times": [{"days": "Mon-Fri", "time": "2:30pm"}, {"days": "Sat-Sun", "time": "Closed"}], "id": "7120100010", "name": "USPS COLLECTION BOX - BLUE BOX", "address": {"city": "MONROE", "state": "LA", "street": "1100 OLIVER RD", "postcode": "71201"}}},
{"geometry": {"type": "Point", "coordinates": [-92.1098425478, 32.5243699475]}, "type": "Feature", "properties": {"collection_times": [{"days": "Mon-Fri", "time": "2:30pm"}, {"days": "Sat-Sun", "time": "Closed"}], "id": "7120100016", "name": "USPS COLLECTION BOX - BLUE BOX", "address": {"city": "MONROE", "state": "LA", "street": "1908 GLENMAR AVE", "postcode": "71201"}}},
{"geometry": {"type": "Point", "coordinates": [-92.1149424895, 32.5259437306]}, "type": "Feature", "properties": {"collection_times": [{"days": "Mon-Fri", "time": "2:30pm"}, {"days": "Sat-Sun", "time": "Closed"}], "id": "7120100024", "name": "USPS COLLECTION BOX - BLUE BOX", "address": {"city": "MONROE", "state": "LA", "street": "1815 N 18TH ST", "postcode": "71201"}}},
{"geometry": {"type": "Point", "coordinates": [-92.1147705284, 32.5231949366]}, "type": "Feature", "properties": {"collection_times": [{"days": "Mon-Fri", "time": "4:45pm"}, {"days": "Sat", "time": "3:30pm"}, {"days": "Sun", "time": "Closed"}], "id": "7120100027", "name": "USPS COLLECTION BOX - BLUE BOX", "address": {"city": "MONROE", "state": "LA", "street": "1701 SHANNON ST", "postcode": "71201"}}},
{"geometry": {"type": "Point", "coordinates": [-92.1147705284, 32.5231949366]}, "type": "Feature", "properties": {"collection_times": [{"days": "Mon-Fri", "time": "4:45pm"}, {"days": "Sat", "time": "3:30pm"}, {"days": "Sun", "time": "Closed"}], "id": "7120100028", "name": "USPS COLLECTION BOX - BLUE BOX", "address": {"city": "MONROE", "state": "LA", "street": "1701 SHANNON ST", "postcode": "71201"}}},
{"geometry": {"type": "Point", "coordinates": [-92.1147705284, 32.5231949366]}, "type": "Feature", "properties": {"collection_times": [{"days": "Mon-Fri", "time": "4:45pm"}, {"days": "Sat", "time": "3:30pm"}, {"days": "Sun", "time": "Closed"}], "id": "7120100029", "name": "USPS COLLECTION BOX - BLUE BOX", "address": {"city": "MONROE", "state": "LA", "street": "1701 SHANNON ST", "postcode": "71201"}}},
{"geometry": {"type": "Point", "coordinates": [-92.1103871847, 32.5211845909]}, "type": "Feature", "properties": {"collection_times": [{"days": "Mon-Fri", "time": "2:30pm"}, {"days": "Sat-Sun", "time": "Closed"}], "id": "7120100031", "name": "USPS COLLECTION BOX - BLUE BOX", "address": {"city": "MONROE", "state": "LA", "street": "1209 N 18TH ST", "postcode": "71201"}}},
{"geometry": {"type": "Point", "coordinates": [-92.0930416422, 32.5266885224]}, "type": "Feature", "properties": {"collection_times": [{"days": "Mon-Fri", "time": "2:45pm"}, {"days": "Sat-Sun", "time": "Closed"}], "id": "7120100038", "name": "USPS COLLECTION BOX - BLUE BOX", "address": {"city": "MONROE", "state": "LA", "street": "2909 KILPATRICK BLVD", "postcode": "71201"}}},
{"geometry": {"type": "Point", "coordinates": [-92.1078601801, 32.5358038869]}, "type": "Feature", "properties": {"collection_times": [{"days": "Mon-Fri", "time": "2:30pm"}, {"days": "Sat-Sun", "time": "Closed"}], "id": "7120100043", "name": "USPS COLLECTION BOX - BLUE BOX", "address": {"city": "MONROE", "state": "LA", "street": "2201 LIBERTY ST", "postcode": "71201"}}},
{"geometry": {"type": "Point", "coordinates": [-92.1177822261, 32.5014696225]}, "type": "Feature", "properties": {"collection_times": [{"days": "Mon-Fri", "time": "3:30pm"}, {"days": "Sat-Sun", "time": "Closed"}], "id": "7120100044", "name": "USPS COLLECTION BOX - BLUE BOX", "address": {"city": "MONROE", "state": "LA", "street": "141 DESIARD ST", "postcode": "71201"}}},
{"geometry": {"type": "Point", "coordinates": [-92.1177852946, 32.5013299334]}, "type": "Feature", "properties": {"collection_times": [{"days": "Mon-Fri", "time": "3:30pm"}, {"days": "Sat-Sun", "time": "Closed"}], "id": "7120100046", "name": "USPS COLLECTION BOX - BLUE BOX", "address": {"city": "MONROE", "state": "LA", "street": "130 DESIARD ST", "postcode": "71201"}}},
{"geometry": {"type": "Point", "coordinates": [-92.1189295874, 32.5086762886]}, "type": "Feature", "properties": {"collection_times": [{"days": "Mon-Fri", "time": "12:00pm"}, {"days": "Sat-Sun", "time": "Closed"}], "id": "7120100049", "name": "USPS COLLECTION BOX - BLUE BOX", "address": {"city": "MONROE", "state": "LA", "street": "700 N 4TH ST", "postcode": "71201"}}},
{"geometry": {"type": "Point", "coordinates": [-92.117031072, 32.5015275981]}, "type": "Feature", "properties": {"collection_times": [{"days": "Mon-Fri", "time": "3:45pm"}, {"days": "Sat-Sun", "time": "Closed"}], "id": "7120100055", "name": "USPS COLLECTION BOX - BLUE BOX", "address": {"city": "MONROE", "state": "LA", "street": "122 SAINT JOHN ST", "postcode": "71201"}}},
{"geometry": {"type": "Point", "coordinates": [-92.117031072, 32.5015275981]}, "type": "Feature", "properties": {"collection_times": [{"days": "Mon-Fri", "time": "3:45pm"}, {"days": "Sat-Sun", "time": "Closed"}], "id": "7120100056", "name": "USPS COLLECTION BOX - BLUE BOX", "address": {"city": "MONROE", "state": "LA", "street": "122 SAINT JOHN ST", "postcode": "71201"}}},
{"geometry": {"type": "Point", "coordinates": [-92.117031072, 32.5015275981]}, "type": "Feature", "properties": {"collection_times": [{"days": "Mon-Fri", "time": "3:45pm"}, {"days": "Sat-Sun", "time": "Closed"}], "id": "7120100057", "name": "USPS COLLECTION BOX - BLUE BOX", "address": {"city": "MONROE", "state": "LA", "street": "122 SAINT JOHN ST", "postcode": "71201"}}},
{"geometry": {"type": "Point", "coordinates": [-92.1152475408, 32.5010809837]}, "type": "Feature", "properties": {"collection_times": [{"days": "Mon-Fri", "time": "3:45pm"}, {"days": "Sat-Sun", "time": "Closed"}], "id": "7120100059", "name": "USPS COLLECTION BOX - BLUE BOX", "address": {"city": "MONROE", "state": "LA", "street": "312 GRAMMONT ST", "postcode": "71201"}}},
{"geometry": {"type": "Point", "coordinates": [-92.115398162, 32.5010529468]}, "type": "Feature", "properties": {"collection_times": [{"days": "Mon-Fri", "time": "4:30pm"}, {"days": "Sat-Sun", "time": "Closed"}], "id": "7120100061", "name": "USPS COLLECTION BOX - PO LOBBY", "address": {"city": "MONROE", "state": "LA", "street": "201 JACKSON ST", "postcode": "71201"}}},
{"geometry": {"type": "Point", "coordinates": [-92.1154910667, 32.5009578647]}, "type": "Feature", "properties": {"collection_times": [{"days": "Mon-Fri", "time": "4:30pm"}, {"days": "Sat", "time": "3:30pm"}, {"days": "Sun", "time": "Closed"}], "id": "7120100063", "name": "USPS COLLECTION BOX - BLUE BOX", "address": {"city": "MONROE", "state": "LA", "street": "206 JACKSON ST", "postcode": "71201"}}},
{"geometry": {"type": "Point", "coordinates": [-92.115398162, 32.5010529468]}, "type": "Feature", "properties": {"collection_times": [{"days": "Mon-Fri", "time": "4:30pm"}, {"days": "Sat", "time": "3:30pm"}, {"days": "Sun", "time": "Closed"}], "id": "7120100066", "name": "USPS COLLECTION BOX - BLUE BOX", "address": {"city": "MONROE", "state": "LA", "street": "201 JACKSON ST", "postcode": "71201"}}},
{"geometry": {"type": "Point", "coordinates": [-92.115398162, 32.5010529468]}, "type": "Feature", "properties": {"collection_times": [{"days": "Mon-Fri", "time": "4:30pm"}, {"days": "Sat", "time": "3:30pm"}, {"days": "Sun", "time": "Closed"}], "id": "7120100067", "name": "USPS COLLECTION BOX - BLUE BOX", "address": {"city": "MONROE", "state": "LA", "street": "201 JACKSON ST", "postcode": "71201"}}},
{"geometry": {"type": "Point", "coordinates": [-92.1161191295, 32.4997295854]}, "type": "Feature", "properties": {"collection_times": [{"days": "Mon-Fri", "time": "4:30pm"}, {"days": "Sat-Sun", "time": "Closed"}], "id": "7120100074", "name": "USPS COLLECTION BOX - BLUE BOX", "address": {"city": "MONROE", "state": "LA", "street": "300 SAINT JOHN ST", "postcode": "71201"}}},
{"geometry": {"type": "Point", "coordinates": [-92.1161191295, 32.4997295854]}, "type": "Feature", "properties": {"collection_times": [{"days": "Mon-Fri", "time": "4:30pm"}, {"days": "Sat-Sun", "time": "Closed"}], "id": "7120100078", "name": "USPS COLLECTION BOX - BLUE BOX", "address": {"city": "MONROE", "state": "LA", "street": "300 SAINT JOHN ST", "postcode": "71201"}}},
{"geometry": {"type": "Point", "coordinates": [-92.1189295874, 32.5086762886]}, "type": "Feature", "properties": {"collection_times": [{"days": "Mon-Fri", "time": "12:00pm"}, {"days": "Sat-Sun", "time": "Closed"}], "id": "7120100079", "name": "USPS COLLECTION BOX - BLUE BOX", "address": {"city": "MONROE", "state": "LA", "street": "700 N 4TH ST", "postcode": "71201"}}},
{"geometry": {"type": "Point", "coordinates": [-92.1047428572, 32.522299598]}, "type": "Feature", "properties": {"collection_times": [{"days": "Mon-Fri", "time": "2:30pm"}, {"days": "Sat-Sun", "time": "Closed"}], "id": "7120100081", "name": "USPS COLLECTION BOX - BLUE BOX", "address": {"city": "MONROE", "state": "LA", "street": "1100 OLIVER RD", "postcode": "71201"}}},
{"geometry": {"type": "Point", "coordinates": [-92.0939164588, 32.5301507685]}, "type": "Feature", "properties": {"collection_times": [{"days": "Mon-Fri", "time": "2:45pm"}, {"days": "Sat-Sun", "time": "Closed"}], "id": "7120100082", "name": "USPS COLLECTION BOX - BLUE BOX", "address": {"city": "MONROE", "state": "LA", "street": "1509 LAMY LN", "postcode": "71201"}}},
{"geometry": {"type": "Point", "coordinates": [-92.1075354005, 32.5181163497]}, "type": "Feature", "properties": {"collection_times": [{"days": "Mon-Fri", "time": "12:30pm"}, {"days": "Sat-Sun", "time": "Closed"}], "id": "7120100084", "name": "USPS COLLECTION BOX - BLUE BOX", "address": {"city": "MONROE", "state": "LA", "street": "909 N 18TH ST", "postcode": "71201"}}},
{"geometry": {"type": "Point", "coordinates": [-92.0930416422, 32.5266885224]}, "type": "Feature", "properties": {"collection_times": [{"days": "Mon-Fri", "time": "2:45pm"}, {"days": "Sat-Sun", "time": "Closed"}], "id": "7120100087", "name": "USPS COLLECTION BOX - BLUE BOX", "address": {"city": "MONROE", "state": "LA", "street": "2909 KILPATRICK BLVD", "postcode": "71201"}}},
{"geometry": {"type": "Point", "coordinates": [-92.0943083124, 32.5246165991]}, "type": "Feature", "properties": {"collection_times": [{"days": "Mon-Fri", "time": "2:30pm"}, {"days": "Sat-Sun", "time": "Closed"}], "id": "7120100093", "name": "USPS COLLECTION BOX - BLUE BOX", "address": {"city": "MONROE", "state": "LA", "street": "2810 LOUISVILLE AVE", "postcode": "71201"}}},
{"geometry": {"type": "Point", "coordinates": [-92.1147705284, 32.5231949366]}, "type": "Feature", "properties": {"collection_times": [{"days": "Mon-Fri", "time": "4:45pm"}, {"days": "Sat", "time": "3:30pm"}, {"days": "Sun", "time": "Closed"}], "id": "7120100094", "name": "USPS COLLECTION BOX - BLUE BOX", "address": {"city": "MONROE", "state": "LA", "street": "1701 SHANNON ST", "postcode": "71201"}}},
{"geometry": {"type": "Point", "coordinates": [-92.1047428572, 32.522299598]}, "type": "Feature", "properties": {"collection_times": [{"days": "Mon-Fri", "time": "2:30pm"}, {"days": "Sat-Sun", "time": "Closed"}], "id": "7120100095", "name": "USPS COLLECTION BOX - BLUE BOX", "address": {"city": "MONROE", "state": "LA", "street": "1100 OLIVER RD", "postcode": "71201"}}},
{"geometry": {"type": "Point", "coordinates": [-92.1086882605, 32.5222285113]}, "type": "Feature", "properties": {"collection_times": [{"days": "Mon-Fri", "time": "2:30pm"}, {"days": "Sat-Sun", "time": "Closed"}], "id": "7120100096", "name": "USPS COLLECTION BOX - BLUE BOX", "address": {"city": "MONROE", "state": "LA", "street": "1301 N 19TH ST", "postcode": "71201"}}},
{"geometry": {"type": "Point", "coordinates": [-92.1149042119, 32.5000911708]}, "type": "Feature", "properties": {"collection_times": [{"days": "Mon-Fri", "time": "3:30pm"}, {"days": "Sat-Sun", "time": "Closed"}], "id": "7120100100", "name": "USPS COLLECTION BOX - BLUE BOX", "address": {"city": "MONROE", "state": "LA", "street": "309 JACKSON ST", "postcode": "71201"}}},
{"geometry": {"type": "Point", "coordinates": [-92.1075354005, 32.5181163497]}, "type": "Feature", "properties": {"collection_times": [{"days": "Mon-Fri", "time": "12:30pm"}, {"days": "Sat-Sun", "time": "Closed"}], "id": "7120100104", "name": "USPS COLLECTION BOX - BLUE BOX", "address": {"city": "MONROE", "state": "LA", "street": "909 N 18TH ST", "postcode": "71201"}}},
{"geometry": {"type": "Point", "coordinates": [-92.09144117, 32.5249090352]}, "type": "Feature", "properties": {"collection_times": [{"days": "Mon-Fri", "time": "2:30pm"}, {"days": "Sat-Sun", "time": "Closed"}], "id": "7120100107", "name": "USPS COLLECTION BOX - BLUE BOX", "address": {"city": "MONROE", "state": "LA", "street": "1120 PLAZA BLVD", "postcode": "71201"}}},
{"geometry": {"type": "Point", "coordinates": [-92.1147705284, 32.5231949366]}, "type": "Feature", "properties": {"collection_times": [{"days": "Mon-Fri", "time": "4:45pm"}, {"days": "Sat", "time": "3:30pm"}, {"days": "Sun", "time": "Closed"}], "id": "7120100109", "name": "USPS COLLECTION BOX - PO LOBBY", "address": {"city": "MONROE", "state": "LA", "street": "1701 SHANNON ST", "postcode": "71201"}}},
{"geometry": {"type": "Point", "coordinates": [-92.1147705284, 32.5231949366]}, "type": "Feature", "properties": {"collection_times": [{"days": "Mon-Fri", "time": "4:45pm"}, {"days": "Sat", "time": "3:30pm"}, {"days": "Sun", "time": "Closed"}], "id": "7120100110", "name": "USPS COLLECTION BOX - PO LOBBY", "address": {"city": "MONROE", "state": "LA", "street": "1701 SHANNON ST", "postcode": "71201"}}},
{"geometry": {"type": "Point", "coordinates": [-92.1161191295, 32.4997295854]}, "type": "Feature", "properties": {"collection_times": [{"days": "Mon-Fri", "time": "4:30pm"}, {"days": "Sat-Sun", "time": "Closed"}], "id": "7120100114", "name": "USPS COLLECTION BOX - BLUE BOX", "address": {"city": "MONROE", "state": "LA", "street": "300 SAINT JOHN ST", "postcode": "71201"}}},
{"geometry": {"type": "Point", "coordinates": [-92.1170303694, 32.5042299884]}, "type": "Feature", "properties": {"collection_times": [{"days": "Mon-Fri", "time": "4:15pm"}, {"days": "Sat-Sun", "time": "Closed"}], "id": "7120100116", "name": "USPS COLLECTION BOX - BLUE BOX", "address": {"city": "MONROE", "state": "LA", "street": "300 WASHINGTON ST", "postcode": "71201"}}},
{"geometry": {"type": "Point", "coordinates": [-92.1123642528, 32.5160630053]}, "type": "Feature", "properties": {"collection_times": [{"days": "Mon-Fri", "time": "2:30pm"}, {"days": "Sat-Sun", "time": "Closed"}], "id": "7120100118", "name": "USPS COLLECTION BOX - BLUE BOX", "address": {"city": "MONROE", "state": "LA", "street": "1401 HUDSON LN", "postcode": "71201"}}},
{"geometry": {"type": "Point", "coordinates": [-92.1098425478, 32.5243699475]}, "type": "Feature", "properties": {"collection_times": [{"days": "Mon-Fri", "time": "2:30pm"}, {"days": "Sat-Sun", "time": "Closed"}], "id": "7120100120", "name": "USPS COLLECTION BOX - BLUE BOX", "address": {"city": "MONROE", "state": "LA", "street": "1908 GLENMAR AVE", "postcode": "71201"}}},
{"geometry": {"type": "Point", "coordinates": [-92.1155366382, 32.526717045]}, "type": "Feature", "properties": {"collection_times": [{"days": "Mon-Fri", "time": "2:30pm"}, {"days": "Sat-Sun", "time": "Closed"}], "id": "7120100121", "name": "USPS COLLECTION BOX - BLUE BOX", "address": {"city": "MONROE", "state": "LA", "street": "1900 N 18TH ST", "postcode": "71201"}}},
{"geometry": {"type": "Point", "coordinates": [-92.1177852943, 32.5013299335]}, "type": "Feature", "properties": {"collection_times": [{"days": "Mon-Fri", "time": "3:30pm"}, {"days": "Sat-Sun", "time": "Closed"}], "id": "7120100124", "name": "USPS COLLECTION BOX - BLUE BOX", "address": {"city": "MONROE", "state": "LA", "street": "130 DESIARD ST", "postcode": "71201"}}},
{"geometry": {"type": "Point", "coordinates": [-92.081291899, 32.52687094]}, "type": "Feature", "properties": {"collection_times": [{"days": "Mon-Fri", "time": "5:00pm"}, {"days": "Sat", "time": "3:30pm"}, {"days": "Sun", "time": "Closed"}], "id": "7120300008", "name": "USPS COLLECTION BOX - BLUE BOX", "address": {"city": "MONROE", "state": "LA", "street": "501 STERLINGTON RD", "postcode": "71203"}}},
{"geometry": {"type": "Point", "coordinates": [-92.081291899, 32.52687094]}, "type": "Feature", "properties": {"collection_times": [{"days": "Mon-Fri", "time": "5:00pm"}, {"days": "Sat", "time": "3:30pm"}, {"days": "Sun", "time": "Closed"}], "id": "7120300009", "name": "USPS COLLECTION BOX - BLUE BOX", "address": {"city": "MONROE", "state": "LA", "street": "501 STERLINGTON RD", "postcode": "71203"}}},
{"geometry": {"type": "Point", "coordinates": [-92.081291899, 32.52687094]}, "type": "Feature", "properties": {"collection_times": [{"days": "Mon-Fri", "time": "5:00pm"}, {"days": "Sat", "time": "3:30pm"}, {"days": "Sun", "time": "Closed"}], "id": "7120300010", "name": "USPS COLLECTION BOX - BLUE BOX", "address": {"city": "MONROE", "state": "LA", "street": "501 STERLINGTON RD", "postcode": "71203"}}},
{"geometry": {"type": "Point", "coordinates": [-92.0701671334, 32.5777550068]}, "type": "Feature", "properties": {"collection_times": [{"days": "Mon-Fri", "time": "11:00am"}, {"days": "Sat-Sun", "time": "Closed"}], "id": "7120300033", "name": "USPS COLLECTION BOX - BLUE BOX", "address": {"city": "MONROE", "state": "LA", "street": "3510 MEDICAL PARK DR", "postcode": "71203"}}},
{"geometry": {"type": "Point", "coordinates": [-92.0738593852, 32.5682044897]}, "type": "Feature", "properties": {"collection_times": [{"days": "Mon-Fri", "time": "2:00pm"}, {"days": "Sat-Sun", "time": "Closed"}], "id": "7120300034", "name": "USPS COLLECTION BOX - BLUE BOX", "address": {"city": "MONROE", "state": "LA", "street": "4070 STERLINGTON RD", "postcode": "71203"}}},
{"geometry": {"type": "Point", "coordinates": [-92.081291899, 32.52687094]}, "type": "Feature", "properties": {"collection_times": [{"days": "Mon-Fri", "time": "5:00pm"}, {"days": "Sat", "time": "3:30pm"}, {"days": "Sun", "time": "Closed"}], "id": "7120300035", "name": "USPS COLLECTION BOX - APC", "address": {"city": "MONROE", "state": "LA", "street": "501 STERLINGTON RD", "postcode": "71203"}}},
{"geometry": {"type": "Point", "coordinates": [-92.081291899, 32.52687094]}, "type": "Feature", "properties": {"collection_times": [{"days": "Mon-Fri", "time": "5:00pm"}, {"days": "Sat", "time": "3:30pm"}, {"days": "Sun", "time": "Closed"}], "id": "7120300036", "name": "USPS COLLECTION BOX - PO LOBBY", "address": {"city": "MONROE", "state": "LA", "street": "501 STERLINGTON RD", "postcode": "71203"}}},
{"geometry": {"type": "Point", "coordinates": [-92.081291899, 32.52687094]}, "type": "Feature", "properties": {"collection_times": [{"days": "Mon-Fri", "time": "5:00pm"}, {"days": "Sat", "time": "3:30pm"}, {"days": "Sun", "time": "Closed"}], "id": "7120300037", "name": "USPS COLLECTION BOX - PO LOBBY", "address": {"city": "MONROE", "state": "LA", "street": "501 STERLINGTON RD", "postcode": "71203"}}},
{"geometry": {"type": "Point", "coordinates": [-92.0417489511, 32.5264022704]}, "type": "Feature", "properties": {"collection_times": [{"days": "Mon-Fri", "time": "2:00pm"}, {"days": "Sat", "time": "1:15pm"}, {"days": "Sun", "time": "Closed"}], "id": "7120300038", "name": "USPS COLLECTION BOX - BLUE BOX", "address": {"city": "MONROE", "state": "LA", "street": "7908 DESIARD ST", "postcode": "71203"}}},
{"geometry": {"type": "Point", "coordinates": [-92.0710214886, 32.5762579157]}, "type": "Feature", "properties": {"collection_times": [{"days": "Mon-Fri", "time": "11:00am"}, {"days": "Sat-Sun", "time": "Closed"}], "id": "7120300043", "name": "USPS COLLECTION BOX - BLUE BOX", "address": {"city": "MONROE", "state": "LA", "street": "3510 MAGNOLIA CV", "postcode": "71203"}}},
{"geometry": {"type": "Point", "coordinates": [-92.0426077067, 32.5412228246]}, "type": "Feature", "properties": {"collection_times": [{"days": "Mon-Sat", "time": "11:00am"}, {"days": "Sun", "time": "Closed"}], "id": "7120300044", "name": "USPS COLLECTION BOX - BLUE BOX", "address": {"city": "MONROE", "state": "LA", "street": "5400 OPERATIONS RD", "postcode": "71203"}}},
{"geometry": {"type": "Point", "coordinates": [-91.776996668, 32.3493985459]}, "type": "Feature", "properties": {"collection_times": [{"days": "Mon-Fri", "time": "3:00pm"}, {"days": "Sat", "time": "8:00am"}, {"days": "Sun", "time": "Closed"}], "id": "7121800001", "name": "USPS COLLECTION BOX - BLUE BOX", "address": {"city": "ARCHIBALD", "state": "LA", "street": "3744 HIGHWAY 15", "postcode": "71218"}}},
{"geometry": {"type": "Point", "coordinates": [-91.776996668, 32.3493985459]}, "type": "Feature", "properties": {"collection_times": [{"days": "Mon-Fri", "time": "3:00pm"}, {"days": "Sat", "time": "8:00am"}, {"days": "Sun", "time": "Closed"}], "id": "7121800002", "name": "USPS COLLECTION BOX - PO LOBBY", "address": {"city": "ARCHIBALD", "state": "LA", "street": "3744 HIGHWAY 15", "postcode": "71218"}}},
{"geometry": {"type": "Point", "coordinates": [-91.7577176682, 32.2866996164]}, "type": "Feature", "properties": {"collection_times": [{"days": "Mon-Fri", "time": "2:45pm"}, {"days": "Sat", "time": "8:00am"}, {"days": "Sun", "time": "Closed"}], "id": "7121900001", "name": "USPS COLLECTION BOX - BLUE BOX", "address": {"city": "BASKIN", "state": "LA", "street": "1179 HIGHWAY 15", "postcode": "71219"}}},
{"geometry": {"type": "Point", "coordinates": [-91.7577176682, 32.2866996164]}, "type": "Feature", "properties": {"collection_times": [{"days": "Mon-Fri", "time": "2:45pm"}, {"days": "Sat-Sun", "time": "Closed"}], "id": "7121900002", "name": "USPS COLLECTION BOX - PO LOBBY", "address": {"city": "BASKIN", "state": "LA", "street": "1179 HIGHWAY 15", "postcode": "71219"}}},
{"geometry": {"type": "Point", "coordinates": [-91.9145876192, 32.7792375592]}, "type": "Feature", "properties": {"collection_times": [{"days": "Mon-Sat", "time": "4:00pm"}, {"days": "Sun", "time": "Closed"}], "id": "7122000001", "name": "USPS COLLECTION BOX - BLUE BOX", "address": {"city": "BASTROP", "state": "LA", "street": "109 W PINE AVE", "postcode": "71220"}}},
{"geometry": {"type": "Point", "coordinates": [-91.9145876192, 32.7792375592]}, "type": "Feature", "properties": {"collection_times": [{"days": "Mon-Sat", "time": "4:00pm"}, {"days": "Sun", "time": "Closed"}], "id": "7122000002", "name": "USPS COLLECTION BOX - BLUE BOX", "address": {"city": "BASTROP", "state": "LA", "street": "109 W PINE AVE", "postcode": "71220"}}},
{"geometry": {"type": "Point", "coordinates": [-91.9064886625, 32.7785187282]}, "type": "Feature", "properties": {"collection_times": [{"days": "Mon-Fri", "time": "2:00pm"}, {"days": "Sat", "time": "1:00pm"}, {"days": "Sun", "time": "Closed"}], "id": "7122000007", "name": "USPS COLLECTION BOX - BLUE BOX", "address": {"city": "BASTROP", "state": "LA", "street": "600 E MADISON AVE", "postcode": "71220"}}},
{"geometry": {"type": "Point", "coordinates": [-91.8859396886, 32.7772094776]}, "type": "Feature", "properties": {"collection_times": [{"days": "Mon-Sat", "time": "9:45am"}, {"days": "Sun", "time": "Closed"}], "id": "7122000009", "name": "USPS COLLECTION BOX - BLUE BOX", "address": {"city": "BASTROP", "state": "LA", "street": "2000 E MADISON AVE", "postcode": "71220"}}},
{"geometry": {"type": "Point", "coordinates": [-91.9145261938, 32.7793085651]}, "type": "Feature", "properties": {"collection_times": [{"days": "Mon-Sat", "time": "4:00pm"}, {"days": "Sun", "time": "Closed"}], "id": "7122000012", "name": "USPS COLLECTION BOX - PO LOBBY", "address": {"city": "BASTROP", "state": "LA", "street": "201 N WASHINGTON ST", "postcode": "71220"}}},
{"geometry": {"type": "Point", "coordinates": [-92.6660837221, 32.819053165]}, "type": "Feature", "properties": {"collection_times": [{"days": "Mon-Fri", "time": "3:15pm"}, {"days": "Sat-Sun", "time": "Closed"}], "id": "7122200002", "name": "USPS COLLECTION BOX - BLUE BOX", "address": {"city": "BERNICE", "state": "LA", "street": "74 6TH ST", "postcode": "71222"}}},
{"geometry": {"type": "Point", "coordinates": [-92.6660837221, 32.819053165]}, "type": "Feature", "properties": {"collection_times": [{"days": "Mon-Fri", "time": "3:15pm"}, {"days": "Sat-Sun", "time": "Closed"}], "id": "7122200003", "name": "USPS COLLECTION BOX - PO LOBBY", "address": {"city": "BERNICE", "state": "LA", "street": "74 6TH ST", "postcode": "71222"}}},
{"geometry": {"type": "Point", "coordinates": [-91.6760471082, 32.9194510626]}, "type": "Feature", "properties": {"collection_times": [{"days": "Mon-Fri", "time": "2:30pm"}, {"days": "Sat-Sun", "time": "Closed"}], "id": "7122300001", "name": "USPS COLLECTION BOX - BLUE BOX", "address": {"city": "BONITA", "state": "LA", "street": "15392 BONITA AVE", "postcode": "71223"}}},
{"geometry": {"type": "Point", "coordinates": [-91.6760471082, 32.9194510626]}, "type": "Feature", "properties": {"collection_times": [{"days": "Mon-Fri", "time": "11:30am"}, {"days": "Sat-Sun", "time": "Closed"}], "id": "7122300002", "name": "USPS COLLECTION BOX - PO LOBBY", "address": {"city": "BONITA", "state": "LA", "street": "15392 BONITA AVE", "postcode": "71223"}}},
{"geometry": {"type": "Point", "coordinates": [-92.337819034, 32.5144437353]}, "type": "Feature", "properties": {"collection_times": [{"days": "Mon-Fri", "time": "3:30pm"}, {"days": "Sat", "time": "8:30am"}, {"days": "Sun", "time": "Closed"}], "id": "7122500001", "name": "USPS COLLECTION BOX - BLUE BOX", "address": {"city": "CALHOUN", "state": "LA", "street": "3136 HIGHWAY 80 W", "postcode": "71225"}}},
{"geometry": {"type": "Point", "coordinates": [-92.337819034, 32.5144437353]}, "type": "Feature", "properties": {"collection_times": [{"days": "Mon-Fri", "time": "3:30pm"}, {"days": "Sat", "time": "8:30am"}, {"days": "Sun", "time": "Closed"}], "id": "7122500004", "name": "USPS COLLECTION BOX - PO LOBBY", "address": {"city": "CALHOUN", "state": "LA", "street": "3136 HIGHWAY 80 W", "postcode": "71225"}}},
{"geometry": {"type": "Point", "coordinates": [-92.4590287289, 32.2950858321]}, "type": "Feature", "properties": {"collection_times": [{"days": "Mon-Fri", "time": "1:15pm"}, {"days": "Sat-Sun", "time": "Closed"}], "id": "7122600001", "name": "USPS COLLECTION BOX - BLUE BOX", "address": {"city": "CHATHAM", "state": "LA", "street": "6561 HIGHWAY 34", "postcode": "71226"}}},
{"geometry": {"type": "Point", "coordinates": [-92.4590287289, 32.2950858321]}, "type": "Feature", "properties": {"collection_times": [{"days": "Mon-Fri", "time": "1:15pm"}, {"days": "Sat-Sun", "time": "Closed"}], "id": "7122600002", "name": "USPS COLLECTION BOX - PO LOBBY", "address": {"city": "CHATHAM", "state": "LA", "street": "6561 HIGHWAY 34", "postcode": "71226"}}},
{"geometry": {"type": "Point", "coordinates": [-92.5134181502, 32.5296151751]}, "type": "Feature", "properties": {"collection_times": [{"days": "Mon-Fri", "time": "3:00pm"}, {"days": "Sat-Sun", "time": "Closed"}], "id": "7122700003", "name": "USPS COLLECTION BOX - BLUE BOX", "address": {"city": "CHOUDRANT", "state": "LA", "street": "2586 HIGHWAY 80", "postcode": "71227"}}},
{"geometry": {"type": "Point", "coordinates": [-92.5134181502, 32.5296151751]}, "type": "Feature", "properties": {"collection_times": [{"days": "Mon-Fri", "time": "3:00pm"}, {"days": "Sat-Sun", "time": "Closed"}], "id": "7122700004", "name": "USPS COLLECTION BOX - PO LOBBY", "address": {"city": "CHOUDRANT", "state": "LA", "street": "2586 HIGHWAY 80", "postcode": "71227"}}},
{"geometry": {"type": "Point", "coordinates": [-91.8750695973, 32.6881453572]}, "type": "Feature", "properties": {"collection_times": [{"days": "Mon-Fri", "time": "3:00pm"}, {"days": "Sat", "time": "10:00am"}, {"days": "Sun", "time": "Closed"}], "id": "7122900001", "name": "USPS COLLECTION BOX - BLUE BOX", "address": {"city": "COLLINSTON", "state": "LA", "street": "4603 MAIN ST", "postcode": "71229"}}},
{"geometry": {"type": "Point", "coordinates": [-91.8750695973, 32.6881453572]}, "type": "Feature", "properties": {"collection_times": [{"days": "Mon-Fri", "time": "3:00pm"}, {"days": "Sat", "time": "10:00am"}, {"days": "Sun", "time": "Closed"}], "id": "7122900002", "name": "USPS COLLECTION BOX - PO LOBBY", "address": {"city": "COLLINSTON", "state": "LA", "street": "4603 MAIN ST", "postcode": "71229"}}},
{"geometry": {"type": "Point", "coordinates": [-91.5843794231, 32.2481107824]}, "type": "Feature", "properties": {"collection_times": [{"days": "Mon-Fri", "time": "3:00pm"}, {"days": "Sat-Sun", "time": "Closed"}], "id": "7123000001", "name": "USPS COLLECTION BOX - BLUE BOX", "address": {"city": "CROWVILLE", "state": "LA", "street": "5342 HIGHWAY 17", "postcode": "71230"}}},
{"geometry": {"type": "Point", "coordinates": [-91.5843794231, 32.2481107824]}, "type": "Feature", "properties": {"collection_times": [{"days": "Mon-Fri", "time": "3:00pm"}, {"days": "Sat-Sun", "time": "Closed"}], "id": "7123000003", "name": "USPS COLLECTION BOX - PO LOBBY", "address": {"city": "CROWVILLE", "state": "LA", "street": "5342 HIGHWAY 17", "postcode": "71230"}}},
{"geometry": {"type": "Point", "coordinates": [-91.492847158, 32.4513524999]}, "type": "Feature", "properties": {"collection_times": [{"days": "Mon-Fri", "time": "2:45pm"}, {"days": "Sat", "time": "2:30pm"}, {"days": "Sun", "time": "Closed"}], "id": "7123200002", "name": "USPS COLLECTION BOX - BLUE BOX", "address": {"city": "DELHI", "state": "LA", "street": "711 BROADWAY ST", "postcode": "71232"}}},
{"geometry": {"type": "Point", "coordinates": [-91.492847158, 32.4513524999]}, "type": "Feature", "properties": {"collection_times": [{"days": "Mon-Fri", "time": "2:45pm"}, {"days": "Sat", "time": "2:30pm"}, {"days": "Sun", "time": "Closed"}], "id": "7123200003", "name": "USPS COLLECTION BOX - BLUE BOX", "address": {"city": "DELHI", "state": "LA", "street": "711 BROADWAY ST", "postcode": "71232"}}},
{"geometry": {"type": "Point", "coordinates": [-91.492847158, 32.4513524999]}, "type": "Feature", "properties": {"collection_times": [{"days": "Mon-Fri", "time": "3:00pm"}, {"days": "Sat", "time": "2:30pm"}, {"days": "Sun", "time": "Closed"}], "id": "7123200009", "name": "USPS COLLECTION BOX - PO LOBBY", "address": {"city": "DELHI", "state": "LA", "street": "711 BROADWAY ST", "postcode": "71232"}}},
{"geometry": {"type": "Point", "coordinates": [-90.9266341055, 32.3254640016]}, "type": "Feature", "properties": {"collection_times": [{"days": "Mon-Fri", "time": "3:00pm"}, {"days": "Sat-Sun", "time": "Closed"}], "id": "7123300003", "name": "USPS COLLECTION BOX - PO LOBBY", "address": {"city": "DELTA", "state": "LA", "street": "200 OUACHITA AVE", "postcode": "71233"}}},
{"geometry": {"type": "Point", "coordinates": [-92.343533271, 32.6478415417]}, "type": "Feature", "properties": {"collection_times": [{"days": "Mon-Fri", "time": "3:30pm"}, {"days": "Sat", "time": "8:30am"}, {"days": "Sun", "time": "Closed"}], "id": "7123400003", "name": "USPS COLLECTION BOX - PO LOBBY", "address": {"city": "DOWNSVILLE", "state": "LA", "street": "9507 HIGHWAY 145", "postcode": "71234"}}},
{"geometry": {"type": "Point", "coordinates": [-92.2794528662, 32.6580169934]}, "type": "Feature", "properties": {"collection_times": [{"days": "Mon-Sat", "time": "12:00pm"}, {"days": "Sun", "time": "Closed"}], "id": "7123400004", "name": "USPS COLLECTION BOX - BLUE BOX", "address": {"city": "DOWNSVILLE", "state": "LA", "street": "2374 HIGHWAY 552", "postcode": "71234"}}},
{"geometry": {"type": "Point", "coordinates": [-92.6565656272, 32.7031130192]}, "type": "Feature", "properties": {"collection_times": [{"days": "Mon-Fri", "time": "3:45pm"}, {"days": "Sat-Sun", "time": "Closed"}], "id": "7123500001", "name": "USPS COLLECTION BOX - BLUE BOX", "address": {"city": "DUBACH", "state": "LA", "street": "1743 MCMULLEN ST", "postcode": "71235"}}},
{"geometry": {"type": "Point", "coordinates": [-92.6565656272, 32.7031130192]}, "type": "Feature", "properties": {"collection_times": [{"days": "Mon-Fri", "time": "3:45pm"}, {"days": "Sat-Sun", "time": "Closed"}], "id": "7123500004", "name": "USPS COLLECTION BOX - PO LOBBY", "address": {"city": "DUBACH", "state": "LA", "street": "1743 MCMULLEN ST", "postcode": "71235"}}},
{"geometry": {"type": "Point", "coordinates": [-91.4814254872, 32.5964205067]}, "type": "Feature", "properties": {"collection_times": [{"days": "Mon-Fri", "time": "2:30pm"}, {"days": "Sat", "time": "9:30am"}, {"days": "Sun", "time": "Closed"}], "id": "7123700001", "name": "USPS COLLECTION BOX - BLUE BOX", "address": {"city": "EPPS", "state": "LA", "street": "1010 HIGHWAY 17", "postcode": "71237"}}},
{"geometry": {"type": "Point", "coordinates": [-91.4814254872, 32.5964205067]}, "type": "Feature", "properties": {"collection_times": [{"days": "Mon-Fri", "time": "2:30pm"}, {"days": "Sat", "time": "9:30am"}, {"days": "Sun", "time": "Closed"}], "id": "7123700002", "name": "USPS COLLECTION BOX - PO LOBBY", "address": {"city": "EPPS", "state": "LA", "street": "1010 HIGHWAY 17", "postcode": "71237"}}},
{"geometry": {"type": "Point", "coordinates": [-92.4237939887, 32.3921896494]}, "type": "Feature", "properties": {"collection_times": [{"days": "Mon-Fri", "time": "2:00pm"}, {"days": "Sat", "time": "8:00am"}, {"days": "Sun", "time": "Closed"}], "id": "7123800001", "name": "USPS COLLECTION BOX - BLUE BOX", "address": {"city": "EROS", "state": "LA", "street": "9972 HIGHWAY 34", "postcode": "71238"}}},
{"geometry": {"type": "Point", "coordinates": [-92.4237939887, 32.3921896494]}, "type": "Feature", "properties": {"collection_times": [{"days": "Mon-Fri", "time": "2:00pm"}, {"days": "Sat", "time": "8:00am"}, {"days": "Sun", "time": "Closed"}], "id": "7123800002", "name": "USPS COLLECTION BOX - PO LOBBY", "address": {"city": "EROS", "state": "LA", "street": "9972 HIGHWAY 34", "postcode": "71238"}}},
{"geometry": {"type": "Point", "coordinates": [-92.4048222855, 32.7765972624]}, "type": "Feature", "properties": {"collection_times": [{"days": "Mon-Fri", "time": "2:00pm"}, {"days": "Sat", "time": "10:00am"}, {"days": "Sun", "time": "Closed"}], "id": "7124100004", "name": "USPS COLLECTION BOX - BLUE BOX", "address": {"city": "FARMERVILLE", "state": "LA", "street": "202 E GREEN ST", "postcode": "71241"}}},
{"geometry": {"type": "Point", "coordinates": [-92.4048222855, 32.7765972624]}, "type": "Feature", "properties": {"collection_times": [{"days": "Mon-Fri", "time": "2:00pm"}, {"days": "Sat", "time": "10:00am"}, {"days": "Sun", "time": "Closed"}], "id": "7124100005", "name": "USPS COLLECTION BOX - BLUE BOX", "address": {"city": "FARMERVILLE", "state": "LA", "street": "202 E GREEN ST", "postcode": "71241"}}},
{"geometry": {"type": "Point", "coordinates": [-92.4053414471, 32.7741164413]}, "type": "Feature", "properties": {"collection_times": [{"days": "Mon-Fri", "time": "2:00pm"}, {"days": "Sat", "time": "10:00am"}, {"days": "Sun", "time": "Closed"}], "id": "7124100006", "name": "USPS COLLECTION BOX - BLUE BOX", "address": {"city": "FARMERVILLE", "state": "LA", "street": "104 E BAYOU ST", "postcode": "71241"}}},
{"geometry": {"type": "Point", "coordinates": [-92.4048222855, 32.7765972624]}, "type": "Feature", "properties": {"collection_times": [{"days": "Mon-Fri", "time": "2:00pm"}, {"days": "Sat", "time": "10:00am"}, {"days": "Sun", "time": "Closed"}], "id": "7124100009", "name": "USPS COLLECTION BOX - PO LOBBY", "address": {"city": "FARMERVILLE", "state": "LA", "street": "202 E GREEN ST", "postcode": "71241"}}},
{"geometry": {"type": "Point", "coordinates": [-92.4048222855, 32.7765972624]}, "type": "Feature", "properties": {"collection_times": [{"days": "Mon-Fri", "time": "2:00pm"}, {"days": "Sat", "time": "10:00am"}, {"days": "Sun", "time": "Closed"}], "id": "7124100010", "name": "USPS COLLECTION BOX - PO LOBBY", "address": {"city": "FARMERVILLE", "state": "LA", "street": "202 E GREEN ST", "postcode": "71241"}}},
{"geometry": {"type": "Point", "coordinates": [-91.4132146111, 32.7932162642]}, "type": "Feature", "properties": {"collection_times": [{"days": "Mon-Fri", "time": "2:00pm"}, {"days": "Sat-Sun", "time": "Closed"}], "id": "7124200001", "name": "USPS COLLECTION BOX - BLUE BOX", "address": {"city": "FOREST", "state": "LA", "street": "250 CHERRY ST", "postcode": "71242"}}},
{"geometry": {"type": "Point", "coordinates": [-91.4132146111, 32.7932162642]}, "type": "Feature", "properties": {"collection_times": [{"days": "Mon-Fri", "time": "2:00pm"}, {"days": "Sat-Sun", "time": "Closed"}], "id": "7124200003", "name": "USPS COLLECTION BOX - PO LOBBY", "address": {"city": "FOREST", "state": "LA", "street": "250 CHERRY ST", "postcode": "71242"}}},
{"geometry": {"type": "Point", "coordinates": [-91.8081601665, 31.9680527446]}, "type": "Feature", "properties": {"collection_times": [{"days": "Mon-Fri", "time": "2:00pm"}, {"days": "Sat", "time": "8:30am"}, {"days": "Sun", "time": "Closed"}], "id": "7124300000", "name": "USPS COLLECTION BOX - PO LOBBY", "address": {"city": "FORT NECESSITY", "state": "LA", "street": "10772 HIGHWAY 562", "postcode": "71243"}}},
{"geometry": {"type": "Point", "coordinates": [-91.8081601665, 31.9680527446]}, "type": "Feature", "properties": {"collection_times": [{"days": "Mon-Fri", "time": "2:00pm"}, {"days": "Sat", "time": "8:30am"}, {"days": "Sun", "time": "Closed"}], "id": "7124300001", "name": "USPS COLLECTION BOX - BLUE BOX", "address": {"city": "FORT NECESSITY", "state": "LA", "street": "10772 HIGHWAY 562", "postcode": "71243"}}},
{"geometry": {"type": "Point", "coordinates": [-92.7138942712, 32.5287135105]}, "type": "Feature", "properties": {"collection_times": [{"days": "Mon-Fri", "time": "3:15pm"}, {"days": "Sat-Sun", "time": "Closed"}], "id": "7124500001", "name": "USPS COLLECTION BOX - BLUE BOX", "address": {"city": "GRAMBLING", "state": "LA", "street": "324 MAIN ST", "postcode": "71245"}}},
{"geometry": {"type": "Point", "coordinates": [-92.7138942712, 32.5287135105]}, "type": "Feature", "properties": {"collection_times": [{"days": "Mon-Fri", "time": "3:15pm"}, {"days": "Sat-Sun", "time": "Closed"}], "id": "7124500005", "name": "USPS COLLECTION BOX - PO LOBBY", "address": {"city": "GRAMBLING", "state": "LA", "street": "324 MAIN ST", "postcode": "71245"}}},
{"geometry": {"type": "Point", "coordinates": [-92.7138942712, 32.5287135105]}, "type": "Feature", "properties": {"collection_times": [{"days": "Mon-Fri", "time": "3:15pm"}, {"days": "Sat-Sun", "time": "Closed"}], "id": "7124500007", "name": "USPS COLLECTION BOX - PO LOBBY", "address": {"city": "GRAMBLING", "state": "LA", "street": "324 MAIN ST", "postcode": "71245"}}},
{"geometry": {"type": "Point", "coordinates": [-92.7242809218, 32.2689721687]}, "type": "Feature", "properties": {"collection_times": [{"days": "Mon-Fri", "time": "3:00pm"}, {"days": "Sat-Sun", "time": "Closed"}], "id": "7124700003", "name": "USPS COLLECTION BOX - PO LOBBY", "address": {"city": "HODGE", "state": "LA", "street": "392 BANK ST", "postcode": "71247"}}},
{"geometry": {"type": "Point", "coordinates": [-92.7242809218, 32.2689721687]}, "type": "Feature", "properties": {"collection_times": [{"days": "Mon-Fri", "time": "3:00pm"}, {"days": "Sat-Sun", "time": "Closed"}], "id": "7124700004", "name": "USPS COLLECTION BOX - PO LOBBY", "address": {"city": "HODGE", "state": "LA", "street": "392 BANK ST", "postcode": "71247"}}},
{"geometry": {"type": "Point", "coordinates": [-91.7475835767, 32.0352331432]}, "type": "Feature", "properties": {"collection_times": [{"days": "Mon-Fri", "time": "2:30pm"}, {"days": "Sat", "time": "8:30am"}, {"days": "Sun", "time": "Closed"}], "id": "7124900001", "name": "USPS COLLECTION BOX - PO LOBBY", "address": {"city": "JIGGER", "state": "LA", "street": "7135 HIGHWAY 128", "postcode": "71249"}}},
{"geometry": {"type": "Point", "coordinates": [-91.64603893, 32.9697652225]}, "type": "Feature", "properties": {"collection_times": [{"days": "Mon-Fri", "time": "11:30am"}, {"days": "Sat-Sun", "time": "Closed"}], "id": "7125000001", "name": "USPS COLLECTION BOX - BLUE BOX", "address": {"city": "JONES", "state": "LA", "street": "17366 WILMOT HWY", "postcode": "71250"}}},
{"geometry": {"type": "Point", "coordinates": [-91.64603893, 32.9697652225]}, "type": "Feature", "properties": {"collection_times": [{"days": "Mon-Fri", "time": "11:30am"}, {"days": "Sat-Sun", "time": "Closed"}], "id": "7125000002", "name": "USPS COLLECTION BOX - PO LOBBY", "address": {"city": "JONES", "state": "LA", "street": "17366 WILMOT HWY", "postcode": "71250"}}},
{"geometry": {"type": "Point", "coordinates": [-92.7046783122, 32.2413200481]}, "type": "Feature", "properties": {"collection_times": [{"days": "Mon-Fri", "time": "3:30pm"}, {"days": "Sat", "time": "8:30am"}, {"days": "Sun", "time": "Closed"}], "id": "7125100001", "name": "USPS COLLECTION BOX - BLUE BOX", "address": {"city": "JONESBORO", "state": "LA", "street": "610 E MAIN ST", "postcode": "71251"}}},
{"geometry": {"type": "Point", "coordinates": [-92.7046783122, 32.2413200481]}, "type": "Feature", "properties": {"collection_times": [{"days": "Mon-Fri", "time": "3:30pm"}, {"days": "Sat", "time": "8:30am"}, {"days": "Sun", "time": "Closed"}], "id": "7125100002", "name": "USPS COLLECTION BOX - BLUE BOX", "address": {"city": "JONESBORO", "state": "LA", "street": "610 E MAIN ST", "postcode": "71251"}}},
{"geometry": {"type": "Point", "coordinates": [-92.7159166468, 32.2449325327]}, "type": "Feature", "properties": {"collection_times": [{"days": "Mon-Sat", "time": "2:45pm"}, {"days": "Sun", "time": "Closed"}], "id": "7125100005", "name": "USPS COLLECTION BOX - BLUE BOX", "address": {"city": "JONESBORO", "state": "LA", "street": "128 ALLEN AVE", "postcode": "71251"}}},
{"geometry": {"type": "Point", "coordinates": [-92.7153921241, 32.2407574972]}, "type": "Feature", "properties": {"collection_times": [{"days": "Mon-Fri", "time": "2:45pm"}, {"days": "Sat-Sun", "time": "Closed"}], "id": "7125100008", "name": "USPS COLLECTION BOX - BLUE BOX", "address": {"city": "JONESBORO", "state": "LA", "street": "500 E COURT ST", "postcode": "71251"}}},
{"geometry": {"type": "Point", "coordinates": [-92.7146604903, 32.2409547472]}, "type": "Feature", "properties": {"collection_times": [{"days": "Mon-Sat", "time": "2:45pm"}, {"days": "Sun", "time": "Closed"}], "id": "7125100011", "name": "USPS COLLECTION BOX - BLUE BOX", "address": {"city": "JONESBORO", "state": "LA", "street": "201 JIMMIE DAVIS BLVD", "postcode": "71251"}}},
{"geometry": {"type": "Point", "coordinates": [-92.7046783122, 32.2413200481]}, "type": "Feature", "properties": {"collection_times": [{"days": "Mon-Fri", "time": "3:30pm"}, {"days": "Sat", "time": "8:30am"}, {"days": "Sun", "time": "Closed"}], "id": "7125100014", "name": "USPS COLLECTION BOX - PO LOBBY", "address": {"city": "JONESBORO", "state": "LA", "street": "610 E MAIN ST", "postcode": "71251"}}},
{"geometry": {"type": "Point", "coordinates": [-92.7046783122, 32.2413200481]}, "type": "Feature", "properties": {"collection_times": [{"days": "Mon-Fri", "time": "3:30pm"}, {"days": "Sat", "time": "8:30am"}, {"days": "Sun", "time": "Closed"}], "id": "7125100015", "name": "USPS COLLECTION BOX - PO LOBBY", "address": {"city": "JONESBORO", "state": "LA", "street": "610 E MAIN ST", "postcode": "71251"}}},
{"geometry": {"type": "Point", "coordinates": [-91.314838036, 32.9987171876]}, "type": "Feature", "properties": {"collection_times": [{"days": "Mon-Fri", "time": "1:45pm"}, {"days": "Sat-Sun", "time": "Closed"}], "id": "7125300001", "name": "USPS COLLECTION BOX - BLUE BOX", "address": {"city": "KILBOURNE", "state": "LA", "street": "120 E MAIN ST", "postcode": "71253"}}},
{"geometry": {"type": "Point", "coordinates": [-91.314838036, 32.9987171876]}, "type": "Feature", "properties": {"collection_times": [{"days": "Mon-Fri", "time": "1:45pm"}, {"days": "Sat-Sun", "time": "Closed"}], "id": "7125300002", "name": "USPS COLLECTION BOX - PO LOBBY", "address": {"city": "KILBOURNE", "state": "LA", "street": "120 E MAIN ST", "postcode": "71253"}}},
{"geometry": {"type": "Point", "coordinates": [-91.170240566, 32.8035410946]}, "type": "Feature", "properties": {"collection_times": [{"days": "Mon-Sat", "time": "2:45pm"}, {"days": "Sun", "time": "Closed"}], "id": "7125400002", "name": "USPS COLLECTION BOX - BLUE BOX", "address": {"city": "LAKE PROVIDENCE", "state": "LA", "street": "202 SPARROW ST", "postcode": "71254"}}},
{"geometry": {"type": "Point", "coordinates": [-91.170240566, 32.8035410946]}, "type": "Feature", "properties": {"collection_times": [{"days": "Mon-Sat", "time": "2:45pm"}, {"days": "Sun", "time": "Closed"}], "id": "7125400003", "name": "USPS COLLECTION BOX - BLUE BOX", "address": {"city": "LAKE PROVIDENCE", "state": "LA", "street": "202 SPARROW ST", "postcode": "71254"}}},
{"geometry": {"type": "Point", "coordinates": [-91.170240566, 32.8035410946]}, "type": "Feature", "properties": {"collection_times": [{"days": "Mon-Sat", "time": "2:45pm"}, {"days": "Sun", "time": "Closed"}], "id": "7125400016", "name": "USPS COLLECTION BOX - PO LOBBY", "address": {"city": "LAKE PROVIDENCE", "state": "LA", "street": "202 SPARROW ST", "postcode": "71254"}}},
{"geometry": {"type": "Point", "coordinates": [-92.7003520606, 32.9477834657]}, "type": "Feature", "properties": {"collection_times": [{"days": "Mon-Fri", "time": "12:15pm"}, {"days": "Sat-Sun", "time": "Closed"}], "id": "7125600001", "name": "USPS COLLECTION BOX - BLUE BOX", "address": {"city": "LILLIE", "state": "LA", "street": "113 HIGHWAY 15", "postcode": "71256"}}},
{"geometry": {"type": "Point", "coordinates": [-92.7003520606, 32.9477834657]}, "type": "Feature", "properties": {"collection_times": [{"days": "Mon-Fri", "time": "12:15pm"}, {"days": "Sat-Sun", "time": "Closed"}], "id": "7125600002", "name": "USPS COLLECTION BOX - PO LOBBY", "address": {"city": "LILLIE", "state": "LA", "street": "113 HIGHWAY 15", "postcode": "71256"}}},
{"geometry": {"type": "Point", "coordinates": [-91.7756733633, 32.3097988692]}, "type": "Feature", "properties": {"collection_times": [{"days": "Mon-Fri", "time": "3:00pm"}, {"days": "Sat", "time": "9:30am"}, {"days": "Sun", "time": "Closed"}], "id": "7125900002", "name": "USPS COLLECTION BOX - BLUE BOX", "address": {"city": "MANGHAM", "state": "LA", "street": "102 LOUISIANA ST", "postcode": "71259"}}},
{"geometry": {"type": "Point", "coordinates": [-91.7756733633, 32.3097988692]}, "type": "Feature", "properties": {"collection_times": [{"days": "Mon-Fri", "time": "3:00pm"}, {"days": "Sat", "time": "9:30am"}, {"days": "Sun", "time": "Closed"}], "id": "7125900003", "name": "USPS COLLECTION BOX - PO LOBBY", "address": {"city": "MANGHAM", "state": "LA", "street": "102 LOUISIANA ST", "postcode": "71259"}}},
{"geometry": {"type": "Point", "coordinates": [-92.2357002502, 32.8973644551]}, "type": "Feature", "properties": {"collection_times": [{"days": "Mon-Fri", "time": "2:00pm"}, {"days": "Sat", "time": "8:30am"}, {"days": "Sun", "time": "Closed"}], "id": "7126000001", "name": "USPS COLLECTION BOX - BLUE BOX", "address": {"city": "MARION", "state": "LA", "street": "302 MAIN ST", "postcode": "71260"}}},
{"geometry": {"type": "Point", "coordinates": [-92.2357002502, 32.8973644551]}, "type": "Feature", "properties": {"collection_times": [{"days": "Mon-Fri", "time": "2:00pm"}, {"days": "Sat-Sun", "time": "Closed"}], "id": "7126000002", "name": "USPS COLLECTION BOX - PO LOBBY", "address": {"city": "MARION", "state": "LA", "street": "302 MAIN ST", "postcode": "71260"}}},
{"geometry": {"type": "Point", "coordinates": [-91.7952600754, 32.7766939349]}, "type": "Feature", "properties": {"collection_times": [{"days": "Mon-Fri", "time": "3:00pm"}, {"days": "Sat-Sun", "time": "Closed"}], "id": "7126100001", "name": "USPS COLLECTION BOX - BLUE BOX", "address": {"city": "MER ROUGE", "state": "LA", "street": "405 DAVENPORT AVE", "postcode": "71261"}}},
{"geometry": {"type": "Point", "coordinates": [-91.7952600754, 32.7766939349]}, "type": "Feature", "properties": {"collection_times": [{"days": "Mon-Fri", "time": "3:00pm"}, {"days": "Sat-Sun", "time": "Closed"}], "id": "7126100003", "name": "USPS COLLECTION BOX - PO LOBBY", "address": {"city": "MER ROUGE", "state": "LA", "street": "405 DAVENPORT AVE", "postcode": "71261"}}},
{"geometry": {"type": "Point", "coordinates": [-91.3882004826, 32.8610076744]}, "type": "Feature", "properties": {"collection_times": [{"days": "Mon-Fri", "time": "3:00pm"}, {"days": "Sat", "time": "8:00am"}, {"days": "Sun", "time": "Closed"}], "id": "7126300002", "name": "USPS COLLECTION BOX - BLUE BOX", "address": {"city": "OAK GROVE", "state": "LA", "street": "105 S BRIGGS ST", "postcode": "71263"}}},
{"geometry": {"type": "Point", "coordinates": [-91.3882004826, 32.8610076744]}, "type": "Feature", "properties": {"collection_times": [{"days": "Mon-Fri", "time": "3:00pm"}, {"days": "Sat", "time": "8:00am"}, {"days": "Sun", "time": "Closed"}], "id": "7126300003", "name": "USPS COLLECTION BOX - BLUE BOX", "address": {"city": "OAK GROVE", "state": "LA", "street": "105 S BRIGGS ST", "postcode": "71263"}}},
{"geometry": {"type": "Point", "coordinates": [-91.3882004826, 32.8610076744]}, "type": "Feature", "properties": {"collection_times": [{"days": "Mon-Fri", "time": "3:00pm"}, {"days": "Sat", "time": "8:00am"}, {"days": "Sun", "time": "Closed"}], "id": "7126300004", "name": "USPS COLLECTION BOX - BLUE BOX", "address": {"city": "OAK GROVE", "state": "LA", "street": "105 S BRIGGS ST", "postcode": "71263"}}},
{"geometry": {"type": "Point", "coordinates": [-91.3882004826, 32.8610076744]}, "type": "Feature", "properties": {"collection_times": [{"days": "Mon-Fri", "time": "3:00pm"}, {"days": "Sat-Sun", "time": "Closed"}], "id": "7126300005", "name": "USPS COLLECTION BOX - PO LOBBY", "address": {"city": "OAK GROVE", "state": "LA", "street": "105 S BRIGGS ST", "postcode": "71263"}}},
{"geometry": {"type": "Point", "coordinates": [-91.773260373, 32.6232721531]}, "type": "Feature", "properties": {"collection_times": [{"days": "Mon-Fri", "time": "11:30am"}, {"days": "Sat", "time": "7:00am"}, {"days": "Sun", "time": "Closed"}], "id": "7126400001", "name": "USPS COLLECTION BOX - BLUE BOX", "address": {"city": "OAK RIDGE", "state": "LA", "street": "100 S OAK ST", "postcode": "71264"}}},
{"geometry": {"type": "Point", "coordinates": [-91.773260373, 32.6232721531]}, "type": "Feature", "properties": {"collection_times": [{"days": "Mon-Fri", "time": "11:30am"}, {"days": "Sat-Sun", "time": "Closed"}], "id": "7126400002", "name": "USPS COLLECTION BOX - PO LOBBY", "address": {"city": "OAK RIDGE", "state": "LA", "street": "100 S OAK ST", "postcode": "71264"}}},
{"geometry": {"type": "Point", "coordinates": [-91.436742106, 32.7373882416]}, "type": "Feature", "properties": {"collection_times": [{"days": "Mon-Fri", "time": "2:30pm"}, {"days": "Sat", "time": "9:00am"}, {"days": "Sun", "time": "Closed"}], "id": "7126600001", "name": "USPS COLLECTION BOX - BLUE BOX", "address": {"city": "PIONEER", "state": "LA", "street": "119 CHERRY ST", "postcode": "71266"}}},
{"geometry": {"type": "Point", "coordinates": [-91.436742106, 32.7373882416]}, "type": "Feature", "properties": {"collection_times": [{"days": "Mon-Fri", "time": "2:30pm"}, {"days": "Sat-Sun", "time": "Closed"}], "id": "7126600002", "name": "USPS COLLECTION BOX - PO LOBBY", "address": {"city": "PIONEER", "state": "LA", "street": "119 CHERRY ST", "postcode": "71266"}}},
{"geometry": {"type": "Point", "coordinates": [-92.7072826872, 32.3435351109]}, "type": "Feature", "properties": {"collection_times": [{"days": "Mon-Fri", "time": "1:15pm"}, {"days": "Sat-Sun", "time": "Closed"}], "id": "7126800003", "name": "USPS COLLECTION BOX - BLUE BOX", "address": {"city": "QUITMAN", "state": "LA", "street": "8223 QUITMAN HWY", "postcode": "71268"}}},
{"geometry": {"type": "Point", "coordinates": [-92.7072826872, 32.3435351109]}, "type": "Feature", "properties": {"collection_times": [{"days": "Mon-Fri", "time": "1:15pm"}, {"days": "Sat-Sun", "time": "Closed"}], "id": "7126800004", "name": "USPS COLLECTION BOX - PO LOBBY", "address": {"city": "QUITMAN", "state": "LA", "street": "8223 QUITMAN HWY", "postcode": "71268"}}},
{"geometry": {"type": "Point", "coordinates": [-91.7559173837, 32.4770598518]}, "type": "Feature", "properties": {"collection_times": [{"days": "Mon-Fri", "time": "3:45pm"}, {"days": "Sat", "time": "8:30am"}, {"days": "Sun", "time": "Closed"}], "id": "7126900003", "name": "USPS COLLECTION BOX - BLUE BOX", "address": {"city": "RAYVILLE", "state": "LA", "street": "103 BENEDETTE ST", "postcode": "71269"}}},
{"geometry": {"type": "Point", "coordinates": [-91.7559173837, 32.4770598518]}, "type": "Feature", "properties": {"collection_times": [{"days": "Mon-Fri", "time": "3:45pm"}, {"days": "Sat", "time": "8:30am"}, {"days": "Sun", "time": "Closed"}], "id": "7126900004", "name": "USPS COLLECTION BOX - BLUE BOX", "address": {"city": "RAYVILLE", "state": "LA", "street": "103 BENEDETTE ST", "postcode": "71269"}}},
{"geometry": {"type": "Point", "coordinates": [-91.7559173837, 32.4770598518]}, "type": "Feature", "properties": {"collection_times": [{"days": "Mon-Fri", "time": "3:45pm"}, {"days": "Sat", "time": "8:30am"}, {"days": "Sun", "time": "Closed"}], "id": "7126900018", "name": "USPS COLLECTION BOX - PO LOBBY", "address": {"city": "RAYVILLE", "state": "LA", "street": "103 BENEDETTE ST", "postcode": "71269"}}},
{"geometry": {"type": "Point", "coordinates": [-91.8607684199, 32.4739294092]}, "type": "Feature", "properties": {"collection_times": [{"days": "Mon-Sat", "time": "10:00am"}, {"days": "Sun", "time": "Closed"}], "id": "7126900020", "name": "USPS COLLECTION BOX - BLUE BOX", "address": {"city": "RAYVILLE", "state": "LA", "street": "2902 MAGNOLIA DR", "postcode": "71269"}}},
{"geometry": {"type": "Point", "coordinates": [-92.6298879713, 32.5312249796]}, "type": "Feature", "properties": {"collection_times": [{"days": "Mon-Fri", "time": "5:00pm"}, {"days": "Sat", "time": "3:00pm"}, {"days": "Sun", "time": "Closed"}], "id": "7127000004", "name": "USPS COLLECTION BOX - BLUE BOX", "address": {"city": "RUSTON", "state": "LA", "street": "700 E GEORGIA AVE", "postcode": "71270"}}},
{"geometry": {"type": "Point", "coordinates": [-92.6298879713, 32.5312249796]}, "type": "Feature", "properties": {"collection_times": [{"days": "Mon-Fri", "time": "5:00pm"}, {"days": "Sat", "time": "3:00pm"}, {"days": "Sun", "time": "Closed"}], "id": "7127000005", "name": "USPS COLLECTION BOX - BLUE BOX", "address": {"city": "RUSTON", "state": "LA", "street": "700 E GEORGIA AVE", "postcode": "71270"}}},
{"geometry": {"type": "Point", "coordinates": [-92.6378335778, 32.5334134295]}, "type": "Feature", "properties": {"collection_times": [{"days": "Mon-Fri", "time": "4:45pm"}, {"days": "Sat", "time": "3:00pm"}, {"days": "Sun", "time": "Closed"}], "id": "7127000008", "name": "USPS COLLECTION BOX - BLUE BOX", "address": {"city": "RUSTON", "state": "LA", "street": "501 N VIENNA ST", "postcode": "71270"}}},
{"geometry": {"type": "Point", "coordinates": [-92.6378335778, 32.5334134295]}, "type": "Feature", "properties": {"collection_times": [{"days": "Mon-Fri", "time": "4:45pm"}, {"days": "Sat", "time": "3:00pm"}, {"days": "Sun", "time": "Closed"}], "id": "7127000009", "name": "USPS COLLECTION BOX - BLUE BOX", "address": {"city": "RUSTON", "state": "LA", "street": "501 N VIENNA ST", "postcode": "71270"}}},
{"geometry": {"type": "Point", "coordinates": [-92.6378335778, 32.5334134295]}, "type": "Feature", "properties": {"collection_times": [{"days": "Mon-Fri", "time": "4:45pm"}, {"days": "Sat", "time": "3:00pm"}, {"days": "Sun", "time": "Closed"}], "id": "7127000010", "name": "USPS COLLECTION BOX - BLUE BOX", "address": {"city": "RUSTON", "state": "LA", "street": "501 N VIENNA ST", "postcode": "71270"}}},
{"geometry": {"type": "Point", "coordinates": [-92.6378335778, 32.5334134295]}, "type": "Feature", "properties": {"collection_times": [{"days": "Mon-Fri", "time": "4:45pm"}, {"days": "Sat", "time": "3:00pm"}, {"days": "Sun", "time": "Closed"}], "id": "7127000011", "name": "USPS COLLECTION BOX - BLUE BOX", "address": {"city": "RUSTON", "state": "LA", "street": "501 N VIENNA ST", "postcode": "71270"}}},
{"geometry": {"type": "Point", "coordinates": [-92.6378335778, 32.5334134295]}, "type": "Feature", "properties": {"collection_times": [{"days": "Mon-Fri", "time": "4:45pm"}, {"days": "Sat", "time": "3:00pm"}, {"days": "Sun", "time": "Closed"}], "id": "7127000012", "name": "USPS COLLECTION BOX - BLUE BOX", "address": {"city": "RUSTON", "state": "LA", "street": "501 N VIENNA ST", "postcode": "71270"}}},
{"geometry": {"type": "Point", "coordinates": [-92.633233712, 32.5446674509]}, "type": "Feature", "properties": {"collection_times": [{"days": "Mon-Sat", "time": "4:30pm"}, {"days": "Sun", "time": "Closed"}], "id": "7127000017", "name": "USPS COLLECTION BOX - BLUE BOX", "address": {"city": "RUSTON", "state": "LA", "street": "500 E REYNOLDS DR", "postcode": "71270"}}},
{"geometry": {"type": "Point", "coordinates": [-92.6378335778, 32.5334134295]}, "type": "Feature", "properties": {"collection_times": [{"days": "Mon-Fri", "time": "4:45pm"}, {"days": "Sat", "time": "3:00pm"}, {"days": "Sun", "time": "Closed"}], "id": "7127000037", "name": "USPS COLLECTION BOX - BLUE BOX", "address": {"city": "RUSTON", "state": "LA", "street": "501 N VIENNA ST", "postcode": "71270"}}},
{"geometry": {"type": "Point", "coordinates": [-92.6298879713, 32.5312249796]}, "type": "Feature", "properties": {"collection_times": [{"days": "Mon-Fri", "time": "5:00pm"}, {"days": "Sat", "time": "3:00pm"}, {"days": "Sun", "time": "Closed"}], "id": "7127000038", "name": "USPS COLLECTION BOX - PO LOBBY", "address": {"city": "RUSTON", "state": "LA", "street": "700 E GEORGIA AVE", "postcode": "71270"}}},
{"geometry": {"type": "Point", "coordinates": [-92.6298879713, 32.5312249796]}, "type": "Feature", "properties": {"collection_times": [{"days": "Mon-Fri", "time": "5:00pm"}, {"days": "Sat", "time": "3:00pm"}, {"days": "Sun", "time": "Closed"}], "id": "7127000039", "name": "USPS COLLECTION BOX - PO LOBBY", "address": {"city": "RUSTON", "state": "LA", "street": "700 E GEORGIA AVE", "postcode": "71270"}}},
{"geometry": {"type": "Point", "coordinates": [-92.649385612, 32.5260411634]}, "type": "Feature", "properties": {"collection_times": [{"days": "Mon-Fri", "time": "3:30pm"}, {"days": "Sat", "time": "12:00pm"}, {"days": "Sun", "time": "Closed"}], "id": "7127000040", "name": "USPS COLLECTION BOX - BLUE BOX", "address": {"city": "RUSTON", "state": "LA", "street": "315 WISTERIA ST", "postcode": "71270"}}},
{"geometry": {"type": "Point", "coordinates": [-92.6298879713, 32.5312249796]}, "type": "Feature", "properties": {"collection_times": [{"days": "Mon-Fri", "time": "5:00pm"}, {"days": "Sat", "time": "3:00pm"}, {"days": "Sun", "time": "Closed"}], "id": "7127000047", "name": "USPS COLLECTION BOX - PO LOBBY", "address": {"city": "RUSTON", "state": "LA", "street": "700 E GEORGIA AVE", "postcode": "71270"}}},
{"geometry": {"type": "Point", "coordinates": [-92.6368999181, 32.5410741613]}, "type": "Feature", "properties": {"collection_times": [{"days": "Mon-Fri", "time": "4:15pm"}, {"days": "Sat", "time": "1:45pm"}, {"days": "Sun", "time": "Closed"}], "id": "7127000048", "name": "USPS COLLECTION BOX - BLUE BOX", "address": {"city": "RUSTON", "state": "LA", "street": "207 N SERVICE RD E", "postcode": "71270"}}},
{"geometry": {"type": "Point", "coordinates": [-92.787513267, 32.5431438905]}, "type": "Feature", "properties": {"collection_times": [{"days": "Mon-Fri", "time": "2:30pm"}, {"days": "Sat-Sun", "time": "Closed"}], "id": "7127500002", "name": "USPS COLLECTION BOX - BLUE BOX", "address": {"city": "SIMSBORO", "state": "LA", "street": "2903 MARTHA ST", "postcode": "71275"}}},
{"geometry": {"type": "Point", "coordinates": [-92.787513267, 32.5431438905]}, "type": "Feature", "properties": {"collection_times": [{"days": "Mon-Fri", "time": "2:30pm"}, {"days": "Sat-Sun", "time": "Closed"}], "id": "7127500003", "name": "USPS COLLECTION BOX - PO LOBBY", "address": {"city": "SIMSBORO", "state": "LA", "street": "2903 MARTHA ST", "postcode": "71275"}}},
{"geometry": {"type": "Point", "coordinates": [-91.2260418143, 32.572699064]}, "type": "Feature", "properties": {"collection_times": [{"days": "Mon-Fri", "time": "2:00pm"}, {"days": "Sat-Sun", "time": "Closed"}], "id": "7127600001", "name": "USPS COLLECTION BOX - BLUE BOX", "address": {"city": "SONDHEIMER", "state": "LA", "street": "17826 HIGHWAY 65 S", "postcode": "71276"}}},
{"geometry": {"type": "Point", "coordinates": [-91.2260418143, 32.572699064]}, "type": "Feature", "properties": {"collection_times": [{"days": "Mon-Fri", "time": "2:00pm"}, {"days": "Sat-Sun", "time": "Closed"}], "id": "7127600002", "name": "USPS COLLECTION BOX - PO LOBBY", "address": {"city": "SONDHEIMER", "state": "LA", "street": "17826 HIGHWAY 65 S", "postcode": "71276"}}},
{"geometry": {"type": "Point", "coordinates": [-92.595592012, 32.9320672803]}, "type": "Feature", "properties": {"collection_times": [{"days": "Mon-Fri", "time": "3:00pm"}, {"days": "Sat-Sun", "time": "Closed"}], "id": "7127700001", "name": "USPS COLLECTION BOX - BLUE BOX", "address": {"city": "SPEARSVILLE", "state": "LA", "street": "1360 HIGHWAY 15", "postcode": "71277"}}},
{"geometry": {"type": "Point", "coordinates": [-92.595592012, 32.9320672803]}, "type": "Feature", "properties": {"collection_times": [{"days": "Mon-Fri", "time": "3:00pm"}, {"days": "Sat-Sun", "time": "Closed"}], "id": "7127700002", "name": "USPS COLLECTION BOX - PO LOBBY", "address": {"city": "SPEARSVILLE", "state": "LA", "street": "1360 HIGHWAY 15", "postcode": "71277"}}},
{"geometry": {"type": "Point", "coordinates": [-91.860629757, 32.4864261565]}, "type": "Feature", "properties": {"collection_times": [{"days": "Mon-Fri", "time": "3:45pm"}, {"days": "Sat", "time": "7:00am"}, {"days": "Sun", "time": "Closed"}], "id": "7127900001", "name": "USPS COLLECTION BOX - BLUE BOX", "address": {"city": "START", "state": "LA", "street": "34 OWL LOOP RD", "postcode": "71279"}}},
{"geometry": {"type": "Point", "coordinates": [-91.860629757, 32.4864261565]}, "type": "Feature", "properties": {"collection_times": [{"days": "Mon-Fri", "time": "3:45pm"}, {"days": "Sat-Sun", "time": "Closed"}], "id": "7127900002", "name": "USPS COLLECTION BOX - PO LOBBY", "address": {"city": "START", "state": "LA", "street": "34 OWL LOOP RD", "postcode": "71279"}}},
{"geometry": {"type": "Point", "coordinates": [-92.075189248, 32.6931204388]}, "type": "Feature", "properties": {"collection_times": [{"days": "Mon-Fri", "time": "3:30pm"}, {"days": "Sat-Sun", "time": "Closed"}], "id": "7128000002", "name": "USPS COLLECTION BOX - BLUE BOX", "address": {"city": "STERLINGTON", "state": "LA", "street": "102 HIGH AVE", "postcode": "71280"}}},
{"geometry": {"type": "Point", "coordinates": [-92.075189248, 32.6931204388]}, "type": "Feature", "properties": {"collection_times": [{"days": "Mon-Fri", "time": "3:30pm"}, {"days": "Sat-Sun", "time": "Closed"}], "id": "7128000004", "name": "USPS COLLECTION BOX - PO LOBBY", "address": {"city": "STERLINGTON", "state": "LA", "street": "102 HIGH AVE", "postcode": "71280"}}},
{"geometry": {"type": "Point", "coordinates": [-91.9863386314, 32.5865357611]}, "type": "Feature", "properties": {"collection_times": [{"days": "Mon-Fri", "time": "3:45pm"}, {"days": "Sat-Sun", "time": "Closed"}], "id": "7128100001", "name": "USPS COLLECTION BOX - BLUE BOX", "address": {"city": "SWARTZ", "state": "LA", "street": "1892 HIGHWAY 139", "postcode": "71281"}}},
{"geometry": {"type": "Point", "coordinates": [-91.9863386314, 32.5865357611]}, "type": "Feature", "properties": {"collection_times": [{"days": "Mon-Fri", "time": "3:45pm"}, {"days": "Sat-Sun", "time": "Closed"}], "id": "7128100003", "name": "USPS COLLECTION BOX - PO LOBBY", "address": {"city": "SWARTZ", "state": "LA", "street": "1892 HIGHWAY 139", "postcode": "71281"}}},
{"geometry": {"type": "Point", "coordinates": [-91.1844150969, 32.4120203745]}, "type": "Feature", "properties": {"collection_times": [{"days": "Mon-Sat", "time": "3:45pm"}, {"days": "Sun", "time": "Closed"}], "id": "7128200015", "name": "USPS COLLECTION BOX - BLUE BOX", "address": {"city": "TALLULAH", "state": "LA", "street": "500 N CEDAR ST", "postcode": "71282"}}},
{"geometry": {"type": "Point", "coordinates": [-91.1844150969, 32.4120203745]}, "type": "Feature", "properties": {"collection_times": [{"days": "Mon-Sat", "time": "3:45pm"}, {"days": "Sun", "time": "Closed"}], "id": "7128200016", "name": "USPS COLLECTION BOX - BLUE BOX", "address": {"city": "TALLULAH", "state": "LA", "street": "500 N CEDAR ST", "postcode": "71282"}}},
{"geometry": {"type": "Point", "coordinates": [-91.1844150969, 32.4120203745]}, "type": "Feature", "properties": {"collection_times": [{"days": "Mon-Sat", "time": "3:45pm"}, {"days": "Sun", "time": "Closed"}], "id": "7128200018", "name": "USPS COLLECTION BOX - PO LOBBY", "address": {"city": "TALLULAH", "state": "LA", "street": "500 N CEDAR ST", "postcode": "71282"}}},
{"geometry": {"type": "Point", "coordinates": [-91.1844150969, 32.4120203745]}, "type": "Feature", "properties": {"collection_times": [{"days": "Mon-Sat", "time": "3:45pm"}, {"days": "Sun", "time": "Closed"}], "id": "7128200019", "name": "USPS COLLECTION BOX - PO LOBBY", "address": {"city": "TALLULAH", "state": "LA", "street": "500 N CEDAR ST", "postcode": "71282"}}},
{"geometry": {"type": "Point", "coordinates": [-91.1844150969, 32.4120203745]}, "type": "Feature", "properties": {"collection_times": [{"days": "Mon-Sat", "time": "3:45pm"}, {"days": "Sun", "time": "Closed"}], "id": "7128200020", "name": "USPS COLLECTION BOX - PO LOBBY", "address": {"city": "TALLULAH", "state": "LA", "street": "500 N CEDAR ST", "postcode": "71282"}}},
{"geometry": {"type": "Point", "coordinates": [-91.2532825254, 32.6660915252]}, "type": "Feature", "properties": {"collection_times": [{"days": "Mon-Fri", "time": "2:30pm"}, {"days": "Sat-Sun", "time": "Closed"}], "id": "7128600001", "name": "USPS COLLECTION BOX - BLUE BOX", "address": {"city": "TRANSYLVANIA", "state": "LA", "street": "13119 HIGHWAY 65 S", "postcode": "71286"}}},
{"geometry": {"type": "Point", "coordinates": [-91.2532825254, 32.6660915252]}, "type": "Feature", "properties": {"collection_times": [{"days": "Mon-Fri", "time": "2:30pm"}, {"days": "Sat-Sun", "time": "Closed"}], "id": "7128600003", "name": "USPS COLLECTION BOX - PO LOBBY", "address": {"city": "TRANSYLVANIA", "state": "LA", "street": "13119 HIGHWAY 65 S", "postcode": "71286"}}},
{"geometry": {"type": "Point", "coordinates": [-92.1256533519, 32.4993302456]}, "type": "Feature", "properties": {"collection_times": [{"days": "Mon-Fri", "time": "4:30pm"}, {"days": "Sat", "time": "4:00pm"}, {"days": "Sun", "time": "Closed"}], "id": "7129100001", "name": "USPS COLLECTION BOX - BLUE BOX", "address": {"city": "WEST MONROE", "state": "LA", "street": "601 WOOD ST", "postcode": "71291"}}},
{"geometry": {"type": "Point", "coordinates": [-92.1256533519, 32.4993302456]}, "type": "Feature", "properties": {"collection_times": [{"days": "Mon-Fri", "time": "4:30pm"}, {"days": "Sat", "time": "4:00pm"}, {"days": "Sun", "time": "Closed"}], "id": "7129100002", "name": "USPS COLLECTION BOX - BLUE BOX", "address": {"city": "WEST MONROE", "state": "LA", "street": "601 WOOD ST", "postcode": "71291"}}},
{"geometry": {"type": "Point", "coordinates": [-92.1256533519, 32.4993302456]}, "type": "Feature", "properties": {"collection_times": [{"days": "Mon-Fri", "time": "4:30pm"}, {"days": "Sat", "time": "4:00pm"}, {"days": "Sun", "time": "Closed"}], "id": "7129100003", "name": "USPS COLLECTION BOX - BLUE BOX", "address": {"city": "WEST MONROE", "state": "LA", "street": "601 WOOD ST", "postcode": "71291"}}},
{"geometry": {"type": "Point", "coordinates": [-92.1469582801, 32.5121553746]}, "type": "Feature", "properties": {"collection_times": [{"days": "Mon-Fri", "time": "4:15pm"}, {"days": "Sat-Sun", "time": "Closed"}], "id": "7129100006", "name": "USPS COLLECTION BOX - BLUE BOX", "address": {"city": "WEST MONROE", "state": "LA", "street": "1905 N 7TH ST", "postcode": "71291"}}},
{"geometry": {"type": "Point", "coordinates": [-92.1404573175, 32.507570313]}, "type": "Feature", "properties": {"collection_times": [{"days": "Mon-Fri", "time": "4:15pm"}, {"days": "Sat-Sun", "time": "Closed"}], "id": "7129100008", "name": "USPS COLLECTION BOX - BLUE BOX", "address": {"city": "WEST MONROE", "state": "LA", "street": "1401 N 7TH ST", "postcode": "71291"}}},
{"geometry": {"type": "Point", "coordinates": [-92.1476744668, 32.5259357288]}, "type": "Feature", "properties": {"collection_times": [{"days": "Mon-Fri", "time": "4:00pm"}, {"days": "Sat-Sun", "time": "Closed"}], "id": "7129100013", "name": "USPS COLLECTION BOX - BLUE BOX", "address": {"city": "WEST MONROE", "state": "LA", "street": "2613 N 7TH ST", "postcode": "71291"}}},
{"geometry": {"type": "Point", "coordinates": [-92.1477539066, 32.5197328239]}, "type": "Feature", "properties": {"collection_times": [{"days": "Mon-Fri", "time": "4:00pm"}, {"days": "Sat-Sun", "time": "Closed"}], "id": "7129100015", "name": "USPS COLLECTION BOX - BLUE BOX", "address": {"city": "WEST MONROE", "state": "LA", "street": "2305 N 7TH ST", "postcode": "71291"}}},
{"geometry": {"type": "Point", "coordinates": [-92.1560801966, 32.5135130753]}, "type": "Feature", "properties": {"collection_times": [{"days": "Mon-Fri", "time": "3:30pm"}, {"days": "Sat-Sun", "time": "Closed"}], "id": "7129100017", "name": "USPS COLLECTION BOX - BLUE BOX", "address": {"city": "WEST MONROE", "state": "LA", "street": "582 MCMILLAN RD", "postcode": "71291"}}},
{"geometry": {"type": "Point", "coordinates": [-92.1596401082, 32.517374659]}, "type": "Feature", "properties": {"collection_times": [{"days": "Mon-Fri", "time": "3:45pm"}, {"days": "Sat-Sun", "time": "Closed"}], "id": "7129100028", "name": "USPS COLLECTION BOX - BLUE BOX", "address": {"city": "WEST MONROE", "state": "LA", "street": "3426 CYPRESS ST", "postcode": "71291"}}},
{"geometry": {"type": "Point", "coordinates": [-92.1551543255, 32.5134100636]}, "type": "Feature", "properties": {"collection_times": [{"days": "Mon-Fri", "time": "3:45pm"}, {"days": "Sat-Sun", "time": "Closed"}], "id": "7129100030", "name": "USPS COLLECTION BOX - BLUE BOX", "address": {"city": "WEST MONROE", "state": "LA", "street": "503 MCMILLAN RD", "postcode": "71291"}}},
{"geometry": {"type": "Point", "coordinates": [-92.1477733204, 32.5149127993]}, "type": "Feature", "properties": {"collection_times": [{"days": "Mon-Fri", "time": "4:00pm"}, {"days": "Sat-Sun", "time": "Closed"}], "id": "7129100033", "name": "USPS COLLECTION BOX - BLUE BOX", "address": {"city": "WEST MONROE", "state": "LA", "street": "2106 N 7TH ST", "postcode": "71291"}}},
{"geometry": {"type": "Point", "coordinates": [-92.1560801966, 32.5135130753]}, "type": "Feature", "properties": {"collection_times": [{"days": "Mon-Fri", "time": "3:30pm"}, {"days": "Sat-Sun", "time": "Closed"}], "id": "7129100034", "name": "USPS COLLECTION BOX - BLUE BOX", "address": {"city": "WEST MONROE", "state": "LA", "street": "582 MCMILLAN RD", "postcode": "71291"}}},
{"geometry": {"type": "Point", "coordinates": [-92.1256533519, 32.4993302456]}, "type": "Feature", "properties": {"collection_times": [{"days": "Mon-Fri", "time": "4:30pm"}, {"days": "Sat", "time": "4:00pm"}, {"days": "Sun", "time": "Closed"}], "id": "7129100041", "name": "USPS COLLECTION BOX - PO LOBBY", "address": {"city": "WEST MONROE", "state": "LA", "street": "601 WOOD ST", "postcode": "71291"}}},
{"geometry": {"type": "Point", "coordinates": [-92.1256533519, 32.4993302456]}, "type": "Feature", "properties": {"collection_times": [{"days": "Mon-Fri", "time": "4:30pm"}, {"days": "Sat", "time": "4:00pm"}, {"days": "Sun", "time": "Closed"}], "id": "7129100042", "name": "USPS COLLECTION BOX - PO LOBBY", "address": {"city": "WEST MONROE", "state": "LA", "street": "601 WOOD ST", "postcode": "71291"}}},
{"geometry": {"type": "Point", "coordinates": [-92.1256533519, 32.4993302456]}, "type": "Feature", "properties": {"collection_times": [{"days": "Mon-Fri", "time": "4:30pm"}, {"days": "Sat", "time": "4:00pm"}, {"days": "Sun", "time": "Closed"}], "id": "7129100043", "name": "USPS COLLECTION BOX - PO LOBBY", "address": {"city": "WEST MONROE", "state": "LA", "street": "601 WOOD ST", "postcode": "71291"}}},
{"geometry": {"type": "Point", "coordinates": [-92.1445325491, 32.5184353643]}, "type": "Feature", "properties": {"collection_times": [{"days": "Mon-Fri", "time": "4:00pm"}, {"days": "Sat-Sun", "time": "Closed"}], "id": "7129100044", "name": "USPS COLLECTION BOX - BLUE BOX", "address": {"city": "WEST MONROE", "state": "LA", "street": "2400 CYPRESS ST", "postcode": "71291"}}},
{"geometry": {"type": "Point", "coordinates": [-92.1476744668, 32.5259357288]}, "type": "Feature", "properties": {"collection_times": [{"days": "Mon-Fri", "time": "4:00pm"}, {"days": "Sat-Sun", "time": "Closed"}], "id": "7129100046", "name": "USPS COLLECTION BOX - BLUE BOX", "address": {"city": "WEST MONROE", "state": "LA", "street": "2613 N 7TH ST", "postcode": "71291"}}},
{"geometry": {"type": "Point", "coordinates": [-92.1826677903, 32.5156687123]}, "type": "Feature", "properties": {"collection_times": [{"days": "Mon-Fri", "time": "3:30pm"}, {"days": "Sat-Sun", "time": "Closed"}], "id": "7129100050", "name": "USPS COLLECTION BOX - BLUE BOX", "address": {"city": "WEST MONROE", "state": "LA", "street": "4900 CYPRESS ST", "postcode": "71291"}}},
{"geometry": {"type": "Point", "coordinates": [-92.1256533519, 32.4993302456]}, "type": "Feature", "properties": {"collection_times": [{"days": "Mon-Fri", "time": "4:30pm"}, {"days": "Sat", "time": "4:00pm"}, {"days": "Sun", "time": "Closed"}], "id": "7129100051", "name": "USPS COLLECTION BOX - BLUE BOX", "address": {"city": "WEST MONROE", "state": "LA", "street": "601 WOOD ST", "postcode": "71291"}}},
{"geometry": {"type": "Point", "coordinates": [-92.1573325069, 32.5171946074]}, "type": "Feature", "properties": {"collection_times": [{"days": "Mon-Fri", "time": "3:30pm"}, {"days": "Sat-Sun", "time": "Closed"}], "id": "7129100053", "name": "USPS COLLECTION BOX - BLUE BOX", "address": {"city": "WEST MONROE", "state": "LA", "street": "102 THOMAS RD", "postcode": "71291"}}},
{"geometry": {"type": "Point", "coordinates": [-92.1646321453, 32.501047543]}, "type": "Feature", "properties": {"collection_times": [{"days": "Mon-Fri", "time": "3:15pm"}, {"days": "Sat-Sun", "time": "Closed"}], "id": "7129200001", "name": "USPS COLLECTION BOX - BLUE BOX", "address": {"city": "WEST MONROE", "state": "LA", "street": "101 ENTERPRISE ST", "postcode": "71292"}}},
{"geometry": {"type": "Point", "coordinates": [-92.1550514486, 32.4848741097]}, "type": "Feature", "properties": {"collection_times": [{"days": "Mon-Fri", "time": "3:15pm"}, {"days": "Sat-Sun", "time": "Closed"}], "id": "7129200004", "name": "USPS COLLECTION BOX - BLUE BOX", "address": {"city": "WEST MONROE", "state": "LA", "street": "115 SMITH ST", "postcode": "71292"}}},
{"geometry": {"type": "Point", "coordinates": [-92.1920303994, 32.5069989487]}, "type": "Feature", "properties": {"collection_times": [{"days": "Mon-Fri", "time": "3:30pm"}, {"days": "Sat-Sun", "time": "Closed"}], "id": "7129200005", "name": "USPS COLLECTION BOX - BLUE BOX", "address": {"city": "WEST MONROE", "state": "LA", "street": "300 WELL RD", "postcode": "71292"}}},
{"geometry": {"type": "Point", "coordinates": [-92.1646321453, 32.501047543]}, "type": "Feature", "properties": {"collection_times": [{"days": "Mon-Fri", "time": "3:15pm"}, {"days": "Sat-Sun", "time": "Closed"}], "id": "7129200007", "name": "USPS COLLECTION BOX - BLUE BOX", "address": {"city": "WEST MONROE", "state": "LA", "street": "101 ENTERPRISE ST", "postcode": "71292"}}},
{"geometry": {"type": "Point", "coordinates": [-91.7146437213, 32.1562024504]}, "type": "Feature", "properties": {"collection_times": [{"days": "Mon-Sat", "time": "3:15pm"}, {"days": "Sun", "time": "Closed"}], "id": "7129500007", "name": "USPS COLLECTION BOX - BLUE BOX", "address": {"city": "WINNSBORO", "state": "LA", "street": "3900 FRONT ST", "postcode": "71295"}}},
{"geometry": {"type": "Point", "coordinates": [-91.7146437213, 32.1562024504]}, "type": "Feature", "properties": {"collection_times": [{"days": "Mon-Sat", "time": "3:15pm"}, {"days": "Sun", "time": "Closed"}], "id": "7129500008", "name": "USPS COLLECTION BOX - BLUE BOX", "address": {"city": "WINNSBORO", "state": "LA", "street": "3900 FRONT ST", "postcode": "71295"}}},
{"geometry": {"type": "Point", "coordinates": [-91.7146437213, 32.1562024504]}, "type": "Feature", "properties": {"collection_times": [{"days": "Mon-Sat", "time": "3:15pm"}, {"days": "Sun", "time": "Closed"}], "id": "7129500009", "name": "USPS COLLECTION BOX - PO LOBBY", "address": {"city": "WINNSBORO", "state": "LA", "street": "3900 FRONT ST", "postcode": "71295"}}},
{"geometry": {"type": "Point", "coordinates": [-91.7146437213, 32.1562024504]}, "type": "Feature", "properties": {"collection_times": [{"days": "Mon-Sat", "time": "3:15pm"}, {"days": "Sun", "time": "Closed"}], "id": "7129500012", "name": "USPS COLLECTION BOX - BLUE BOX", "address": {"city": "WINNSBORO", "state": "LA", "street": "3900 FRONT ST", "postcode": "71295"}}},
{"geometry": {"type": "Point", "coordinates": [-91.7146437213, 32.1562024504]}, "type": "Feature", "properties": {"collection_times": [{"days": "Mon-Sat", "time": "3:15pm"}, {"days": "Sun", "time": "Closed"}], "id": "7129500013", "name": "USPS COLLECTION BOX - PO LOBBY", "address": {"city": "WINNSBORO", "state": "LA", "street": "3900 FRONT ST", "postcode": "71295"}}}
]}
