{"type": "FeatureCollection", "features": [
{"geometry": {"type": "Point", "coordinates": [-92.448348764, 31.3081950374]}, "type": "Feature", "properties": {"collection_times": [{"days": "Mon-Fri", "time": "4:00pm"}, {"days": "Sat-Sun", "time": "Closed"}], "id": "7130100005", "name": "USPS COLLECTION BOX - BLUE BOX", "address": {"city": "ALEXANDRIA", "state": "LA", "street": "900 MURRAY ST", "postcode": "71301"}}},
{"geometry": {"type": "Point", "coordinates": [-92.4470955903, 31.3091686894]}, "type": "Feature", "properties": {"collection_times": [{"days": "Mon-Fri", "time": "4:00pm"}, {"days": "Sat-Sun", "time": "Closed"}], "id": "7130100008", "name": "USPS COLLECTION BOX - BLUE BOX", "address": {"city": "ALEXANDRIA", "state": "LA", "street": "701 MURRAY ST", "postcode": "71301"}}},
{"geometry": {"type": "Point", "coordinates": [-92.4465604108, 31.3097034603]}, "type": "Feature", "properties": {"collection_times": [{"days": "Mon-Fri", "time": "4:15pm"}, {"days": "Sat-Sun", "time": "Closed"}], "id": "7130100011", "name": "USPS COLLECTION BOX - BLUE BOX", "address": {"city": "ALEXANDRIA", "state": "LA", "street": "1000 6TH ST", "postcode": "71301"}}},
{"geometry": {"type": "Point", "coordinates": [-92.4464623795, 31.3096809047]}, "type": "Feature", "properties": {"collection_times": [{"days": "Mon-Fri", "time": "4:15pm"}, {"days": "Sat-Sun", "time": "Closed"}], "id": "7130100014", "name": "USPS COLLECTION BOX - BLUE BOX", "address": {"city": "ALEXANDRIA", "state": "LA", "street": "1000 6TH ST", "postcode": "71301"}}},
{"geometry": {"type": "Point", "coordinates": [-92.4461265322, 31.3123255826]}, "type": "Feature", "properties": {"collection_times": [{"days": "Mon-Fri", "time": "4:15pm"}, {"days": "Sat-Sun", "time": "Closed"}], "id": "7130100019", "name": "USPS COLLECTION BOX - BLUE BOX", "address": {"city": "ALEXANDRIA", "state": "LA", "street": "300 JACKSON ST", "postcode": "71301"}}},
{"geometry": {"type": "Point", "coordinates": [-92.4461265322, 31.3123255826]}, "type": "Feature", "properties": {"collection_times": [{"days": "Mon-Fri", "time": "4:15pm"}, {"days": "Sat-Sun", "time": "Closed"}], "id": "7130100020", "name": "USPS COLLECTION BOX - BLUE BOX", "address": {"city": "ALEXANDRIA", "state": "LA", "street": "300 JACKSON ST", "postcode": "71301"}}},
{"geometry": {"type": "Point", "coordinates": [-92.4767183064, 31.2799128681]}, "type": "Feature", "properties": {"collection_times": [{"days": "Mon-Fri", "time": "5:00pm"}, {"days": "Sat-Sun", "time": "Closed"}], "id": "7130100036", "name": "USPS COLLECTION BOX - BLUE BOX", "address": {"city": "ALEXANDRIA", "state": "LA", "street": "1412 CENTRE CT", "postcode": "71301"}}},
{"geometry": {"type": "Point", "coordinates": [-92.4767183064, 31.2799128681]}, "type": "Feature", "properties": {"collection_times": [{"days": "Mon-Fri", "time": "5:00pm"}, {"days": "Sat-Sun", "time": "Closed"}], "id": "7130100041", "name": "USPS COLLECTION BOX - BLUE BOX", "address": {"city": "ALEXANDRIA", "state": "LA", "street": "1412 CENTRE CT", "postcode": "71301"}}},
{"geometry": {"type": "Point", "coordinates": [-92.4686046344, 31.2712228188]}, "type": "Feature", "properties": {"collection_times": [{"days": "Mon-Fri", "time": "5:00pm"}, {"days": "Sat-Sun", "time": "Closed"}], "id": "7130100056", "name": "USPS COLLECTION BOX - BLUE BOX", "address": {"city": "ALEXANDRIA", "state": "LA", "street": "2230 S MACARTHUR DR", "postcode": "71301"}}},
{"geometry": {"type": "Point", "coordinates": [-92.4460003813, 31.3101631115]}, "type": "Feature", "properties": {"collection_times": [{"days": "Mon-Fri", "time": "3:30pm"}, {"days": "Sat-Sun", "time": "Closed"}], "id": "7130100062", "name": "USPS COLLECTION BOX - PO LOBBY", "address": {"city": "ALEXANDRIA", "state": "LA", "street": "515 MURRAY ST", "postcode": "71301"}}},
{"geometry": {"type": "Point", "coordinates": [-92.4675607457, 31.3192002033]}, "type": "Feature", "properties": {"collection_times": [{"days": "Mon-Sat", "time": "5:00pm"}, {"days": "Sun", "time": "Closed"}], "id": "7130100066", "name": "USPS COLLECTION BOX - BLUE BOX", "address": {"city": "ALEXANDRIA", "state": "LA", "street": "1715 ODOM ST", "postcode": "71301"}}},
{"geometry": {"type": "Point", "coordinates": [-92.4675607457, 31.3192002033]}, "type": "Feature", "properties": {"collection_times": [{"days": "Mon-Sat", "time": "5:00pm"}, {"days": "Sun", "time": "Closed"}], "id": "7130100067", "name": "USPS COLLECTION BOX - PO LOBBY", "address": {"city": "ALEXANDRIA", "state": "LA", "street": "1715 ODOM ST", "postcode": "71301"}}},
{"geometry": {"type": "Point", "coordinates": [-92.4675607457, 31.3192002033]}, "type": "Feature", "properties": {"collection_times": [{"days": "Mon-Sat", "time": "5:00pm"}, {"days": "Sun", "time": "Closed"}], "id": "7130100077", "name": "USPS COLLECTION BOX - BLUE BOX", "address": {"city": "ALEXANDRIA", "state": "LA", "street": "1715 ODOM ST", "postcode": "71301"}}},
{"geometry": {"type": "Point", "coordinates": [-92.4675607457, 31.3192002033]}, "type": "Feature", "properties": {"collection_times": [{"days": "Mon-Sat", "time": "5:00pm"}, {"days": "Sun", "time": "Closed"}], "id": "7130100078", "name": "USPS COLLECTION BOX - BLUE BOX", "address": {"city": "ALEXANDRIA", "state": "LA", "street": "1715 ODOM ST", "postcode": "71301"}}},
{"geometry": {"type": "Point", "coordinates": [-92.4503643652, 31.3031694747]}, "type": "Feature", "properties": {"collection_times": [{"days": "Mon-Fri", "time": "4:00pm"}, {"days": "Sat-Sun", "time": "Closed"}], "id": "7130100079", "name": "USPS COLLECTION BOX - BLUE BOX", "address": {"city": "ALEXANDRIA", "state": "LA", "street": "1510 LEE ST", "postcode": "71301"}}},
{"geometry": {"type": "Point", "coordinates": [-92.4503643652, 31.3031694747]}, "type": "Feature", "properties": {"collection_times": [{"days": "Mon-Fri", "time": "4:00pm"}, {"days": "Sat-Sun", "time": "Closed"}], "id": "7130100080", "name": "USPS COLLECTION BOX - BLUE BOX", "address": {"city": "ALEXANDRIA", "state": "LA", "street": "1510 LEE ST", "postcode": "71301"}}},
{"geometry": {"type": "Point", "coordinates": [-92.4465604108, 31.3097034603]}, "type": "Feature", "properties": {"collection_times": [{"days": "Mon-Fri", "time": "4:15pm"}, {"days": "Sat-Sun", "time": "Closed"}], "id": "7130100081", "name": "USPS COLLECTION BOX - BLUE BOX", "address": {"city": "ALEXANDRIA", "state": "LA", "street": "1000 6TH ST", "postcode": "71301"}}},
{"geometry": {"type": "Point", "coordinates": [-92.4465604108, 31.3097034603]}, "type": "Feature", "properties": {"collection_times": [{"days": "Mon-Fri", "time": "4:15pm"}, {"days": "Sat-Sun", "time": "Closed"}], "id": "7130100082", "name": "USPS COLLECTION BOX - BLUE BOX", "address": {"city": "ALEXANDRIA", "state": "LA", "street": "1000 6TH ST", "postcode": "71301"}}},
{"geometry": {"type": "Point", "coordinates": [-92.4464623795, 31.3096809047]}, "type": "Feature", "properties": {"collection_times": [{"days": "Mon-Fri", "time": "4:15pm"}, {"days": "Sat-Sun", "time": "Closed"}], "id": "7130100084", "name": "USPS COLLECTION BOX - BLUE BOX", "address": {"city": "ALEXANDRIA", "state": "LA", "street": "1000 6TH ST", "postcode": "71301"}}},
{"geometry": {"type": "Point", "coordinates": [-92.4496183726, 31.3143896118]}, "type": "Feature", "properties": {"collection_times": [{"days": "Mon-Fri", "time": "4:15pm"}, {"days": "Sat-Sun", "time": "Closed"}], "id": "7130100085", "name": "USPS COLLECTION BOX - BLUE BOX", "address": {"city": "ALEXANDRIA", "state": "LA", "street": "301 4TH ST", "postcode": "71301"}}},
{"geometry": {"type": "Point", "coordinates": [-92.4629224952, 31.2843510436]}, "type": "Feature", "properties": {"collection_times": [{"days": "Mon-Fri", "time": "5:00pm"}, {"days": "Sat-Sun", "time": "Closed"}], "id": "7130100091", "name": "USPS COLLECTION BOX - BLUE BOX", "address": {"city": "ALEXANDRIA", "state": "LA", "street": "3401 GOVERNMENT STREET", "postcode": "71301"}}},
{"geometry": {"type": "Point", "coordinates": [-92.4629224952, 31.2843510436]}, "type": "Feature", "properties": {"collection_times": [{"days": "Mon-Fri", "time": "5:00pm"}, {"days": "Sat-Sun", "time": "Closed"}], "id": "7130100094", "name": "USPS COLLECTION BOX - BLUE BOX", "address": {"city": "ALEXANDRIA", "state": "LA", "street": "3401 GOVERNMENT STREET", "postcode": "71301"}}},
{"geometry": {"type": "Point", "coordinates": [-92.4131148242, 31.1772217577]}, "type": "Feature", "properties": {"collection_times": [{"days": "Mon-Fri", "time": "5:00pm"}, {"days": "Sat-Sun", "time": "Closed"}], "id": "7130100096", "name": "USPS COLLECTION BOX - BLUE BOX", "address": {"city": "ALEXANDRIA", "state": "LA", "street": "1411 METRO DR", "postcode": "71301"}}},
{"geometry": {"type": "Point", "coordinates": [-92.4675607457, 31.3192002033]}, "type": "Feature", "properties": {"collection_times": [{"days": "Mon-Sat", "time": "5:00pm"}, {"days": "Sun", "time": "Closed"}], "id": "7130100098", "name": "USPS COLLECTION BOX - PO LOBBY", "address": {"city": "ALEXANDRIA", "state": "LA", "street": "1715 ODOM ST", "postcode": "71301"}}},
{"geometry": {"type": "Point", "coordinates": [-92.445189837, 31.311678865]}, "type": "Feature", "properties": {"collection_times": [{"days": "Mon-Fri", "time": "4:15pm"}, {"days": "Sat-Sun", "time": "Closed"}], "id": "7130100101", "name": "USPS COLLECTION BOX - BLUE BOX", "address": {"city": "ALEXANDRIA", "state": "LA", "street": "934 3RD ST", "postcode": "71301"}}},
{"geometry": {"type": "Point", "coordinates": [-92.447069518, 31.309167216]}, "type": "Feature", "properties": {"collection_times": [{"days": "Mon-Fri", "time": "4:00pm"}, {"days": "Sat-Sun", "time": "Closed"}], "id": "7130100102", "name": "USPS COLLECTION BOX - BLUE BOX", "address": {"city": "ALEXANDRIA", "state": "LA", "street": "701 MURRAY ST", "postcode": "71301"}}},
{"geometry": {"type": "Point", "coordinates": [-92.4523610782, 31.2662629973]}, "type": "Feature", "properties": {"collection_times": [{"days": "Mon-Fri", "time": "5:00pm"}, {"days": "Sat-Sun", "time": "Closed"}], "id": "7130200000", "name": "USPS COLLECTION BOX - BLUE BOX", "address": {"city": "ALEXANDRIA", "state": "LA", "street": "3401 GOVERNMENT ST", "postcode": "71302"}}},
{"geometry": {"type": "Point", "coordinates": [-92.4523610782, 31.2662629973]}, "type": "Feature", "properties": {"collection_times": [{"days": "Mon-Fri", "time": "5:00pm"}, {"days": "Sat-Sun", "time": "Closed"}], "id": "7130200009", "name": "USPS COLLECTION BOX - BLUE BOX", "address": {"city": "ALEXANDRIA", "state": "LA", "street": "3401 GOVERNMENT ST", "postcode": "71302"}}},
{"geometry": {"type": "Point", "coordinates": [-92.4523610782, 31.2662629973]}, "type": "Feature", "properties": {"collection_times": [{"days": "Mon-Fri", "time": "5:00pm"}, {"days": "Sat-Sun", "time": "Closed"}], "id": "7130200010", "name": "USPS COLLECTION BOX - BLUE BOX", "address": {"city": "ALEXANDRIA", "state": "LA", "street": "3401 GOVERNMENT ST", "postcode": "71302"}}},
{"geometry": {"type": "Point", "coordinates": [-92.4523610782, 31.2662629973]}, "type": "Feature", "properties": {"collection_times": [{"days": "Mon-Fri", "time": "5:00pm"}, {"days": "Sat-Sun", "time": "Closed"}], "id": "7130200011", "name": "USPS COLLECTION BOX - BLUE BOX", "address": {"city": "ALEXANDRIA", "state": "LA", "street": "3401 GOVERNMENT ST", "postcode": "71302"}}},
{"geometry": {"type": "Point", "coordinates": [-92.4523610782, 31.2662629973]}, "type": "Feature", "properties": {"collection_times": [{"days": "Mon-Fri", "time": "5:00pm"}, {"days": "Sat-Sun", "time": "Closed"}], "id": "7130200012", "name": "USPS COLLECTION BOX - BLUE BOX", "address": {"city": "ALEXANDRIA", "state": "LA", "street": "3311 PRESCOTT RD", "postcode": "71302"}}},
{"geometry": {"type": "Point", "coordinates": [-92.4523610782, 31.2662629973]}, "type": "Feature", "properties": {"collection_times": [{"days": "Mon-Fri", "time": "4:30pm"}, {"days": "Sat-Sun", "time": "Closed"}], "id": "7130200015", "name": "USPS COLLECTION BOX - PO LOBBY", "address": {"city": "ALEXANDRIA", "state": "LA", "street": "3401 GOVERNMENT ST", "postcode": "71302"}}},
{"geometry": {"type": "Point", "coordinates": [-92.4523610782, 31.2662629973]}, "type": "Feature", "properties": {"collection_times": [{"days": "Mon-Fri", "time": "4:30pm"}, {"days": "Sat-Sun", "time": "Closed"}], "id": "7130200016", "name": "USPS COLLECTION BOX - PO LOBBY", "address": {"city": "ALEXANDRIA", "state": "LA", "street": "3401 GOVERNMENT ST", "postcode": "71302"}}},
{"geometry": {"type": "Point", "coordinates": [-92.4523610782, 31.2662629973]}, "type": "Feature", "properties": {"collection_times": [{"days": "Mon-Fri", "time": "4:30pm"}, {"days": "Sat-Sun", "time": "Closed"}], "id": "7130200017", "name": "USPS COLLECTION BOX - PO LOBBY", "address": {"city": "ALEXANDRIA", "state": "LA", "street": "3401 GOVERNMENT ST", "postcode": "71302"}}},
{"geometry": {"type": "Point", "coordinates": [-92.4764033459, 31.2845425329]}, "type": "Feature", "properties": {"collection_times": [{"days": "Mon-Fri", "time": "4:45pm"}, {"days": "Sat-Sun", "time": "Closed"}], "id": "7130300008", "name": "USPS COLLECTION BOX - BLUE BOX", "address": {"city": "ALEXANDRIA", "state": "LA", "street": "3700 JACKSON STREET EXT", "postcode": "71303"}}},
{"geometry": {"type": "Point", "coordinates": [-92.4780562212, 31.2837316088]}, "type": "Feature", "properties": {"collection_times": [{"days": "Mon-Fri", "time": "4:45pm"}, {"days": "Sat-Sun", "time": "Closed"}], "id": "7130300024", "name": "USPS COLLECTION BOX - BLUE BOX", "address": {"city": "ALEXANDRIA", "state": "LA", "street": "1303 SOUTHAMPTON DR", "postcode": "71303"}}},
{"geometry": {"type": "Point", "coordinates": [-92.4780562212, 31.2837316088]}, "type": "Feature", "properties": {"collection_times": [{"days": "Mon-Fri", "time": "4:45pm"}, {"days": "Sat-Sun", "time": "Closed"}], "id": "7130300028", "name": "USPS COLLECTION BOX - BLUE BOX", "address": {"city": "ALEXANDRIA", "state": "LA", "street": "1303 SOUTHAMPTON DR", "postcode": "71303"}}},
{"geometry": {"type": "Point", "coordinates": [-92.4789676651, 31.276430938]}, "type": "Feature", "properties": {"collection_times": [{"days": "Mon-Fri", "time": "5:00pm"}, {"days": "Sat", "time": "1:00pm"}, {"days": "Sun", "time": "Closed"}], "id": "7130300052", "name": "USPS COLLECTION BOX - BLUE BOX", "address": {"city": "ALEXANDRIA", "state": "LA", "street": "1411 METRO DR", "postcode": "71303"}}},
{"geometry": {"type": "Point", "coordinates": [-92.4789676651, 31.276430938]}, "type": "Feature", "properties": {"collection_times": [{"days": "Mon-Fri", "time": "5:00pm"}, {"days": "Sat", "time": "1:00pm"}, {"days": "Sun", "time": "Closed"}], "id": "7130300053", "name": "USPS COLLECTION BOX - BLUE BOX", "address": {"city": "ALEXANDRIA", "state": "LA", "street": "1411 METRO DR", "postcode": "71303"}}},
{"geometry": {"type": "Point", "coordinates": [-92.4789676651, 31.276430938]}, "type": "Feature", "properties": {"collection_times": [{"days": "Mon-Fri", "time": "5:00pm"}, {"days": "Sat", "time": "1:00pm"}, {"days": "Sun", "time": "Closed"}], "id": "7130300054", "name": "USPS COLLECTION BOX - BLUE BOX", "address": {"city": "ALEXANDRIA", "state": "LA", "street": "1411 METRO DR", "postcode": "71303"}}},
{"geometry": {"type": "Point", "coordinates": [-92.4789676651, 31.276430938]}, "type": "Feature", "properties": {"collection_times": [{"days": "Mon-Fri", "time": "5:00pm"}, {"days": "Sat", "time": "1:00pm"}, {"days": "Sun", "time": "Closed"}], "id": "7130300055", "name": "USPS COLLECTION BOX - BLUE BOX", "address": {"city": "ALEXANDRIA", "state": "LA", "street": "1411 METRO DR", "postcode": "71303"}}},
{"geometry": {"type": "Point", "coordinates": [-92.4789676651, 31.276430938]}, "type": "Feature", "properties": {"collection_times": [{"days": "Mon-Fri", "time": "5:00pm"}, {"days": "Sat", "time": "1:00pm"}, {"days": "Sun", "time": "Closed"}], "id": "7130300056", "name": "USPS COLLECTION BOX - BLUE BOX", "address": {"city": "ALEXANDRIA", "state": "LA", "street": "1411 METRO DR", "postcode": "71303"}}},
{"geometry": {"type": "Point", "coordinates": [-92.4764033459, 31.2845425329]}, "type": "Feature", "properties": {"collection_times": [{"days": "Mon-Fri", "time": "5:00pm"}, {"days": "Sat-Sun", "time": "Closed"}], "id": "7130300059", "name": "USPS COLLECTION BOX - BLUE BOX", "address": {"city": "ALEXANDRIA", "state": "LA", "street": "1412 CENTRE CT", "postcode": "71303"}}},
{"geometry": {"type": "Point", "coordinates": [-92.4789676651, 31.276430938]}, "type": "Feature", "properties": {"collection_times": [{"days": "Mon-Fri", "time": "4:30pm"}, {"days": "Sat-Sun", "time": "Closed"}], "id": "7130300060", "name": "USPS COLLECTION BOX - PO LOBBY", "address": {"city": "ALEXANDRIA", "state": "LA", "street": "1411 METRO DR", "postcode": "71303"}}},
{"geometry": {"type": "Point", "coordinates": [-91.9076861566, 31.1058763547]}, "type": "Feature", "properties": {"collection_times": [{"days": "Mon-Fri", "time": "12:30pm"}, {"days": "Sat", "time": "9:00am"}, {"days": "Sun", "time": "Closed"}], "id": "7132000000", "name": "USPS COLLECTION BOX - BLUE BOX", "address": {"city": "BORDELONVILLE", "state": "LA", "street": "4416 HIGHWAY 451", "postcode": "71320"}}},
{"geometry": {"type": "Point", "coordinates": [-91.9076861566, 31.1058763547]}, "type": "Feature", "properties": {"collection_times": [{"days": "Mon-Fri", "time": "12:30pm"}, {"days": "Sat", "time": "9:00am"}, {"days": "Sun", "time": "Closed"}], "id": "7132000001", "name": "USPS COLLECTION BOX - PO LOBBY", "address": {"city": "BORDELONVILLE", "state": "LA", "street": "4416 HIGHWAY 451", "postcode": "71320"}}},
{"geometry": {"type": "Point", "coordinates": [-92.1840191033, 30.9540128593]}, "type": "Feature", "properties": {"collection_times": [{"days": "Mon-Fri", "time": "4:00pm"}, {"days": "Sat", "time": "1:00pm"}, {"days": "Sun", "time": "Closed"}], "id": "7132200006", "name": "USPS COLLECTION BOX - BLUE BOX", "address": {"city": "BUNKIE", "state": "LA", "street": "116 W MAGNOLIA ST", "postcode": "71322"}}},
{"geometry": {"type": "Point", "coordinates": [-92.1840191033, 30.9540128593]}, "type": "Feature", "properties": {"collection_times": [{"days": "Mon-Fri", "time": "4:00pm"}, {"days": "Sat", "time": "1:00pm"}, {"days": "Sun", "time": "Closed"}], "id": "7132200007", "name": "USPS COLLECTION BOX - BLUE BOX", "address": {"city": "BUNKIE", "state": "LA", "street": "116 W MAGNOLIA ST", "postcode": "71322"}}},
{"geometry": {"type": "Point", "coordinates": [-92.1840191033, 30.9540128593]}, "type": "Feature", "properties": {"collection_times": [{"days": "Mon-Fri", "time": "4:00pm"}, {"days": "Sat", "time": "1:00pm"}, {"days": "Sun", "time": "Closed"}], "id": "7132200010", "name": "USPS COLLECTION BOX - PO LOBBY", "address": {"city": "BUNKIE", "state": "LA", "street": "116 W MAGNOLIA ST", "postcode": "71322"}}},
{"geometry": {"type": "Point", "coordinates": [-92.1847643503, 30.9533976291]}, "type": "Feature", "properties": {"collection_times": [{"days": "Mon-Fri", "time": "4:00pm"}, {"days": "Sat", "time": "1:00pm"}, {"days": "Sun", "time": "Closed"}], "id": "7132200013", "name": "USPS COLLECTION BOX - BLUE BOX", "address": {"city": "BUNKIE", "state": "LA", "street": "200 WALNUT ST", "postcode": "71322"}}},
{"geometry": {"type": "Point", "coordinates": [-92.2075998211, 31.2491279378]}, "type": "Feature", "properties": {"collection_times": [{"days": "Mon-Fri", "time": "2:00pm"}, {"days": "Sat", "time": "7:45am"}, {"days": "Sun", "time": "Closed"}], "id": "7132300001", "name": "USPS COLLECTION BOX - BLUE BOX", "address": {"city": "CENTER POINT", "state": "LA", "street": "1006 HIGHWAY 107", "postcode": "71323"}}},
{"geometry": {"type": "Point", "coordinates": [-92.2075998211, 31.2491279378]}, "type": "Feature", "properties": {"collection_times": [{"days": "Mon-Fri", "time": "1:00pm"}, {"days": "Sat-Sun", "time": "Closed"}], "id": "7132300002", "name": "USPS COLLECTION BOX - PO LOBBY", "address": {"city": "CENTER POINT", "state": "LA", "street": "1006 HIGHWAY 107", "postcode": "71323"}}},
{"geometry": {"type": "Point", "coordinates": [-91.705252708, 32.097567244]}, "type": "Feature", "properties": {"collection_times": [{"days": "Mon-Fri", "time": "2:00pm"}, {"days": "Sat", "time": "8:30am"}, {"days": "Sun", "time": "Closed"}], "id": "7132400001", "name": "USPS COLLECTION BOX - BLUE BOX", "address": {"city": "CHASE", "state": "LA", "street": "120 FEED MILL RD", "postcode": "71324"}}},
{"geometry": {"type": "Point", "coordinates": [-91.705252708, 32.097567244]}, "type": "Feature", "properties": {"collection_times": [{"days": "Mon-Fri", "time": "2:00pm"}, {"days": "Sat", "time": "8:30am"}, {"days": "Sun", "time": "Closed"}], "id": "7132400002", "name": "USPS COLLECTION BOX - PO LOBBY", "address": {"city": "CHASE", "state": "LA", "street": "120 FEED MILL RD", "postcode": "71324"}}},
{"geometry": {"type": "Point", "coordinates": [-92.289672202, 31.0113202797]}, "type": "Feature", "properties": {"collection_times": [{"days": "Mon-Fri", "time": "3:00pm"}, {"days": "Sat", "time": "7:00am"}, {"days": "Sun", "time": "Closed"}], "id": "7132500001", "name": "USPS COLLECTION BOX - BLUE BOX", "address": {"city": "CHENEYVILLE", "state": "LA", "street": "202 KLOCK ST", "postcode": "71325"}}},
{"geometry": {"type": "Point", "coordinates": [-92.289672202, 31.0113202797]}, "type": "Feature", "properties": {"collection_times": [{"days": "Mon-Fri", "time": "3:00pm"}, {"days": "Sat-Sun", "time": "Closed"}], "id": "7132500003", "name": "USPS COLLECTION BOX - PO LOBBY", "address": {"city": "CHENEYVILLE", "state": "LA", "street": "202 KLOCK ST", "postcode": "71325"}}},
{"geometry": {"type": "Point", "coordinates": [-91.5273817908, 31.8093894199]}, "type": "Feature", "properties": {"collection_times": [{"days": "Mon-Fri", "time": "2:00pm"}, {"days": "Sat", "time": "9:00am"}, {"days": "Sun", "time": "Closed"}], "id": "7132600001", "name": "USPS COLLECTION BOX - BLUE BOX", "address": {"city": "CLAYTON", "state": "LA", "street": "31449 HIGHWAY 15", "postcode": "71326"}}},
{"geometry": {"type": "Point", "coordinates": [-91.5273817908, 31.8093894199]}, "type": "Feature", "properties": {"collection_times": [{"days": "Mon-Fri", "time": "2:00pm"}, {"days": "Sat", "time": "9:00am"}, {"days": "Sun", "time": "Closed"}], "id": "7132600002", "name": "USPS COLLECTION BOX - PO LOBBY", "address": {"city": "CLAYTON", "state": "LA", "street": "31449 HIGHWAY 15", "postcode": "71326"}}},
{"geometry": {"type": "Point", "coordinates": [-92.0530915137, 30.9838451611]}, "type": "Feature", "properties": {"collection_times": [{"days": "Mon-Fri", "time": "1:00pm"}, {"days": "Sat", "time": "9:00am"}, {"days": "Sun", "time": "Closed"}], "id": "7132700001", "name": "USPS COLLECTION BOX - BLUE BOX", "address": {"city": "COTTONPORT", "state": "LA", "street": "955 SYCAMORE ST", "postcode": "71327"}}},
{"geometry": {"type": "Point", "coordinates": [-92.0530915137, 30.9838451611]}, "type": "Feature", "properties": {"collection_times": [{"days": "Mon-Fri", "time": "1:00pm"}, {"days": "Sat-Sun", "time": "Closed"}], "id": "7132700003", "name": "USPS COLLECTION BOX - PO LOBBY", "address": {"city": "COTTONPORT", "state": "LA", "street": "955 SYCAMORE ST", "postcode": "71327"}}},
{"geometry": {"type": "Point", "coordinates": [-92.1644965876, 31.3919894331]}, "type": "Feature", "properties": {"collection_times": [{"days": "Mon-Fri", "time": "3:45pm"}, {"days": "Sat", "time": "9:00am"}, {"days": "Sun", "time": "Closed"}], "id": "7132800001", "name": "USPS COLLECTION BOX - BLUE BOX", "address": {"city": "DEVILLE", "state": "LA", "street": "1264 HIGHWAY 115", "postcode": "71328"}}},
{"geometry": {"type": "Point", "coordinates": [-92.1644965876, 31.3919894331]}, "type": "Feature", "properties": {"collection_times": [{"days": "Mon-Fri", "time": "3:45pm"}, {"days": "Sat", "time": "9:00am"}, {"days": "Sun", "time": "Closed"}], "id": "7132800002", "name": "USPS COLLECTION BOX - PO LOBBY", "address": {"city": "DEVILLE", "state": "LA", "street": "1264 HIGHWAY 115", "postcode": "71328"}}},
{"geometry": {"type": "Point", "coordinates": [-91.9464451718, 30.9280992092]}, "type": "Feature", "properties": {"collection_times": [{"days": "Mon-Fri", "time": "3:15pm"}, {"days": "Sat", "time": "7:30am"}, {"days": "Sun", "time": "Closed"}], "id": "7132900001", "name": "USPS COLLECTION BOX - BLUE BOX", "address": {"city": "DUPONT", "state": "LA", "street": "5735 HIGHWAY 107 S", "postcode": "71329"}}},
{"geometry": {"type": "Point", "coordinates": [-91.9464451718, 30.9280992092]}, "type": "Feature", "properties": {"collection_times": [{"days": "Mon-Fri", "time": "3:15pm"}, {"days": "Sat-Sun", "time": "Closed"}], "id": "7132900002", "name": "USPS COLLECTION BOX - PO LOBBY", "address": {"city": "DUPONT", "state": "LA", "street": "5735 HIGHWAY 107 S", "postcode": "71329"}}},
{"geometry": {"type": "Point", "coordinates": [-92.2323653685, 31.1101472345]}, "type": "Feature", "properties": {"collection_times": [{"days": "Mon-Fri", "time": "3:00pm"}, {"days": "Sat", "time": "7:00am"}, {"days": "Sun", "time": "Closed"}], "id": "7133000001", "name": "USPS COLLECTION BOX - BLUE BOX", "address": {"city": "ECHO", "state": "LA", "street": "10491 HIGHWAY 1", "postcode": "71330"}}},
{"geometry": {"type": "Point", "coordinates": [-92.1532771066, 31.2130282768]}, "type": "Feature", "properties": {"collection_times": [{"days": "Mon-Fri", "time": "3:00pm"}, {"days": "Sat-Sun", "time": "Closed"}], "id": "7133100001", "name": "USPS COLLECTION BOX - BLUE BOX", "address": {"city": "EFFIE", "state": "LA", "street": "3277 HIGHWAY 107", "postcode": "71331"}}},
{"geometry": {"type": "Point", "coordinates": [-92.1532771066, 31.2130282768]}, "type": "Feature", "properties": {"collection_times": [{"days": "Mon-Fri", "time": "11:00am"}, {"days": "Sat-Sun", "time": "Closed"}], "id": "7133100002", "name": "USPS COLLECTION BOX - PO LOBBY", "address": {"city": "EFFIE", "state": "LA", "street": "3277 HIGHWAY 107", "postcode": "71331"}}},
{"geometry": {"type": "Point", "coordinates": [-92.1084200979, 30.9521623527]}, "type": "Feature", "properties": {"collection_times": [{"days": "Mon-Fri", "time": "10:30am"}, {"days": "Sat", "time": "7:45am"}, {"days": "Sun", "time": "Closed"}], "id": "7133300001", "name": "USPS COLLECTION BOX - BLUE BOX", "address": {"city": "EVERGREEN", "state": "LA", "street": "119 HILL ST", "postcode": "71333"}}},
{"geometry": {"type": "Point", "coordinates": [-92.1084200979, 30.9521623527]}, "type": "Feature", "properties": {"collection_times": [{"days": "Mon-Fri", "time": "10:30am"}, {"days": "Sat", "time": "7:45am"}, {"days": "Sun", "time": "Closed"}], "id": "7133300002", "name": "USPS COLLECTION BOX - PO LOBBY", "address": {"city": "EVERGREEN", "state": "LA", "street": "119 HILL ST", "postcode": "71333"}}},
{"geometry": {"type": "Point", "coordinates": [-91.5517481189, 31.6265919883]}, "type": "Feature", "properties": {"collection_times": [{"days": "Mon-Fri", "time": "3:00pm"}, {"days": "Sat", "time": "2:00pm"}, {"days": "Sun", "time": "Closed"}], "id": "7133400014", "name": "USPS COLLECTION BOX - BLUE BOX", "address": {"city": "FERRIDAY", "state": "LA", "street": "999 1ST ST", "postcode": "71334"}}},
{"geometry": {"type": "Point", "coordinates": [-91.5517481189, 31.6265919883]}, "type": "Feature", "properties": {"collection_times": [{"days": "Mon-Fri", "time": "3:00pm"}, {"days": "Sat", "time": "2:00pm"}, {"days": "Sun", "time": "Closed"}], "id": "7133400017", "name": "USPS COLLECTION BOX - PO LOBBY", "address": {"city": "FERRIDAY", "state": "LA", "street": "999 1ST ST", "postcode": "71334"}}},
{"geometry": {"type": "Point", "coordinates": [-91.6561859585, 32.0451407578]}, "type": "Feature", "properties": {"collection_times": [{"days": "Mon-Fri", "time": "2:00pm"}, {"days": "Sat", "time": "9:30am"}, {"days": "Sun", "time": "Closed"}], "id": "7133600001", "name": "USPS COLLECTION BOX - BLUE BOX", "address": {"city": "GILBERT", "state": "LA", "street": "7589 GILBERT ST", "postcode": "71336"}}},
{"geometry": {"type": "Point", "coordinates": [-91.6561859585, 32.0451407578]}, "type": "Feature", "properties": {"collection_times": [{"days": "Mon-Fri", "time": "2:00pm"}, {"days": "Sat-Sun", "time": "Closed"}], "id": "7133600002", "name": "USPS COLLECTION BOX - PO LOBBY", "address": {"city": "GILBERT", "state": "LA", "street": "7589 GILBERT ST", "postcode": "71336"}}},
{"geometry": {"type": "Point", "coordinates": [-91.9299413331, 31.0250137965]}, "type": "Feature", "properties": {"collection_times": [{"days": "Mon-Fri", "time": "2:45pm"}, {"days": "Sat", "time": "8:00am"}, {"days": "Sun", "time": "Closed"}], "id": "7133900001", "name": "USPS COLLECTION BOX - BLUE BOX", "address": {"city": "HAMBURG", "state": "LA", "street": "287 OLD HIGHWAY 1", "postcode": "71339"}}},
{"geometry": {"type": "Point", "coordinates": [-91.9299413331, 31.0250137965]}, "type": "Feature", "properties": {"collection_times": [{"days": "Mon-Fri", "time": "2:45pm"}, {"days": "Sat-Sun", "time": "Closed"}], "id": "7133900002", "name": "USPS COLLECTION BOX - PO LOBBY", "address": {"city": "HAMBURG", "state": "LA", "street": "287 OLD HIGHWAY 1", "postcode": "71339"}}},
{"geometry": {"type": "Point", "coordinates": [-91.8229057842, 31.7709417835]}, "type": "Feature", "properties": {"collection_times": [{"days": "Mon-Fri", "time": "3:30pm"}, {"days": "Sat", "time": "9:00am"}, {"days": "Sun", "time": "Closed"}], "id": "7134000001", "name": "USPS COLLECTION BOX - BLUE BOX", "address": {"city": "HARRISONBURG", "state": "LA", "street": "103 PINE ST", "postcode": "71340"}}},
{"geometry": {"type": "Point", "coordinates": [-91.8229057842, 31.7709417835]}, "type": "Feature", "properties": {"collection_times": [{"days": "Mon-Fri", "time": "3:30pm"}, {"days": "Sat", "time": "9:00am"}, {"days": "Sun", "time": "Closed"}], "id": "7134000003", "name": "USPS COLLECTION BOX - PO LOBBY", "address": {"city": "HARRISONBURG", "state": "LA", "street": "103 PINE ST", "postcode": "71340"}}},
{"geometry": {"type": "Point", "coordinates": [-92.1233819585, 31.051187124]}, "type": "Feature", "properties": {"collection_times": [{"days": "Mon-Fri", "time": "2:30pm"}, {"days": "Sat", "time": "8:15am"}, {"days": "Sun", "time": "Closed"}], "id": "7134100001", "name": "USPS COLLECTION BOX - BLUE BOX", "address": {"city": "HESSMER", "state": "LA", "street": "2999 MAIN ST", "postcode": "71341"}}},
{"geometry": {"type": "Point", "coordinates": [-92.1233819585, 31.051187124]}, "type": "Feature", "properties": {"collection_times": [{"days": "Mon-Fri", "time": "2:30pm"}, {"days": "Sat", "time": "8:15am"}, {"days": "Sun", "time": "Closed"}], "id": "7134100002", "name": "USPS COLLECTION BOX - PO LOBBY", "address": {"city": "HESSMER", "state": "LA", "street": "2999 MAIN ST", "postcode": "71341"}}},
{"geometry": {"type": "Point", "coordinates": [-92.139551404, 31.6891667562]}, "type": "Feature", "properties": {"collection_times": [{"days": "Mon-Fri", "time": "2:30pm"}, {"days": "Sat", "time": "10:00am"}, {"days": "Sun", "time": "Closed"}], "id": "7134200005", "name": "USPS COLLECTION BOX - BLUE BOX", "address": {"city": "JENA", "state": "LA", "street": "3811 W OAK ST", "postcode": "71342"}}},
{"geometry": {"type": "Point", "coordinates": [-92.139551404, 31.6891667562]}, "type": "Feature", "properties": {"collection_times": [{"days": "Mon-Fri", "time": "2:30pm"}, {"days": "Sat", "time": "10:00am"}, {"days": "Sun", "time": "Closed"}], "id": "7134200007", "name": "USPS COLLECTION BOX - BLUE BOX", "address": {"city": "JENA", "state": "LA", "street": "3811 W OAK ST", "postcode": "71342"}}},
{"geometry": {"type": "Point", "coordinates": [-92.139551404, 31.6891667562]}, "type": "Feature", "properties": {"collection_times": [{"days": "Mon-Fri", "time": "2:30pm"}, {"days": "Sat", "time": "10:00am"}, {"days": "Sun", "time": "Closed"}], "id": "7134200009", "name": "USPS COLLECTION BOX - PO LOBBY", "address": {"city": "JENA", "state": "LA", "street": "3811 W OAK ST", "postcode": "71342"}}},
{"geometry": {"type": "Point", "coordinates": [-92.139551404, 31.6891667562]}, "type": "Feature", "properties": {"collection_times": [{"days": "Mon-Fri", "time": "2:30pm"}, {"days": "Sat", "time": "10:00am"}, {"days": "Sun", "time": "Closed"}], "id": "7134200010", "name": "USPS COLLECTION BOX - PO LOBBY", "address": {"city": "JENA", "state": "LA", "street": "3811 W OAK ST", "postcode": "71342"}}},
{"geometry": {"type": "Point", "coordinates": [-91.8205133892, 31.6304094003]}, "type": "Feature", "properties": {"collection_times": [{"days": "Mon-Fri", "time": "3:00pm"}, {"days": "Sat", "time": "2:00pm"}, {"days": "Sun", "time": "Closed"}], "id": "7134300002", "name": "USPS COLLECTION BOX - BLUE BOX", "address": {"city": "JONESVILLE", "state": "LA", "street": "902 FIRST ST", "postcode": "71343"}}},
{"geometry": {"type": "Point", "coordinates": [-91.8205133892, 31.6304094003]}, "type": "Feature", "properties": {"collection_times": [{"days": "Mon-Fri", "time": "3:00pm"}, {"days": "Sat", "time": "2:00pm"}, {"days": "Sun", "time": "Closed"}], "id": "7134300006", "name": "USPS COLLECTION BOX - BLUE BOX", "address": {"city": "JONESVILLE", "state": "LA", "street": "902 FIRST ST", "postcode": "71343"}}},
{"geometry": {"type": "Point", "coordinates": [-91.8205133892, 31.6304094003]}, "type": "Feature", "properties": {"collection_times": [{"days": "Mon-Fri", "time": "3:00pm"}, {"days": "Sat", "time": "2:00pm"}, {"days": "Sun", "time": "Closed"}], "id": "7134300008", "name": "USPS COLLECTION BOX - PO LOBBY", "address": {"city": "JONESVILLE", "state": "LA", "street": "902 FIRST ST", "postcode": "71343"}}},
{"geometry": {"type": "Point", "coordinates": [-91.9763725873, 30.7309880213]}, "type": "Feature", "properties": {"collection_times": [{"days": "Mon-Fri", "time": "2:00pm"}, {"days": "Sat", "time": "8:00am"}, {"days": "Sun", "time": "Closed"}], "id": "7134500001", "name": "USPS COLLECTION BOX - BLUE BOX", "address": {"city": "LEBEAU", "state": "LA", "street": "8478 HIGHWAY 71", "postcode": "71345"}}},
{"geometry": {"type": "Point", "coordinates": [-91.9763725873, 30.7309880213]}, "type": "Feature", "properties": {"collection_times": [{"days": "Mon-Fri", "time": "2:00pm"}, {"days": "Sat-Sun", "time": "Closed"}], "id": "7134500002", "name": "USPS COLLECTION BOX - PO LOBBY", "address": {"city": "LEBEAU", "state": "LA", "street": "8478 HIGHWAY 71", "postcode": "71345"}}},
{"geometry": {"type": "Point", "coordinates": [-92.3958482504, 31.0874058445]}, "type": "Feature", "properties": {"collection_times": [{"days": "Mon-Fri", "time": "2:00pm"}, {"days": "Sat-Sun", "time": "Closed"}], "id": "7134600004", "name": "USPS COLLECTION BOX - PO LOBBY", "address": {"city": "LECOMPTE", "state": "LA", "street": "1920 HIGHWAY 71 S", "postcode": "71346"}}},
{"geometry": {"type": "Point", "coordinates": [-92.3966837972, 31.0895978045]}, "type": "Feature", "properties": {"collection_times": [{"days": "Mon-Fri", "time": "2:00pm"}, {"days": "Sat", "time": "7:00am"}, {"days": "Sun", "time": "Closed"}], "id": "7134600006", "name": "USPS COLLECTION BOX - BLUE BOX", "address": {"city": "LECOMPTE", "state": "LA", "street": "1920 HIGHWAY 71 S", "postcode": "71346"}}},
{"geometry": {"type": "Point", "coordinates": [-92.3418041756, 31.3517289933]}, "type": "Feature", "properties": {"collection_times": [{"days": "Mon-Fri", "time": "2:00pm"}, {"days": "Sat", "time": "9:00am"}, {"days": "Sun", "time": "Closed"}], "id": "7134800001", "name": "USPS COLLECTION BOX - BLUE BOX", "address": {"city": "LIBUSE", "state": "LA", "street": "6400 HIGHWAY 28 E", "postcode": "71348"}}},
{"geometry": {"type": "Point", "coordinates": [-92.3418041756, 31.3517289933]}, "type": "Feature", "properties": {"collection_times": [{"days": "Mon-Fri", "time": "2:00pm"}, {"days": "Sat", "time": "9:00am"}, {"days": "Sun", "time": "Closed"}], "id": "7134800002", "name": "USPS COLLECTION BOX - PO LOBBY", "address": {"city": "LIBUSE", "state": "LA", "street": "6400 HIGHWAY 28 E", "postcode": "71348"}}},
{"geometry": {"type": "Point", "coordinates": [-92.0483134067, 31.0566446902]}, "type": "Feature", "properties": {"collection_times": [{"days": "Mon-Fri", "time": "3:00pm"}, {"days": "Sat", "time": "8:30am"}, {"days": "Sun", "time": "Closed"}], "id": "7135000001", "name": "USPS COLLECTION BOX - BLUE BOX", "address": {"city": "MANSURA", "state": "LA", "street": "2109 LEGLISE ST", "postcode": "71350"}}},
{"geometry": {"type": "Point", "coordinates": [-92.0483134067, 31.0566446902]}, "type": "Feature", "properties": {"collection_times": [{"days": "Mon-Fri", "time": "3:00pm"}, {"days": "Sat", "time": "8:30am"}, {"days": "Sun", "time": "Closed"}], "id": "7135000004", "name": "USPS COLLECTION BOX - PO LOBBY", "address": {"city": "MANSURA", "state": "LA", "street": "2109 LEGLISE ST", "postcode": "71350"}}},
{"geometry": {"type": "Point", "coordinates": [-92.0503613973, 31.0614198844]}, "type": "Feature", "properties": {"collection_times": [{"days": "Mon-Fri", "time": "1:30pm"}, {"days": "Sat", "time": "1:00pm"}, {"days": "Sun", "time": "Closed"}], "id": "7135000009", "name": "USPS COLLECTION BOX - BLUE BOX", "address": {"city": "MANSURA", "state": "LA", "street": "1832 LEGLISE ST", "postcode": "71350"}}},
{"geometry": {"type": "Point", "coordinates": [-92.0661544249, 31.1272292953]}, "type": "Feature", "properties": {"collection_times": [{"days": "Mon-Fri", "time": "3:00pm"}, {"days": "Sat-Sun", "time": "Closed"}], "id": "7135100001", "name": "USPS COLLECTION BOX - BLUE BOX", "address": {"city": "MARKSVILLE", "state": "LA", "street": "312 N MAIN ST", "postcode": "71351"}}},
{"geometry": {"type": "Point", "coordinates": [-92.0677754806, 31.1275207068]}, "type": "Feature", "properties": {"collection_times": [{"days": "Mon-Fri", "time": "3:30pm"}, {"days": "Sat", "time": "11:00am"}, {"days": "Sun", "time": "Closed"}], "id": "7135100008", "name": "USPS COLLECTION BOX - BLUE BOX", "address": {"city": "MARKSVILLE", "state": "LA", "street": "226 W CAPPEL ST", "postcode": "71351"}}},
{"geometry": {"type": "Point", "coordinates": [-92.0644868492, 31.1435511089]}, "type": "Feature", "properties": {"collection_times": [{"days": "Mon-Fri", "time": "3:00pm"}, {"days": "Sat-Sun", "time": "Closed"}], "id": "7135100015", "name": "USPS COLLECTION BOX - BLUE BOX", "address": {"city": "MARKSVILLE", "state": "LA", "street": "4231 HIGHWAY 1192", "postcode": "71351"}}},
{"geometry": {"type": "Point", "coordinates": [-92.0677754806, 31.1275207068]}, "type": "Feature", "properties": {"collection_times": [{"days": "Mon-Fri", "time": "3:30pm"}, {"days": "Sat", "time": "11:00am"}, {"days": "Sun", "time": "Closed"}], "id": "7135100020", "name": "USPS COLLECTION BOX - PO LOBBY", "address": {"city": "MARKSVILLE", "state": "LA", "street": "226 W CAPPEL ST", "postcode": "71351"}}},
{"geometry": {"type": "Point", "coordinates": [-91.7386690788, 30.6927018351]}, "type": "Feature", "properties": {"collection_times": [{"days": "Mon-Fri", "time": "2:00pm"}, {"days": "Sat", "time": "10:00am"}, {"days": "Sun", "time": "Closed"}], "id": "7135300002", "name": "USPS COLLECTION BOX - BLUE BOX", "address": {"city": "MELVILLE", "state": "LA", "street": "522 CHURCH ST", "postcode": "71353"}}},
{"geometry": {"type": "Point", "coordinates": [-91.7386690788, 30.6927018351]}, "type": "Feature", "properties": {"collection_times": [{"days": "Mon-Fri", "time": "2:00pm"}, {"days": "Sat", "time": "10:00am"}, {"days": "Sun", "time": "Closed"}], "id": "7135300004", "name": "USPS COLLECTION BOX - PO LOBBY", "address": {"city": "MELVILLE", "state": "LA", "street": "522 CHURCH ST", "postcode": "71353"}}},
{"geometry": {"type": "Point", "coordinates": [-91.8084944773, 31.3689435814]}, "type": "Feature", "properties": {"collection_times": [{"days": "Mon-Fri", "time": "12:15pm"}, {"days": "Sat", "time": "10:15am"}, {"days": "Sun", "time": "Closed"}], "id": "7135400001", "name": "USPS COLLECTION BOX - BLUE BOX", "address": {"city": "MONTEREY", "state": "LA", "street": "6212 HIGHWAY 129", "postcode": "71354"}}},
{"geometry": {"type": "Point", "coordinates": [-91.8084944773, 31.3689435814]}, "type": "Feature", "properties": {"collection_times": [{"days": "Mon-Fri", "time": "12:15pm"}, {"days": "Sat", "time": "10:15am"}, {"days": "Sun", "time": "Closed"}], "id": "7135400002", "name": "USPS COLLECTION BOX - PO LOBBY", "address": {"city": "MONTEREY", "state": "LA", "street": "6212 HIGHWAY 129", "postcode": "71354"}}},
{"geometry": {"type": "Point", "coordinates": [-91.9756474476, 31.0346619473]}, "type": "Feature", "properties": {"collection_times": [{"days": "Mon-Fri", "time": "3:00pm"}, {"days": "Sat", "time": "8:30am"}, {"days": "Sun", "time": "Closed"}], "id": "7135500001", "name": "USPS COLLECTION BOX - BLUE BOX", "address": {"city": "MOREAUVILLE", "state": "LA", "street": "211 MAIN ST", "postcode": "71355"}}},
{"geometry": {"type": "Point", "coordinates": [-91.9756474476, 31.0346619473]}, "type": "Feature", "properties": {"collection_times": [{"days": "Mon-Fri", "time": "3:00pm"}, {"days": "Sat", "time": "8:30am"}, {"days": "Sun", "time": "Closed"}], "id": "7135500004", "name": "USPS COLLECTION BOX - PO LOBBY", "address": {"city": "MOREAUVILLE", "state": "LA", "street": "211 MAIN ST", "postcode": "71355"}}},
{"geometry": {"type": "Point", "coordinates": [-92.0835928609, 30.8292726139]}, "type": "Feature", "properties": {"collection_times": [{"days": "Mon-Fri", "time": "2:00pm"}, {"days": "Sat", "time": "10:00am"}, {"days": "Sun", "time": "Closed"}], "id": "7135600001", "name": "USPS COLLECTION BOX - BLUE BOX", "address": {"city": "MORROW", "state": "LA", "street": "173 HIGHWAY 107", "postcode": "71356"}}},
{"geometry": {"type": "Point", "coordinates": [-92.0835928609, 30.8292726139]}, "type": "Feature", "properties": {"collection_times": [{"days": "Mon-Fri", "time": "2:00pm"}, {"days": "Sat", "time": "10:00am"}, {"days": "Sun", "time": "Closed"}], "id": "7135600002", "name": "USPS COLLECTION BOX - PO LOBBY", "address": {"city": "MORROW", "state": "LA", "street": "173 HIGHWAY 107", "postcode": "71356"}}},
{"geometry": {"type": "Point", "coordinates": [-91.2355519835, 32.0741237853]}, "type": "Feature", "properties": {"collection_times": [{"days": "Mon-Fri", "time": "2:45pm"}, {"days": "Sat", "time": "10:00am"}, {"days": "Sun", "time": "Closed"}], "id": "7135700001", "name": "USPS COLLECTION BOX - BLUE BOX", "address": {"city": "NEWELLTON", "state": "LA", "street": "930 VERONA ST", "postcode": "71357"}}},
{"geometry": {"type": "Point", "coordinates": [-91.2355519835, 32.0741237853]}, "type": "Feature", "properties": {"collection_times": [{"days": "Mon-Fri", "time": "2:45pm"}, {"days": "Sat", "time": "10:00am"}, {"days": "Sun", "time": "Closed"}], "id": "7135700002", "name": "USPS COLLECTION BOX - PO LOBBY", "address": {"city": "NEWELLTON", "state": "LA", "street": "930 VERONA ST", "postcode": "71357"}}},
{"geometry": {"type": "Point", "coordinates": [-91.906701308, 30.7174920597]}, "type": "Feature", "properties": {"collection_times": [{"days": "Mon-Fri", "time": "11:30am"}, {"days": "Sat", "time": "8:30am"}, {"days": "Sun", "time": "Closed"}], "id": "7135800000", "name": "USPS COLLECTION BOX - BLUE BOX", "address": {"city": "PALMETTO", "state": "LA", "street": "214 E RAILROAD AVE", "postcode": "71358"}}},
{"geometry": {"type": "Point", "coordinates": [-91.906701308, 30.7174920597]}, "type": "Feature", "properties": {"collection_times": [{"days": "Mon-Fri", "time": "11:30am"}, {"days": "Sat-Sun", "time": "Closed"}], "id": "7135800001", "name": "USPS COLLECTION BOX - PO LOBBY", "address": {"city": "PALMETTO", "state": "LA", "street": "214 E RAILROAD AVE", "postcode": "71358"}}},
{"geometry": {"type": "Point", "coordinates": [-92.4352609364, 31.3212005927]}, "type": "Feature", "properties": {"collection_times": [{"days": "Mon-Fri", "time": "9:00am"}, {"days": "Sat-Sun", "time": "Closed"}], "id": "7136000006", "name": "USPS COLLECTION BOX - BLUE BOX", "address": {"city": "PINEVILLE", "state": "LA", "street": "704 MAIN ST", "postcode": "71360"}}},
{"geometry": {"type": "Point", "coordinates": [-92.4378711787, 31.3184847083]}, "type": "Feature", "properties": {"collection_times": [{"days": "Mon-Fri", "time": "9:00am"}, {"days": "Sat-Sun", "time": "Closed"}], "id": "7136000007", "name": "USPS COLLECTION BOX - BLUE BOX", "address": {"city": "PINEVILLE", "state": "LA", "street": "500 MAIN ST", "postcode": "71360"}}},
{"geometry": {"type": "Point", "coordinates": [-92.4270768895, 31.3267229734]}, "type": "Feature", "properties": {"collection_times": [{"days": "Mon-Fri", "time": "9:00am"}, {"days": "Sat-Sun", "time": "Closed"}], "id": "7136000010", "name": "USPS COLLECTION BOX - BLUE BOX", "address": {"city": "PINEVILLE", "state": "LA", "street": "1140 COLLEGE DR", "postcode": "71360"}}},
{"geometry": {"type": "Point", "coordinates": [-92.3925255003, 31.327855893]}, "type": "Feature", "properties": {"collection_times": [{"days": "Mon-Sat", "time": "1:00pm"}, {"days": "Sun", "time": "Closed"}], "id": "7136000017", "name": "USPS COLLECTION BOX - BLUE BOX", "address": {"city": "PINEVILLE", "state": "LA", "street": "100 PINE LAKE DR", "postcode": "71360"}}},
{"geometry": {"type": "Point", "coordinates": [-92.4015906343, 31.3706749577]}, "type": "Feature", "properties": {"collection_times": [{"days": "Mon-Fri", "time": "10:00am"}, {"days": "Sat-Sun", "time": "Closed"}], "id": "7136000029", "name": "USPS COLLECTION BOX - BLUE BOX", "address": {"city": "PINEVILLE", "state": "LA", "street": "503 F ST", "postcode": "71360"}}},
{"geometry": {"type": "Point", "coordinates": [-92.3905285768, 31.3242140707]}, "type": "Feature", "properties": {"collection_times": [{"days": "Mon-Fri", "time": "12:00pm"}, {"days": "Sat-Sun", "time": "Closed"}], "id": "7136000034", "name": "USPS COLLECTION BOX - BLUE BOX", "address": {"city": "PINEVILLE", "state": "LA", "street": "2951 COTTINGHAM EXPY", "postcode": "71360"}}},
{"geometry": {"type": "Point", "coordinates": [-92.4083745359, 31.3310068043]}, "type": "Feature", "properties": {"collection_times": [{"days": "Mon-Fri", "time": "5:00pm"}, {"days": "Sat", "time": "3:00pm"}, {"days": "Sun", "time": "Closed"}], "id": "7136000035", "name": "USPS COLLECTION BOX - PO LOBBY", "address": {"city": "PINEVILLE", "state": "LA", "street": "410 PINEGROVE DR", "postcode": "71360"}}},
{"geometry": {"type": "Point", "coordinates": [-92.432608299, 31.3241314012]}, "type": "Feature", "properties": {"collection_times": [{"days": "Mon-Fri", "time": "9:00am"}, {"days": "Sat-Sun", "time": "Closed"}], "id": "7136000040", "name": "USPS COLLECTION BOX - BLUE BOX", "address": {"city": "PINEVILLE", "state": "LA", "street": "910 MAIN ST", "postcode": "71360"}}},
{"geometry": {"type": "Point", "coordinates": [-92.4083745359, 31.3310068043]}, "type": "Feature", "properties": {"collection_times": [{"days": "Mon-Fri", "time": "5:00pm"}, {"days": "Sat", "time": "3:00pm"}, {"days": "Sun", "time": "Closed"}], "id": "7136000042", "name": "USPS COLLECTION BOX - BLUE BOX", "address": {"city": "PINEVILLE", "state": "LA", "street": "410 PINEGROVE DR", "postcode": "71360"}}},
{"geometry": {"type": "Point", "coordinates": [-92.4083745359, 31.3310068043]}, "type": "Feature", "properties": {"collection_times": [{"days": "Mon-Fri", "time": "5:00pm"}, {"days": "Sat", "time": "3:00pm"}, {"days": "Sun", "time": "Closed"}], "id": "7136000043", "name": "USPS COLLECTION BOX - BLUE BOX", "address": {"city": "PINEVILLE", "state": "LA", "street": "410 PINEGROVE DR", "postcode": "71360"}}},
{"geometry": {"type": "Point", "coordinates": [-92.4083745359, 31.3310068043]}, "type": "Feature", "properties": {"collection_times": [{"days": "Mon-Fri", "time": "5:00pm"}, {"days": "Sat", "time": "3:00pm"}, {"days": "Sun", "time": "Closed"}], "id": "7136000044", "name": "USPS COLLECTION BOX - BLUE BOX", "address": {"city": "PINEVILLE", "state": "LA", "street": "410 PINEGROVE DR", "postcode": "71360"}}},
{"geometry": {"type": "Point", "coordinates": [-91.9807816022, 30.9652541672]}, "type": "Feature", "properties": {"collection_times": [{"days": "Mon-Fri", "time": "1:00pm"}, {"days": "Sat", "time": "9:00am"}, {"days": "Sun", "time": "Closed"}], "id": "7136200001", "name": "USPS COLLECTION BOX - BLUE BOX", "address": {"city": "PLAUCHEVILLE", "state": "LA", "street": "121 GIN ST", "postcode": "71362"}}},
{"geometry": {"type": "Point", "coordinates": [-91.9807816022, 30.9652541672]}, "type": "Feature", "properties": {"collection_times": [{"days": "Mon-Fri", "time": "1:00pm"}, {"days": "Sat", "time": "9:00am"}, {"days": "Sun", "time": "Closed"}], "id": "7136200002", "name": "USPS COLLECTION BOX - PO LOBBY", "address": {"city": "PLAUCHEVILLE", "state": "LA", "street": "121 GIN ST", "postcode": "71362"}}},
{"geometry": {"type": "Point", "coordinates": [-92.0067759658, 31.6379148768]}, "type": "Feature", "properties": {"collection_times": [{"days": "Mon-Fri", "time": "12:00pm"}, {"days": "Sat", "time": "8:00am"}, {"days": "Sun", "time": "Closed"}], "id": "7136300000", "name": "USPS COLLECTION BOX - PO LOBBY", "address": {"city": "RHINEHART", "state": "LA", "street": "8769 HIGHWAY 84 E", "postcode": "71363"}}},
{"geometry": {"type": "Point", "coordinates": [-92.0067759658, 31.6379148768]}, "type": "Feature", "properties": {"collection_times": [{"days": "Mon-Fri", "time": "12:00pm"}, {"days": "Sat", "time": "8:00am"}, {"days": "Sun", "time": "Closed"}], "id": "7136300001", "name": "USPS COLLECTION BOX - BLUE BOX", "address": {"city": "RHINEHART", "state": "LA", "street": "8769 HIGHWAY 84 E", "postcode": "71363"}}},
{"geometry": {"type": "Point", "coordinates": [-91.2326805009, 31.9178649616]}, "type": "Feature", "properties": {"collection_times": [{"days": "Mon-Fri", "time": "2:00pm"}, {"days": "Sat", "time": "9:00am"}, {"days": "Sun", "time": "Closed"}], "id": "7136600001", "name": "USPS COLLECTION BOX - BLUE BOX", "address": {"city": "SAINT JOSEPH", "state": "LA", "street": "144 PLANK RD", "postcode": "71366"}}},
{"geometry": {"type": "Point", "coordinates": [-91.2326805009, 31.9178649616]}, "type": "Feature", "properties": {"collection_times": [{"days": "Mon-Fri", "time": "2:00pm"}, {"days": "Sat-Sun", "time": "Closed"}], "id": "7136600002", "name": "USPS COLLECTION BOX - PO LOBBY", "address": {"city": "SAINT JOSEPH", "state": "LA", "street": "144 PLANK RD", "postcode": "71366"}}},
{"geometry": {"type": "Point", "coordinates": [-92.275214012, 30.847244137]}, "type": "Feature", "properties": {"collection_times": [{"days": "Mon-Fri", "time": "12:00pm"}, {"days": "Sat", "time": "8:00am"}, {"days": "Sun", "time": "Closed"}], "id": "7136700001", "name": "USPS COLLECTION BOX - BLUE BOX", "address": {"city": "ST LANDRY", "state": "LA", "street": "1888 SAINT LANDRY HWY", "postcode": "71367"}}},
{"geometry": {"type": "Point", "coordinates": [-92.275214012, 30.847244137]}, "type": "Feature", "properties": {"collection_times": [{"days": "Mon-Fri", "time": "12:00pm"}, {"days": "Sat", "time": "8:00am"}, {"days": "Sun", "time": "Closed"}], "id": "7136700002", "name": "USPS COLLECTION BOX - PO LOBBY", "address": {"city": "ST LANDRY", "state": "LA", "street": "1888 SAINT LANDRY HWY", "postcode": "71367"}}},
{"geometry": {"type": "Point", "coordinates": [-91.6944419549, 31.8512201723]}, "type": "Feature", "properties": {"collection_times": [{"days": "Mon-Fri", "time": "2:00pm"}, {"days": "Sat", "time": "8:45am"}, {"days": "Sun", "time": "Closed"}], "id": "7136800002", "name": "USPS COLLECTION BOX - BLUE BOX", "address": {"city": "SICILY ISLAND", "state": "LA", "street": "201 PENISTON ST", "postcode": "71368"}}},
{"geometry": {"type": "Point", "coordinates": [-91.6944419549, 31.8512201723]}, "type": "Feature", "properties": {"collection_times": [{"days": "Mon-Fri", "time": "2:00pm"}, {"days": "Sat-Sun", "time": "Closed"}], "id": "7136800003", "name": "USPS COLLECTION BOX - PO LOBBY", "address": {"city": "SICILY ISLAND", "state": "LA", "street": "201 PENISTON ST", "postcode": "71368"}}},
{"geometry": {"type": "Point", "coordinates": [-91.8092950822, 30.9857228049]}, "type": "Feature", "properties": {"collection_times": [{"days": "Mon-Fri", "time": "3:00pm"}, {"days": "Sat", "time": "9:00am"}, {"days": "Sun", "time": "Closed"}], "id": "7136900001", "name": "USPS COLLECTION BOX - BLUE BOX", "address": {"city": "SIMMESPORT", "state": "LA", "street": "360 MISSION DR", "postcode": "71369"}}},
{"geometry": {"type": "Point", "coordinates": [-91.8092950822, 30.9857228049]}, "type": "Feature", "properties": {"collection_times": [{"days": "Mon-Fri", "time": "3:00pm"}, {"days": "Sat", "time": "9:00am"}, {"days": "Sun", "time": "Closed"}], "id": "7136900003", "name": "USPS COLLECTION BOX - PO LOBBY", "address": {"city": "SIMMESPORT", "state": "LA", "street": "360 MISSION DR", "postcode": "71369"}}},
{"geometry": {"type": "Point", "coordinates": [-92.156583827, 31.6924331046]}, "type": "Feature", "properties": {"collection_times": [{"days": "Mon-Fri", "time": "2:00pm"}, {"days": "Sat", "time": "9:00am"}, {"days": "Sun", "time": "Closed"}], "id": "7137100001", "name": "USPS COLLECTION BOX - BLUE BOX", "address": {"city": "TROUT", "state": "LA", "street": "12999 HIGHWAY 84 W", "postcode": "71371"}}},
{"geometry": {"type": "Point", "coordinates": [-92.156583827, 31.6924331046]}, "type": "Feature", "properties": {"collection_times": [{"days": "Mon-Fri", "time": "2:00pm"}, {"days": "Sat-Sun", "time": "Closed"}], "id": "7137100002", "name": "USPS COLLECTION BOX - PO LOBBY", "address": {"city": "TROUT", "state": "LA", "street": "12999 HIGHWAY 84 W", "postcode": "71371"}}},
{"geometry": {"type": "Point", "coordinates": [-91.4348391311, 31.5689898889]}, "type": "Feature", "properties": {"collection_times": [{"days": "Mon-Fri", "time": "3:00pm"}, {"days": "Sat", "time": "2:00pm"}, {"days": "Sun", "time": "Closed"}], "id": "7137300002", "name": "USPS COLLECTION BOX - BLUE BOX", "address": {"city": "VIDALIA", "state": "LA", "street": "1000 CARTER ST", "postcode": "71373"}}},
{"geometry": {"type": "Point", "coordinates": [-91.4348391311, 31.5689898889]}, "type": "Feature", "properties": {"collection_times": [{"days": "Mon-Fri", "time": "3:00pm"}, {"days": "Sat", "time": "2:00pm"}, {"days": "Sun", "time": "Closed"}], "id": "7137300004", "name": "USPS COLLECTION BOX - BLUE BOX", "address": {"city": "VIDALIA", "state": "LA", "street": "1000 CARTER ST", "postcode": "71373"}}},
{"geometry": {"type": "Point", "coordinates": [-91.4348391311, 31.5689898889]}, "type": "Feature", "properties": {"collection_times": [{"days": "Mon-Fri", "time": "3:00pm"}, {"days": "Sat", "time": "2:00pm"}, {"days": "Sun", "time": "Closed"}], "id": "7137300005", "name": "USPS COLLECTION BOX - BLUE BOX", "address": {"city": "VIDALIA", "state": "LA", "street": "1000 CARTER ST", "postcode": "71373"}}},
{"geometry": {"type": "Point", "coordinates": [-91.4650446185, 31.5752298966]}, "type": "Feature", "properties": {"collection_times": [{"days": "Mon-Fri", "time": "2:00pm"}, {"days": "Sat", "time": "1:00pm"}, {"days": "Sun", "time": "Closed"}], "id": "7137300008", "name": "USPS COLLECTION BOX - BLUE BOX", "address": {"city": "VIDALIA", "state": "LA", "street": "4001 CARTER ST", "postcode": "71373"}}},
{"geometry": {"type": "Point", "coordinates": [-91.4348391311, 31.5689898889]}, "type": "Feature", "properties": {"collection_times": [{"days": "Mon-Fri", "time": "3:00pm"}, {"days": "Sat", "time": "2:00pm"}, {"days": "Sun", "time": "Closed"}], "id": "7137300014", "name": "USPS COLLECTION BOX - PO LOBBY", "address": {"city": "VIDALIA", "state": "LA", "street": "1000 CARTER ST", "postcode": "71373"}}},
{"geometry": {"type": "Point", "coordinates": [-91.3839929428, 31.8044437054]}, "type": "Feature", "properties": {"collection_times": [{"days": "Mon-Fri", "time": "1:00pm"}, {"days": "Sat", "time": "9:30am"}, {"days": "Sun", "time": "Closed"}], "id": "7137500001", "name": "USPS COLLECTION BOX - BLUE BOX", "address": {"city": "WATERPROOF", "state": "LA", "street": "338 MAIN ST", "postcode": "71375"}}},
{"geometry": {"type": "Point", "coordinates": [-91.3839929428, 31.8044437054]}, "type": "Feature", "properties": {"collection_times": [{"days": "Mon-Fri", "time": "1:00pm"}, {"days": "Sat", "time": "9:30am"}, {"days": "Sun", "time": "Closed"}], "id": "7137500002", "name": "USPS COLLECTION BOX - PO LOBBY", "address": {"city": "WATERPROOF", "state": "LA", "street": "338 MAIN ST", "postcode": "71375"}}},
{"geometry": {"type": "Point", "coordinates": [-91.6557808941, 31.9805196168]}, "type": "Feature", "properties": {"collection_times": [{"days": "Mon-Fri", "time": "3:30pm"}, {"days": "Sat", "time": "10:30am"}, {"days": "Sun", "time": "Closed"}], "id": "7137800001", "name": "USPS COLLECTION BOX - BLUE BOX", "address": {"city": "WISNER", "state": "LA", "street": "130 FORT SCOTT ST", "postcode": "71378"}}}
]}
