{"type": "FeatureCollection", "features": [
{"geometry": {"type": "Point", "coordinates": [-93.3405679375, 31.2490179168]}, "type": "Feature", "properties": {"collection_times": [{"days": "Mon-Fri", "time": "3:00pm"}, {"days": "Sat", "time": "9:00am"}, {"days": "Sun", "time": "Closed"}], "id": "7140300001", "name": "USPS COLLECTION BOX - BLUE BOX", "address": {"city": "ANACOCO", "state": "LA", "street": "4658 MAIN ST", "postcode": "71403"}}},
{"geometry": {"type": "Point", "coordinates": [-93.3405679375, 31.2490179168]}, "type": "Feature", "properties": {"collection_times": [{"days": "Mon-Fri", "time": "3:00pm"}, {"days": "Sat-Sun", "time": "Closed"}], "id": "7140300003", "name": "USPS COLLECTION BOX - PO LOBBY", "address": {"city": "ANACOCO", "state": "LA", "street": "4658 MAIN ST", "postcode": "71403"}}},
{"geometry": {"type": "Point", "coordinates": [-92.7421190239, 31.805779253]}, "type": "Feature", "properties": {"collection_times": [{"days": "Mon-Fri", "time": "2:00pm"}, {"days": "Sat", "time": "8:30am"}, {"days": "Sun", "time": "Closed"}], "id": "7140400001", "name": "USPS COLLECTION BOX - BLUE BOX", "address": {"city": "ATLANTA", "state": "LA", "street": "12288 MAIN ST", "postcode": "71404"}}},
{"geometry": {"type": "Point", "coordinates": [-92.7421190239, 31.805779253]}, "type": "Feature", "properties": {"collection_times": [{"days": "Mon-Fri", "time": "2:00pm"}, {"days": "Sat", "time": "8:30am"}, {"days": "Sun", "time": "Closed"}], "id": "7140400003", "name": "USPS COLLECTION BOX - PO LOBBY", "address": {"city": "ATLANTA", "state": "LA", "street": "12288 MAIN ST", "postcode": "71404"}}},
{"geometry": {"type": "Point", "coordinates": [-92.4121206396, 31.4098030171]}, "type": "Feature", "properties": {"collection_times": [{"days": "Mon-Fri", "time": "3:00pm"}, {"days": "Sat", "time": "7:00am"}, {"days": "Sun", "time": "Closed"}], "id": "7140500000", "name": "USPS COLLECTION BOX - BLUE BOX", "address": {"city": "BALL", "state": "LA", "street": "5912 MONROE HWY", "postcode": "71405"}}},
{"geometry": {"type": "Point", "coordinates": [-92.4121206396, 31.4098030171]}, "type": "Feature", "properties": {"collection_times": [{"days": "Mon-Fri", "time": "3:00pm"}, {"days": "Sat", "time": "7:00am"}, {"days": "Sun", "time": "Closed"}], "id": "7140500001", "name": "USPS COLLECTION BOX - BLUE BOX", "address": {"city": "BALL", "state": "LA", "street": "5912 MONROE HWY", "postcode": "71405"}}},
{"geometry": {"type": "Point", "coordinates": [-92.4121206396, 31.4098030171]}, "type": "Feature", "properties": {"collection_times": [{"days": "Mon-Fri", "time": "3:00pm"}, {"days": "Sat-Sun", "time": "Closed"}], "id": "7140500002", "name": "USPS COLLECTION BOX - PO LOBBY", "address": {"city": "BALL", "state": "LA", "street": "5912 MONROE HWY", "postcode": "71405"}}},
{"geometry": {"type": "Point", "coordinates": [-93.5086168162, 31.7010411647]}, "type": "Feature", "properties": {"collection_times": [{"days": "Mon-Fri", "time": "3:00pm"}, {"days": "Sat", "time": "10:15am"}, {"days": "Sun", "time": "Closed"}], "id": "7140600001", "name": "USPS COLLECTION BOX - BLUE BOX", "address": {"city": "BELMONT", "state": "LA", "street": "9160 HIGHWAY 175", "postcode": "71406"}}},
{"geometry": {"type": "Point", "coordinates": [-93.5086168162, 31.7010411647]}, "type": "Feature", "properties": {"collection_times": [{"days": "Mon-Fri", "time": "3:00pm"}, {"days": "Sat-Sun", "time": "Closed"}], "id": "7140600002", "name": "USPS COLLECTION BOX - PO LOBBY", "address": {"city": "BELMONT", "state": "LA", "street": "9160 HIGHWAY 175", "postcode": "71406"}}},
{"geometry": {"type": "Point", "coordinates": [-92.4928418832, 31.5043324857]}, "type": "Feature", "properties": {"collection_times": [{"days": "Mon-Fri", "time": "2:00pm"}, {"days": "Sat", "time": "8:00am"}, {"days": "Sun", "time": "Closed"}], "id": "7140700001", "name": "USPS COLLECTION BOX - BLUE BOX", "address": {"city": "BENTLEY", "state": "LA", "street": "19497 HIGHWAY 167", "postcode": "71407"}}},
{"geometry": {"type": "Point", "coordinates": [-92.4928418832, 31.5043324857]}, "type": "Feature", "properties": {"collection_times": [{"days": "Mon-Fri", "time": "2:00pm"}, {"days": "Sat", "time": "8:00am"}, {"days": "Sun", "time": "Closed"}], "id": "7140700002", "name": "USPS COLLECTION BOX - PO LOBBY", "address": {"city": "BENTLEY", "state": "LA", "street": "19497 HIGHWAY 167", "postcode": "71407"}}},
{"geometry": {"type": "Point", "coordinates": [-92.6668513403, 31.3855900827]}, "type": "Feature", "properties": {"collection_times": [{"days": "Mon-Fri", "time": "4:00pm"}, {"days": "Sat", "time": "11:00am"}, {"days": "Sun", "time": "Closed"}], "id": "7140900004", "name": "USPS COLLECTION BOX - PO LOBBY", "address": {"city": "BOYCE", "state": "LA", "street": "95 PACIFIC AVE", "postcode": "71409"}}},
{"geometry": {"type": "Point", "coordinates": [-92.6668513403, 31.3855900827]}, "type": "Feature", "properties": {"collection_times": [{"days": "Mon-Fri", "time": "4:00pm"}, {"days": "Sat", "time": "11:00am"}, {"days": "Sun", "time": "Closed"}], "id": "7140900005", "name": "USPS COLLECTION BOX - BLUE BOX", "address": {"city": "BOYCE", "state": "LA", "street": "95 PACIFIC AVE", "postcode": "71409"}}},
{"geometry": {"type": "Point", "coordinates": [-92.7773003561, 31.9656885584]}, "type": "Feature", "properties": {"collection_times": [{"days": "Mon-Fri", "time": "2:00pm"}, {"days": "Sat", "time": "9:00am"}, {"days": "Sun", "time": "Closed"}], "id": "7141000000", "name": "USPS COLLECTION BOX - PO LOBBY", "address": {"city": "CALVIN", "state": "LA", "street": "279 3RD ST", "postcode": "71410"}}},
{"geometry": {"type": "Point", "coordinates": [-92.7773003561, 31.9656885584]}, "type": "Feature", "properties": {"collection_times": [{"days": "Mon-Fri", "time": "2:00pm"}, {"days": "Sat", "time": "9:00am"}, {"days": "Sun", "time": "Closed"}], "id": "7141000001", "name": "USPS COLLECTION BOX - BLUE BOX", "address": {"city": "CALVIN", "state": "LA", "street": "279 3RD ST", "postcode": "71410"}}},
{"geometry": {"type": "Point", "coordinates": [-93.1131866959, 31.8960447269]}, "type": "Feature", "properties": {"collection_times": [{"days": "Mon-Fri", "time": "3:15pm"}, {"days": "Sat-Sun", "time": "Closed"}], "id": "7141100002", "name": "USPS COLLECTION BOX - BLUE BOX", "address": {"city": "CAMPTI", "state": "LA", "street": "3070 HIGHWAY 71", "postcode": "71411"}}},
{"geometry": {"type": "Point", "coordinates": [-93.1131866959, 31.8960447269]}, "type": "Feature", "properties": {"collection_times": [{"days": "Mon-Fri", "time": "3:15pm"}, {"days": "Sat-Sun", "time": "Closed"}], "id": "7141100004", "name": "USPS COLLECTION BOX - PO LOBBY", "address": {"city": "CAMPTI", "state": "LA", "street": "3070 HIGHWAY 71", "postcode": "71411"}}},
{"geometry": {"type": "Point", "coordinates": [-93.039732154, 31.8292488419]}, "type": "Feature", "properties": {"collection_times": [{"days": "Mon-Fri", "time": "11:30am"}, {"days": "Sat", "time": "7:00am"}, {"days": "Sun", "time": "Closed"}], "id": "7141400001", "name": "USPS COLLECTION BOX - BLUE BOX", "address": {"city": "CLARENCE", "state": "LA", "street": "5978 HIGHWAY 71", "postcode": "71414"}}},
{"geometry": {"type": "Point", "coordinates": [-93.039732154, 31.8292488419]}, "type": "Feature", "properties": {"collection_times": [{"days": "Mon-Fri", "time": "11:30am"}, {"days": "Sat", "time": "7:00am"}, {"days": "Sun", "time": "Closed"}], "id": "7141400002", "name": "USPS COLLECTION BOX - PO LOBBY", "address": {"city": "CLARENCE", "state": "LA", "street": "5978 HIGHWAY 71", "postcode": "71414"}}},
{"geometry": {"type": "Point", "coordinates": [-92.1366442406, 32.0252080841]}, "type": "Feature", "properties": {"collection_times": [{"days": "Mon-Fri", "time": "2:00pm"}, {"days": "Sat", "time": "7:45am"}, {"days": "Sun", "time": "Closed"}], "id": "7141500001", "name": "USPS COLLECTION BOX - BLUE BOX", "address": {"city": "CLARKS", "state": "LA", "street": "1710 HIGHWAY 845", "postcode": "71415"}}},
{"geometry": {"type": "Point", "coordinates": [-92.1366442406, 32.0252080841]}, "type": "Feature", "properties": {"collection_times": [{"days": "Mon-Fri", "time": "2:00pm"}, {"days": "Sat-Sun", "time": "Closed"}], "id": "7141500002", "name": "USPS COLLECTION BOX - PO LOBBY", "address": {"city": "CLARKS", "state": "LA", "street": "1710 HIGHWAY 845", "postcode": "71415"}}},
{"geometry": {"type": "Point", "coordinates": [-92.825005522, 31.4857231642]}, "type": "Feature", "properties": {"collection_times": [{"days": "Mon-Fri", "time": "10:45am"}, {"days": "Sat", "time": "8:00am"}, {"days": "Sun", "time": "Closed"}], "id": "7141600001", "name": "USPS COLLECTION BOX - BLUE BOX", "address": {"city": "CLOUTIERVILLE", "state": "LA", "street": "14904 HIGHWAY 1", "postcode": "71416"}}},
{"geometry": {"type": "Point", "coordinates": [-92.825005522, 31.4857231642]}, "type": "Feature", "properties": {"collection_times": [{"days": "Mon-Fri", "time": "10:45am"}, {"days": "Sat-Sun", "time": "Closed"}], "id": "7141600002", "name": "USPS COLLECTION BOX - PO LOBBY", "address": {"city": "CLOUTIERVILLE", "state": "LA", "street": "14904 HIGHWAY 1", "postcode": "71416"}}},
{"geometry": {"type": "Point", "coordinates": [-92.7083478465, 31.5201642599]}, "type": "Feature", "properties": {"collection_times": [{"days": "Mon-Fri", "time": "2:30pm"}, {"days": "Sat", "time": "10:00am"}, {"days": "Sun", "time": "Closed"}], "id": "7141700003", "name": "USPS COLLECTION BOX - BLUE BOX", "address": {"city": "COLFAX", "state": "LA", "street": "707 8TH ST", "postcode": "71417"}}},
{"geometry": {"type": "Point", "coordinates": [-92.7083478465, 31.5201642599]}, "type": "Feature", "properties": {"collection_times": [{"days": "Mon-Fri", "time": "2:30pm"}, {"days": "Sat", "time": "10:00am"}, {"days": "Sun", "time": "Closed"}], "id": "7141700006", "name": "USPS COLLECTION BOX - PO LOBBY", "address": {"city": "COLFAX", "state": "LA", "street": "707 8TH ST", "postcode": "71417"}}},
{"geometry": {"type": "Point", "coordinates": [-92.0744852535, 32.1045967513]}, "type": "Feature", "properties": {"collection_times": [{"days": "Mon-Fri", "time": "2:00pm"}, {"days": "Sat", "time": "8:00am"}, {"days": "Sun", "time": "Closed"}], "id": "7141800001", "name": "USPS COLLECTION BOX - BLUE BOX", "address": {"city": "COLUMBIA", "state": "LA", "street": "305 WALL ST", "postcode": "71418"}}},
{"geometry": {"type": "Point", "coordinates": [-92.0744852535, 32.1045967513]}, "type": "Feature", "properties": {"collection_times": [{"days": "Mon-Fri", "time": "2:00pm"}, {"days": "Sat", "time": "8:00am"}, {"days": "Sun", "time": "Closed"}], "id": "7141800002", "name": "USPS COLLECTION BOX - BLUE BOX", "address": {"city": "COLUMBIA", "state": "LA", "street": "305 WALL ST", "postcode": "71418"}}},
{"geometry": {"type": "Point", "coordinates": [-92.0744852535, 32.1045967513]}, "type": "Feature", "properties": {"collection_times": [{"days": "Mon-Fri", "time": "2:00pm"}, {"days": "Sat-Sun", "time": "Closed"}], "id": "7141800005", "name": "USPS COLLECTION BOX - PO LOBBY", "address": {"city": "COLUMBIA", "state": "LA", "street": "305 WALL ST", "postcode": "71418"}}},
{"geometry": {"type": "Point", "coordinates": [-93.6972161447, 31.7821914979]}, "type": "Feature", "properties": {"collection_times": [{"days": "Mon-Fri", "time": "3:00pm"}, {"days": "Sat", "time": "8:30am"}, {"days": "Sun", "time": "Closed"}], "id": "7141900001", "name": "USPS COLLECTION BOX - BLUE BOX", "address": {"city": "CONVERSE", "state": "LA", "street": "308 W PORT ARTHUR AVE", "postcode": "71419"}}},
{"geometry": {"type": "Point", "coordinates": [-93.6972161447, 31.7821914979]}, "type": "Feature", "properties": {"collection_times": [{"days": "Mon-Fri", "time": "3:00pm"}, {"days": "Sat", "time": "8:30am"}, {"days": "Sun", "time": "Closed"}], "id": "7141900003", "name": "USPS COLLECTION BOX - PO LOBBY", "address": {"city": "CONVERSE", "state": "LA", "street": "308 W PORT ARTHUR AVE", "postcode": "71419"}}},
{"geometry": {"type": "Point", "coordinates": [-92.6605213702, 32.0786137479]}, "type": "Feature", "properties": {"collection_times": [{"days": "Mon-Fri", "time": "1:00pm"}, {"days": "Sat", "time": "9:00am"}, {"days": "Sun", "time": "Closed"}], "id": "7142200001", "name": "USPS COLLECTION BOX - BLUE BOX", "address": {"city": "DODSON", "state": "LA", "street": "104 GANSVILLE RD", "postcode": "71422"}}},
{"geometry": {"type": "Point", "coordinates": [-92.6605213702, 32.0786137479]}, "type": "Feature", "properties": {"collection_times": [{"days": "Mon-Fri", "time": "1:00pm"}, {"days": "Sat-Sun", "time": "Closed"}], "id": "7142200002", "name": "USPS COLLECTION BOX - PO LOBBY", "address": {"city": "DODSON", "state": "LA", "street": "104 GANSVILLE RD", "postcode": "71422"}}},
{"geometry": {"type": "Point", "coordinates": [-92.5276717008, 31.5782695936]}, "type": "Feature", "properties": {"collection_times": [{"days": "Mon-Fri", "time": "2:00pm"}, {"days": "Sat", "time": "7:30am"}, {"days": "Sun", "time": "Closed"}], "id": "7142300001", "name": "USPS COLLECTION BOX - BLUE BOX", "address": {"city": "DRY PRONG", "state": "LA", "street": "605 FIRST ST", "postcode": "71423"}}},
{"geometry": {"type": "Point", "coordinates": [-92.5276717008, 31.5782695936]}, "type": "Feature", "properties": {"collection_times": [{"days": "Mon-Fri", "time": "2:00pm"}, {"days": "Sat", "time": "7:30am"}, {"days": "Sun", "time": "Closed"}], "id": "7142300002", "name": "USPS COLLECTION BOX - PO LOBBY", "address": {"city": "DRY PRONG", "state": "LA", "street": "605 FIRST ST", "postcode": "71423"}}},
{"geometry": {"type": "Point", "coordinates": [-92.578362267, 31.7924613067]}, "type": "Feature", "properties": {"collection_times": [{"days": "Mon-Fri", "time": "10:00am"}, {"days": "Sat-Sun", "time": "Closed"}], "id": "7142300004", "name": "USPS COLLECTION BOX - BLUE BOX", "address": {"city": "DRY PRONG", "state": "LA", "street": "21700 HIGHWAY 167", "postcode": "71423"}}},
{"geometry": {"type": "Point", "coordinates": [-92.6851004112, 31.134032192]}, "type": "Feature", "properties": {"collection_times": [{"days": "Mon-Fri", "time": "1:15pm"}, {"days": "Sat", "time": "9:00am"}, {"days": "Sun", "time": "Closed"}], "id": "7142400001", "name": "USPS COLLECTION BOX - BLUE BOX", "address": {"city": "ELMER", "state": "LA", "street": "6677 HIGHWAY 112", "postcode": "71424"}}},
{"geometry": {"type": "Point", "coordinates": [-92.6851004112, 31.134032192]}, "type": "Feature", "properties": {"collection_times": [{"days": "Mon-Fri", "time": "1:15pm"}, {"days": "Sat", "time": "9:00am"}, {"days": "Sun", "time": "Closed"}], "id": "7142400002", "name": "USPS COLLECTION BOX - PO LOBBY", "address": {"city": "ELMER", "state": "LA", "street": "6677 HIGHWAY 112", "postcode": "71424"}}},
{"geometry": {"type": "Point", "coordinates": [-93.4666762196, 31.4927453567]}, "type": "Feature", "properties": {"collection_times": [{"days": "Mon-Fri", "time": "9:45am"}, {"days": "Sat", "time": "7:30am"}, {"days": "Sun", "time": "Closed"}], "id": "7142600001", "name": "USPS COLLECTION BOX - BLUE BOX", "address": {"city": "FISHER", "state": "LA", "street": "737 FOUR L DR", "postcode": "71426"}}},
{"geometry": {"type": "Point", "coordinates": [-93.4666762196, 31.4927453567]}, "type": "Feature", "properties": {"collection_times": [{"days": "Mon-Fri", "time": "9:45am"}, {"days": "Sat", "time": "7:30am"}, {"days": "Sun", "time": "Closed"}], "id": "7142600002", "name": "USPS COLLECTION BOX - PO LOBBY", "address": {"city": "FISHER", "state": "LA", "street": "737 FOUR L DR", "postcode": "71426"}}},
{"geometry": {"type": "Point", "coordinates": [-93.0976632231, 31.6156227599]}, "type": "Feature", "properties": {"collection_times": [{"days": "Mon-Fri", "time": "9:15am"}, {"days": "Sat", "time": "10:45am"}, {"days": "Sun", "time": "Closed"}], "id": "7142800001", "name": "USPS COLLECTION BOX - BLUE BOX", "address": {"city": "FLORA", "state": "LA", "street": "1689 HIGHWAY 120", "postcode": "71428"}}},
{"geometry": {"type": "Point", "coordinates": [-93.0976632231, 31.6156227599]}, "type": "Feature", "properties": {"collection_times": [{"days": "Mon-Fri", "time": "9:15am"}, {"days": "Sat-Sun", "time": "Closed"}], "id": "7142800002", "name": "USPS COLLECTION BOX - PO LOBBY", "address": {"city": "FLORA", "state": "LA", "street": "1689 HIGHWAY 120", "postcode": "71428"}}},
{"geometry": {"type": "Point", "coordinates": [-93.456533238, 31.4571303302]}, "type": "Feature", "properties": {"collection_times": [{"days": "Mon-Fri", "time": "3:30pm"}, {"days": "Sat", "time": "8:15am"}, {"days": "Sun", "time": "Closed"}], "id": "7142900001", "name": "USPS COLLECTION BOX - BLUE BOX", "address": {"city": "FLORIEN", "state": "LA", "street": "1284 N NOLAN TRCE", "postcode": "71429"}}},
{"geometry": {"type": "Point", "coordinates": [-93.456533238, 31.4571303302]}, "type": "Feature", "properties": {"collection_times": [{"days": "Mon-Fri", "time": "3:30pm"}, {"days": "Sat-Sun", "time": "Closed"}], "id": "7142900003", "name": "USPS COLLECTION BOX - PO LOBBY", "address": {"city": "FLORIEN", "state": "LA", "street": "1284 N NOLAN TRCE", "postcode": "71429"}}},
{"geometry": {"type": "Point", "coordinates": [-92.5340499902, 31.0357437957]}, "type": "Feature", "properties": {"collection_times": [{"days": "Mon-Fri", "time": "2:30pm"}, {"days": "Sat", "time": "8:00am"}, {"days": "Sun", "time": "Closed"}], "id": "7143000001", "name": "USPS COLLECTION BOX - BLUE BOX", "address": {"city": "FOREST HILL", "state": "LA", "street": "11038 HIGHWAY 165 S", "postcode": "71430"}}},
{"geometry": {"type": "Point", "coordinates": [-92.5163163571, 31.0476341147]}, "type": "Feature", "properties": {"collection_times": [{"days": "Mon-Fri", "time": "1:45pm"}, {"days": "Sat", "time": "7:45am"}, {"days": "Sun", "time": "Closed"}], "id": "7143000002", "name": "USPS COLLECTION BOX - BLUE BOX", "address": {"city": "FOREST HILL", "state": "LA", "street": "4300 HIGHWAY 112", "postcode": "71430"}}},
{"geometry": {"type": "Point", "coordinates": [-92.5340499902, 31.0357437957]}, "type": "Feature", "properties": {"collection_times": [{"days": "Mon-Fri", "time": "2:30pm"}, {"days": "Sat", "time": "8:00am"}, {"days": "Sun", "time": "Closed"}], "id": "7143000003", "name": "USPS COLLECTION BOX - PO LOBBY", "address": {"city": "FOREST HILL", "state": "LA", "street": "11038 HIGHWAY 165 S", "postcode": "71430"}}},
{"geometry": {"type": "Point", "coordinates": [-92.4506831935, 31.7476804645]}, "type": "Feature", "properties": {"collection_times": [{"days": "Mon-Fri", "time": "2:00pm"}, {"days": "Sat", "time": "8:00am"}, {"days": "Sun", "time": "Closed"}], "id": "7143200001", "name": "USPS COLLECTION BOX - BLUE BOX", "address": {"city": "GEORGETOWN", "state": "LA", "street": "4474 HIGHWAY 500", "postcode": "71432"}}},
{"geometry": {"type": "Point", "coordinates": [-92.4506831935, 31.7476804645]}, "type": "Feature", "properties": {"collection_times": [{"days": "Mon-Fri", "time": "2:00pm"}, {"days": "Sat-Sun", "time": "Closed"}], "id": "7143200002", "name": "USPS COLLECTION BOX - PO LOBBY", "address": {"city": "GEORGETOWN", "state": "LA", "street": "4474 HIGHWAY 500", "postcode": "71432"}}},
{"geometry": {"type": "Point", "coordinates": [-92.5851350079, 30.9701042643]}, "type": "Feature", "properties": {"collection_times": [{"days": "Mon-Fri", "time": "2:45pm"}, {"days": "Sat", "time": "8:00am"}, {"days": "Sun", "time": "Closed"}], "id": "7143300001", "name": "USPS COLLECTION BOX - BLUE BOX", "address": {"city": "GLENMORA", "state": "LA", "street": "1201 7TH ST", "postcode": "71433"}}},
{"geometry": {"type": "Point", "coordinates": [-92.5851350079, 30.9701042643]}, "type": "Feature", "properties": {"collection_times": [{"days": "Mon-Fri", "time": "2:45pm"}, {"days": "Sat-Sun", "time": "Closed"}], "id": "7143300002", "name": "USPS COLLECTION BOX - PO LOBBY", "address": {"city": "GLENMORA", "state": "LA", "street": "1201 7TH ST", "postcode": "71433"}}},
{"geometry": {"type": "Point", "coordinates": [-92.9436501277, 31.4324651016]}, "type": "Feature", "properties": {"collection_times": [{"days": "Mon-Sat", "time": "11:30am"}, {"days": "Sun", "time": "Closed"}], "id": "7143400000", "name": "USPS COLLECTION BOX - PO LOBBY", "address": {"city": "GORUM", "state": "LA", "street": "9327 HIGHWAY 119", "postcode": "71434"}}},
{"geometry": {"type": "Point", "coordinates": [-92.1115068887, 32.0387755334]}, "type": "Feature", "properties": {"collection_times": [{"days": "Mon-Fri", "time": "2:00pm"}, {"days": "Sat-Sun", "time": "Closed"}], "id": "7143500002", "name": "USPS COLLECTION BOX - PO LOBBY", "address": {"city": "GRAYSON", "state": "LA", "street": "954 HIGHWAY 850", "postcode": "71435"}}},
{"geometry": {"type": "Point", "coordinates": [-92.1115068887, 32.0387755334]}, "type": "Feature", "properties": {"collection_times": [{"days": "Mon-Fri", "time": "2:00pm"}, {"days": "Sat", "time": "9:30am"}, {"days": "Sun", "time": "Closed"}], "id": "7143500003", "name": "USPS COLLECTION BOX - BLUE BOX", "address": {"city": "GRAYSON", "state": "LA", "street": "954 HIGHWAY 850", "postcode": "71435"}}},
{"geometry": {"type": "Point", "coordinates": [-92.7588898683, 31.1448867623]}, "type": "Feature", "properties": {"collection_times": [{"days": "Mon-Fri", "time": "2:30pm"}, {"days": "Sat", "time": "9:30am"}, {"days": "Sun", "time": "Closed"}], "id": "7143800001", "name": "USPS COLLECTION BOX - PO LOBBY", "address": {"city": "HINESTON", "state": "LA", "street": "1923 HIGHWAY 121", "postcode": "71438"}}},
{"geometry": {"type": "Point", "coordinates": [-92.7588898683, 31.1448867623]}, "type": "Feature", "properties": {"collection_times": [{"days": "Mon-Fri", "time": "2:30pm"}, {"days": "Sat", "time": "9:30am"}, {"days": "Sun", "time": "Closed"}], "id": "7143800002", "name": "USPS COLLECTION BOX - BLUE BOX", "address": {"city": "HINESTON", "state": "LA", "street": "1923 HIGHWAY 121", "postcode": "71438"}}},
{"geometry": {"type": "Point", "coordinates": [-93.399054519, 31.3261875343]}, "type": "Feature", "properties": {"collection_times": [{"days": "Mon-Fri", "time": "1:30pm"}, {"days": "Sat", "time": "8:15am"}, {"days": "Sun", "time": "Closed"}], "id": "7143900001", "name": "USPS COLLECTION BOX - BLUE BOX", "address": {"city": "HORNBECK", "state": "LA", "street": "1127 HAMMOND ST", "postcode": "71439"}}},
{"geometry": {"type": "Point", "coordinates": [-93.399054519, 31.3261875343]}, "type": "Feature", "properties": {"collection_times": [{"days": "Mon-Fri", "time": "1:30pm"}, {"days": "Sat-Sun", "time": "Closed"}], "id": "7143900002", "name": "USPS COLLECTION BOX - PO LOBBY", "address": {"city": "HORNBECK", "state": "LA", "street": "1127 HAMMOND ST", "postcode": "71439"}}},
{"geometry": {"type": "Point", "coordinates": [-92.5958234864, 31.9410294137]}, "type": "Feature", "properties": {"collection_times": [{"days": "Mon-Fri", "time": "3:00pm"}, {"days": "Sat", "time": "8:00am"}, {"days": "Sun", "time": "Closed"}], "id": "7144000001", "name": "USPS COLLECTION BOX - BLUE BOX", "address": {"city": "JOYCE", "state": "LA", "street": "7018 HIGHWAY 84 E", "postcode": "71440"}}},
{"geometry": {"type": "Point", "coordinates": [-92.5958234864, 31.9410294137]}, "type": "Feature", "properties": {"collection_times": [{"days": "Mon-Fri", "time": "3:00pm"}, {"days": "Sat", "time": "8:00am"}, {"days": "Sun", "time": "Closed"}], "id": "7144000002", "name": "USPS COLLECTION BOX - PO LOBBY", "address": {"city": "JOYCE", "state": "LA", "street": "7018 HIGHWAY 84 E", "postcode": "71440"}}},
{"geometry": {"type": "Point", "coordinates": [-92.1736697391, 31.9809057967]}, "type": "Feature", "properties": {"collection_times": [{"days": "Mon-Fri", "time": "12:00pm"}, {"days": "Sat", "time": "8:00am"}, {"days": "Sun", "time": "Closed"}], "id": "7144100001", "name": "USPS COLLECTION BOX - BLUE BOX", "address": {"city": "KELLY", "state": "LA", "street": "3401 HIGHWAY 506 W", "postcode": "71441"}}},
{"geometry": {"type": "Point", "coordinates": [-92.1622506143, 31.97851813]}, "type": "Feature", "properties": {"collection_times": [{"days": "Mon-Fri", "time": "12:00pm"}, {"days": "Sat", "time": "8:00am"}, {"days": "Sun", "time": "Closed"}], "id": "7144100002", "name": "USPS COLLECTION BOX - PO LOBBY", "address": {"city": "KELLY", "state": "LA", "street": "3401 HIGHWAY 506 W", "postcode": "71441"}}},
{"geometry": {"type": "Point", "coordinates": [-93.2603737905, 31.141930463]}, "type": "Feature", "properties": {"collection_times": [{"days": "Mon-Sat", "time": "3:30pm"}, {"days": "Sun", "time": "Closed"}], "id": "7144600002", "name": "USPS COLLECTION BOX - BLUE BOX", "address": {"city": "LEESVILLE", "state": "LA", "street": "303 S 2ND ST", "postcode": "71446"}}},
{"geometry": {"type": "Point", "coordinates": [-93.2603737905, 31.141930463]}, "type": "Feature", "properties": {"collection_times": [{"days": "Mon-Sat", "time": "3:30pm"}, {"days": "Sun", "time": "Closed"}], "id": "7144600003", "name": "USPS COLLECTION BOX - BLUE BOX", "address": {"city": "LEESVILLE", "state": "LA", "street": "303 S 2ND ST", "postcode": "71446"}}},
{"geometry": {"type": "Point", "coordinates": [-93.2611475405, 31.1426094045]}, "type": "Feature", "properties": {"collection_times": [{"days": "Mon-Fri", "time": "3:00pm"}, {"days": "Sat-Sun", "time": "Closed"}], "id": "7144600006", "name": "USPS COLLECTION BOX - BLUE BOX", "address": {"city": "LEESVILLE", "state": "LA", "street": "201 S 3RD ST", "postcode": "71446"}}},
{"geometry": {"type": "Point", "coordinates": [-93.2637909016, 31.1509098564]}, "type": "Feature", "properties": {"collection_times": [{"days": "Mon-Fri", "time": "11:30am"}, {"days": "Sat-Sun", "time": "Closed"}], "id": "7144600016", "name": "USPS COLLECTION BOX - BLUE BOX", "address": {"city": "LEESVILLE", "state": "LA", "street": "900 N 5TH ST", "postcode": "71446"}}},
{"geometry": {"type": "Point", "coordinates": [-93.2691608936, 31.1373360723]}, "type": "Feature", "properties": {"collection_times": [{"days": "Mon-Fri", "time": "9:00am"}, {"days": "Sat-Sun", "time": "Closed"}], "id": "7144600020", "name": "USPS COLLECTION BOX - BLUE BOX", "address": {"city": "LEESVILLE", "state": "LA", "street": "1020 W FERTITTA BLVD", "postcode": "71446"}}},
{"geometry": {"type": "Point", "coordinates": [-93.2611209048, 31.141905856]}, "type": "Feature", "properties": {"collection_times": [{"days": "Mon-Sat", "time": "3:30pm"}, {"days": "Sun", "time": "Closed"}], "id": "7144600024", "name": "USPS COLLECTION BOX - PO LOBBY", "address": {"city": "LEESVILLE", "state": "LA", "street": "303 S 3RD ST", "postcode": "71446"}}},
{"geometry": {"type": "Point", "coordinates": [-93.2638408426, 31.143886936]}, "type": "Feature", "properties": {"collection_times": [{"days": "Mon-Fri", "time": "11:30am"}, {"days": "Sat-Sun", "time": "Closed"}], "id": "7144600026", "name": "USPS COLLECTION BOX - BLUE BOX", "address": {"city": "LEESVILLE", "state": "LA", "street": "101 W LEE ST", "postcode": "71446"}}},
{"geometry": {"type": "Point", "coordinates": [-93.2693439439, 31.1201929981]}, "type": "Feature", "properties": {"collection_times": [{"days": "Mon-Fri", "time": "10:30am"}, {"days": "Sat-Sun", "time": "Closed"}], "id": "7144600027", "name": "USPS COLLECTION BOX - BLUE BOX", "address": {"city": "LEESVILLE", "state": "LA", "street": "2204 S 5TH ST", "postcode": "71446"}}},
{"geometry": {"type": "Point", "coordinates": [-92.7950684485, 31.3966578563]}, "type": "Feature", "properties": {"collection_times": [{"days": "Mon-Fri", "time": "10:45am"}, {"days": "Sat", "time": "7:30am"}, {"days": "Sun", "time": "Closed"}], "id": "7144700001", "name": "USPS COLLECTION BOX - BLUE BOX", "address": {"city": "LENA", "state": "LA", "street": "57 LENA FLATWOODS RD", "postcode": "71447"}}},
{"geometry": {"type": "Point", "coordinates": [-92.7950684485, 31.3966578563]}, "type": "Feature", "properties": {"collection_times": [{"days": "Mon-Fri", "time": "10:45am"}, {"days": "Sat-Sun", "time": "Closed"}], "id": "7144700003", "name": "USPS COLLECTION BOX - PO LOBBY", "address": {"city": "LENA", "state": "LA", "street": "57 LENA FLATWOODS RD", "postcode": "71447"}}},
{"geometry": {"type": "Point", "coordinates": [-92.5628641157, 31.007107643]}, "type": "Feature", "properties": {"collection_times": [{"days": "Mon-Fri", "time": "12:15pm"}, {"days": "Sat-Sun", "time": "Closed"}], "id": "7144800000", "name": "USPS COLLECTION BOX - PO LOBBY", "address": {"city": "LONGLEAF", "state": "LA", "street": "76 LONG LEAF RD", "postcode": "71448"}}},
{"geometry": {"type": "Point", "coordinates": [-93.4791270181, 31.5665688029]}, "type": "Feature", "properties": {"collection_times": [{"days": "Mon-Fri", "time": "2:45pm"}, {"days": "Sat", "time": "11:45am"}, {"days": "Sun", "time": "Closed"}], "id": "7144900001", "name": "USPS COLLECTION BOX - BLUE BOX", "address": {"city": "MANY", "state": "LA", "street": "490 CHURCH ST", "postcode": "71449"}}},
{"geometry": {"type": "Point", "coordinates": [-93.4791270181, 31.5665688029]}, "type": "Feature", "properties": {"collection_times": [{"days": "Mon-Fri", "time": "2:45pm"}, {"days": "Sat", "time": "11:45am"}, {"days": "Sun", "time": "Closed"}], "id": "7144900002", "name": "USPS COLLECTION BOX - BLUE BOX", "address": {"city": "MANY", "state": "LA", "street": "490 CHURCH ST", "postcode": "71449"}}},
{"geometry": {"type": "Point", "coordinates": [-93.4791270181, 31.5665688029]}, "type": "Feature", "properties": {"collection_times": [{"days": "Mon-Fri", "time": "2:45pm"}, {"days": "Sat", "time": "11:45am"}, {"days": "Sun", "time": "Closed"}], "id": "7144900012", "name": "USPS COLLECTION BOX - PO LOBBY", "address": {"city": "MANY", "state": "LA", "street": "490 CHURCH ST", "postcode": "71449"}}},
{"geometry": {"type": "Point", "coordinates": [-93.441822559, 31.7209010004]}, "type": "Feature", "properties": {"collection_times": [{"days": "Mon-Fri", "time": "3:15pm"}, {"days": "Sat", "time": "9:15am"}, {"days": "Sun", "time": "Closed"}], "id": "7145000001", "name": "USPS COLLECTION BOX - BLUE BOX", "address": {"city": "MARTHAVILLE", "state": "LA", "street": "10644 HIGHWAY 120", "postcode": "71450"}}},
{"geometry": {"type": "Point", "coordinates": [-93.441822559, 31.7209010004]}, "type": "Feature", "properties": {"collection_times": [{"days": "Mon-Fri", "time": "3:15pm"}, {"days": "Sat", "time": "9:15am"}, {"days": "Sun", "time": "Closed"}], "id": "7145000002", "name": "USPS COLLECTION BOX - PO LOBBY", "address": {"city": "MARTHAVILLE", "state": "LA", "street": "10644 HIGHWAY 120", "postcode": "71450"}}},
{"geometry": {"type": "Point", "coordinates": [-92.8918143446, 31.6670670833]}, "type": "Feature", "properties": {"collection_times": [{"days": "Mon-Fri", "time": "1:30pm"}, {"days": "Sat", "time": "8:30am"}, {"days": "Sun", "time": "Closed"}], "id": "7145400002", "name": "USPS COLLECTION BOX - BLUE BOX", "address": {"city": "MONTGOMERY", "state": "LA", "street": "509 WOODLAND ST", "postcode": "71454"}}},
{"geometry": {"type": "Point", "coordinates": [-92.8918143446, 31.6670670833]}, "type": "Feature", "properties": {"collection_times": [{"days": "Mon-Fri", "time": "1:30pm"}, {"days": "Sat", "time": "8:30am"}, {"days": "Sun", "time": "Closed"}], "id": "7145400003", "name": "USPS COLLECTION BOX - PO LOBBY", "address": {"city": "MONTGOMERY", "state": "LA", "street": "509 WOODLAND ST", "postcode": "71454"}}},
{"geometry": {"type": "Point", "coordinates": [-92.9822301239, 31.6366901601]}, "type": "Feature", "properties": {"collection_times": [{"days": "Mon-Fri", "time": "3:30pm"}, {"days": "Sat", "time": "8:00am"}, {"days": "Sun", "time": "Closed"}], "id": "7145600001", "name": "USPS COLLECTION BOX - BLUE BOX", "address": {"city": "NATCHEZ", "state": "LA", "street": "9465 HIGHWAY 1", "postcode": "71456"}}},
{"geometry": {"type": "Point", "coordinates": [-92.9822301239, 31.6366901601]}, "type": "Feature", "properties": {"collection_times": [{"days": "Mon-Fri", "time": "3:30pm"}, {"days": "Sat", "time": "8:00am"}, {"days": "Sun", "time": "Closed"}], "id": "7145600002", "name": "USPS COLLECTION BOX - PO LOBBY", "address": {"city": "NATCHEZ", "state": "LA", "street": "9465 HIGHWAY 1", "postcode": "71456"}}},
{"geometry": {"type": "Point", "coordinates": [-93.0865655176, 31.7593966215]}, "type": "Feature", "properties": {"collection_times": [{"days": "Mon-Fri", "time": "11:00am"}, {"days": "Sat-Sun", "time": "Closed"}], "id": "7145700001", "name": "USPS COLLECTION BOX - BLUE BOX", "address": {"city": "NATCHITOCHES", "state": "LA", "street": "112 TOULINE ST", "postcode": "71457"}}},
{"geometry": {"type": "Point", "coordinates": [-93.0798681354, 31.7518298596]}, "type": "Feature", "properties": {"collection_times": [{"days": "Mon-Fri", "time": "10:30am"}, {"days": "Sat-Sun", "time": "Closed"}], "id": "7145700007", "name": "USPS COLLECTION BOX - BLUE BOX", "address": {"city": "NATCHITOCHES", "state": "LA", "street": "415 BIENVILLE ST", "postcode": "71457"}}},
{"geometry": {"type": "Point", "coordinates": [-93.0813659553, 31.7483095007]}, "type": "Feature", "properties": {"collection_times": [{"days": "Mon-Fri", "time": "11:15am"}, {"days": "Sat-Sun", "time": "Closed"}], "id": "7145700012", "name": "USPS COLLECTION BOX - BLUE BOX", "address": {"city": "NATCHITOCHES", "state": "LA", "street": "315 ROYAL ST", "postcode": "71457"}}},
{"geometry": {"type": "Point", "coordinates": [-93.079187139, 31.7536158399]}, "type": "Feature", "properties": {"collection_times": [{"days": "Mon-Fri", "time": "8:45am"}, {"days": "Sat-Sun", "time": "Closed"}], "id": "7145700013", "name": "USPS COLLECTION BOX - BLUE BOX", "address": {"city": "NATCHITOCHES", "state": "LA", "street": "501 KEYSER AVE", "postcode": "71457"}}},
{"geometry": {"type": "Point", "coordinates": [-93.0713261263, 31.7530467749]}, "type": "Feature", "properties": {"collection_times": [{"days": "Mon-Fri", "time": "3:45pm"}, {"days": "Sat", "time": "2:00pm"}, {"days": "Sun", "time": "Closed"}], "id": "7145700014", "name": "USPS COLLECTION BOX - BLUE BOX", "address": {"city": "NATCHITOCHES", "state": "LA", "street": "727 KEYSER AVE", "postcode": "71457"}}},
{"geometry": {"type": "Point", "coordinates": [-93.082561458, 31.7521543554]}, "type": "Feature", "properties": {"collection_times": [{"days": "Mon-Fri", "time": "11:30am"}, {"days": "Sat-Sun", "time": "Closed"}], "id": "7145700016", "name": "USPS COLLECTION BOX - BLUE BOX", "address": {"city": "NATCHITOCHES", "state": "LA", "street": "102 SOUTH DR", "postcode": "71457"}}},
{"geometry": {"type": "Point", "coordinates": [-93.0713261263, 31.7530467749]}, "type": "Feature", "properties": {"collection_times": [{"days": "Mon-Fri", "time": "3:45pm"}, {"days": "Sat", "time": "2:00pm"}, {"days": "Sun", "time": "Closed"}], "id": "7145700017", "name": "USPS COLLECTION BOX - BLUE BOX", "address": {"city": "NATCHITOCHES", "state": "LA", "street": "727 KEYSER AVE", "postcode": "71457"}}},
{"geometry": {"type": "Point", "coordinates": [-93.0883054976, 31.7618158196]}, "type": "Feature", "properties": {"collection_times": [{"days": "Mon-Fri", "time": "3:45pm"}, {"days": "Sat", "time": "2:00pm"}, {"days": "Sun", "time": "Closed"}], "id": "7145700020", "name": "USPS COLLECTION BOX - BLUE BOX", "address": {"city": "NATCHITOCHES", "state": "LA", "street": "240 SAINT DENIS ST", "postcode": "71457"}}},
{"geometry": {"type": "Point", "coordinates": [-93.0883054976, 31.7618158196]}, "type": "Feature", "properties": {"collection_times": [{"days": "Mon-Fri", "time": "3:45pm"}, {"days": "Sat", "time": "2:00pm"}, {"days": "Sun", "time": "Closed"}], "id": "7145700022", "name": "USPS COLLECTION BOX - BLUE BOX", "address": {"city": "NATCHITOCHES", "state": "LA", "street": "240 SAINT DENIS ST", "postcode": "71457"}}},
{"geometry": {"type": "Point", "coordinates": [-93.0883054976, 31.7618158196]}, "type": "Feature", "properties": {"collection_times": [{"days": "Mon-Fri", "time": "3:45pm"}, {"days": "Sat", "time": "2:00pm"}, {"days": "Sun", "time": "Closed"}], "id": "7145700023", "name": "USPS COLLECTION BOX - BLUE BOX", "address": {"city": "NATCHITOCHES", "state": "LA", "street": "240 SAINT DENIS ST", "postcode": "71457"}}},
{"geometry": {"type": "Point", "coordinates": [-93.0713261263, 31.7530467749]}, "type": "Feature", "properties": {"collection_times": [{"days": "Mon-Sat", "time": "2:00pm"}, {"days": "Sun", "time": "Closed"}], "id": "7145700028", "name": "USPS COLLECTION BOX - PO LOBBY", "address": {"city": "NATCHITOCHES", "state": "LA", "street": "727 KEYSER AVE", "postcode": "71457"}}},
{"geometry": {"type": "Point", "coordinates": [-93.0883054976, 31.7618158196]}, "type": "Feature", "properties": {"collection_times": [{"days": "Mon-Sat", "time": "2:00pm"}, {"days": "Sun", "time": "Closed"}], "id": "7145700029", "name": "USPS COLLECTION BOX - PO LOBBY", "address": {"city": "NATCHITOCHES", "state": "LA", "street": "240 SAINT DENIS ST", "postcode": "71457"}}},
{"geometry": {"type": "Point", "coordinates": [-93.1196433473, 31.7854133003]}, "type": "Feature", "properties": {"collection_times": [{"days": "Mon-Fri", "time": "9:15am"}, {"days": "Sat-Sun", "time": "Closed"}], "id": "7145700032", "name": "USPS COLLECTION BOX - BLUE BOX", "address": {"city": "NATCHITOCHES", "state": "LA", "street": "5696 HIGHWAY 1 BYP", "postcode": "71457"}}},
{"geometry": {"type": "Point", "coordinates": [-93.1779418386, 31.0685892728]}, "type": "Feature", "properties": {"collection_times": [{"days": "Mon-Sat", "time": "2:00pm"}, {"days": "Sun", "time": "Closed"}], "id": "7145900007", "name": "USPS COLLECTION BOX - BLUE BOX", "address": {"city": "FORT POLK", "state": "LA", "street": "6202 HALL CT", "postcode": "71459"}}},
{"geometry": {"type": "Point", "coordinates": [-93.2211682574, 31.0485107246]}, "type": "Feature", "properties": {"collection_times": [{"days": "Mon-Fri", "time": "3:00pm"}, {"days": "Sat", "time": "2:00pm"}, {"days": "Sun", "time": "Closed"}], "id": "7145900010", "name": "USPS COLLECTION BOX - BLUE BOX", "address": {"city": "FORT POLK", "state": "LA", "street": "7445 LA HIGHWAY 467", "postcode": "71459"}}},
{"geometry": {"type": "Point", "coordinates": [-93.1779418386, 31.0685892728]}, "type": "Feature", "properties": {"collection_times": [{"days": "Mon-Sat", "time": "3:00pm"}, {"days": "Sun", "time": "Closed"}], "id": "7145900022", "name": "USPS COLLECTION BOX - BLUE BOX", "address": {"city": "FORT POLK", "state": "LA", "street": "6180 UNIVERSITY PKWY", "postcode": "71459"}}},
{"geometry": {"type": "Point", "coordinates": [-93.1779418386, 31.0685892728]}, "type": "Feature", "properties": {"collection_times": [{"days": "Mon-Fri", "time": "3:30pm"}, {"days": "Sat", "time": "3:00pm"}, {"days": "Sun", "time": "Closed"}], "id": "7145900023", "name": "USPS COLLECTION BOX - PO LOBBY", "address": {"city": "FORT POLK", "state": "LA", "street": "6180 UNIVERSITY PKWY", "postcode": "71459"}}},
{"geometry": {"type": "Point", "coordinates": [-93.1779418386, 31.0685892728]}, "type": "Feature", "properties": {"collection_times": [{"days": "Mon-Sat", "time": "3:00pm"}, {"days": "Sun", "time": "Closed"}], "id": "7145900024", "name": "USPS COLLECTION BOX - BLUE BOX", "address": {"city": "FORT POLK", "state": "LA", "street": "6180 UNIVERSITY PKWY", "postcode": "71459"}}},
{"geometry": {"type": "Point", "coordinates": [-93.1779418386, 31.0685892728]}, "type": "Feature", "properties": {"collection_times": [{"days": "Mon-Fri", "time": "3:30pm"}, {"days": "Sat", "time": "3:00pm"}, {"days": "Sun", "time": "Closed"}], "id": "7145900026", "name": "USPS COLLECTION BOX - PO LOBBY", "address": {"city": "FORT POLK", "state": "LA", "street": "6180 UNIVERSITY PKWY", "postcode": "71459"}}},
{"geometry": {"type": "Point", "coordinates": [-93.1628739861, 31.1144368659]}, "type": "Feature", "properties": {"collection_times": [{"days": "Mon-Fri", "time": "10:00am"}, {"days": "Sat-Sun", "time": "Closed"}], "id": "7145900028", "name": "USPS COLLECTION BOX - BLUE BOX", "address": {"city": "FORT POLK", "state": "LA", "street": "7828 ENTRANCE RD", "postcode": "71459"}}},
{"geometry": {"type": "Point", "coordinates": [-93.5762162933, 31.4629920884]}, "type": "Feature", "properties": {"collection_times": [{"days": "Mon-Fri", "time": "1:00pm"}, {"days": "Sat", "time": "10:45am"}, {"days": "Sun", "time": "Closed"}], "id": "7146000001", "name": "USPS COLLECTION BOX - BLUE BOX", "address": {"city": "NEGREET", "state": "LA", "street": "4226 HIGHWAY 476", "postcode": "71460"}}},
{"geometry": {"type": "Point", "coordinates": [-93.5762162933, 31.4629920884]}, "type": "Feature", "properties": {"collection_times": [{"days": "Mon-Fri", "time": "12:45pm"}, {"days": "Sat-Sun", "time": "Closed"}], "id": "7146000002", "name": "USPS COLLECTION BOX - PO LOBBY", "address": {"city": "NEGREET", "state": "LA", "street": "4226 HIGHWAY 476", "postcode": "71460"}}},
{"geometry": {"type": "Point", "coordinates": [-93.2755220049, 31.1128886136]}, "type": "Feature", "properties": {"collection_times": [{"days": "Mon-Fri", "time": "2:00pm"}, {"days": "Sat", "time": "8:00am"}, {"days": "Sun", "time": "Closed"}], "id": "7146100001", "name": "USPS COLLECTION BOX - BLUE BOX", "address": {"city": "NEW LLANO", "state": "LA", "street": "330 VERNON ST", "postcode": "71461"}}},
{"geometry": {"type": "Point", "coordinates": [-93.2755220049, 31.1128886136]}, "type": "Feature", "properties": {"collection_times": [{"days": "Mon-Fri", "time": "2:00pm"}, {"days": "Sat", "time": "8:00am"}, {"days": "Sun", "time": "Closed"}], "id": "7146100002", "name": "USPS COLLECTION BOX - PO LOBBY", "address": {"city": "NEW LLANO", "state": "LA", "street": "330 VERNON ST", "postcode": "71461"}}},
{"geometry": {"type": "Point", "coordinates": [-93.7109619335, 31.6819863473]}, "type": "Feature", "properties": {"collection_times": [{"days": "Mon-Fri", "time": "11:00am"}, {"days": "Sat", "time": "8:45am"}, {"days": "Sun", "time": "Closed"}], "id": "7146200001", "name": "USPS COLLECTION BOX - BLUE BOX", "address": {"city": "NOBLE", "state": "LA", "street": "820 HIGHWAY 1218", "postcode": "71462"}}},
{"geometry": {"type": "Point", "coordinates": [-93.7109619335, 31.6819863473]}, "type": "Feature", "properties": {"collection_times": [{"days": "Mon-Fri", "time": "11:00am"}, {"days": "Sat", "time": "8:45am"}, {"days": "Sun", "time": "Closed"}], "id": "7146200002", "name": "USPS COLLECTION BOX - PO LOBBY", "address": {"city": "NOBLE", "state": "LA", "street": "820 HIGHWAY 1218", "postcode": "71462"}}},
{"geometry": {"type": "Point", "coordinates": [-92.6607406456, 30.8158457989]}, "type": "Feature", "properties": {"collection_times": [{"days": "Mon-Fri", "time": "3:00pm"}, {"days": "Sat", "time": "1:00pm"}, {"days": "Sun", "time": "Closed"}], "id": "7146300007", "name": "USPS COLLECTION BOX - BLUE BOX", "address": {"city": "OAKDALE", "state": "LA", "street": "100 N 11TH ST", "postcode": "71463"}}},
{"geometry": {"type": "Point", "coordinates": [-92.6607406456, 30.8158457989]}, "type": "Feature", "properties": {"collection_times": [{"days": "Mon-Fri", "time": "3:00pm"}, {"days": "Sat", "time": "1:00pm"}, {"days": "Sun", "time": "Closed"}], "id": "7146300008", "name": "USPS COLLECTION BOX - BLUE BOX", "address": {"city": "OAKDALE", "state": "LA", "street": "100 N 11TH ST", "postcode": "71463"}}},
{"geometry": {"type": "Point", "coordinates": [-92.6607406456, 30.8158457989]}, "type": "Feature", "properties": {"collection_times": [{"days": "Mon-Fri", "time": "3:00pm"}, {"days": "Sat", "time": "1:00pm"}, {"days": "Sun", "time": "Closed"}], "id": "7146300009", "name": "USPS COLLECTION BOX - BLUE BOX", "address": {"city": "OAKDALE", "state": "LA", "street": "100 N 11TH ST", "postcode": "71463"}}},
{"geometry": {"type": "Point", "coordinates": [-92.6614967547, 30.8156099206]}, "type": "Feature", "properties": {"collection_times": [{"days": "Mon-Fri", "time": "3:00pm"}, {"days": "Sat", "time": "1:00pm"}, {"days": "Sun", "time": "Closed"}], "id": "7146300010", "name": "USPS COLLECTION BOX - PO LOBBY", "address": {"city": "OAKDALE", "state": "LA", "street": "240 E 6TH AVE", "postcode": "71463"}}},
{"geometry": {"type": "Point", "coordinates": [-92.6614967547, 30.8156099206]}, "type": "Feature", "properties": {"collection_times": [{"days": "Mon-Fri", "time": "3:00pm"}, {"days": "Sat", "time": "1:00pm"}, {"days": "Sun", "time": "Closed"}], "id": "7146300012", "name": "USPS COLLECTION BOX - BLUE BOX", "address": {"city": "OAKDALE", "state": "LA", "street": "240 E 6TH AVE", "postcode": "71463"}}},
{"geometry": {"type": "Point", "coordinates": [-92.6614967547, 30.8156099206]}, "type": "Feature", "properties": {"collection_times": [{"days": "Mon-Fri", "time": "3:00pm"}, {"days": "Sat", "time": "1:00pm"}, {"days": "Sun", "time": "Closed"}], "id": "7146300017", "name": "USPS COLLECTION BOX - BLUE BOX", "address": {"city": "OAKDALE", "state": "LA", "street": "240 E 6TH AVE", "postcode": "71463"}}},
{"geometry": {"type": "Point", "coordinates": [-92.1377737647, 31.8391292918]}, "type": "Feature", "properties": {"collection_times": [{"days": "Mon-Fri", "time": "2:00pm"}, {"days": "Sat", "time": "9:00am"}, {"days": "Sun", "time": "Closed"}], "id": "7146500001", "name": "USPS COLLECTION BOX - BLUE BOX", "address": {"city": "OLLA", "state": "LA", "street": "3470 MAIN STREET 165", "postcode": "71465"}}},
{"geometry": {"type": "Point", "coordinates": [-92.1377737647, 31.8391292918]}, "type": "Feature", "properties": {"collection_times": [{"days": "Mon-Fri", "time": "2:00pm"}, {"days": "Sat", "time": "9:00am"}, {"days": "Sun", "time": "Closed"}], "id": "7146500004", "name": "USPS COLLECTION BOX - PO LOBBY", "address": {"city": "OLLA", "state": "LA", "street": "3470 MAIN STREET 165", "postcode": "71465"}}},
{"geometry": {"type": "Point", "coordinates": [-92.7276432119, 31.2166289159]}, "type": "Feature", "properties": {"collection_times": [{"days": "Mon-Fri", "time": "10:30am"}, {"days": "Sat", "time": "8:00am"}, {"days": "Sun", "time": "Closed"}], "id": "7146600001", "name": "USPS COLLECTION BOX - BLUE BOX", "address": {"city": "OTIS", "state": "LA", "street": "2951 HIGHWAY 121", "postcode": "71466"}}},
{"geometry": {"type": "Point", "coordinates": [-92.7276432119, 31.2166289159]}, "type": "Feature", "properties": {"collection_times": [{"days": "Mon-Fri", "time": "10:30am"}, {"days": "Sat", "time": "8:00am"}, {"days": "Sun", "time": "Closed"}], "id": "7146600002", "name": "USPS COLLECTION BOX - PO LOBBY", "address": {"city": "OTIS", "state": "LA", "street": "2951 HIGHWAY 121", "postcode": "71466"}}},
{"geometry": {"type": "Point", "coordinates": [-92.3445604986, 31.5234649609]}, "type": "Feature", "properties": {"collection_times": [{"days": "Mon-Fri", "time": "4:00pm"}, {"days": "Sat", "time": "9:00am"}, {"days": "Sun", "time": "Closed"}], "id": "7146700001", "name": "USPS COLLECTION BOX - BLUE BOX", "address": {"city": "POLLOCK", "state": "LA", "street": "7968 RIDGE ST", "postcode": "71467"}}},
{"geometry": {"type": "Point", "coordinates": [-92.3445604986, 31.5234649609]}, "type": "Feature", "properties": {"collection_times": [{"days": "Mon-Fri", "time": "4:00pm"}, {"days": "Sat", "time": "9:00am"}, {"days": "Sun", "time": "Closed"}], "id": "7146700002", "name": "USPS COLLECTION BOX - PO LOBBY", "address": {"city": "POLLOCK", "state": "LA", "street": "7968 RIDGE ST", "postcode": "71467"}}},
{"geometry": {"type": "Point", "coordinates": [-93.2022565255, 31.6522824119]}, "type": "Feature", "properties": {"collection_times": [{"days": "Mon-Fri", "time": "3:00pm"}, {"days": "Sat", "time": "8:00am"}, {"days": "Sun", "time": "Closed"}], "id": "7146800001", "name": "USPS COLLECTION BOX - BLUE BOX", "address": {"city": "PROVENCAL", "state": "LA", "street": "101 ROBELINE PROVENCAL RD", "postcode": "71468"}}},
{"geometry": {"type": "Point", "coordinates": [-93.2022565255, 31.6522824119]}, "type": "Feature", "properties": {"collection_times": [{"days": "Mon-Fri", "time": "3:00pm"}, {"days": "Sat-Sun", "time": "Closed"}], "id": "7146800002", "name": "USPS COLLECTION BOX - PO LOBBY", "address": {"city": "PROVENCAL", "state": "LA", "street": "101 ROBELINE PROVENCAL RD", "postcode": "71468"}}},
{"geometry": {"type": "Point", "coordinates": [-93.3029576903, 31.6943793599]}, "type": "Feature", "properties": {"collection_times": [{"days": "Mon-Fri", "time": "1:00pm"}, {"days": "Sat", "time": "8:00am"}, {"days": "Sun", "time": "Closed"}], "id": "7146900001", "name": "USPS COLLECTION BOX - BLUE BOX", "address": {"city": "ROBELINE", "state": "LA", "street": "175 CHAPLIN LOOP", "postcode": "71469"}}},
{"geometry": {"type": "Point", "coordinates": [-93.3029576903, 31.6943793599]}, "type": "Feature", "properties": {"collection_times": [{"days": "Mon-Fri", "time": "1:00pm"}, {"days": "Sat", "time": "8:00am"}, {"days": "Sun", "time": "Closed"}], "id": "7146900002", "name": "USPS COLLECTION BOX - PO LOBBY", "address": {"city": "ROBELINE", "state": "LA", "street": "175 CHAPLIN LOOP", "postcode": "71469"}}},
{"geometry": {"type": "Point", "coordinates": [-92.4874039906, 32.0808049782]}, "type": "Feature", "properties": {"collection_times": [{"days": "Mon-Fri", "time": "11:30am"}, {"days": "Sat", "time": "7:45am"}, {"days": "Sun", "time": "Closed"}], "id": "7147300001", "name": "USPS COLLECTION BOX - BLUE BOX", "address": {"city": "SIKES", "state": "LA", "street": "4697 HIGHWAY 126", "postcode": "71473"}}},
{"geometry": {"type": "Point", "coordinates": [-92.4874039906, 32.0808049782]}, "type": "Feature", "properties": {"collection_times": [{"days": "Mon-Fri", "time": "11:30am"}, {"days": "Sat-Sun", "time": "Closed"}], "id": "7147300002", "name": "USPS COLLECTION BOX - PO LOBBY", "address": {"city": "SIKES", "state": "LA", "street": "4697 HIGHWAY 126", "postcode": "71473"}}},
{"geometry": {"type": "Point", "coordinates": [-93.02252927, 31.2624440215]}, "type": "Feature", "properties": {"collection_times": [{"days": "Mon-Fri", "time": "3:30pm"}, {"days": "Sat", "time": "9:30am"}, {"days": "Sun", "time": "Closed"}], "id": "7147400000", "name": "USPS COLLECTION BOX - BLUE BOX", "address": {"city": "SIMPSON", "state": "LA", "street": "4259 HIGHWAY 8", "postcode": "71474"}}},
{"geometry": {"type": "Point", "coordinates": [-93.02252927, 31.2624440215]}, "type": "Feature", "properties": {"collection_times": [{"days": "Mon-Fri", "time": "3:30pm"}, {"days": "Sat", "time": "9:30am"}, {"days": "Sun", "time": "Closed"}], "id": "7147400001", "name": "USPS COLLECTION BOX - PO LOBBY", "address": {"city": "SIMPSON", "state": "LA", "street": "4259 HIGHWAY 8", "postcode": "71474"}}},
{"geometry": {"type": "Point", "coordinates": [-93.1358340332, 31.1990130746]}, "type": "Feature", "properties": {"collection_times": [{"days": "Mon-Fri", "time": "3:00pm"}, {"days": "Sat", "time": "9:30am"}, {"days": "Sun", "time": "Closed"}], "id": "7147500002", "name": "USPS COLLECTION BOX - BLUE BOX", "address": {"city": "SLAGLE", "state": "LA", "street": "8787 HIGHWAY 8", "postcode": "71475"}}},
{"geometry": {"type": "Point", "coordinates": [-93.1358340332, 31.1990130746]}, "type": "Feature", "properties": {"collection_times": [{"days": "Mon-Fri", "time": "3:00pm"}, {"days": "Sat", "time": "9:30am"}, {"days": "Sun", "time": "Closed"}], "id": "7147500003", "name": "USPS COLLECTION BOX - PO LOBBY", "address": {"city": "SLAGLE", "state": "LA", "street": "8787 HIGHWAY 8", "postcode": "71475"}}},
{"geometry": {"type": "Point", "coordinates": [-92.4358999254, 31.3881678665]}, "type": "Feature", "properties": {"collection_times": [{"days": "Mon-Fri", "time": "4:00pm"}, {"days": "Sat", "time": "7:30am"}, {"days": "Sun", "time": "Closed"}], "id": "7147700001", "name": "USPS COLLECTION BOX - BLUE BOX", "address": {"city": "TIOGA", "state": "LA", "street": "5019 SHREVEPORT HWY", "postcode": "71477"}}},
{"geometry": {"type": "Point", "coordinates": [-92.4358999254, 31.3881678665]}, "type": "Feature", "properties": {"collection_times": [{"days": "Mon-Fri", "time": "4:00pm"}, {"days": "Sat", "time": "7:30am"}, {"days": "Sun", "time": "Closed"}], "id": "7147700002", "name": "USPS COLLECTION BOX - BLUE BOX", "address": {"city": "TIOGA", "state": "LA", "street": "5019 SHREVEPORT HWY", "postcode": "71477"}}},
{"geometry": {"type": "Point", "coordinates": [-92.4358999254, 31.3881678665]}, "type": "Feature", "properties": {"collection_times": [{"days": "Mon-Fri", "time": "4:00pm"}, {"days": "Sat", "time": "7:30am"}, {"days": "Sun", "time": "Closed"}], "id": "7147700004", "name": "USPS COLLECTION BOX - PO LOBBY", "address": {"city": "TIOGA", "state": "LA", "street": "5019 SHREVEPORT HWY", "postcode": "71477"}}},
{"geometry": {"type": "Point", "coordinates": [-92.3622194355, 31.866851649]}, "type": "Feature", "properties": {"collection_times": [{"days": "Mon-Fri", "time": "2:00pm"}, {"days": "Sat", "time": "7:15am"}, {"days": "Sun", "time": "Closed"}], "id": "7147900001", "name": "USPS COLLECTION BOX - BLUE BOX", "address": {"city": "TULLOS", "state": "LA", "street": "10175 S MAIN ST", "postcode": "71479"}}},
{"geometry": {"type": "Point", "coordinates": [-92.3622194355, 31.866851649]}, "type": "Feature", "properties": {"collection_times": [{"days": "Mon-Fri", "time": "2:00pm"}, {"days": "Sat-Sun", "time": "Closed"}], "id": "7147900002", "name": "USPS COLLECTION BOX - PO LOBBY", "address": {"city": "TULLOS", "state": "LA", "street": "10175 S MAIN ST", "postcode": "71479"}}},
{"geometry": {"type": "Point", "coordinates": [-92.2955789352, 31.8641393704]}, "type": "Feature", "properties": {"collection_times": [{"days": "Mon-Fri", "time": "2:00pm"}, {"days": "Sat", "time": "7:00am"}, {"days": "Sun", "time": "Closed"}], "id": "7148000001", "name": "USPS COLLECTION BOX - BLUE BOX", "address": {"city": "URANIA", "state": "LA", "street": "2150 E HARDTNER DR", "postcode": "71480"}}},
{"geometry": {"type": "Point", "coordinates": [-92.2955789352, 31.8641393704]}, "type": "Feature", "properties": {"collection_times": [{"days": "Mon-Fri", "time": "2:00pm"}, {"days": "Sat-Sun", "time": "Closed"}], "id": "7148000002", "name": "USPS COLLECTION BOX - PO LOBBY", "address": {"city": "URANIA", "state": "LA", "street": "2150 E HARDTNER DR", "postcode": "71480"}}},
{"geometry": {"type": "Point", "coordinates": [-92.6374930753, 31.9258381254]}, "type": "Feature", "properties": {"collection_times": [{"days": "Mon-Fri", "time": "3:00pm"}, {"days": "Sat", "time": "2:00pm"}, {"days": "Sun", "time": "Closed"}], "id": "7148300002", "name": "USPS COLLECTION BOX - BLUE BOX", "address": {"city": "WINNFIELD", "state": "LA", "street": "201 S BEVILL ST", "postcode": "71483"}}},
{"geometry": {"type": "Point", "coordinates": [-92.6374930753, 31.9258381254]}, "type": "Feature", "properties": {"collection_times": [{"days": "Mon-Fri", "time": "3:00pm"}, {"days": "Sat", "time": "2:00pm"}, {"days": "Sun", "time": "Closed"}], "id": "7148300014", "name": "USPS COLLECTION BOX - PO LOBBY", "address": {"city": "WINNFIELD", "state": "LA", "street": "201 S BEVILL ST", "postcode": "71483"}}},
{"geometry": {"type": "Point", "coordinates": [-92.6374930753, 31.9258381254]}, "type": "Feature", "properties": {"collection_times": [{"days": "Mon-Fri", "time": "3:00pm"}, {"days": "Sat", "time": "2:00pm"}, {"days": "Sun", "time": "Closed"}], "id": "7148300015", "name": "USPS COLLECTION BOX - PO LOBBY", "address": {"city": "WINNFIELD", "state": "LA", "street": "201 S BEVILL ST", "postcode": "71483"}}},
{"geometry": {"type": "Point", "coordinates": [-92.6374930753, 31.9258381254]}, "type": "Feature", "properties": {"collection_times": [{"days": "Mon-Fri", "time": "3:00pm"}, {"days": "Sat", "time": "2:00pm"}, {"days": "Sun", "time": "Closed"}], "id": "7148300018", "name": "USPS COLLECTION BOX - BLUE BOX", "address": {"city": "WINNFIELD", "state": "LA", "street": "201 S BEVILL ST", "postcode": "71483"}}},
{"geometry": {"type": "Point", "coordinates": [-92.4983104826, 31.1474182473]}, "type": "Feature", "properties": {"collection_times": [{"days": "Mon-Fri", "time": "1:00pm"}, {"days": "Sat", "time": "8:00am"}, {"days": "Sun", "time": "Closed"}], "id": "7148500001", "name": "USPS COLLECTION BOX - BLUE BOX", "address": {"city": "WOODWORTH", "state": "LA", "street": "20 CASTOR PLUNGE RD", "postcode": "71485"}}},
{"geometry": {"type": "Point", "coordinates": [-92.4983104826, 31.1474182473]}, "type": "Feature", "properties": {"collection_times": [{"days": "Mon-Fri", "time": "1:00pm"}, {"days": "Sat", "time": "8:00am"}, {"days": "Sun", "time": "Closed"}], "id": "7148500002", "name": "USPS COLLECTION BOX - PO LOBBY", "address": {"city": "WOODWORTH", "state": "LA", "street": "20 CASTOR PLUNGE RD", "postcode": "71485"}}},
{"geometry": {"type": "Point", "coordinates": [-93.6379956021, 31.6309829516]}, "type": "Feature", "properties": {"collection_times": [{"days": "Mon-Fri", "time": "3:00pm"}, {"days": "Sat", "time": "10:15am"}, {"days": "Sun", "time": "Closed"}], "id": "7148600001", "name": "USPS COLLECTION BOX - BLUE BOX", "address": {"city": "ZWOLLE", "state": "LA", "street": "1237 N MAIN ST", "postcode": "71486"}}},
{"geometry": {"type": "Point", "coordinates": [-93.6379956021, 31.6309829516]}, "type": "Feature", "properties": {"collection_times": [{"days": "Mon-Fri", "time": "3:00pm"}, {"days": "Sat", "time": "10:15am"}, {"days": "Sun", "time": "Closed"}], "id": "7148600003", "name": "USPS COLLECTION BOX - PO LOBBY", "address": {"city": "ZWOLLE", "state": "LA", "street": "1237 N MAIN ST", "postcode": "71486"}}}
]}
