{"type": "FeatureCollection", "features": [
{"geometry": {"type": "Point", "coordinates": [-80.2175306111, 33.7500718586]}, "type": "Feature", "properties": {"collection_times": [{"days": "Mon-Fri", "time": "3:45pm"}, {"days": "Sat", "time": "9:45am"}, {"days": "Sun", "time": "Closed"}], "id": "2900100000", "name": "USPS COLLECTION BOX - BLUE BOX", "address": {"city": "ALCOLU", "state": "SC", "street": "1842 MAIN ST", "postcode": "29001"}}},
{"geometry": {"type": "Point", "coordinates": [-80.2175306111, 33.7500718586]}, "type": "Feature", "properties": {"collection_times": [{"days": "Mon-Fri", "time": "3:45pm"}, {"days": "Sat", "time": "9:45am"}, {"days": "Sun", "time": "Closed"}], "id": "2900100001", "name": "USPS COLLECTION BOX - PO LOBBY", "address": {"city": "ALCOLU", "state": "SC", "street": "1842 MAIN ST", "postcode": "29001"}}},
{"geometry": {"type": "Point", "coordinates": [-80.2175306111, 33.7500718586]}, "type": "Feature", "properties": {"collection_times": [{"days": "Mon-Fri", "time": "3:45pm"}, {"days": "Sat", "time": "9:45am"}, {"days": "Sun", "time": "Closed"}], "id": "2900100002", "name": "USPS COLLECTION BOX - PO LOBBY", "address": {"city": "ALCOLU", "state": "SC", "street": "1842 MAIN ST", "postcode": "29001"}}},
{"geometry": {"type": "Point", "coordinates": [-81.2370607599, 34.1243710542]}, "type": "Feature", "properties": {"collection_times": [{"days": "Mon-Fri", "time": "3:45pm"}, {"days": "Sat", "time": "9:45am"}, {"days": "Sun", "time": "Closed"}], "id": "2900200000", "name": "USPS COLLECTION BOX - BLUE BOX", "address": {"city": "BALLENTINE", "state": "SC", "street": "1720 DUTCH FORK RD", "postcode": "29002"}}},
{"geometry": {"type": "Point", "coordinates": [-81.2370607599, 34.1243710542]}, "type": "Feature", "properties": {"collection_times": [{"days": "Mon-Fri", "time": "3:45pm"}, {"days": "Sat", "time": "9:45am"}, {"days": "Sun", "time": "Closed"}], "id": "2900200001", "name": "USPS COLLECTION BOX - BLUE BOX", "address": {"city": "BALLENTINE", "state": "SC", "street": "1720 DUTCH FORK RD", "postcode": "29002"}}},
{"geometry": {"type": "Point", "coordinates": [-81.2370607599, 34.1243710542]}, "type": "Feature", "properties": {"collection_times": [{"days": "Mon-Fri", "time": "3:45pm"}, {"days": "Sat", "time": "9:45am"}, {"days": "Sun", "time": "Closed"}], "id": "2900200002", "name": "USPS COLLECTION BOX - PO LOBBY", "address": {"city": "BALLENTINE", "state": "SC", "street": "1720 DUTCH FORK RD", "postcode": "29002"}}},
{"geometry": {"type": "Point", "coordinates": [-81.2370607599, 34.1243710542]}, "type": "Feature", "properties": {"collection_times": [{"days": "Mon-Fri", "time": "3:45pm"}, {"days": "Sat", "time": "9:45am"}, {"days": "Sun", "time": "Closed"}], "id": "2900200003", "name": "USPS COLLECTION BOX - PO LOBBY", "address": {"city": "BALLENTINE", "state": "SC", "street": "1720 DUTCH FORK RD", "postcode": "29002"}}},
{"geometry": {"type": "Point", "coordinates": [-81.0332370446, 33.2964401316]}, "type": "Feature", "properties": {"collection_times": [{"days": "Mon-Fri", "time": "4:15pm"}, {"days": "Sat", "time": "10:45am"}, {"days": "Sun", "time": "Closed"}], "id": "2900300001", "name": "USPS COLLECTION BOX - BLUE BOX", "address": {"city": "BAMBERG", "state": "SC", "street": "11955 HERITAGE HWY", "postcode": "29003"}}},
{"geometry": {"type": "Point", "coordinates": [-81.0332370446, 33.2964401316]}, "type": "Feature", "properties": {"collection_times": [{"days": "Mon-Fri", "time": "4:15pm"}, {"days": "Sat", "time": "10:45am"}, {"days": "Sun", "time": "Closed"}], "id": "2900300002", "name": "USPS COLLECTION BOX - BLUE BOX", "address": {"city": "BAMBERG", "state": "SC", "street": "11955 HERITAGE HWY", "postcode": "29003"}}},
{"geometry": {"type": "Point", "coordinates": [-81.0332370446, 33.2964401316]}, "type": "Feature", "properties": {"collection_times": [{"days": "Mon-Fri", "time": "4:15pm"}, {"days": "Sat", "time": "10:45am"}, {"days": "Sun", "time": "Closed"}], "id": "2900300003", "name": "USPS COLLECTION BOX - PO LOBBY", "address": {"city": "BAMBERG", "state": "SC", "street": "11955 HERITAGE HWY", "postcode": "29003"}}},
{"geometry": {"type": "Point", "coordinates": [-80.3408445919, 34.4171836985]}, "type": "Feature", "properties": {"collection_times": [{"days": "Mon-Fri", "time": "3:45pm"}, {"days": "Sat", "time": "10:45am"}, {"days": "Sun", "time": "Closed"}], "id": "2900900000", "name": "USPS COLLECTION BOX - BLUE BOX", "address": {"city": "BETHUNE", "state": "SC", "street": "503 KING ST E", "postcode": "29009"}}},
{"geometry": {"type": "Point", "coordinates": [-80.3408445919, 34.4171836985]}, "type": "Feature", "properties": {"collection_times": [{"days": "Mon-Fri", "time": "3:45pm"}, {"days": "Sat", "time": "10:45am"}, {"days": "Sun", "time": "Closed"}], "id": "2900900001", "name": "USPS COLLECTION BOX - PO LOBBY", "address": {"city": "BETHUNE", "state": "SC", "street": "503 KING ST E", "postcode": "29009"}}},
{"geometry": {"type": "Point", "coordinates": [-80.3408445919, 34.4171836985]}, "type": "Feature", "properties": {"collection_times": [{"days": "Mon-Fri", "time": "3:45pm"}, {"days": "Sat", "time": "10:45am"}, {"days": "Sun", "time": "Closed"}], "id": "2900900002", "name": "USPS COLLECTION BOX - PO LOBBY", "address": {"city": "BETHUNE", "state": "SC", "street": "503 KING ST E", "postcode": "29009"}}},
{"geometry": {"type": "Point", "coordinates": [-80.2469670259, 34.2192283476]}, "type": "Feature", "properties": {"collection_times": [{"days": "Mon-Sat", "time": "3:00pm"}, {"days": "Sun", "time": "Closed"}], "id": "2901000002", "name": "USPS COLLECTION BOX - BLUE BOX", "address": {"city": "BISHOPVILLE", "state": "SC", "street": "228 N MAIN ST", "postcode": "29010"}}},
{"geometry": {"type": "Point", "coordinates": [-80.2487490978, 34.2180224478]}, "type": "Feature", "properties": {"collection_times": [{"days": "Mon-Sat", "time": "3:00pm"}, {"days": "Sun", "time": "Closed"}], "id": "2901000004", "name": "USPS COLLECTION BOX - BLUE BOX", "address": {"city": "BISHOPVILLE", "state": "SC", "street": "105 S MAIN ST", "postcode": "29010"}}},
{"geometry": {"type": "Point", "coordinates": [-80.2429554996, 34.2225727685]}, "type": "Feature", "properties": {"collection_times": [{"days": "Mon-Fri", "time": "5:00pm"}, {"days": "Sat", "time": "4:00pm"}, {"days": "Sun", "time": "Closed"}], "id": "2901000007", "name": "USPS COLLECTION BOX - BLUE BOX", "address": {"city": "BISHOPVILLE", "state": "SC", "street": "451 N MAIN ST", "postcode": "29010"}}},
{"geometry": {"type": "Point", "coordinates": [-80.2429554996, 34.2225727685]}, "type": "Feature", "properties": {"collection_times": [{"days": "Mon-Fri", "time": "5:00pm"}, {"days": "Sat", "time": "4:00pm"}, {"days": "Sun", "time": "Closed"}], "id": "2901000009", "name": "USPS COLLECTION BOX - PO LOBBY", "address": {"city": "BISHOPVILLE", "state": "SC", "street": "451 N MAIN ST", "postcode": "29010"}}},
{"geometry": {"type": "Point", "coordinates": [-80.2429554996, 34.2225727685]}, "type": "Feature", "properties": {"collection_times": [{"days": "Mon-Fri", "time": "5:00pm"}, {"days": "Sat", "time": "4:00pm"}, {"days": "Sun", "time": "Closed"}], "id": "2901000010", "name": "USPS COLLECTION BOX - PO LOBBY", "address": {"city": "BISHOPVILLE", "state": "SC", "street": "451 N MAIN ST", "postcode": "29010"}}},
{"geometry": {"type": "Point", "coordinates": [-81.1522716505, 34.5541864389]}, "type": "Feature", "properties": {"collection_times": [{"days": "Mon-Fri", "time": "3:45pm"}, {"days": "Sat", "time": "9:45am"}, {"days": "Sun", "time": "Closed"}], "id": "2901400000", "name": "USPS COLLECTION BOX - BLUE BOX", "address": {"city": "BLACKSTOCK", "state": "SC", "street": "1083 DURHAM RD", "postcode": "29014"}}},
{"geometry": {"type": "Point", "coordinates": [-81.1522716505, 34.5541864389]}, "type": "Feature", "properties": {"collection_times": [{"days": "Mon-Fri", "time": "3:45pm"}, {"days": "Sat", "time": "9:45am"}, {"days": "Sun", "time": "Closed"}], "id": "2901400001", "name": "USPS COLLECTION BOX - PO LOBBY", "address": {"city": "BLACKSTOCK", "state": "SC", "street": "1083 DURHAM RD", "postcode": "29014"}}},
{"geometry": {"type": "Point", "coordinates": [-81.4003342956, 34.4209986462]}, "type": "Feature", "properties": {"collection_times": [{"days": "Mon-Fri", "time": "3:45pm"}, {"days": "Sat", "time": "9:45am"}, {"days": "Sun", "time": "Closed"}], "id": "2901500000", "name": "USPS COLLECTION BOX - BLUE BOX", "address": {"city": "BLAIR", "state": "SC", "street": "96 GRANITE RD", "postcode": "29015"}}},
{"geometry": {"type": "Point", "coordinates": [-81.4003342956, 34.4209986462]}, "type": "Feature", "properties": {"collection_times": [{"days": "Mon-Fri", "time": "3:45pm"}, {"days": "Sat", "time": "9:45am"}, {"days": "Sun", "time": "Closed"}], "id": "2901500001", "name": "USPS COLLECTION BOX - PO LOBBY", "address": {"city": "BLAIR", "state": "SC", "street": "96 GRANITE RD", "postcode": "29015"}}},
{"geometry": {"type": "Point", "coordinates": [-80.9796430014, 34.2153657891]}, "type": "Feature", "properties": {"collection_times": [{"days": "Mon-Fri", "time": "4:30pm"}, {"days": "Sat", "time": "10:30am"}, {"days": "Sun", "time": "Closed"}], "id": "2901600001", "name": "USPS COLLECTION BOX - BLUE BOX", "address": {"city": "BLYTHEWOOD", "state": "SC", "street": "401 MCNULTY ST", "postcode": "29016"}}},
{"geometry": {"type": "Point", "coordinates": [-80.9796430014, 34.2153657891]}, "type": "Feature", "properties": {"collection_times": [{"days": "Mon-Fri", "time": "4:30pm"}, {"days": "Sat", "time": "10:30am"}, {"days": "Sun", "time": "Closed"}], "id": "2901600002", "name": "USPS COLLECTION BOX - BLUE BOX", "address": {"city": "BLYTHEWOOD", "state": "SC", "street": "401 MCNULTY ST", "postcode": "29016"}}},
{"geometry": {"type": "Point", "coordinates": [-80.9796430014, 34.2153657891]}, "type": "Feature", "properties": {"collection_times": [{"days": "Mon-Fri", "time": "4:30pm"}, {"days": "Sat", "time": "10:30am"}, {"days": "Sun", "time": "Closed"}], "id": "2901600003", "name": "USPS COLLECTION BOX - PO LOBBY", "address": {"city": "BLYTHEWOOD", "state": "SC", "street": "401 MCNULTY ST", "postcode": "29016"}}},
{"geometry": {"type": "Point", "coordinates": [-80.6792210883, 33.3460182271]}, "type": "Feature", "properties": {"collection_times": [{"days": "Mon-Fri", "time": "3:45pm"}, {"days": "Sat", "time": "9:45am"}, {"days": "Sun", "time": "Closed"}], "id": "2901800000", "name": "USPS COLLECTION BOX - BLUE BOX", "address": {"city": "BOWMAN", "state": "SC", "street": "6902 CHARLESTON HWY", "postcode": "29018"}}},
{"geometry": {"type": "Point", "coordinates": [-80.6792210883, 33.3460182271]}, "type": "Feature", "properties": {"collection_times": [{"days": "Mon-Fri", "time": "3:45pm"}, {"days": "Sat", "time": "9:45am"}, {"days": "Sun", "time": "Closed"}], "id": "2901800001", "name": "USPS COLLECTION BOX - PO LOBBY", "address": {"city": "BOWMAN", "state": "SC", "street": "6902 CHARLESTON HWY", "postcode": "29018"}}},
{"geometry": {"type": "Point", "coordinates": [-80.6059409461, 34.2463757783]}, "type": "Feature", "properties": {"collection_times": [{"days": "Mon-Sat", "time": "11:00am"}, {"days": "Sun", "time": "Closed"}], "id": "2902000001", "name": "USPS COLLECTION BOX - BLUE BOX", "address": {"city": "CAMDEN", "state": "SC", "street": "541 E DEKALB ST", "postcode": "29020"}}},
{"geometry": {"type": "Point", "coordinates": [-80.6059973139, 34.2465784435]}, "type": "Feature", "properties": {"collection_times": [{"days": "Mon-Fri", "time": "5:00pm"}, {"days": "Sat", "time": "11:15am"}, {"days": "Sun", "time": "Closed"}], "id": "2902000003", "name": "USPS COLLECTION BOX - PO LOBBY", "address": {"city": "CAMDEN", "state": "SC", "street": "542 E DEKALB ST", "postcode": "29020"}}},
{"geometry": {"type": "Point", "coordinates": [-80.6443446891, 34.2526390527]}, "type": "Feature", "properties": {"collection_times": [{"days": "Mon-Sat", "time": "10:30am"}, {"days": "Sun", "time": "Closed"}], "id": "2902000006", "name": "USPS COLLECTION BOX - BLUE BOX", "address": {"city": "CAMDEN", "state": "SC", "street": "1671 SPRINGDALE DR", "postcode": "29020"}}},
{"geometry": {"type": "Point", "coordinates": [-80.6075625896, 34.2506629775]}, "type": "Feature", "properties": {"collection_times": [{"days": "Mon-Sat", "time": "10:00am"}, {"days": "Sun", "time": "Closed"}], "id": "2902000011", "name": "USPS COLLECTION BOX - BLUE BOX", "address": {"city": "CAMDEN", "state": "SC", "street": "1301 MONUMENT SQ", "postcode": "29020"}}},
{"geometry": {"type": "Point", "coordinates": [-80.6028248455, 34.2449338693]}, "type": "Feature", "properties": {"collection_times": [{"days": "Mon-Sat", "time": "11:00am"}, {"days": "Sun", "time": "Closed"}], "id": "2902000015", "name": "USPS COLLECTION BOX - BLUE BOX", "address": {"city": "CAMDEN", "state": "SC", "street": "1000 LYTTLETON ST", "postcode": "29020"}}},
{"geometry": {"type": "Point", "coordinates": [-80.6071289023, 34.2470898176]}, "type": "Feature", "properties": {"collection_times": [{"days": "Mon-Fri", "time": "5:00pm"}, {"days": "Sat", "time": "1:00pm"}, {"days": "Sun", "time": "Closed"}], "id": "2902000025", "name": "USPS COLLECTION BOX - BLUE BOX", "address": {"city": "CAMDEN", "state": "SC", "street": "1110 BROAD ST", "postcode": "29020"}}},
{"geometry": {"type": "Point", "coordinates": [-80.6071289023, 34.2470898176]}, "type": "Feature", "properties": {"collection_times": [{"days": "Mon-Fri", "time": "5:00pm"}, {"days": "Sat", "time": "1:00pm"}, {"days": "Sun", "time": "Closed"}], "id": "2902000026", "name": "USPS COLLECTION BOX - BLUE BOX", "address": {"city": "CAMDEN", "state": "SC", "street": "1110 BROAD ST", "postcode": "29020"}}},
{"geometry": {"type": "Point", "coordinates": [-80.6100845061, 34.2761417577]}, "type": "Feature", "properties": {"collection_times": [{"days": "Mon-Fri", "time": "4:45pm"}, {"days": "Sat", "time": "12:15pm"}, {"days": "Sun", "time": "Closed"}], "id": "2902000027", "name": "USPS COLLECTION BOX - BLUE BOX", "address": {"city": "CAMDEN", "state": "SC", "street": "2629 LIBERTY HILL RD", "postcode": "29020"}}},
{"geometry": {"type": "Point", "coordinates": [-80.6100845061, 34.2761417577]}, "type": "Feature", "properties": {"collection_times": [{"days": "Mon-Fri", "time": "4:45pm"}, {"days": "Sat", "time": "12:15pm"}, {"days": "Sun", "time": "Closed"}], "id": "2902000028", "name": "USPS COLLECTION BOX - BLUE BOX", "address": {"city": "CAMDEN", "state": "SC", "street": "2629 LIBERTY HILL RD", "postcode": "29020"}}},
{"geometry": {"type": "Point", "coordinates": [-80.6100845061, 34.2761417577]}, "type": "Feature", "properties": {"collection_times": [{"days": "Mon-Fri", "time": "4:45pm"}, {"days": "Sat", "time": "12:15pm"}, {"days": "Sun", "time": "Closed"}], "id": "2902000030", "name": "USPS COLLECTION BOX - PO LOBBY", "address": {"city": "CAMDEN", "state": "SC", "street": "2629 LIBERTY HILL RD", "postcode": "29020"}}},
{"geometry": {"type": "Point", "coordinates": [-80.6100845061, 34.2761417577]}, "type": "Feature", "properties": {"collection_times": [{"days": "Mon-Fri", "time": "4:45pm"}, {"days": "Sat", "time": "12:15pm"}, {"days": "Sun", "time": "Closed"}], "id": "2902000031", "name": "USPS COLLECTION BOX - PO LOBBY", "address": {"city": "CAMDEN", "state": "SC", "street": "2629 LIBERTY HILL RD", "postcode": "29020"}}},
{"geometry": {"type": "Point", "coordinates": [-80.7101359861, 33.5601992511]}, "type": "Feature", "properties": {"collection_times": [{"days": "Mon-Fri", "time": "3:45pm"}, {"days": "Sat", "time": "9:45am"}, {"days": "Sun", "time": "Closed"}], "id": "2903000000", "name": "USPS COLLECTION BOX - BLUE BOX", "address": {"city": "CAMERON", "state": "SC", "street": "304 BOYCE LAWTON DR", "postcode": "29030"}}},
{"geometry": {"type": "Point", "coordinates": [-81.4677555446, 34.5925310258]}, "type": "Feature", "properties": {"collection_times": [{"days": "Mon-Fri", "time": "3:45pm"}, {"days": "Sat", "time": "9:45am"}, {"days": "Sun", "time": "Closed"}], "id": "2903100000", "name": "USPS COLLECTION BOX - BLUE BOX", "address": {"city": "CARLISLE", "state": "SC", "street": "4512 KING KENNEDY ST", "postcode": "29031"}}},
{"geometry": {"type": "Point", "coordinates": [-81.4677555446, 34.5925310258]}, "type": "Feature", "properties": {"collection_times": [{"days": "Mon-Fri", "time": "3:45pm"}, {"days": "Sat", "time": "9:45am"}, {"days": "Sun", "time": "Closed"}], "id": "2903100001", "name": "USPS COLLECTION BOX - PO LOBBY", "address": {"city": "CARLISLE", "state": "SC", "street": "4512 KING KENNEDY ST", "postcode": "29031"}}},
{"geometry": {"type": "Point", "coordinates": [-80.4351739778, 34.3650232082]}, "type": "Feature", "properties": {"collection_times": [{"days": "Mon-Fri", "time": "3:45pm"}, {"days": "Sat", "time": "9:45am"}, {"days": "Sun", "time": "Closed"}], "id": "2903200000", "name": "USPS COLLECTION BOX - BLUE BOX", "address": {"city": "CASSATT", "state": "SC", "street": "2589 HIGHWAY 1 N", "postcode": "29032"}}},
{"geometry": {"type": "Point", "coordinates": [-80.4351739778, 34.3650232082]}, "type": "Feature", "properties": {"collection_times": [{"days": "Mon-Fri", "time": "3:45pm"}, {"days": "Sat", "time": "9:45am"}, {"days": "Sun", "time": "Closed"}], "id": "2903200001", "name": "USPS COLLECTION BOX - PO LOBBY", "address": {"city": "CASSATT", "state": "SC", "street": "2589 HIGHWAY 1 N", "postcode": "29032"}}},
{"geometry": {"type": "Point", "coordinates": [-81.3525336405, 34.1664695151]}, "type": "Feature", "properties": {"collection_times": [{"days": "Mon-Fri", "time": "4:15pm"}, {"days": "Sat", "time": "11:15am"}, {"days": "Sun", "time": "Closed"}], "id": "2903600000", "name": "USPS COLLECTION BOX - BLUE BOX", "address": {"city": "CHAPIN", "state": "SC", "street": "1249 CHAPIN RD", "postcode": "29036"}}},
{"geometry": {"type": "Point", "coordinates": [-81.3525336405, 34.1664695151]}, "type": "Feature", "properties": {"collection_times": [{"days": "Mon-Fri", "time": "4:15pm"}, {"days": "Sat", "time": "11:15am"}, {"days": "Sun", "time": "Closed"}], "id": "2903600001", "name": "USPS COLLECTION BOX - BLUE BOX", "address": {"city": "CHAPIN", "state": "SC", "street": "1249 CHAPIN RD", "postcode": "29036"}}},
{"geometry": {"type": "Point", "coordinates": [-81.3525336405, 34.1664695151]}, "type": "Feature", "properties": {"collection_times": [{"days": "Mon-Fri", "time": "4:15pm"}, {"days": "Sat", "time": "11:15am"}, {"days": "Sun", "time": "Closed"}], "id": "2903600003", "name": "USPS COLLECTION BOX - PO LOBBY", "address": {"city": "CHAPIN", "state": "SC", "street": "1249 CHAPIN RD", "postcode": "29036"}}},
{"geometry": {"type": "Point", "coordinates": [-81.2751219305, 34.1440337622]}, "type": "Feature", "properties": {"collection_times": [{"days": "Mon-Sat", "time": "10:00am"}, {"days": "Sun", "time": "Closed"}], "id": "2903600004", "name": "USPS COLLECTION BOX - BLUE BOX", "address": {"city": "CHAPIN", "state": "SC", "street": "110 LOWMAN HOME BARN RD", "postcode": "29036"}}},
{"geometry": {"type": "Point", "coordinates": [-81.8671966499, 34.1804606758]}, "type": "Feature", "properties": {"collection_times": [{"days": "Mon-Fri", "time": "2:00pm"}, {"days": "Sat", "time": "10:45am"}, {"days": "Sun", "time": "Closed"}], "id": "2903700000", "name": "USPS COLLECTION BOX - BLUE BOX", "address": {"city": "CHAPPELLS", "state": "SC", "street": "411 SC HIGHWAY 39", "postcode": "29037"}}},
{"geometry": {"type": "Point", "coordinates": [-81.0073190065, 33.3782166384]}, "type": "Feature", "properties": {"collection_times": [{"days": "Mon-Fri", "time": "3:45pm"}, {"days": "Sat", "time": "9:45am"}, {"days": "Sun", "time": "Closed"}], "id": "2903800000", "name": "USPS COLLECTION BOX - BLUE BOX", "address": {"city": "COPE", "state": "SC", "street": "204 COTTON AVE", "postcode": "29038"}}},
{"geometry": {"type": "Point", "coordinates": [-81.0073190065, 33.3782166384]}, "type": "Feature", "properties": {"collection_times": [{"days": "Mon-Fri", "time": "3:45pm"}, {"days": "Sat", "time": "9:45am"}, {"days": "Sun", "time": "Closed"}], "id": "2903800001", "name": "USPS COLLECTION BOX - PO LOBBY", "address": {"city": "COPE", "state": "SC", "street": "204 COTTON AVE", "postcode": "29038"}}},
{"geometry": {"type": "Point", "coordinates": [-80.9272755723, 33.4356709457]}, "type": "Feature", "properties": {"collection_times": [{"days": "Mon-Fri", "time": "3:45pm"}, {"days": "Sat", "time": "9:45am"}, {"days": "Sun", "time": "Closed"}], "id": "2903900000", "name": "USPS COLLECTION BOX - BLUE BOX", "address": {"city": "CORDOVA", "state": "SC", "street": "2046 LEGRAND SMOAK ST", "postcode": "29039"}}},
{"geometry": {"type": "Point", "coordinates": [-80.9272755723, 33.4356709457]}, "type": "Feature", "properties": {"collection_times": [{"days": "Mon-Fri", "time": "3:45pm"}, {"days": "Sat", "time": "9:45am"}, {"days": "Sun", "time": "Closed"}], "id": "2903900001", "name": "USPS COLLECTION BOX - PO LOBBY", "address": {"city": "CORDOVA", "state": "SC", "street": "2046 LEGRAND SMOAK ST", "postcode": "29039"}}},
{"geometry": {"type": "Point", "coordinates": [-80.9272755723, 33.4356709457]}, "type": "Feature", "properties": {"collection_times": [{"days": "Mon-Fri", "time": "3:45pm"}, {"days": "Sat", "time": "9:45am"}, {"days": "Sun", "time": "Closed"}], "id": "2903900002", "name": "USPS COLLECTION BOX - PO LOBBY", "address": {"city": "CORDOVA", "state": "SC", "street": "2046 LEGRAND SMOAK ST", "postcode": "29039"}}},
{"geometry": {"type": "Point", "coordinates": [-80.4437342919, 34.0170093627]}, "type": "Feature", "properties": {"collection_times": [{"days": "Mon-Fri", "time": "3:45pm"}, {"days": "Sat", "time": "9:45am"}, {"days": "Sun", "time": "Closed"}], "id": "2904000000", "name": "USPS COLLECTION BOX - BLUE BOX", "address": {"city": "DALZELL", "state": "SC", "street": "4235 CAMDEN HWY", "postcode": "29040"}}},
{"geometry": {"type": "Point", "coordinates": [-80.4437342919, 34.0170093627]}, "type": "Feature", "properties": {"collection_times": [{"days": "Mon-Fri", "time": "3:45pm"}, {"days": "Sat", "time": "9:45am"}, {"days": "Sun", "time": "Closed"}], "id": "2904000001", "name": "USPS COLLECTION BOX - PO LOBBY", "address": {"city": "DALZELL", "state": "SC", "street": "4235 CAMDEN HWY", "postcode": "29040"}}},
{"geometry": {"type": "Point", "coordinates": [-80.2647877394, 33.6021913593]}, "type": "Feature", "properties": {"collection_times": [{"days": "Mon-Fri", "time": "3:45pm"}, {"days": "Sat", "time": "9:45am"}, {"days": "Sun", "time": "Closed"}], "id": "2904100000", "name": "USPS COLLECTION BOX - PO LOBBY", "address": {"city": "DAVIS STATION", "state": "SC", "street": "5232 MOSES DINGLE RD", "postcode": "29041"}}},
{"geometry": {"type": "Point", "coordinates": [-80.2647877394, 33.6021913593]}, "type": "Feature", "properties": {"collection_times": [{"days": "Mon-Fri", "time": "3:45pm"}, {"days": "Sat", "time": "9:45am"}, {"days": "Sun", "time": "Closed"}], "id": "2904100001", "name": "USPS COLLECTION BOX - BLUE BOX", "address": {"city": "DAVIS STATION", "state": "SC", "street": "5232 MOSES DINGLE RD", "postcode": "29041"}}},
{"geometry": {"type": "Point", "coordinates": [-80.2647877394, 33.6021913593]}, "type": "Feature", "properties": {"collection_times": [{"days": "Mon-Fri", "time": "3:45pm"}, {"days": "Sat", "time": "9:45am"}, {"days": "Sun", "time": "Closed"}], "id": "2904100002", "name": "USPS COLLECTION BOX - PO LOBBY", "address": {"city": "DAVIS STATION", "state": "SC", "street": "5232 MOSES DINGLE RD", "postcode": "29041"}}},
{"geometry": {"type": "Point", "coordinates": [-81.1427011883, 33.3217147762]}, "type": "Feature", "properties": {"collection_times": [{"days": "Mon-Fri", "time": "3:45pm"}, {"days": "Sat", "time": "9:45am"}, {"days": "Sun", "time": "Closed"}], "id": "2904200000", "name": "USPS COLLECTION BOX - BLUE BOX", "address": {"city": "DENMARK", "state": "SC", "street": "5022 CAROLINA HWY", "postcode": "29042"}}},
{"geometry": {"type": "Point", "coordinates": [-81.1427011883, 33.3217147762]}, "type": "Feature", "properties": {"collection_times": [{"days": "Mon-Fri", "time": "3:45pm"}, {"days": "Sat", "time": "9:45am"}, {"days": "Sun", "time": "Closed"}], "id": "2904200001", "name": "USPS COLLECTION BOX - BLUE BOX", "address": {"city": "DENMARK", "state": "SC", "street": "5022 CAROLINA HWY", "postcode": "29042"}}},
{"geometry": {"type": "Point", "coordinates": [-81.1427011883, 33.3217147762]}, "type": "Feature", "properties": {"collection_times": [{"days": "Mon-Fri", "time": "3:45pm"}, {"days": "Sat", "time": "9:45am"}, {"days": "Sun", "time": "Closed"}], "id": "2904200002", "name": "USPS COLLECTION BOX - PO LOBBY", "address": {"city": "DENMARK", "state": "SC", "street": "5022 CAROLINA HWY", "postcode": "29042"}}},
{"geometry": {"type": "Point", "coordinates": [-81.1540187175, 33.326796338]}, "type": "Feature", "properties": {"collection_times": [{"days": "Mon-Fri", "time": "2:30pm"}, {"days": "Sat", "time": "9:45am"}, {"days": "Sun", "time": "Closed"}], "id": "2904200006", "name": "USPS COLLECTION BOX - BLUE BOX", "address": {"city": "DENMARK", "state": "SC", "street": "213 WIGGINS DR.", "postcode": "29042"}}},
{"geometry": {"type": "Point", "coordinates": [-81.1427011883, 33.3217147762]}, "type": "Feature", "properties": {"collection_times": [{"days": "Mon-Fri", "time": "3:45pm"}, {"days": "Sat", "time": "9:45am"}, {"days": "Sun", "time": "Closed"}], "id": "2904200011", "name": "USPS COLLECTION BOX - PO LOBBY", "address": {"city": "DENMARK", "state": "SC", "street": "5022 CAROLINA HWY", "postcode": "29042"}}},
{"geometry": {"type": "Point", "coordinates": [-80.7133665009, 33.9221133676]}, "type": "Feature", "properties": {"collection_times": [{"days": "Mon-Fri", "time": "3:45pm"}, {"days": "Sat", "time": "10:45am"}, {"days": "Sun", "time": "Closed"}], "id": "2904400000", "name": "USPS COLLECTION BOX - BLUE BOX", "address": {"city": "EASTOVER", "state": "SC", "street": "301 MAIN ST", "postcode": "29044"}}},
{"geometry": {"type": "Point", "coordinates": [-80.7133665009, 33.9221133676]}, "type": "Feature", "properties": {"collection_times": [{"days": "Mon-Fri", "time": "3:45pm"}, {"days": "Sat", "time": "10:45am"}, {"days": "Sun", "time": "Closed"}], "id": "2904400003", "name": "USPS COLLECTION BOX - BLUE BOX", "address": {"city": "EASTOVER", "state": "SC", "street": "301 MAIN ST", "postcode": "29044"}}},
{"geometry": {"type": "Point", "coordinates": [-80.7907584818, 34.1666581869]}, "type": "Feature", "properties": {"collection_times": [{"days": "Mon-Fri", "time": "4:45pm"}, {"days": "Sat", "time": "11:30am"}, {"days": "Sun", "time": "Closed"}], "id": "2904500000", "name": "USPS COLLECTION BOX - BLUE BOX", "address": {"city": "ELGIN", "state": "SC", "street": "1100 CHURCH ST", "postcode": "29045"}}},
{"geometry": {"type": "Point", "coordinates": [-80.7907584818, 34.1666581869]}, "type": "Feature", "properties": {"collection_times": [{"days": "Mon-Fri", "time": "4:45pm"}, {"days": "Sat", "time": "11:30am"}, {"days": "Sun", "time": "Closed"}], "id": "2904500001", "name": "USPS COLLECTION BOX - PO LOBBY", "address": {"city": "ELGIN", "state": "SC", "street": "1100 CHURCH ST", "postcode": "29045"}}},
{"geometry": {"type": "Point", "coordinates": [-80.8548716523, 34.1286570418]}, "type": "Feature", "properties": {"collection_times": [{"days": "Mon-Fri", "time": "12:30pm"}, {"days": "Sat-Sun", "time": "Closed"}], "id": "2904500002", "name": "USPS COLLECTION BOX - BLUE BOX", "address": {"city": "ELGIN", "state": "SC", "street": "10600 TWO NOTCH RD", "postcode": "29045"}}},
{"geometry": {"type": "Point", "coordinates": [-80.1595231986, 34.0966941621]}, "type": "Feature", "properties": {"collection_times": [{"days": "Mon-Fri", "time": "3:45pm"}, {"days": "Sat", "time": "9:45am"}, {"days": "Sun", "time": "Closed"}], "id": "2904600001", "name": "USPS COLLECTION BOX - BLUE BOX", "address": {"city": "ELLIOTT", "state": "SC", "street": "1724 ELLIOTT HWY", "postcode": "29046"}}},
{"geometry": {"type": "Point", "coordinates": [-80.5745387631, 33.5190939063]}, "type": "Feature", "properties": {"collection_times": [{"days": "Mon-Fri", "time": "3:45pm"}, {"days": "Sat", "time": "9:45am"}, {"days": "Sun", "time": "Closed"}], "id": "2904700000", "name": "USPS COLLECTION BOX - BLUE BOX", "address": {"city": "ELLOREE", "state": "SC", "street": "6417 OLD #6 HWY", "postcode": "29047"}}},
{"geometry": {"type": "Point", "coordinates": [-80.5745387631, 33.5190939063]}, "type": "Feature", "properties": {"collection_times": [{"days": "Mon-Fri", "time": "3:45pm"}, {"days": "Sat", "time": "9:45am"}, {"days": "Sun", "time": "Closed"}], "id": "2904700001", "name": "USPS COLLECTION BOX - PO LOBBY", "address": {"city": "ELLOREE", "state": "SC", "street": "6417 OLD #6 HWY", "postcode": "29047"}}},
{"geometry": {"type": "Point", "coordinates": [-80.3304389923, 33.4189610379]}, "type": "Feature", "properties": {"collection_times": [{"days": "Mon-Fri", "time": "3:45pm"}, {"days": "Sat", "time": "10:45am"}, {"days": "Sun", "time": "Closed"}], "id": "2904800000", "name": "USPS COLLECTION BOX - BLUE BOX", "address": {"city": "EUTAWVILLE", "state": "SC", "street": "313 PORCHER AVE", "postcode": "29048"}}},
{"geometry": {"type": "Point", "coordinates": [-80.3304389923, 33.4189610379]}, "type": "Feature", "properties": {"collection_times": [{"days": "Mon-Fri", "time": "3:45pm"}, {"days": "Sat", "time": "10:45am"}, {"days": "Sun", "time": "Closed"}], "id": "2904800001", "name": "USPS COLLECTION BOX - PO LOBBY", "address": {"city": "EUTAWVILLE", "state": "SC", "street": "313 PORCHER AVE", "postcode": "29048"}}},
{"geometry": {"type": "Point", "coordinates": [-80.3304389923, 33.4189610379]}, "type": "Feature", "properties": {"collection_times": [{"days": "Mon-Fri", "time": "3:45pm"}, {"days": "Sat", "time": "10:45am"}, {"days": "Sun", "time": "Closed"}], "id": "2904800003", "name": "USPS COLLECTION BOX - PO LOBBY", "address": {"city": "EUTAWVILLE", "state": "SC", "street": "313 PORCHER AVE", "postcode": "29048"}}},
{"geometry": {"type": "Point", "coordinates": [-80.0968538528, 33.826375859]}, "type": "Feature", "properties": {"collection_times": [{"days": "Mon-Fri", "time": "3:45pm"}, {"days": "Sat", "time": "9:45am"}, {"days": "Sun", "time": "Closed"}], "id": "2905100000", "name": "USPS COLLECTION BOX - BLUE BOX", "address": {"city": "GABLE", "state": "SC", "street": "12306 HWY 301", "postcode": "29051"}}},
{"geometry": {"type": "Point", "coordinates": [-80.7666608343, 33.8457968372]}, "type": "Feature", "properties": {"collection_times": [{"days": "Mon-Fri", "time": "3:45pm"}, {"days": "Sat", "time": "9:45am"}, {"days": "Sun", "time": "Closed"}], "id": "2905200000", "name": "USPS COLLECTION BOX - BLUE BOX", "address": {"city": "GADSDEN", "state": "SC", "street": "7731 BLUFF RD", "postcode": "29052"}}},
{"geometry": {"type": "Point", "coordinates": [-80.7666608343, 33.8457968372]}, "type": "Feature", "properties": {"collection_times": [{"days": "Mon-Fri", "time": "3:45pm"}, {"days": "Sat", "time": "9:45am"}, {"days": "Sun", "time": "Closed"}], "id": "2905200001", "name": "USPS COLLECTION BOX - PO LOBBY", "address": {"city": "GADSDEN", "state": "SC", "street": "7731 BLUFF RD", "postcode": "29052"}}},
{"geometry": {"type": "Point", "coordinates": [-80.7666608343, 33.8457968372]}, "type": "Feature", "properties": {"collection_times": [{"days": "Mon-Fri", "time": "3:45pm"}, {"days": "Sat", "time": "9:45am"}, {"days": "Sun", "time": "Closed"}], "id": "2905200002", "name": "USPS COLLECTION BOX - PO LOBBY", "address": {"city": "GADSDEN", "state": "SC", "street": "7731 BLUFF RD", "postcode": "29052"}}},
{"geometry": {"type": "Point", "coordinates": [-81.1021821396, 33.8143005541]}, "type": "Feature", "properties": {"collection_times": [{"days": "Mon-Fri", "time": "4:45pm"}, {"days": "Sat", "time": "10:45am"}, {"days": "Sun", "time": "Closed"}], "id": "2905300000", "name": "USPS COLLECTION BOX - BLUE BOX", "address": {"city": "GASTON", "state": "SC", "street": "220 S MAIN ST", "postcode": "29053"}}},
{"geometry": {"type": "Point", "coordinates": [-81.1021821396, 33.8143005541]}, "type": "Feature", "properties": {"collection_times": [{"days": "Mon-Fri", "time": "4:45pm"}, {"days": "Sat", "time": "10:45am"}, {"days": "Sun", "time": "Closed"}], "id": "2905300001", "name": "USPS COLLECTION BOX - PO LOBBY", "address": {"city": "GASTON", "state": "SC", "street": "220 S MAIN ST", "postcode": "29053"}}},
{"geometry": {"type": "Point", "coordinates": [-81.4046293884, 33.919762634]}, "type": "Feature", "properties": {"collection_times": [{"days": "Mon-Fri", "time": "3:45pm"}, {"days": "Sat", "time": "9:45am"}, {"days": "Sun", "time": "Closed"}], "id": "2905400000", "name": "USPS COLLECTION BOX - BLUE BOX", "address": {"city": "GILBERT", "state": "SC", "street": "401 BROAD ST", "postcode": "29054"}}},
{"geometry": {"type": "Point", "coordinates": [-81.4046293884, 33.919762634]}, "type": "Feature", "properties": {"collection_times": [{"days": "Mon-Fri", "time": "3:45pm"}, {"days": "Sat", "time": "9:45am"}, {"days": "Sun", "time": "Closed"}], "id": "2905400001", "name": "USPS COLLECTION BOX - PO LOBBY", "address": {"city": "GILBERT", "state": "SC", "street": "401 BROAD ST", "postcode": "29054"}}},
{"geometry": {"type": "Point", "coordinates": [-80.8969928814, 34.5708537666]}, "type": "Feature", "properties": {"collection_times": [{"days": "Mon-Fri", "time": "3:45pm"}, {"days": "Sat", "time": "9:45am"}, {"days": "Sun", "time": "Closed"}], "id": "2905500000", "name": "USPS COLLECTION BOX - BLUE BOX", "address": {"city": "GREAT FALLS", "state": "SC", "street": "649 DEARBORN ST", "postcode": "29055"}}},
{"geometry": {"type": "Point", "coordinates": [-80.8969928814, 34.5708537666]}, "type": "Feature", "properties": {"collection_times": [{"days": "Mon-Fri", "time": "3:45pm"}, {"days": "Sat", "time": "9:45am"}, {"days": "Sun", "time": "Closed"}], "id": "2905500001", "name": "USPS COLLECTION BOX - PO LOBBY", "address": {"city": "GREAT FALLS", "state": "SC", "street": "649 DEARBORN ST", "postcode": "29055"}}},
{"geometry": {"type": "Point", "coordinates": [-80.8906444318, 34.5704465329]}, "type": "Feature", "properties": {"collection_times": [{"days": "Mon-Fri", "time": "2:00pm"}, {"days": "Sat", "time": "9:45am"}, {"days": "Sun", "time": "Closed"}], "id": "2905500004", "name": "USPS COLLECTION BOX - BLUE BOX", "address": {"city": "GREAT FALLS", "state": "SC", "street": "326 DEARBORN ST", "postcode": "29055"}}},
{"geometry": {"type": "Point", "coordinates": [-79.989027358, 33.5815478552]}, "type": "Feature", "properties": {"collection_times": [{"days": "Mon-Fri", "time": "3:45pm"}, {"days": "Sat", "time": "9:45am"}, {"days": "Sun", "time": "Closed"}], "id": "2905600000", "name": "USPS COLLECTION BOX - BLUE BOX", "address": {"city": "GREELEYVILLE", "state": "SC", "street": "114 N MAIN ST", "postcode": "29056"}}},
{"geometry": {"type": "Point", "coordinates": [-79.989027358, 33.5815478552]}, "type": "Feature", "properties": {"collection_times": [{"days": "Mon-Fri", "time": "3:45pm"}, {"days": "Sat", "time": "9:45am"}, {"days": "Sun", "time": "Closed"}], "id": "2905600001", "name": "USPS COLLECTION BOX - PO LOBBY", "address": {"city": "GREELEYVILLE", "state": "SC", "street": "114 N MAIN ST", "postcode": "29056"}}},
{"geometry": {"type": "Point", "coordinates": [-80.6754035789, 34.5934212441]}, "type": "Feature", "properties": {"collection_times": [{"days": "Mon-Fri", "time": "3:45pm"}, {"days": "Sat", "time": "9:45am"}, {"days": "Sun", "time": "Closed"}], "id": "2905800000", "name": "USPS COLLECTION BOX - BLUE BOX", "address": {"city": "HEATH SPRINGS", "state": "SC", "street": "101 N MAIN ST", "postcode": "29058"}}},
{"geometry": {"type": "Point", "coordinates": [-80.6754035789, 34.5934212441]}, "type": "Feature", "properties": {"collection_times": [{"days": "Mon-Fri", "time": "3:45pm"}, {"days": "Sat", "time": "9:45am"}, {"days": "Sun", "time": "Closed"}], "id": "2905800001", "name": "USPS COLLECTION BOX - PO LOBBY", "address": {"city": "HEATH SPRINGS", "state": "SC", "street": "101 N MAIN ST", "postcode": "29058"}}},
{"geometry": {"type": "Point", "coordinates": [-80.4112756683, 33.3198092224]}, "type": "Feature", "properties": {"collection_times": [{"days": "Mon-Fri", "time": "3:45pm"}, {"days": "Sat", "time": "10:15am"}, {"days": "Sun", "time": "Closed"}], "id": "2905900002", "name": "USPS COLLECTION BOX - PO LOBBY", "address": {"city": "HOLLY HILL", "state": "SC", "street": "525 GARDNER BLVD", "postcode": "29059"}}},
{"geometry": {"type": "Point", "coordinates": [-80.4007858939, 33.3140174415]}, "type": "Feature", "properties": {"collection_times": [{"days": "Mon-Fri", "time": "3:15pm"}, {"days": "Sat", "time": "10:15am"}, {"days": "Sun", "time": "Closed"}], "id": "2905900003", "name": "USPS COLLECTION BOX - BLUE BOX", "address": {"city": "HOLLY HILL", "state": "SC", "street": "8506 OLD STATE RD", "postcode": "29059"}}},
{"geometry": {"type": "Point", "coordinates": [-80.4112756683, 33.3198092224]}, "type": "Feature", "properties": {"collection_times": [{"days": "Mon-Fri", "time": "3:45pm"}, {"days": "Sat", "time": "10:15am"}, {"days": "Sun", "time": "Closed"}], "id": "2905900005", "name": "USPS COLLECTION BOX - BLUE BOX", "address": {"city": "HOLLY HILL", "state": "SC", "street": "525 GARDNER BLVD", "postcode": "29059"}}},
{"geometry": {"type": "Point", "coordinates": [-80.8766845183, 33.9012886649]}, "type": "Feature", "properties": {"collection_times": [{"days": "Mon-Fri", "time": "3:45pm"}, {"days": "Sat", "time": "9:45am"}, {"days": "Sun", "time": "Closed"}], "id": "2906100000", "name": "USPS COLLECTION BOX - BLUE BOX", "address": {"city": "HOPKINS", "state": "SC", "street": "6200 LOWER RICHLAND BLVD", "postcode": "29061"}}},
{"geometry": {"type": "Point", "coordinates": [-80.8766845183, 33.9012886649]}, "type": "Feature", "properties": {"collection_times": [{"days": "Mon-Fri", "time": "3:45pm"}, {"days": "Sat", "time": "9:45am"}, {"days": "Sun", "time": "Closed"}], "id": "2906100001", "name": "USPS COLLECTION BOX - PO LOBBY", "address": {"city": "HOPKINS", "state": "SC", "street": "6200 LOWER RICHLAND BLVD", "postcode": "29061"}}},
{"geometry": {"type": "Point", "coordinates": [-80.5660968843, 34.0211038676]}, "type": "Feature", "properties": {"collection_times": [{"days": "Mon-Fri", "time": "2:00pm"}, {"days": "Sat", "time": "9:45am"}, {"days": "Sun", "time": "Closed"}], "id": "2906200002", "name": "USPS COLLECTION BOX - BLUE BOX", "address": {"city": "HORATIO", "state": "SC", "street": "3240 HORATIO HAGOOD RD", "postcode": "29062"}}},
{"geometry": {"type": "Point", "coordinates": [-81.1863862433, 34.0920498059]}, "type": "Feature", "properties": {"collection_times": [{"days": "Mon-Fri", "time": "4:45pm"}, {"days": "Sat", "time": "11:30am"}, {"days": "Sun", "time": "Closed"}], "id": "2906300000", "name": "USPS COLLECTION BOX - BLUE BOX", "address": {"city": "IRMO", "state": "SC", "street": "7821 SAINT ANDREWS RD", "postcode": "29063"}}},
{"geometry": {"type": "Point", "coordinates": [-81.1863862433, 34.0920498059]}, "type": "Feature", "properties": {"collection_times": [{"days": "Mon-Fri", "time": "4:45pm"}, {"days": "Sat", "time": "11:30am"}, {"days": "Sun", "time": "Closed"}], "id": "2906300001", "name": "USPS COLLECTION BOX - BLUE BOX", "address": {"city": "IRMO", "state": "SC", "street": "7821 SAINT ANDREWS RD", "postcode": "29063"}}},
{"geometry": {"type": "Point", "coordinates": [-81.1863838222, 34.0920305986]}, "type": "Feature", "properties": {"collection_times": [{"days": "Mon-Fri", "time": "4:45pm"}, {"days": "Sat", "time": "11:30am"}, {"days": "Sun", "time": "Closed"}], "id": "2906300006", "name": "USPS COLLECTION BOX - EXPRESS", "address": {"city": "IRMO", "state": "SC", "street": "7821 SAINT ANDREWS RD", "postcode": "29063"}}},
{"geometry": {"type": "Point", "coordinates": [-81.1863862433, 34.0920498059]}, "type": "Feature", "properties": {"collection_times": [{"days": "Mon-Fri", "time": "4:45pm"}, {"days": "Sat", "time": "11:30am"}, {"days": "Sun", "time": "Closed"}], "id": "2906300007", "name": "USPS COLLECTION BOX - PO LOBBY", "address": {"city": "IRMO", "state": "SC", "street": "7821 SAINT ANDREWS RD", "postcode": "29063"}}},
{"geometry": {"type": "Point", "coordinates": [-81.1570208552, 34.0945594336]}, "type": "Feature", "properties": {"collection_times": [{"days": "Mon-Sat", "time": "8:45am"}, {"days": "Sun", "time": "Closed"}], "id": "2906300009", "name": "USPS COLLECTION BOX - BLUE BOX", "address": {"city": "IRMO", "state": "SC", "street": "100 DUTCHMAN BLVD", "postcode": "29063"}}},
{"geometry": {"type": "Point", "coordinates": [-81.1863862433, 34.0920498059]}, "type": "Feature", "properties": {"collection_times": [{"days": "Mon-Fri", "time": "4:45pm"}, {"days": "Sat", "time": "11:30am"}, {"days": "Sun", "time": "Closed"}], "id": "2906300010", "name": "USPS COLLECTION BOX - APC", "address": {"city": "IRMO", "state": "SC", "street": "7821 SAINT ANDREWS RD", "postcode": "29063"}}},
{"geometry": {"type": "Point", "coordinates": [-81.2555188296, 34.2526905138]}, "type": "Feature", "properties": {"collection_times": [{"days": "Mon-Fri", "time": "3:45pm"}, {"days": "Sat", "time": "9:45am"}, {"days": "Sun", "time": "Closed"}], "id": "2906500000", "name": "USPS COLLECTION BOX - BLUE BOX", "address": {"city": "JENKINSVILLE", "state": "SC", "street": "11298 STATE HIGHWAY 215 S", "postcode": "29065"}}},
{"geometry": {"type": "Point", "coordinates": [-81.2555188296, 34.2526905138]}, "type": "Feature", "properties": {"collection_times": [{"days": "Mon-Fri", "time": "3:45pm"}, {"days": "Sat", "time": "9:45am"}, {"days": "Sun", "time": "Closed"}], "id": "2906500001", "name": "USPS COLLECTION BOX - PO LOBBY", "address": {"city": "JENKINSVILLE", "state": "SC", "street": "11298 STATE HIGHWAY 215 S", "postcode": "29065"}}},
{"geometry": {"type": "Point", "coordinates": [-80.5868770828, 34.5533622636]}, "type": "Feature", "properties": {"collection_times": [{"days": "Mon-Fri", "time": "3:45pm"}, {"days": "Sat", "time": "10:15am"}, {"days": "Sun", "time": "Closed"}], "id": "2906700000", "name": "USPS COLLECTION BOX - BLUE BOX", "address": {"city": "KERSHAW", "state": "SC", "street": "521 N MATSON ST", "postcode": "29067"}}},
{"geometry": {"type": "Point", "coordinates": [-80.5868770828, 34.5533622636]}, "type": "Feature", "properties": {"collection_times": [{"days": "Mon-Fri", "time": "3:45pm"}, {"days": "Sat", "time": "10:15am"}, {"days": "Sun", "time": "Closed"}], "id": "2906700001", "name": "USPS COLLECTION BOX - BLUE BOX", "address": {"city": "KERSHAW", "state": "SC", "street": "521 N MATSON ST", "postcode": "29067"}}},
{"geometry": {"type": "Point", "coordinates": [-80.5868770828, 34.5533622636]}, "type": "Feature", "properties": {"collection_times": [{"days": "Mon-Fri", "time": "3:45pm"}, {"days": "Sat", "time": "10:15am"}, {"days": "Sun", "time": "Closed"}], "id": "2906700002", "name": "USPS COLLECTION BOX - PO LOBBY", "address": {"city": "KERSHAW", "state": "SC", "street": "521 N MATSON ST", "postcode": "29067"}}},
{"geometry": {"type": "Point", "coordinates": [-80.5819419743, 34.5427779386]}, "type": "Feature", "properties": {"collection_times": [{"days": "Mon-Sat", "time": "9:00am"}, {"days": "Sun", "time": "Closed"}], "id": "2906700003", "name": "USPS COLLECTION BOX - BLUE BOX", "address": {"city": "KERSHAW", "state": "SC", "street": "513 S HAMPTON ST", "postcode": "29067"}}},
{"geometry": {"type": "Point", "coordinates": [-80.5869803984, 34.5551662338]}, "type": "Feature", "properties": {"collection_times": [{"days": "Mon-Sat", "time": "10:30am"}, {"days": "Sun", "time": "Closed"}], "id": "2906700004", "name": "USPS COLLECTION BOX - BLUE BOX", "address": {"city": "KERSHAW", "state": "SC", "street": "610 N MATSON ST", "postcode": "29067"}}},
{"geometry": {"type": "Point", "coordinates": [-80.5868770828, 34.5533622636]}, "type": "Feature", "properties": {"collection_times": [{"days": "Mon-Fri", "time": "3:45pm"}, {"days": "Sat", "time": "10:15am"}, {"days": "Sun", "time": "Closed"}], "id": "2906700005", "name": "USPS COLLECTION BOX - PO LOBBY", "address": {"city": "KERSHAW", "state": "SC", "street": "521 N MATSON ST", "postcode": "29067"}}},
{"geometry": {"type": "Point", "coordinates": [-80.0626305229, 34.1685701132]}, "type": "Feature", "properties": {"collection_times": [{"days": "Mon-Fri", "time": "4:00pm"}, {"days": "Sat", "time": "9:45am"}, {"days": "Sun", "time": "Closed"}], "id": "2906900000", "name": "USPS COLLECTION BOX - BLUE BOX", "address": {"city": "LAMAR", "state": "SC", "street": "110 MAIN ST", "postcode": "29069"}}},
{"geometry": {"type": "Point", "coordinates": [-80.0626305229, 34.1685701132]}, "type": "Feature", "properties": {"collection_times": [{"days": "Mon-Fri", "time": "4:00pm"}, {"days": "Sat", "time": "9:45am"}, {"days": "Sun", "time": "Closed"}], "id": "2906900001", "name": "USPS COLLECTION BOX - PO LOBBY", "address": {"city": "LAMAR", "state": "SC", "street": "110 MAIN ST", "postcode": "29069"}}},
{"geometry": {"type": "Point", "coordinates": [-81.5288564848, 33.9142019289]}, "type": "Feature", "properties": {"collection_times": [{"days": "Mon-Fri", "time": "4:30pm"}, {"days": "Sat", "time": "2:30pm"}, {"days": "Sun", "time": "Closed"}], "id": "2907000005", "name": "USPS COLLECTION BOX - BLUE BOX", "address": {"city": "LEESVILLE", "state": "SC", "street": "110 E CHURCH ST", "postcode": "29070"}}},
{"geometry": {"type": "Point", "coordinates": [-81.5288564848, 33.9142019289]}, "type": "Feature", "properties": {"collection_times": [{"days": "Mon-Fri", "time": "4:30pm"}, {"days": "Sat", "time": "2:30pm"}, {"days": "Sun", "time": "Closed"}], "id": "2907000007", "name": "USPS COLLECTION BOX - PO LOBBY", "address": {"city": "LEESVILLE", "state": "SC", "street": "110 E CHURCH ST", "postcode": "29070"}}},
{"geometry": {"type": "Point", "coordinates": [-81.5288564848, 33.9142019289]}, "type": "Feature", "properties": {"collection_times": [{"days": "Mon-Fri", "time": "4:30pm"}, {"days": "Sat", "time": "2:30pm"}, {"days": "Sun", "time": "Closed"}], "id": "2907000008", "name": "USPS COLLECTION BOX - PO LOBBY", "address": {"city": "LEESVILLE", "state": "SC", "street": "110 E CHURCH ST", "postcode": "29070"}}},
{"geometry": {"type": "Point", "coordinates": [-81.5288564848, 33.9142019289]}, "type": "Feature", "properties": {"collection_times": [{"days": "Mon-Fri", "time": "4:30pm"}, {"days": "Sat", "time": "2:30pm"}, {"days": "Sun", "time": "Closed"}], "id": "2907000009", "name": "USPS COLLECTION BOX - PO LOBBY", "address": {"city": "LEESVILLE", "state": "SC", "street": "110 E CHURCH ST", "postcode": "29070"}}},
{"geometry": {"type": "Point", "coordinates": [-81.2279058474, 34.0003776611]}, "type": "Feature", "properties": {"collection_times": [{"days": "Mon-Sat", "time": "2:00pm"}, {"days": "Sun", "time": "Closed"}], "id": "2907200009", "name": "USPS COLLECTION BOX - BLUE BOX", "address": {"city": "LEXINGTON", "state": "SC", "street": "1070 S LAKE RD", "postcode": "29072"}}},
{"geometry": {"type": "Point", "coordinates": [-81.2371584697, 33.9826731807]}, "type": "Feature", "properties": {"collection_times": [{"days": "Mon-Sat", "time": "2:00pm"}, {"days": "Sun", "time": "Closed"}], "id": "2907200011", "name": "USPS COLLECTION BOX - BLUE BOX", "address": {"city": "LEXINGTON", "state": "SC", "street": "106 N CHURCH ST", "postcode": "29072"}}},
{"geometry": {"type": "Point", "coordinates": [-81.2446856376, 33.987104545]}, "type": "Feature", "properties": {"collection_times": [{"days": "Mon-Sat", "time": "2:00pm"}, {"days": "Sun", "time": "Closed"}], "id": "2907200019", "name": "USPS COLLECTION BOX - BLUE BOX", "address": {"city": "LEXINGTON", "state": "SC", "street": "201 COLUMBIA AVE", "postcode": "29072"}}},
{"geometry": {"type": "Point", "coordinates": [-81.2099635786, 33.9760083769]}, "type": "Feature", "properties": {"collection_times": [{"days": "Mon-Sat", "time": "2:00pm"}, {"days": "Sun", "time": "Closed"}], "id": "2907200026", "name": "USPS COLLECTION BOX - BLUE BOX", "address": {"city": "LEXINGTON", "state": "SC", "street": "100 TARRAR SPRINGS RD", "postcode": "29072"}}},
{"geometry": {"type": "Point", "coordinates": [-81.2205911294, 33.9984585851]}, "type": "Feature", "properties": {"collection_times": [{"days": "Mon-Sat", "time": "2:00pm"}, {"days": "Sun", "time": "Closed"}], "id": "2907200027", "name": "USPS COLLECTION BOX - BLUE BOX", "address": {"city": "LEXINGTON", "state": "SC", "street": "100 OLD CHEROKEE RD", "postcode": "29072"}}},
{"geometry": {"type": "Point", "coordinates": [-81.2177532109, 34.0362470263]}, "type": "Feature", "properties": {"collection_times": [{"days": "Mon-Fri", "time": "4:45pm"}, {"days": "Sat", "time": "2:45pm"}, {"days": "Sun", "time": "Closed"}], "id": "2907200034", "name": "USPS COLLECTION BOX - PO LOBBY", "address": {"city": "LEXINGTON", "state": "SC", "street": "1830 S LAKE DR", "postcode": "29072"}}},
{"geometry": {"type": "Point", "coordinates": [-81.2177532109, 34.0362470263]}, "type": "Feature", "properties": {"collection_times": [{"days": "Mon-Fri", "time": "4:45pm"}, {"days": "Sat", "time": "2:45pm"}, {"days": "Sun", "time": "Closed"}], "id": "2907200035", "name": "USPS COLLECTION BOX - PO LOBBY", "address": {"city": "LEXINGTON", "state": "SC", "street": "1830 S LAKE DR", "postcode": "29072"}}},
{"geometry": {"type": "Point", "coordinates": [-81.2177532109, 34.0362470263]}, "type": "Feature", "properties": {"collection_times": [{"days": "Mon-Fri", "time": "4:45pm"}, {"days": "Sat", "time": "2:45pm"}, {"days": "Sun", "time": "Closed"}], "id": "2907200036", "name": "USPS COLLECTION BOX - PO LOBBY", "address": {"city": "LEXINGTON", "state": "SC", "street": "1830 S LAKE DR", "postcode": "29072"}}},
{"geometry": {"type": "Point", "coordinates": [-81.2177532109, 34.0362470263]}, "type": "Feature", "properties": {"collection_times": [{"days": "Mon-Fri", "time": "5:00pm"}, {"days": "Sat", "time": "2:45pm"}, {"days": "Sun", "time": "Closed"}], "id": "2907200039", "name": "USPS COLLECTION BOX - BLUE BOX", "address": {"city": "LEXINGTON", "state": "SC", "street": "1830 S LAKE DR", "postcode": "29072"}}},
{"geometry": {"type": "Point", "coordinates": [-81.2301414779, 33.9953764053]}, "type": "Feature", "properties": {"collection_times": [{"days": "Mon-Fri", "time": "4:45pm"}, {"days": "Sat", "time": "12:00pm"}, {"days": "Sun", "time": "Closed"}], "id": "2907200040", "name": "USPS COLLECTION BOX - BLUE BOX", "address": {"city": "LEXINGTON", "state": "SC", "street": "929 N LAKE DR", "postcode": "29072"}}},
{"geometry": {"type": "Point", "coordinates": [-81.2360346587, 33.9780395304]}, "type": "Feature", "properties": {"collection_times": [{"days": "Mon-Sat", "time": "2:00pm"}, {"days": "Sun", "time": "Closed"}], "id": "2907200041", "name": "USPS COLLECTION BOX - BLUE BOX", "address": {"city": "LEXINGTON", "state": "SC", "street": "212 S LAKE DR", "postcode": "29072"}}},
{"geometry": {"type": "Point", "coordinates": [-81.249490274, 33.9848329408]}, "type": "Feature", "properties": {"collection_times": [{"days": "Mon-Fri", "time": "5:00pm"}, {"days": "Sat", "time": "12:30pm"}, {"days": "Sun", "time": "Closed"}], "id": "2907200042", "name": "USPS COLLECTION BOX - BLUE BOX", "address": {"city": "LEXINGTON", "state": "SC", "street": "710 W MAIN ST", "postcode": "29072"}}},
{"geometry": {"type": "Point", "coordinates": [-81.249490274, 33.9848329408]}, "type": "Feature", "properties": {"collection_times": [{"days": "Mon-Fri", "time": "5:00pm"}, {"days": "Sat", "time": "12:30pm"}, {"days": "Sun", "time": "Closed"}], "id": "2907200043", "name": "USPS COLLECTION BOX - BLUE BOX", "address": {"city": "LEXINGTON", "state": "SC", "street": "710 W MAIN ST", "postcode": "29072"}}},
{"geometry": {"type": "Point", "coordinates": [-81.249490274, 33.9848329408]}, "type": "Feature", "properties": {"collection_times": [{"days": "Mon-Fri", "time": "4:45pm"}, {"days": "Sat", "time": "12:30pm"}, {"days": "Sun", "time": "Closed"}], "id": "2907200044", "name": "USPS COLLECTION BOX - PO LOBBY", "address": {"city": "LEXINGTON", "state": "SC", "street": "710 W MAIN ST", "postcode": "29072"}}},
{"geometry": {"type": "Point", "coordinates": [-81.249490274, 33.9848329408]}, "type": "Feature", "properties": {"collection_times": [{"days": "Mon-Fri", "time": "4:45pm"}, {"days": "Sat", "time": "12:30pm"}, {"days": "Sun", "time": "Closed"}], "id": "2907200045", "name": "USPS COLLECTION BOX - PO LOBBY", "address": {"city": "LEXINGTON", "state": "SC", "street": "710 W MAIN ST", "postcode": "29072"}}},
{"geometry": {"type": "Point", "coordinates": [-81.249490274, 33.9848329408]}, "type": "Feature", "properties": {"collection_times": [{"days": "Mon-Fri", "time": "4:45pm"}, {"days": "Sat", "time": "12:30pm"}, {"days": "Sun", "time": "Closed"}], "id": "2907200046", "name": "USPS COLLECTION BOX - PO LOBBY", "address": {"city": "LEXINGTON", "state": "SC", "street": "710 W MAIN ST", "postcode": "29072"}}},
{"geometry": {"type": "Point", "coordinates": [-81.249490274, 33.9848329408]}, "type": "Feature", "properties": {"collection_times": [{"days": "Mon-Fri", "time": "4:45pm"}, {"days": "Sat", "time": "12:30pm"}, {"days": "Sun", "time": "Closed"}], "id": "2907200047", "name": "USPS COLLECTION BOX - APC", "address": {"city": "LEXINGTON", "state": "SC", "street": "710 W MAIN ST", "postcode": "29072"}}},
{"geometry": {"type": "Point", "coordinates": [-81.1711676189, 34.013038141]}, "type": "Feature", "properties": {"collection_times": [{"days": "Mon-Fri", "time": "1:00pm"}, {"days": "Sat", "time": "10:30am"}, {"days": "Sun", "time": "Closed"}], "id": "2907200052", "name": "USPS COLLECTION BOX - BLUE BOX", "address": {"city": "LEXINGTON", "state": "SC", "street": "4711 SUNSET BLVD", "postcode": "29072"}}},
{"geometry": {"type": "Point", "coordinates": [-80.8022025119, 34.4786750543]}, "type": "Feature", "properties": {"collection_times": [{"days": "Mon-Fri", "time": "3:45pm"}, {"days": "Sat", "time": "9:45am"}, {"days": "Sun", "time": "Closed"}], "id": "2907400000", "name": "USPS COLLECTION BOX - BLUE BOX", "address": {"city": "LIBERTY HILL", "state": "SC", "street": "4049 JOHN G RICHARDS RD", "postcode": "29074"}}},
{"geometry": {"type": "Point", "coordinates": [-80.8022025119, 34.4786750543]}, "type": "Feature", "properties": {"collection_times": [{"days": "Mon-Fri", "time": "3:45pm"}, {"days": "Sat", "time": "9:45am"}, {"days": "Sun", "time": "Closed"}], "id": "2907400001", "name": "USPS COLLECTION BOX - PO LOBBY", "address": {"city": "LIBERTY HILL", "state": "SC", "street": "4049 JOHN G RICHARDS RD", "postcode": "29074"}}},
{"geometry": {"type": "Point", "coordinates": [-81.4218737092, 34.1933582086]}, "type": "Feature", "properties": {"collection_times": [{"days": "Mon-Fri", "time": "3:45pm"}, {"days": "Sat", "time": "9:45am"}, {"days": "Sun", "time": "Closed"}], "id": "2907500000", "name": "USPS COLLECTION BOX - BLUE BOX", "address": {"city": "LITTLE MOUNTAIN", "state": "SC", "street": "5953 WHEELAND RD", "postcode": "29075"}}},
{"geometry": {"type": "Point", "coordinates": [-81.4218737092, 34.1933582086]}, "type": "Feature", "properties": {"collection_times": [{"days": "Mon-Fri", "time": "3:45pm"}, {"days": "Sat", "time": "9:45am"}, {"days": "Sun", "time": "Closed"}], "id": "2907500001", "name": "USPS COLLECTION BOX - PO LOBBY", "address": {"city": "LITTLE MOUNTAIN", "state": "SC", "street": "5953 WHEELAND RD", "postcode": "29075"}}},
{"geometry": {"type": "Point", "coordinates": [-80.6753974521, 34.2308621529]}, "type": "Feature", "properties": {"collection_times": [{"days": "Mon-Fri", "time": "4:15pm"}, {"days": "Sat", "time": "10:45am"}, {"days": "Sun", "time": "Closed"}], "id": "2907800000", "name": "USPS COLLECTION BOX - BLUE BOX", "address": {"city": "LUGOFF", "state": "SC", "street": "40 PLAZA DR", "postcode": "29078"}}},
{"geometry": {"type": "Point", "coordinates": [-80.6753974521, 34.2308621529]}, "type": "Feature", "properties": {"collection_times": [{"days": "Mon-Fri", "time": "4:15pm"}, {"days": "Sat", "time": "10:45am"}, {"days": "Sun", "time": "Closed"}], "id": "2907800001", "name": "USPS COLLECTION BOX - BLUE BOX", "address": {"city": "LUGOFF", "state": "SC", "street": "40 PLAZA DR", "postcode": "29078"}}},
{"geometry": {"type": "Point", "coordinates": [-80.6753974521, 34.2308621529]}, "type": "Feature", "properties": {"collection_times": [{"days": "Mon-Fri", "time": "4:15pm"}, {"days": "Sat", "time": "10:45am"}, {"days": "Sun", "time": "Closed"}], "id": "2907800002", "name": "USPS COLLECTION BOX - PO LOBBY", "address": {"city": "LUGOFF", "state": "SC", "street": "40 PLAZA DR", "postcode": "29078"}}},
{"geometry": {"type": "Point", "coordinates": [-80.0327891755, 34.280403085]}, "type": "Feature", "properties": {"collection_times": [{"days": "Mon-Fri", "time": "3:45pm"}, {"days": "Sat", "time": "9:45am"}, {"days": "Sun", "time": "Closed"}], "id": "2907900000", "name": "USPS COLLECTION BOX - BLUE BOX", "address": {"city": "LYDIA", "state": "SC", "street": "5179 INDIAN BRANCH RD", "postcode": "29079"}}},
{"geometry": {"type": "Point", "coordinates": [-80.0327891755, 34.280403085]}, "type": "Feature", "properties": {"collection_times": [{"days": "Mon-Fri", "time": "3:45pm"}, {"days": "Sat", "time": "9:45am"}, {"days": "Sun", "time": "Closed"}], "id": "2907900001", "name": "USPS COLLECTION BOX - PO LOBBY", "address": {"city": "LYDIA", "state": "SC", "street": "5179 INDIAN BRANCH RD", "postcode": "29079"}}},
{"geometry": {"type": "Point", "coordinates": [-80.0755287161, 34.0602953707]}, "type": "Feature", "properties": {"collection_times": [{"days": "Mon-Fri", "time": "3:45pm"}, {"days": "Sat", "time": "9:45am"}, {"days": "Sun", "time": "Closed"}], "id": "2908000000", "name": "USPS COLLECTION BOX - BLUE BOX", "address": {"city": "LYNCHBURG", "state": "SC", "street": "85 MAGNOLIA ST", "postcode": "29080"}}},
{"geometry": {"type": "Point", "coordinates": [-80.0755287161, 34.0602953707]}, "type": "Feature", "properties": {"collection_times": [{"days": "Mon-Fri", "time": "3:45pm"}, {"days": "Sat", "time": "9:45am"}, {"days": "Sun", "time": "Closed"}], "id": "2908000001", "name": "USPS COLLECTION BOX - PO LOBBY", "address": {"city": "LYNCHBURG", "state": "SC", "street": "85 MAGNOLIA ST", "postcode": "29080"}}},
{"geometry": {"type": "Point", "coordinates": [-81.0140912346, 33.0985097025]}, "type": "Feature", "properties": {"collection_times": [{"days": "Mon-Fri", "time": "3:45pm"}, {"days": "Sat", "time": "9:45am"}, {"days": "Sun", "time": "Closed"}], "id": "2908100000", "name": "USPS COLLECTION BOX - BLUE BOX", "address": {"city": "EHRHARDT", "state": "SC", "street": "13443 BROXTON BRIDGE RD", "postcode": "29081"}}},
{"geometry": {"type": "Point", "coordinates": [-81.0140912346, 33.0985097025]}, "type": "Feature", "properties": {"collection_times": [{"days": "Mon-Fri", "time": "3:45pm"}, {"days": "Sat", "time": "9:45am"}, {"days": "Sun", "time": "Closed"}], "id": "2908100001", "name": "USPS COLLECTION BOX - PO LOBBY", "address": {"city": "EHRHARDT", "state": "SC", "street": "13443 BROXTON BRIDGE RD", "postcode": "29081"}}},
{"geometry": {"type": "Point", "coordinates": [-80.9528785306, 33.0651669338]}, "type": "Feature", "properties": {"collection_times": [{"days": "Mon-Fri", "time": "3:45pm"}, {"days": "Sat", "time": "9:45am"}, {"days": "Sun", "time": "Closed"}], "id": "2908200000", "name": "USPS COLLECTION BOX - BLUE BOX", "address": {"city": "LODGE", "state": "SC", "street": "21080 BELLS HWY", "postcode": "29082"}}},
{"geometry": {"type": "Point", "coordinates": [-80.9528785306, 33.0651669338]}, "type": "Feature", "properties": {"collection_times": [{"days": "Mon-Fri", "time": "3:45pm"}, {"days": "Sat", "time": "9:45am"}, {"days": "Sun", "time": "Closed"}], "id": "2908200001", "name": "USPS COLLECTION BOX - PO LOBBY", "address": {"city": "LODGE", "state": "SC", "street": "21080 BELLS HWY", "postcode": "29082"}}}
]}
