{"type": "FeatureCollection", "features": [
{"geometry": {"type": "Point", "coordinates": [-80.2563859821, 34.4687492298]}, "type": "Feature", "properties": {"collection_times": [{"days": "Mon-Fri", "time": "3:45pm"}, {"days": "Sat", "time": "9:45am"}, {"days": "Sun", "time": "Closed"}], "id": "2910100001", "name": "USPS COLLECTION BOX - BLUE BOX", "address": {"city": "MCBEE", "state": "SC", "street": "111 W PINE AVE", "postcode": "29101"}}},
{"geometry": {"type": "Point", "coordinates": [-80.2563859821, 34.4687492298]}, "type": "Feature", "properties": {"collection_times": [{"days": "Mon-Fri", "time": "3:45pm"}, {"days": "Sat", "time": "9:45am"}, {"days": "Sun", "time": "Closed"}], "id": "2910100002", "name": "USPS COLLECTION BOX - PO LOBBY", "address": {"city": "MCBEE", "state": "SC", "street": "111 W PINE AVE", "postcode": "29101"}}},
{"geometry": {"type": "Point", "coordinates": [-80.2120976574, 33.6942001799]}, "type": "Feature", "properties": {"collection_times": [{"days": "Mon-Fri", "time": "4:15pm"}, {"days": "Sat", "time": "9:45am"}, {"days": "Sun", "time": "Closed"}], "id": "2910200000", "name": "USPS COLLECTION BOX - BLUE BOX", "address": {"city": "MANNING", "state": "SC", "street": "10 W KEITT ST", "postcode": "29102"}}},
{"geometry": {"type": "Point", "coordinates": [-80.2120976574, 33.6942001799]}, "type": "Feature", "properties": {"collection_times": [{"days": "Mon-Fri", "time": "4:15pm"}, {"days": "Sat", "time": "9:45am"}, {"days": "Sun", "time": "Closed"}], "id": "2910200001", "name": "USPS COLLECTION BOX - BLUE BOX", "address": {"city": "MANNING", "state": "SC", "street": "10 W KEITT ST", "postcode": "29102"}}},
{"geometry": {"type": "Point", "coordinates": [-80.2120976574, 33.6942001799]}, "type": "Feature", "properties": {"collection_times": [{"days": "Mon-Fri", "time": "4:15pm"}, {"days": "Sat", "time": "9:45am"}, {"days": "Sun", "time": "Closed"}], "id": "2910200002", "name": "USPS COLLECTION BOX - PO LOBBY", "address": {"city": "MANNING", "state": "SC", "street": "10 W KEITT ST", "postcode": "29102"}}},
{"geometry": {"type": "Point", "coordinates": [-80.193158863, 33.6280766415]}, "type": "Feature", "properties": {"collection_times": [{"days": "Mon-Sat", "time": "12:45pm"}, {"days": "Sun", "time": "Closed"}], "id": "2910200005", "name": "USPS COLLECTION BOX - BLUE BOX", "address": {"city": "MANNING", "state": "SC", "street": "3014 PAXVILLE HWY", "postcode": "29102"}}},
{"geometry": {"type": "Point", "coordinates": [-80.358335962, 33.7389131669]}, "type": "Feature", "properties": {"collection_times": [{"days": "Mon-Fri", "time": "12:45pm"}, {"days": "Sat", "time": "12:15pm"}, {"days": "Sun", "time": "Closed"}], "id": "2910200006", "name": "USPS COLLECTION BOX - BLUE BOX", "address": {"city": "MANNING", "state": "SC", "street": "10119 LEWIS RD", "postcode": "29102"}}},
{"geometry": {"type": "Point", "coordinates": [-80.2119570832, 33.6950914799]}, "type": "Feature", "properties": {"collection_times": [{"days": "Mon-Fri", "time": "2:15pm"}, {"days": "Sat", "time": "2:00pm"}, {"days": "Sun", "time": "Closed"}], "id": "2910200008", "name": "USPS COLLECTION BOX - BLUE BOX", "address": {"city": "MANNING", "state": "SC", "street": "1 W BOYCE ST", "postcode": "29102"}}},
{"geometry": {"type": "Point", "coordinates": [-80.2113662045, 33.6879014298]}, "type": "Feature", "properties": {"collection_times": [{"days": "Mon-Fri", "time": "2:15pm"}, {"days": "Sat", "time": "2:00pm"}, {"days": "Sun", "time": "Closed"}], "id": "2910200011", "name": "USPS COLLECTION BOX - BLUE BOX", "address": {"city": "MANNING", "state": "SC", "street": "50 E HOSPITAL ST", "postcode": "29102"}}},
{"geometry": {"type": "Point", "coordinates": [-80.193158863, 33.6280766415]}, "type": "Feature", "properties": {"collection_times": [{"days": "Mon-Sat", "time": "1:00pm"}, {"days": "Sun", "time": "Closed"}], "id": "2910200013", "name": "USPS COLLECTION BOX - BLUE BOX", "address": {"city": "MANNING", "state": "SC", "street": "2609 PLAYERS COURSE DR", "postcode": "29102"}}},
{"geometry": {"type": "Point", "coordinates": [-80.2229085486, 33.6862038237]}, "type": "Feature", "properties": {"collection_times": [{"days": "Mon-Sat", "time": "2:30pm"}, {"days": "Sun", "time": "Closed"}], "id": "2910200014", "name": "USPS COLLECTION BOX - BLUE BOX", "address": {"city": "MANNING", "state": "SC", "street": "411 SUNSET DR", "postcode": "29102"}}},
{"geometry": {"type": "Point", "coordinates": [-80.2504280022, 33.9613432008]}, "type": "Feature", "properties": {"collection_times": [{"days": "Mon-Fri", "time": "3:45pm"}, {"days": "Sat", "time": "9:45am"}, {"days": "Sun", "time": "Closed"}], "id": "2910400000", "name": "USPS COLLECTION BOX - BLUE BOX", "address": {"city": "MAYESVILLE", "state": "SC", "street": "4650 FLORENCE HWY", "postcode": "29104"}}},
{"geometry": {"type": "Point", "coordinates": [-80.2504280022, 33.9613432008]}, "type": "Feature", "properties": {"collection_times": [{"days": "Mon-Fri", "time": "3:45pm"}, {"days": "Sat", "time": "9:45am"}, {"days": "Sun", "time": "Closed"}], "id": "2910400001", "name": "USPS COLLECTION BOX - PO LOBBY", "address": {"city": "MAYESVILLE", "state": "SC", "street": "4650 FLORENCE HWY", "postcode": "29104"}}},
{"geometry": {"type": "Point", "coordinates": [-80.2504280022, 33.9613432008]}, "type": "Feature", "properties": {"collection_times": [{"days": "Mon-Fri", "time": "3:45pm"}, {"days": "Sat", "time": "9:45am"}, {"days": "Sun", "time": "Closed"}], "id": "2910400003", "name": "USPS COLLECTION BOX - PO LOBBY", "address": {"city": "MAYESVILLE", "state": "SC", "street": "4650 FLORENCE HWY", "postcode": "29104"}}},
{"geometry": {"type": "Point", "coordinates": [-81.612601779, 33.8531812182]}, "type": "Feature", "properties": {"collection_times": [{"days": "Mon-Fri", "time": "3:45pm"}, {"days": "Sat", "time": "9:45am"}, {"days": "Sun", "time": "Closed"}], "id": "2910500000", "name": "USPS COLLECTION BOX - BLUE BOX", "address": {"city": "MONETTA", "state": "SC", "street": "230 MAIN ST", "postcode": "29105"}}},
{"geometry": {"type": "Point", "coordinates": [-81.612601779, 33.8531812182]}, "type": "Feature", "properties": {"collection_times": [{"days": "Mon-Fri", "time": "3:45pm"}, {"days": "Sat", "time": "9:45am"}, {"days": "Sun", "time": "Closed"}], "id": "2910500001", "name": "USPS COLLECTION BOX - PO LOBBY", "address": {"city": "MONETTA", "state": "SC", "street": "230 MAIN ST", "postcode": "29105"}}},
{"geometry": {"type": "Point", "coordinates": [-81.1244402247, 33.5318061156]}, "type": "Feature", "properties": {"collection_times": [{"days": "Mon-Fri", "time": "3:45pm"}, {"days": "Sat", "time": "9:45am"}, {"days": "Sun", "time": "Closed"}], "id": "2910700000", "name": "USPS COLLECTION BOX - BLUE BOX", "address": {"city": "NEESES", "state": "SC", "street": "323 RICE ST", "postcode": "29107"}}},
{"geometry": {"type": "Point", "coordinates": [-81.1244402247, 33.5318061156]}, "type": "Feature", "properties": {"collection_times": [{"days": "Mon-Fri", "time": "3:45pm"}, {"days": "Sat", "time": "9:45am"}, {"days": "Sun", "time": "Closed"}], "id": "2910700002", "name": "USPS COLLECTION BOX - PO LOBBY", "address": {"city": "NEESES", "state": "SC", "street": "323 RICE ST", "postcode": "29107"}}},
{"geometry": {"type": "Point", "coordinates": [-81.6243482841, 34.2943566147]}, "type": "Feature", "properties": {"collection_times": [{"days": "Mon-Fri", "time": "4:45pm"}, {"days": "Sat", "time": "10:45am"}, {"days": "Sun", "time": "Closed"}], "id": "2910800000", "name": "USPS COLLECTION BOX - BLUE BOX", "address": {"city": "NEWBERRY", "state": "SC", "street": "1321 COLLEGE ST", "postcode": "29108"}}},
{"geometry": {"type": "Point", "coordinates": [-81.6198004762, 34.2763089173]}, "type": "Feature", "properties": {"collection_times": [{"days": "Mon-Fri", "time": "4:45pm"}, {"days": "Sat", "time": "10:45am"}, {"days": "Sun", "time": "Closed"}], "id": "2910800003", "name": "USPS COLLECTION BOX - PO LOBBY", "address": {"city": "NEWBERRY", "state": "SC", "street": "1321 COLLEGE ST", "postcode": "29108"}}},
{"geometry": {"type": "Point", "coordinates": [-81.6204485044, 34.274565591]}, "type": "Feature", "properties": {"collection_times": [{"days": "Mon-Fri", "time": "11:00am"}, {"days": "Sat-Sun", "time": "Closed"}], "id": "2910800004", "name": "USPS COLLECTION BOX - BLUE BOX", "address": {"city": "NEWBERRY", "state": "SC", "street": "1119 BOYCE ST", "postcode": "29108"}}},
{"geometry": {"type": "Point", "coordinates": [-81.5997252111, 34.2815911984]}, "type": "Feature", "properties": {"collection_times": [{"days": "Mon-Fri", "time": "10:00am"}, {"days": "Sat-Sun", "time": "Closed"}], "id": "2910800008", "name": "USPS COLLECTION BOX - BLUE BOX", "address": {"city": "NEWBERRY", "state": "SC", "street": "2625 WINNSBORO RD", "postcode": "29108"}}},
{"geometry": {"type": "Point", "coordinates": [-81.6068428478, 34.2946919285]}, "type": "Feature", "properties": {"collection_times": [{"days": "Mon-Fri", "time": "11:00am"}, {"days": "Sat-Sun", "time": "Closed"}], "id": "2910800011", "name": "USPS COLLECTION BOX - BLUE BOX", "address": {"city": "NEWBERRY", "state": "SC", "street": "1915 WILSON RD", "postcode": "29108"}}},
{"geometry": {"type": "Point", "coordinates": [-81.6040022297, 34.2907818048]}, "type": "Feature", "properties": {"collection_times": [{"days": "Mon-Fri", "time": "11:00am"}, {"days": "Sat-Sun", "time": "Closed"}], "id": "2910800012", "name": "USPS COLLECTION BOX - BLUE BOX", "address": {"city": "NEWBERRY", "state": "SC", "street": "2669 KINARD ST", "postcode": "29108"}}},
{"geometry": {"type": "Point", "coordinates": [-81.6198004762, 34.2763089173]}, "type": "Feature", "properties": {"collection_times": [{"days": "Mon-Fri", "time": "4:45pm"}, {"days": "Sat", "time": "10:45am"}, {"days": "Sun", "time": "Closed"}], "id": "2910800015", "name": "USPS COLLECTION BOX - PO LOBBY", "address": {"city": "NEWBERRY", "state": "SC", "street": "1321 COLLEGE ST", "postcode": "29108"}}},
{"geometry": {"type": "Point", "coordinates": [-80.0164870882, 33.7799855542]}, "type": "Feature", "properties": {"collection_times": [{"days": "Mon-Fri", "time": "3:45pm"}, {"days": "Sat", "time": "9:45am"}, {"days": "Sun", "time": "Closed"}], "id": "2911100000", "name": "USPS COLLECTION BOX - BLUE BOX", "address": {"city": "NEW ZION", "state": "SC", "street": "6702 SALEM RD", "postcode": "29111"}}},
{"geometry": {"type": "Point", "coordinates": [-81.1062254416, 33.6169942664]}, "type": "Feature", "properties": {"collection_times": [{"days": "Mon-Fri", "time": "3:45pm"}, {"days": "Sat", "time": "9:45am"}, {"days": "Sun", "time": "Closed"}], "id": "2911200000", "name": "USPS COLLECTION BOX - BLUE BOX", "address": {"city": "NORTH", "state": "SC", "street": "7903 SALLEY RD", "postcode": "29112"}}},
{"geometry": {"type": "Point", "coordinates": [-81.1062254416, 33.6169942664]}, "type": "Feature", "properties": {"collection_times": [{"days": "Mon-Fri", "time": "3:45pm"}, {"days": "Sat", "time": "9:45am"}, {"days": "Sun", "time": "Closed"}], "id": "2911200001", "name": "USPS COLLECTION BOX - PO LOBBY", "address": {"city": "NORTH", "state": "SC", "street": "7903 SALLEY RD", "postcode": "29112"}}},
{"geometry": {"type": "Point", "coordinates": [-81.1265807933, 33.4435720071]}, "type": "Feature", "properties": {"collection_times": [{"days": "Mon-Fri", "time": "3:45pm"}, {"days": "Sat", "time": "9:45am"}, {"days": "Sun", "time": "Closed"}], "id": "2911300000", "name": "USPS COLLECTION BOX - BLUE BOX", "address": {"city": "NORWAY", "state": "SC", "street": "8414 SAVANNAH HWY", "postcode": "29113"}}},
{"geometry": {"type": "Point", "coordinates": [-81.1265807933, 33.4435720071]}, "type": "Feature", "properties": {"collection_times": [{"days": "Mon-Fri", "time": "3:45pm"}, {"days": "Sat", "time": "9:45am"}, {"days": "Sun", "time": "Closed"}], "id": "2911300001", "name": "USPS COLLECTION BOX - PO LOBBY", "address": {"city": "NORWAY", "state": "SC", "street": "8414 SAVANNAH HWY", "postcode": "29113"}}},
{"geometry": {"type": "Point", "coordinates": [-79.9340668135, 33.9375183024]}, "type": "Feature", "properties": {"collection_times": [{"days": "Mon-Fri", "time": "3:45pm"}, {"days": "Sat", "time": "9:45am"}, {"days": "Sun", "time": "Closed"}], "id": "2911400000", "name": "USPS COLLECTION BOX - BLUE BOX", "address": {"city": "OLANTA", "state": "SC", "street": "219 N JONES RD", "postcode": "29114"}}},
{"geometry": {"type": "Point", "coordinates": [-79.9340668135, 33.9375183024]}, "type": "Feature", "properties": {"collection_times": [{"days": "Mon-Fri", "time": "3:45pm"}, {"days": "Sat", "time": "9:45am"}, {"days": "Sun", "time": "Closed"}], "id": "2911400001", "name": "USPS COLLECTION BOX - PO LOBBY", "address": {"city": "OLANTA", "state": "SC", "street": "219 N JONES RD", "postcode": "29114"}}},
{"geometry": {"type": "Point", "coordinates": [-80.8684608728, 33.4944422534]}, "type": "Feature", "properties": {"collection_times": [{"days": "Mon-Fri", "time": "5:00pm"}, {"days": "Sat", "time": "3:00pm"}, {"days": "Sun", "time": "Closed"}], "id": "2911500000", "name": "USPS COLLECTION BOX - BLUE BOX", "address": {"city": "ORANGEBURG", "state": "SC", "street": "1550 MIDDLETON ST", "postcode": "29115"}}},
{"geometry": {"type": "Point", "coordinates": [-80.8639079065, 33.491123582]}, "type": "Feature", "properties": {"collection_times": [{"days": "Mon-Fri", "time": "5:00pm"}, {"days": "Sat", "time": "3:00pm"}, {"days": "Sun", "time": "Closed"}], "id": "2911500004", "name": "USPS COLLECTION BOX - EXPRESS", "address": {"city": "ORANGEBURG", "state": "SC", "street": "1550 MIDDLETON ST", "postcode": "29115"}}},
{"geometry": {"type": "Point", "coordinates": [-80.8684608728, 33.4944422534]}, "type": "Feature", "properties": {"collection_times": [{"days": "Mon-Fri", "time": "5:00pm"}, {"days": "Sat", "time": "3:00pm"}, {"days": "Sun", "time": "Closed"}], "id": "2911500006", "name": "USPS COLLECTION BOX - BLUE BOX", "address": {"city": "ORANGEBURG", "state": "SC", "street": "1550 MIDDLETON ST", "postcode": "29115"}}},
{"geometry": {"type": "Point", "coordinates": [-80.8655754428, 33.5099260721]}, "type": "Feature", "properties": {"collection_times": [{"days": "Mon-Sat", "time": "1:30pm"}, {"days": "Sun", "time": "Closed"}], "id": "2911500008", "name": "USPS COLLECTION BOX - BLUE BOX", "address": {"city": "ORANGEBURG", "state": "SC", "street": "1600 BOULEVARD ST", "postcode": "29115"}}},
{"geometry": {"type": "Point", "coordinates": [-80.8895388801, 33.5262793313]}, "type": "Feature", "properties": {"collection_times": [{"days": "Mon-Sat", "time": "1:30pm"}, {"days": "Sun", "time": "Closed"}], "id": "2911500010", "name": "USPS COLLECTION BOX - BLUE BOX", "address": {"city": "ORANGEBURG", "state": "SC", "street": "2795 NORTH RD", "postcode": "29115"}}},
{"geometry": {"type": "Point", "coordinates": [-80.7769494791, 33.5044910779]}, "type": "Feature", "properties": {"collection_times": [{"days": "Mon-Sat", "time": "1:45pm"}, {"days": "Sun", "time": "Closed"}], "id": "2911500011", "name": "USPS COLLECTION BOX - BLUE BOX", "address": {"city": "ORANGEBURG", "state": "SC", "street": "1500 CAROLINA AVE", "postcode": "29115"}}},
{"geometry": {"type": "Point", "coordinates": [-80.8611958078, 33.5134540599]}, "type": "Feature", "properties": {"collection_times": [{"days": "Mon-Sat", "time": "1:15pm"}, {"days": "Sun", "time": "Closed"}], "id": "2911500012", "name": "USPS COLLECTION BOX - BLUE BOX", "address": {"city": "ORANGEBURG", "state": "SC", "street": "1346 CHESTNUT ST", "postcode": "29115"}}},
{"geometry": {"type": "Point", "coordinates": [-80.8647262503, 33.5154653918]}, "type": "Feature", "properties": {"collection_times": [{"days": "Mon-Sat", "time": "1:15pm"}, {"days": "Sun", "time": "Closed"}], "id": "2911500013", "name": "USPS COLLECTION BOX - BLUE BOX", "address": {"city": "ORANGEBURG", "state": "SC", "street": "1530 CHESTNUT ST", "postcode": "29115"}}},
{"geometry": {"type": "Point", "coordinates": [-80.8534805101, 33.502054482]}, "type": "Feature", "properties": {"collection_times": [{"days": "Mon-Sat", "time": "1:45pm"}, {"days": "Sun", "time": "Closed"}], "id": "2911500016", "name": "USPS COLLECTION BOX - BLUE BOX", "address": {"city": "ORANGEBURG", "state": "SC", "street": "400 COLLEGE AVE", "postcode": "29115"}}},
{"geometry": {"type": "Point", "coordinates": [-80.85360196, 33.5017646252]}, "type": "Feature", "properties": {"collection_times": [{"days": "Mon-Sat", "time": "1:45pm"}, {"days": "Sun", "time": "Closed"}], "id": "2911500017", "name": "USPS COLLECTION BOX - BLUE BOX", "address": {"city": "ORANGEBURG", "state": "SC", "street": "300 COLLEGE AVE", "postcode": "29115"}}},
{"geometry": {"type": "Point", "coordinates": [-80.8635089728, 33.4967116388]}, "type": "Feature", "properties": {"collection_times": [{"days": "Mon-Sat", "time": "1:15pm"}, {"days": "Sun", "time": "Closed"}], "id": "2911500018", "name": "USPS COLLECTION BOX - BLUE BOX", "address": {"city": "ORANGEBURG", "state": "SC", "street": "500 ELLIS AVE", "postcode": "29115"}}},
{"geometry": {"type": "Point", "coordinates": [-80.8609086683, 33.4953718633]}, "type": "Feature", "properties": {"collection_times": [{"days": "Mon-Sat", "time": "1:15pm"}, {"days": "Sun", "time": "Closed"}], "id": "2911500019", "name": "USPS COLLECTION BOX - BLUE BOX", "address": {"city": "ORANGEBURG", "state": "SC", "street": "1550 HENLEY ST", "postcode": "29115"}}},
{"geometry": {"type": "Point", "coordinates": [-80.8480903029, 33.4587744651]}, "type": "Feature", "properties": {"collection_times": [{"days": "Mon-Sat", "time": "10:45am"}, {"days": "Sun", "time": "Closed"}], "id": "2911500020", "name": "USPS COLLECTION BOX - BLUE BOX", "address": {"city": "ORANGEBURG", "state": "SC", "street": "201 PROSPERITY DR", "postcode": "29115"}}},
{"geometry": {"type": "Point", "coordinates": [-80.8575913206, 33.4925660957]}, "type": "Feature", "properties": {"collection_times": [{"days": "Mon-Sat", "time": "2:00pm"}, {"days": "Sun", "time": "Closed"}], "id": "2911500023", "name": "USPS COLLECTION BOX - BLUE BOX", "address": {"city": "ORANGEBURG", "state": "SC", "street": "1645 RUSSELL ST", "postcode": "29115"}}},
{"geometry": {"type": "Point", "coordinates": [-80.7769494791, 33.5044910779]}, "type": "Feature", "properties": {"collection_times": [{"days": "Mon-Sat", "time": "2:00pm"}, {"days": "Sun", "time": "Closed"}], "id": "2911500026", "name": "USPS COLLECTION BOX - BLUE BOX", "address": {"city": "ORANGEBURG", "state": "SC", "street": "1240 RUSSELL ST", "postcode": "29115"}}},
{"geometry": {"type": "Point", "coordinates": [-80.8636242541, 33.4907923581]}, "type": "Feature", "properties": {"collection_times": [{"days": "Mon-Sat", "time": "2:00pm"}, {"days": "Sun", "time": "Closed"}], "id": "2911500028", "name": "USPS COLLECTION BOX - BLUE BOX", "address": {"city": "ORANGEBURG", "state": "SC", "street": "300 SAINT PAUL ST", "postcode": "29115"}}},
{"geometry": {"type": "Point", "coordinates": [-80.869922054, 33.483849607]}, "type": "Feature", "properties": {"collection_times": [{"days": "Mon-Sat", "time": "2:00pm"}, {"days": "Sun", "time": "Closed"}], "id": "2911500032", "name": "USPS COLLECTION BOX - BLUE BOX", "address": {"city": "ORANGEBURG", "state": "SC", "street": "100 RIVERSIDE DR", "postcode": "29115"}}},
{"geometry": {"type": "Point", "coordinates": [-80.8334314669, 33.5393194099]}, "type": "Feature", "properties": {"collection_times": [{"days": "Mon-Sat", "time": "11:45am"}, {"days": "Sun", "time": "Closed"}], "id": "2911500033", "name": "USPS COLLECTION BOX - BLUE BOX", "address": {"city": "ORANGEBURG", "state": "SC", "street": "3000 SAINT MATTHEWS RD", "postcode": "29115"}}},
{"geometry": {"type": "Point", "coordinates": [-80.8300497828, 33.546569651]}, "type": "Feature", "properties": {"collection_times": [{"days": "Mon-Sat", "time": "11:45am"}, {"days": "Sun", "time": "Closed"}], "id": "2911500034", "name": "USPS COLLECTION BOX - BLUE BOX", "address": {"city": "ORANGEBURG", "state": "SC", "street": "3292 SAINT MATTHEWS RD", "postcode": "29115"}}},
{"geometry": {"type": "Point", "coordinates": [-80.8559122116, 33.5217122288]}, "type": "Feature", "properties": {"collection_times": [{"days": "Mon-Sat", "time": "11:45am"}, {"days": "Sun", "time": "Closed"}], "id": "2911500036", "name": "USPS COLLECTION BOX - BLUE BOX", "address": {"city": "ORANGEBURG", "state": "SC", "street": "1700 VILLAGE PARK DR", "postcode": "29115"}}},
{"geometry": {"type": "Point", "coordinates": [-80.8463537801, 33.4710576239]}, "type": "Feature", "properties": {"collection_times": [{"days": "Mon-Sat", "time": "12:45pm"}, {"days": "Sun", "time": "Closed"}], "id": "2911500037", "name": "USPS COLLECTION BOX - BLUE BOX", "address": {"city": "ORANGEBURG", "state": "SC", "street": "1720 CHARLESTON HWY", "postcode": "29115"}}},
{"geometry": {"type": "Point", "coordinates": [-80.883462336, 33.481653681]}, "type": "Feature", "properties": {"collection_times": [{"days": "Mon-Sat", "time": "2:00pm"}, {"days": "Sun", "time": "Closed"}], "id": "2911500041", "name": "USPS COLLECTION BOX - BLUE BOX", "address": {"city": "ORANGEBURG", "state": "SC", "street": "1935 OLD EDISTO DR", "postcode": "29115"}}},
{"geometry": {"type": "Point", "coordinates": [-81.3259592782, 34.2383847891]}, "type": "Feature", "properties": {"collection_times": [{"days": "Mon-Fri", "time": "3:45pm"}, {"days": "Sat", "time": "9:45am"}, {"days": "Sun", "time": "Closed"}], "id": "2912200000", "name": "USPS COLLECTION BOX - BLUE BOX", "address": {"city": "PEAK", "state": "SC", "street": "10 RIVER ST", "postcode": "29122"}}},
{"geometry": {"type": "Point", "coordinates": [-81.3259592782, 34.2383847891]}, "type": "Feature", "properties": {"collection_times": [{"days": "Mon-Fri", "time": "3:45pm"}, {"days": "Sat", "time": "9:45am"}, {"days": "Sun", "time": "Closed"}], "id": "2912200001", "name": "USPS COLLECTION BOX - PO LOBBY", "address": {"city": "PEAK", "state": "SC", "street": "10 RIVER ST", "postcode": "29122"}}},
{"geometry": {"type": "Point", "coordinates": [-81.2467150881, 33.7636210206]}, "type": "Feature", "properties": {"collection_times": [{"days": "Mon-Fri", "time": "3:45pm"}, {"days": "Sat", "time": "10:45am"}, {"days": "Sun", "time": "Closed"}], "id": "2912300000", "name": "USPS COLLECTION BOX - BLUE BOX", "address": {"city": "PELION", "state": "SC", "street": "739 PINE ST", "postcode": "29123"}}},
{"geometry": {"type": "Point", "coordinates": [-81.2467150881, 33.7636210206]}, "type": "Feature", "properties": {"collection_times": [{"days": "Mon-Fri", "time": "3:45pm"}, {"days": "Sat", "time": "10:45am"}, {"days": "Sun", "time": "Closed"}], "id": "2912300001", "name": "USPS COLLECTION BOX - PO LOBBY", "address": {"city": "PELION", "state": "SC", "street": "739 PINE ST", "postcode": "29123"}}},
{"geometry": {"type": "Point", "coordinates": [-80.4641353962, 33.7386880929]}, "type": "Feature", "properties": {"collection_times": [{"days": "Mon-Fri", "time": "3:45pm"}, {"days": "Sat", "time": "9:45am"}, {"days": "Sun", "time": "Closed"}], "id": "2912500000", "name": "USPS COLLECTION BOX - BLUE BOX", "address": {"city": "PINEWOOD", "state": "SC", "street": "18 E CLARK ST", "postcode": "29125"}}},
{"geometry": {"type": "Point", "coordinates": [-80.4641353962, 33.7386880929]}, "type": "Feature", "properties": {"collection_times": [{"days": "Mon-Fri", "time": "3:45pm"}, {"days": "Sat", "time": "9:45am"}, {"days": "Sun", "time": "Closed"}], "id": "2912500001", "name": "USPS COLLECTION BOX - PO LOBBY", "address": {"city": "PINEWOOD", "state": "SC", "street": "18 E CLARK ST", "postcode": "29125"}}},
{"geometry": {"type": "Point", "coordinates": [-81.3985350167, 34.2570970318]}, "type": "Feature", "properties": {"collection_times": [{"days": "Mon-Fri", "time": "3:45pm"}, {"days": "Sat", "time": "9:45am"}, {"days": "Sun", "time": "Closed"}], "id": "2912600000", "name": "USPS COLLECTION BOX - BLUE BOX", "address": {"city": "POMARIA", "state": "SC", "street": "5375 US HIGHWAY 176", "postcode": "29126"}}},
{"geometry": {"type": "Point", "coordinates": [-81.3985350167, 34.2570970318]}, "type": "Feature", "properties": {"collection_times": [{"days": "Mon-Fri", "time": "3:45pm"}, {"days": "Sat", "time": "9:45am"}, {"days": "Sun", "time": "Closed"}], "id": "2912600001", "name": "USPS COLLECTION BOX - PO LOBBY", "address": {"city": "POMARIA", "state": "SC", "street": "5375 US HIGHWAY 176", "postcode": "29126"}}},
{"geometry": {"type": "Point", "coordinates": [-81.5341667994, 34.209815102]}, "type": "Feature", "properties": {"collection_times": [{"days": "Mon-Fri", "time": "3:45pm"}, {"days": "Sat", "time": "9:45am"}, {"days": "Sun", "time": "Closed"}], "id": "2912700001", "name": "USPS COLLECTION BOX - PO LOBBY", "address": {"city": "PROSPERITY", "state": "SC", "street": "155 N MAIN ST", "postcode": "29127"}}},
{"geometry": {"type": "Point", "coordinates": [-81.5341667994, 34.209815102]}, "type": "Feature", "properties": {"collection_times": [{"days": "Mon-Fri", "time": "3:45pm"}, {"days": "Sat", "time": "9:45am"}, {"days": "Sun", "time": "Closed"}], "id": "2912700002", "name": "USPS COLLECTION BOX - BLUE BOX", "address": {"city": "PROSPERITY", "state": "SC", "street": "155 N MAIN ST", "postcode": "29127"}}},
{"geometry": {"type": "Point", "coordinates": [-81.5341667994, 34.209815102]}, "type": "Feature", "properties": {"collection_times": [{"days": "Mon-Fri", "time": "3:45pm"}, {"days": "Sat", "time": "9:45am"}, {"days": "Sun", "time": "Closed"}], "id": "2912700003", "name": "USPS COLLECTION BOX - BLUE BOX", "address": {"city": "PROSPERITY", "state": "SC", "street": "155 N MAIN ST", "postcode": "29127"}}},
{"geometry": {"type": "Point", "coordinates": [-80.4630496531, 34.0317240533]}, "type": "Feature", "properties": {"collection_times": [{"days": "Mon-Fri", "time": "3:45pm"}, {"days": "Sat", "time": "9:45am"}, {"days": "Sun", "time": "Closed"}], "id": "2912800000", "name": "USPS COLLECTION BOX - BLUE BOX", "address": {"city": "REMBERT", "state": "SC", "street": "8335 CAMDEN HWY", "postcode": "29128"}}},
{"geometry": {"type": "Point", "coordinates": [-80.5256131227, 34.0869512243]}, "type": "Feature", "properties": {"collection_times": [{"days": "Mon-Fri", "time": "3:45pm"}, {"days": "Sat", "time": "9:45am"}, {"days": "Sun", "time": "Closed"}], "id": "2912800001", "name": "USPS COLLECTION BOX - PO LOBBY", "address": {"city": "REMBERT", "state": "SC", "street": "8335 CAMDEN HWY", "postcode": "29128"}}},
{"geometry": {"type": "Point", "coordinates": [-81.6496215721, 33.8465121518]}, "type": "Feature", "properties": {"collection_times": [{"days": "Mon-Fri", "time": "3:45pm"}, {"days": "Sat", "time": "9:45am"}, {"days": "Sun", "time": "Closed"}], "id": "2912900000", "name": "USPS COLLECTION BOX - BLUE BOX", "address": {"city": "RIDGE SPRING", "state": "SC", "street": "610 E MAIN ST", "postcode": "29129"}}},
{"geometry": {"type": "Point", "coordinates": [-81.6496215721, 33.8465121518]}, "type": "Feature", "properties": {"collection_times": [{"days": "Mon-Fri", "time": "3:45pm"}, {"days": "Sat", "time": "9:45am"}, {"days": "Sun", "time": "Closed"}], "id": "2912900001", "name": "USPS COLLECTION BOX - PO LOBBY", "address": {"city": "RIDGE SPRING", "state": "SC", "street": "610 E MAIN ST", "postcode": "29129"}}},
{"geometry": {"type": "Point", "coordinates": [-80.9573520301, 34.304950776]}, "type": "Feature", "properties": {"collection_times": [{"days": "Mon-Fri", "time": "3:45pm"}, {"days": "Sat", "time": "9:45am"}, {"days": "Sun", "time": "Closed"}], "id": "2913000000", "name": "USPS COLLECTION BOX - BLUE BOX", "address": {"city": "RIDGEWAY", "state": "SC", "street": "290 S PALMER ST", "postcode": "29130"}}},
{"geometry": {"type": "Point", "coordinates": [-80.9573520301, 34.304950776]}, "type": "Feature", "properties": {"collection_times": [{"days": "Mon-Fri", "time": "3:45pm"}, {"days": "Sat", "time": "9:45am"}, {"days": "Sun", "time": "Closed"}], "id": "2913000001", "name": "USPS COLLECTION BOX - PO LOBBY", "address": {"city": "RIDGEWAY", "state": "SC", "street": "290 S PALMER ST", "postcode": "29130"}}},
{"geometry": {"type": "Point", "coordinates": [-81.1284914732, 34.3097053551]}, "type": "Feature", "properties": {"collection_times": [{"days": "Mon-Fri", "time": "10:30am"}, {"days": "Sat-Sun", "time": "Closed"}], "id": "2913200000", "name": "USPS COLLECTION BOX - BLUE BOX", "address": {"city": "RION", "state": "SC", "street": "243 RION RD", "postcode": "29132"}}},
{"geometry": {"type": "Point", "coordinates": [-80.8361637653, 33.3723983975]}, "type": "Feature", "properties": {"collection_times": [{"days": "Mon-Fri", "time": "3:45pm"}, {"days": "Sat", "time": "9:45am"}, {"days": "Sun", "time": "Closed"}], "id": "2913300000", "name": "USPS COLLECTION BOX - BLUE BOX", "address": {"city": "ROWESVILLE", "state": "SC", "street": "219 ROWES PUMP DR", "postcode": "29133"}}},
{"geometry": {"type": "Point", "coordinates": [-80.8358986143, 33.3710562866]}, "type": "Feature", "properties": {"collection_times": [{"days": "Mon-Fri", "time": "3:45pm"}, {"days": "Sat", "time": "9:45am"}, {"days": "Sun", "time": "Closed"}], "id": "2913300001", "name": "USPS COLLECTION BOX - PO LOBBY", "address": {"city": "ROWESVILLE", "state": "SC", "street": "219 ROWES PUMP DR", "postcode": "29133"}}},
{"geometry": {"type": "Point", "coordinates": [-80.7825865195, 33.6556640328]}, "type": "Feature", "properties": {"collection_times": [{"days": "Mon-Fri", "time": "3:45pm"}, {"days": "Sat", "time": "10:45am"}, {"days": "Sun", "time": "Closed"}], "id": "2913500001", "name": "USPS COLLECTION BOX - BLUE BOX", "address": {"city": "SAINT MATTHEWS", "state": "SC", "street": "616 F R HUFF DR", "postcode": "29135"}}},
{"geometry": {"type": "Point", "coordinates": [-80.7825865195, 33.6556640328]}, "type": "Feature", "properties": {"collection_times": [{"days": "Mon-Fri", "time": "3:45pm"}, {"days": "Sat", "time": "10:45am"}, {"days": "Sun", "time": "Closed"}], "id": "2913500002", "name": "USPS COLLECTION BOX - PO LOBBY", "address": {"city": "SAINT MATTHEWS", "state": "SC", "street": "616 F R HUFF DR", "postcode": "29135"}}},
{"geometry": {"type": "Point", "coordinates": [-80.8194033609, 33.6448197092]}, "type": "Feature", "properties": {"collection_times": [{"days": "Mon-Fri", "time": "10:00am"}, {"days": "Sat-Sun", "time": "Closed"}], "id": "2913500005", "name": "USPS COLLECTION BOX - BLUE BOX", "address": {"city": "SAINT MATTHEWS", "state": "SC", "street": "1300A BURKE RD", "postcode": "29135"}}},
{"geometry": {"type": "Point", "coordinates": [-81.3038535633, 33.5658062521]}, "type": "Feature", "properties": {"collection_times": [{"days": "Mon-Fri", "time": "3:45pm"}, {"days": "Sat", "time": "9:45am"}, {"days": "Sun", "time": "Closed"}], "id": "2913700000", "name": "USPS COLLECTION BOX - BLUE BOX", "address": {"city": "SALLEY", "state": "SC", "street": "115 RAILROAD AVE N", "postcode": "29137"}}},
{"geometry": {"type": "Point", "coordinates": [-81.3038535633, 33.5658062521]}, "type": "Feature", "properties": {"collection_times": [{"days": "Mon-Fri", "time": "3:45pm"}, {"days": "Sat", "time": "9:45am"}, {"days": "Sun", "time": "Closed"}], "id": "2913700001", "name": "USPS COLLECTION BOX - PO LOBBY", "address": {"city": "SALLEY", "state": "SC", "street": "115 RAILROAD AVE N", "postcode": "29137"}}},
{"geometry": {"type": "Point", "coordinates": [-81.7652912886, 34.0079256498]}, "type": "Feature", "properties": {"collection_times": [{"days": "Mon-Fri", "time": "3:45pm"}, {"days": "Sat", "time": "10:45am"}, {"days": "Sun", "time": "Closed"}], "id": "2913800001", "name": "USPS COLLECTION BOX - PO LOBBY", "address": {"city": "SALUDA", "state": "SC", "street": "424 TRAVIS AVE", "postcode": "29138"}}},
{"geometry": {"type": "Point", "coordinates": [-81.7720238592, 34.0015638882]}, "type": "Feature", "properties": {"collection_times": [{"days": "Mon-Fri", "time": "2:00pm"}, {"days": "Sat", "time": "10:45am"}, {"days": "Sun", "time": "Closed"}], "id": "2913800002", "name": "USPS COLLECTION BOX - BLUE BOX", "address": {"city": "SALUDA", "state": "SC", "street": "100 S MAIN ST", "postcode": "29138"}}},
{"geometry": {"type": "Point", "coordinates": [-81.7652912886, 34.0079256498]}, "type": "Feature", "properties": {"collection_times": [{"days": "Mon-Fri", "time": "3:45pm"}, {"days": "Sat", "time": "10:45am"}, {"days": "Sun", "time": "Closed"}], "id": "2913800012", "name": "USPS COLLECTION BOX - PO LOBBY", "address": {"city": "SALUDA", "state": "SC", "street": "424 TRAVIS AVE", "postcode": "29138"}}},
{"geometry": {"type": "Point", "coordinates": [-81.7652912886, 34.0079256498]}, "type": "Feature", "properties": {"collection_times": [{"days": "Mon-Fri", "time": "3:45pm"}, {"days": "Sat", "time": "10:45am"}, {"days": "Sun", "time": "Closed"}], "id": "2913800013", "name": "USPS COLLECTION BOX - PO LOBBY", "address": {"city": "SALUDA", "state": "SC", "street": "424 TRAVIS AVE", "postcode": "29138"}}},
{"geometry": {"type": "Point", "coordinates": [-81.7652912886, 34.0079256498]}, "type": "Feature", "properties": {"collection_times": [{"days": "Mon-Fri", "time": "3:45pm"}, {"days": "Sat", "time": "10:45am"}, {"days": "Sun", "time": "Closed"}], "id": "2913800014", "name": "USPS COLLECTION BOX - PO LOBBY", "address": {"city": "SALUDA", "state": "SC", "street": "424 TRAVIS AVE", "postcode": "29138"}}},
{"geometry": {"type": "Point", "coordinates": [-81.7652912886, 34.0079256498]}, "type": "Feature", "properties": {"collection_times": [{"days": "Mon-Fri", "time": "3:45pm"}, {"days": "Sat", "time": "10:45am"}, {"days": "Sun", "time": "Closed"}], "id": "2913800015", "name": "USPS COLLECTION BOX - BLUE BOX", "address": {"city": "SALUDA", "state": "SC", "street": "424 TRAVIS AVE", "postcode": "29138"}}},
{"geometry": {"type": "Point", "coordinates": [-80.4789409211, 33.4842440674]}, "type": "Feature", "properties": {"collection_times": [{"days": "Mon-Fri", "time": "3:45pm"}, {"days": "Sat", "time": "9:45am"}, {"days": "Sun", "time": "Closed"}], "id": "2914200000", "name": "USPS COLLECTION BOX - BLUE BOX", "address": {"city": "SANTEE", "state": "SC", "street": "689 BASS DR", "postcode": "29142"}}},
{"geometry": {"type": "Point", "coordinates": [-80.4789409211, 33.4842440674]}, "type": "Feature", "properties": {"collection_times": [{"days": "Mon-Fri", "time": "3:45pm"}, {"days": "Sat", "time": "9:45am"}, {"days": "Sun", "time": "Closed"}], "id": "2914200001", "name": "USPS COLLECTION BOX - PO LOBBY", "address": {"city": "SANTEE", "state": "SC", "street": "689 BASS DR", "postcode": "29142"}}},
{"geometry": {"type": "Point", "coordinates": [-80.5229131189, 33.4644661434]}, "type": "Feature", "properties": {"collection_times": [{"days": "Mon-Fri", "time": "9:00am"}, {"days": "Sat-Sun", "time": "Closed"}], "id": "2914200002", "name": "USPS COLLECTION BOX - BLUE BOX", "address": {"city": "SANTEE", "state": "SC", "street": "1500 VILLAGE SQUARE BLVD", "postcode": "29142"}}},
{"geometry": {"type": "Point", "coordinates": [-80.4789409211, 33.4842440674]}, "type": "Feature", "properties": {"collection_times": [{"days": "Mon-Fri", "time": "3:45pm"}, {"days": "Sat", "time": "9:45am"}, {"days": "Sun", "time": "Closed"}], "id": "2914200003", "name": "USPS COLLECTION BOX - PO LOBBY", "address": {"city": "SANTEE", "state": "SC", "street": "689 BASS DR", "postcode": "29142"}}},
{"geometry": {"type": "Point", "coordinates": [-80.4789409211, 33.4842440674]}, "type": "Feature", "properties": {"collection_times": [{"days": "Mon-Fri", "time": "3:45pm"}, {"days": "Sat", "time": "9:45am"}, {"days": "Sun", "time": "Closed"}], "id": "2914200004", "name": "USPS COLLECTION BOX - BLUE BOX", "address": {"city": "SANTEE", "state": "SC", "street": "689 BASS DR", "postcode": "29142"}}},
{"geometry": {"type": "Point", "coordinates": [-81.7169084998, 34.2189764573]}, "type": "Feature", "properties": {"collection_times": [{"days": "Mon-Fri", "time": "3:45pm"}, {"days": "Sat", "time": "9:45am"}, {"days": "Sun", "time": "Closed"}], "id": "2914500000", "name": "USPS COLLECTION BOX - BLUE BOX", "address": {"city": "SILVERSTREET", "state": "SC", "street": "1195 MAIN ST", "postcode": "29145"}}},
{"geometry": {"type": "Point", "coordinates": [-81.7169084998, 34.2189764573]}, "type": "Feature", "properties": {"collection_times": [{"days": "Mon-Fri", "time": "3:45pm"}, {"days": "Sat", "time": "9:45am"}, {"days": "Sun", "time": "Closed"}], "id": "2914500001", "name": "USPS COLLECTION BOX - PO LOBBY", "address": {"city": "SILVERSTREET", "state": "SC", "street": "1195 MAIN ST", "postcode": "29145"}}},
{"geometry": {"type": "Point", "coordinates": [-81.2787820754, 33.4950610003]}, "type": "Feature", "properties": {"collection_times": [{"days": "Mon-Fri", "time": "3:45pm"}, {"days": "Sat", "time": "9:45am"}, {"days": "Sun", "time": "Closed"}], "id": "2914600000", "name": "USPS COLLECTION BOX - BLUE BOX", "address": {"city": "SPRINGFIELD", "state": "SC", "street": "7220 FESTIVAL TRAIL RD", "postcode": "29146"}}},
{"geometry": {"type": "Point", "coordinates": [-81.2787820754, 33.4950610003]}, "type": "Feature", "properties": {"collection_times": [{"days": "Mon-Fri", "time": "3:45pm"}, {"days": "Sat", "time": "9:45am"}, {"days": "Sun", "time": "Closed"}], "id": "2914600001", "name": "USPS COLLECTION BOX - PO LOBBY", "address": {"city": "SPRINGFIELD", "state": "SC", "street": "7220 FESTIVAL TRAIL RD", "postcode": "29146"}}},
{"geometry": {"type": "Point", "coordinates": [-80.9744300711, 34.0866293211]}, "type": "Feature", "properties": {"collection_times": [{"days": "Mon-Fri", "time": "3:45pm"}, {"days": "Sat-Sun", "time": "Closed"}], "id": "2914700000", "name": "USPS COLLECTION BOX - BLUE BOX", "address": {"city": "STATE PARK", "state": "SC", "street": "20 HINTON ST", "postcode": "29147"}}},
{"geometry": {"type": "Point", "coordinates": [-80.9744300711, 34.0866293211]}, "type": "Feature", "properties": {"collection_times": [{"days": "Mon-Fri", "time": "3:45pm"}, {"days": "Sat-Sun", "time": "Closed"}], "id": "2914700001", "name": "USPS COLLECTION BOX - PO LOBBY", "address": {"city": "STATE PARK", "state": "SC", "street": "20 HINTON ST", "postcode": "29147"}}},
{"geometry": {"type": "Point", "coordinates": [-80.3627687492, 33.6093807641]}, "type": "Feature", "properties": {"collection_times": [{"days": "Mon-Fri", "time": "3:45pm"}, {"days": "Sat", "time": "9:45am"}, {"days": "Sun", "time": "Closed"}], "id": "2914800000", "name": "USPS COLLECTION BOX - BLUE BOX", "address": {"city": "SUMMERTON", "state": "SC", "street": "4 LARRY KING HWY", "postcode": "29148"}}},
{"geometry": {"type": "Point", "coordinates": [-80.3627687492, 33.6093807641]}, "type": "Feature", "properties": {"collection_times": [{"days": "Mon-Fri", "time": "3:45pm"}, {"days": "Sat", "time": "9:45am"}, {"days": "Sun", "time": "Closed"}], "id": "2914800001", "name": "USPS COLLECTION BOX - BLUE BOX", "address": {"city": "SUMMERTON", "state": "SC", "street": "4 LARRY KING HWY", "postcode": "29148"}}},
{"geometry": {"type": "Point", "coordinates": [-80.3627687492, 33.6093807641]}, "type": "Feature", "properties": {"collection_times": [{"days": "Mon-Fri", "time": "3:45pm"}, {"days": "Sat", "time": "9:45am"}, {"days": "Sun", "time": "Closed"}], "id": "2914800002", "name": "USPS COLLECTION BOX - PO LOBBY", "address": {"city": "SUMMERTON", "state": "SC", "street": "4 LARRY KING HWY", "postcode": "29148"}}},
{"geometry": {"type": "Point", "coordinates": [-80.357998228, 33.6089849]}, "type": "Feature", "properties": {"collection_times": [{"days": "Mon-Fri", "time": "3:45pm"}, {"days": "Sat", "time": "9:45am"}, {"days": "Sun", "time": "Closed"}], "id": "2914800005", "name": "USPS COLLECTION BOX - PO LOBBY", "address": {"city": "SUMMERTON", "state": "SC", "street": "4 LARRY KING HWY", "postcode": "29148"}}},
{"geometry": {"type": "Point", "coordinates": [-80.341170694, 33.9246514003]}, "type": "Feature", "properties": {"collection_times": [{"days": "Mon-Sat", "time": "5:00pm"}, {"days": "Sun", "time": "Closed"}], "id": "2915000005", "name": "USPS COLLECTION BOX - BLUE BOX", "address": {"city": "SUMTER", "state": "SC", "street": "311 N MAIN ST", "postcode": "29150"}}},
{"geometry": {"type": "Point", "coordinates": [-80.341170694, 33.9246514003]}, "type": "Feature", "properties": {"collection_times": [{"days": "Mon-Sat", "time": "5:00pm"}, {"days": "Sun", "time": "Closed"}], "id": "2915000008", "name": "USPS COLLECTION BOX - PO LOBBY", "address": {"city": "SUMTER", "state": "SC", "street": "311 N MAIN ST", "postcode": "29150"}}},
{"geometry": {"type": "Point", "coordinates": [-80.341170694, 33.9246514003]}, "type": "Feature", "properties": {"collection_times": [{"days": "Mon-Sat", "time": "5:00pm"}, {"days": "Sun", "time": "Closed"}], "id": "2915000009", "name": "USPS COLLECTION BOX - PO LOBBY", "address": {"city": "SUMTER", "state": "SC", "street": "311 N MAIN ST", "postcode": "29150"}}},
{"geometry": {"type": "Point", "coordinates": [-80.341170694, 33.9246514003]}, "type": "Feature", "properties": {"collection_times": [{"days": "Mon-Sat", "time": "5:00pm"}, {"days": "Sun", "time": "Closed"}], "id": "2915000010", "name": "USPS COLLECTION BOX - PO LOBBY", "address": {"city": "SUMTER", "state": "SC", "street": "311 N MAIN ST", "postcode": "29150"}}},
{"geometry": {"type": "Point", "coordinates": [-80.3411524682, 33.9229252188]}, "type": "Feature", "properties": {"collection_times": [{"days": "Mon-Fri", "time": "12:45pm"}, {"days": "Sat-Sun", "time": "Closed"}], "id": "2915000011", "name": "USPS COLLECTION BOX - BLUE BOX", "address": {"city": "SUMTER", "state": "SC", "street": "13 E CANAL ST", "postcode": "29150"}}},
{"geometry": {"type": "Point", "coordinates": [-80.3375058161, 33.9206031941]}, "type": "Feature", "properties": {"collection_times": [{"days": "Mon-Sat", "time": "12:45pm"}, {"days": "Sun", "time": "Closed"}], "id": "2915000012", "name": "USPS COLLECTION BOX - BLUE BOX", "address": {"city": "SUMTER", "state": "SC", "street": "20 N MAGNOLIA ST", "postcode": "29150"}}},
{"geometry": {"type": "Point", "coordinates": [-80.3778400435, 33.9526253019]}, "type": "Feature", "properties": {"collection_times": [{"days": "Mon-Sat", "time": "2:00pm"}, {"days": "Sun", "time": "Closed"}], "id": "2915000024", "name": "USPS COLLECTION BOX - BLUE BOX", "address": {"city": "SUMTER", "state": "SC", "street": "1121 BROAD ST", "postcode": "29150"}}},
{"geometry": {"type": "Point", "coordinates": [-80.3858987029, 33.9566076515]}, "type": "Feature", "properties": {"collection_times": [{"days": "Mon-Sat", "time": "2:00pm"}, {"days": "Sun", "time": "Closed"}], "id": "2915000029", "name": "USPS COLLECTION BOX - BLUE BOX", "address": {"city": "SUMTER", "state": "SC", "street": "1300 BROAD ST", "postcode": "29150"}}},
{"geometry": {"type": "Point", "coordinates": [-80.3687437617, 33.9323183757]}, "type": "Feature", "properties": {"collection_times": [{"days": "Mon-Sat", "time": "1:45pm"}, {"days": "Sun", "time": "Closed"}], "id": "2915000034", "name": "USPS COLLECTION BOX - BLUE BOX", "address": {"city": "SUMTER", "state": "SC", "street": "493 N GUIGNARD DR", "postcode": "29150"}}},
{"geometry": {"type": "Point", "coordinates": [-80.3687437617, 33.9323183757]}, "type": "Feature", "properties": {"collection_times": [{"days": "Mon-Sat", "time": "1:45pm"}, {"days": "Sun", "time": "Closed"}], "id": "2915000035", "name": "USPS COLLECTION BOX - BLUE BOX", "address": {"city": "SUMTER", "state": "SC", "street": "493 N GUIGNARD DR", "postcode": "29150"}}},
{"geometry": {"type": "Point", "coordinates": [-80.3414627509, 33.9219320234]}, "type": "Feature", "properties": {"collection_times": [{"days": "Mon-Fri", "time": "5:00pm"}, {"days": "Sat", "time": "1:00pm"}, {"days": "Sun", "time": "Closed"}], "id": "2915000043", "name": "USPS COLLECTION BOX - BLUE BOX", "address": {"city": "SUMTER", "state": "SC", "street": "119 N MAIN ST", "postcode": "29150"}}},
{"geometry": {"type": "Point", "coordinates": [-80.3428908546, 33.9231131357]}, "type": "Feature", "properties": {"collection_times": [{"days": "Mon-Sat", "time": "1:00pm"}, {"days": "Sun", "time": "Closed"}], "id": "2915000045", "name": "USPS COLLECTION BOX - BLUE BOX", "address": {"city": "SUMTER", "state": "SC", "street": "101 W CANAL ST", "postcode": "29150"}}},
{"geometry": {"type": "Point", "coordinates": [-80.340212733, 33.9241712709]}, "type": "Feature", "properties": {"collection_times": [{"days": "Mon-Sat", "time": "12:45pm"}, {"days": "Sun", "time": "Closed"}], "id": "2915000065", "name": "USPS COLLECTION BOX - BLUE BOX", "address": {"city": "SUMTER", "state": "SC", "street": "32 E CALHOUN ST", "postcode": "29150"}}},
{"geometry": {"type": "Point", "coordinates": [-80.3794634207, 33.9055649257]}, "type": "Feature", "properties": {"collection_times": [{"days": "Mon-Sat", "time": "1:15pm"}, {"days": "Sun", "time": "Closed"}], "id": "2915000068", "name": "USPS COLLECTION BOX - BLUE BOX", "address": {"city": "SUMTER", "state": "SC", "street": "360 PINEWOOD RD", "postcode": "29150"}}},
{"geometry": {"type": "Point", "coordinates": [-80.3432064921, 33.9219500245]}, "type": "Feature", "properties": {"collection_times": [{"days": "Mon-Sat", "time": "1:00pm"}, {"days": "Sun", "time": "Closed"}], "id": "2915000070", "name": "USPS COLLECTION BOX - BLUE BOX", "address": {"city": "SUMTER", "state": "SC", "street": "115 N SUMTER ST", "postcode": "29150"}}},
{"geometry": {"type": "Point", "coordinates": [-80.3507098023, 33.8832072433]}, "type": "Feature", "properties": {"collection_times": [{"days": "Mon-Sat", "time": "1:15pm"}, {"days": "Sun", "time": "Closed"}], "id": "2915000075", "name": "USPS COLLECTION BOX - BLUE BOX", "address": {"city": "SUMTER", "state": "SC", "street": "1455 S GUIGNARD DR", "postcode": "29150"}}},
{"geometry": {"type": "Point", "coordinates": [-80.3993281164, 33.955393173]}, "type": "Feature", "properties": {"collection_times": [{"days": "Mon-Sat", "time": "2:00pm"}, {"days": "Sun", "time": "Closed"}], "id": "2915000076", "name": "USPS COLLECTION BOX - BLUE BOX", "address": {"city": "SUMTER", "state": "SC", "street": "1254 WILSON HALL RD", "postcode": "29150"}}},
{"geometry": {"type": "Point", "coordinates": [-80.341170694, 33.9246514003]}, "type": "Feature", "properties": {"collection_times": [{"days": "Mon-Sat", "time": "5:00pm"}, {"days": "Sun", "time": "Closed"}], "id": "2915000081", "name": "USPS COLLECTION BOX - APC", "address": {"city": "SUMTER", "state": "SC", "street": "311 N MAIN ST", "postcode": "29150"}}},
{"geometry": {"type": "Point", "coordinates": [-80.4818787949, 33.9720007473]}, "type": "Feature", "properties": {"collection_times": [{"days": "Mon-Fri", "time": "4:00pm"}, {"days": "Sat", "time": "1:00pm"}, {"days": "Sun", "time": "Closed"}], "id": "2915200008", "name": "USPS COLLECTION BOX - BLUE BOX", "address": {"city": "SHAW AFB", "state": "SC", "street": "510 NELSON AVE", "postcode": "29152"}}},
{"geometry": {"type": "Point", "coordinates": [-80.4818787949, 33.9720007473]}, "type": "Feature", "properties": {"collection_times": [{"days": "Mon-Fri", "time": "4:00pm"}, {"days": "Sat", "time": "1:00pm"}, {"days": "Sun", "time": "Closed"}], "id": "2915200009", "name": "USPS COLLECTION BOX - PO LOBBY", "address": {"city": "SHAW AFB", "state": "SC", "street": "510 NELSON AVE", "postcode": "29152"}}},
{"geometry": {"type": "Point", "coordinates": [-80.4706694332, 33.9757938823]}, "type": "Feature", "properties": {"collection_times": [{"days": "Mon-Sat", "time": "9:00am"}, {"days": "Sun", "time": "Closed"}], "id": "2915200010", "name": "USPS COLLECTION BOX - BLUE BOX", "address": {"city": "SHAW AFB", "state": "SC", "street": "417 POLISKA DR", "postcode": "29152"}}},
{"geometry": {"type": "Point", "coordinates": [-81.1005887267, 33.7365306998]}, "type": "Feature", "properties": {"collection_times": [{"days": "Mon-Fri", "time": "3:45pm"}, {"days": "Sat", "time": "9:45am"}, {"days": "Sun", "time": "Closed"}], "id": "2916000000", "name": "USPS COLLECTION BOX - BLUE BOX", "address": {"city": "SWANSEA", "state": "SC", "street": "295 S CHURCH ST", "postcode": "29160"}}},
{"geometry": {"type": "Point", "coordinates": [-81.1005887267, 33.7365306998]}, "type": "Feature", "properties": {"collection_times": [{"days": "Mon-Fri", "time": "3:45pm"}, {"days": "Sat", "time": "9:45am"}, {"days": "Sun", "time": "Closed"}], "id": "2916000001", "name": "USPS COLLECTION BOX - PO LOBBY", "address": {"city": "SWANSEA", "state": "SC", "street": "295 S CHURCH ST", "postcode": "29160"}}},
{"geometry": {"type": "Point", "coordinates": [-79.9407485394, 34.13531129]}, "type": "Feature", "properties": {"collection_times": [{"days": "Mon-Fri", "time": "3:45pm"}, {"days": "Sat", "time": "9:45am"}, {"days": "Sun", "time": "Closed"}], "id": "2916100000", "name": "USPS COLLECTION BOX - PO LOBBY", "address": {"city": "TIMMONSVILLE", "state": "SC", "street": "203 E MAIN ST", "postcode": "29161"}}},
{"geometry": {"type": "Point", "coordinates": [-79.9407485394, 34.13531129]}, "type": "Feature", "properties": {"collection_times": [{"days": "Mon-Fri", "time": "3:45pm"}, {"days": "Sat", "time": "9:45am"}, {"days": "Sun", "time": "Closed"}], "id": "2916100003", "name": "USPS COLLECTION BOX - BLUE BOX", "address": {"city": "TIMMONSVILLE", "state": "SC", "street": "203 E MAIN ST", "postcode": "29161"}}},
{"geometry": {"type": "Point", "coordinates": [-79.9407485394, 34.13531129]}, "type": "Feature", "properties": {"collection_times": [{"days": "Mon-Fri", "time": "3:45pm"}, {"days": "Sat", "time": "9:45am"}, {"days": "Sun", "time": "Closed"}], "id": "2916100006", "name": "USPS COLLECTION BOX - PO LOBBY", "address": {"city": "TIMMONSVILLE", "state": "SC", "street": "203 E MAIN ST", "postcode": "29161"}}},
{"geometry": {"type": "Point", "coordinates": [-79.9965946773, 33.8791194077]}, "type": "Feature", "properties": {"collection_times": [{"days": "Mon-Fri", "time": "3:45pm"}, {"days": "Sat", "time": "9:45am"}, {"days": "Sun", "time": "Closed"}], "id": "2916200001", "name": "USPS COLLECTION BOX - PO LOBBY", "address": {"city": "TURBEVILLE", "state": "SC", "street": "1290 CLARENCE COKER HWY", "postcode": "29162"}}},
{"geometry": {"type": "Point", "coordinates": [-79.9965946773, 33.8791194077]}, "type": "Feature", "properties": {"collection_times": [{"days": "Mon-Fri", "time": "3:45pm"}, {"days": "Sat", "time": "9:45am"}, {"days": "Sun", "time": "Closed"}], "id": "2916200003", "name": "USPS COLLECTION BOX - BLUE BOX", "address": {"city": "TURBEVILLE", "state": "SC", "street": "1290 CLARENCE COKER HWY", "postcode": "29162"}}},
{"geometry": {"type": "Point", "coordinates": [-79.9965946773, 33.8791194077]}, "type": "Feature", "properties": {"collection_times": [{"days": "Mon-Fri", "time": "3:45pm"}, {"days": "Sat", "time": "9:45am"}, {"days": "Sun", "time": "Closed"}], "id": "2916200004", "name": "USPS COLLECTION BOX - PO LOBBY", "address": {"city": "TURBEVILLE", "state": "SC", "street": "1290 CLARENCE COKER HWY", "postcode": "29162"}}},
{"geometry": {"type": "Point", "coordinates": [-80.4282786419, 33.4448453486]}, "type": "Feature", "properties": {"collection_times": [{"days": "Mon-Fri", "time": "3:45pm"}, {"days": "Sat", "time": "9:45am"}, {"days": "Sun", "time": "Closed"}], "id": "2916300000", "name": "USPS COLLECTION BOX - BLUE BOX", "address": {"city": "VANCE", "state": "SC", "street": "450 CAMDEN RD", "postcode": "29163"}}},
{"geometry": {"type": "Point", "coordinates": [-80.4282786419, 33.4448453486]}, "type": "Feature", "properties": {"collection_times": [{"days": "Mon-Fri", "time": "3:45pm"}, {"days": "Sat", "time": "9:45am"}, {"days": "Sun", "time": "Closed"}], "id": "2916300001", "name": "USPS COLLECTION BOX - PO LOBBY", "address": {"city": "VANCE", "state": "SC", "street": "450 CAMDEN RD", "postcode": "29163"}}},
{"geometry": {"type": "Point", "coordinates": [-81.3592795146, 33.650278716]}, "type": "Feature", "properties": {"collection_times": [{"days": "Mon-Fri", "time": "3:45pm"}, {"days": "Sat", "time": "10:45am"}, {"days": "Sun", "time": "Closed"}], "id": "2916400001", "name": "USPS COLLECTION BOX - PO LOBBY", "address": {"city": "WAGENER", "state": "SC", "street": "171 PARK ST NE", "postcode": "29164"}}},
{"geometry": {"type": "Point", "coordinates": [-81.3592795146, 33.650278716]}, "type": "Feature", "properties": {"collection_times": [{"days": "Mon-Fri", "time": "3:45pm"}, {"days": "Sat", "time": "10:45am"}, {"days": "Sun", "time": "Closed"}], "id": "2916400002", "name": "USPS COLLECTION BOX - PO LOBBY", "address": {"city": "WAGENER", "state": "SC", "street": "171 PARK ST NE", "postcode": "29164"}}},
{"geometry": {"type": "Point", "coordinates": [-81.3592795146, 33.650278716]}, "type": "Feature", "properties": {"collection_times": [{"days": "Mon-Fri", "time": "3:45pm"}, {"days": "Sat", "time": "10:45am"}, {"days": "Sun", "time": "Closed"}], "id": "2916400004", "name": "USPS COLLECTION BOX - BLUE BOX", "address": {"city": "WAGENER", "state": "SC", "street": "171 PARK ST NE", "postcode": "29164"}}},
{"geometry": {"type": "Point", "coordinates": [-81.73963078, 33.8865316431]}, "type": "Feature", "properties": {"collection_times": [{"days": "Mon-Fri", "time": "3:45pm"}, {"days": "Sat", "time": "9:45am"}, {"days": "Sun", "time": "Closed"}], "id": "2916600000", "name": "USPS COLLECTION BOX - BLUE BOX", "address": {"city": "WARD", "state": "SC", "street": "109 E FRONT ST", "postcode": "29166"}}},
{"geometry": {"type": "Point", "coordinates": [-81.73963078, 33.8865316431]}, "type": "Feature", "properties": {"collection_times": [{"days": "Mon-Fri", "time": "3:45pm"}, {"days": "Sat", "time": "9:45am"}, {"days": "Sun", "time": "Closed"}], "id": "2916600001", "name": "USPS COLLECTION BOX - PO LOBBY", "address": {"city": "WARD", "state": "SC", "street": "109 E FRONT ST", "postcode": "29166"}}},
{"geometry": {"type": "Point", "coordinates": [-80.5175293655, 33.8858283186]}, "type": "Feature", "properties": {"collection_times": [{"days": "Mon-Fri", "time": "3:45pm"}, {"days": "Sat", "time": "9:45am"}, {"days": "Sun", "time": "Closed"}], "id": "2916800000", "name": "USPS COLLECTION BOX - BLUE BOX", "address": {"city": "WEDGEFIELD", "state": "SC", "street": "2385 HIGHWAY 261 S", "postcode": "29168"}}},
{"geometry": {"type": "Point", "coordinates": [-80.5175293655, 33.8858283186]}, "type": "Feature", "properties": {"collection_times": [{"days": "Mon-Fri", "time": "3:45pm"}, {"days": "Sat", "time": "9:45am"}, {"days": "Sun", "time": "Closed"}], "id": "2916800001", "name": "USPS COLLECTION BOX - PO LOBBY", "address": {"city": "WEDGEFIELD", "state": "SC", "street": "2385 HIGHWAY 261 S", "postcode": "29168"}}},
{"geometry": {"type": "Point", "coordinates": [-81.0789727832, 33.9791818106]}, "type": "Feature", "properties": {"collection_times": [{"days": "Mon-Fri", "time": "5:30pm"}, {"days": "Sat", "time": "3:45pm"}, {"days": "Sun", "time": "Closed"}], "id": "2916900000", "name": "USPS COLLECTION BOX - BLUE BOX", "address": {"city": "WEST COLUMBIA", "state": "SC", "street": "1535 PLATT SPRINGS RD", "postcode": "29169"}}},
{"geometry": {"type": "Point", "coordinates": [-81.0789727832, 33.9791818106]}, "type": "Feature", "properties": {"collection_times": [{"days": "Mon-Fri", "time": "5:30pm"}, {"days": "Sat", "time": "3:45pm"}, {"days": "Sun", "time": "Closed"}], "id": "2916900001", "name": "USPS COLLECTION BOX - BLUE BOX", "address": {"city": "WEST COLUMBIA", "state": "SC", "street": "1535 PLATT SPRINGS RD", "postcode": "29169"}}},
{"geometry": {"type": "Point", "coordinates": [-81.0789727832, 33.9791818106]}, "type": "Feature", "properties": {"collection_times": [{"days": "Mon-Fri", "time": "5:30pm"}, {"days": "Sat", "time": "3:45pm"}, {"days": "Sun", "time": "Closed"}], "id": "2916900004", "name": "USPS COLLECTION BOX - PO LOBBY", "address": {"city": "WEST COLUMBIA", "state": "SC", "street": "1535 PLATT SPRINGS RD", "postcode": "29169"}}},
{"geometry": {"type": "Point", "coordinates": [-81.0740362108, 33.9924583105]}, "type": "Feature", "properties": {"collection_times": [{"days": "Mon-Fri", "time": "3:15pm"}, {"days": "Sat", "time": "11:00am"}, {"days": "Sun", "time": "Closed"}], "id": "2916900007", "name": "USPS COLLECTION BOX - BLUE BOX", "address": {"city": "WEST COLUMBIA", "state": "SC", "street": "200 12TH ST", "postcode": "29169"}}},
{"geometry": {"type": "Point", "coordinates": [-81.0970032612, 33.9832017036]}, "type": "Feature", "properties": {"collection_times": [{"days": "Mon-Fri", "time": "2:00pm"}, {"days": "Sat", "time": "11:00am"}, {"days": "Sun", "time": "Closed"}], "id": "2916900009", "name": "USPS COLLECTION BOX - BLUE BOX", "address": {"city": "WEST COLUMBIA", "state": "SC", "street": "2307 AUGUSTA RD", "postcode": "29169"}}},
{"geometry": {"type": "Point", "coordinates": [-81.0732677067, 33.9889638045]}, "type": "Feature", "properties": {"collection_times": [{"days": "Mon-Fri", "time": "2:00pm"}, {"days": "Sat", "time": "11:00am"}, {"days": "Sun", "time": "Closed"}], "id": "2916900017", "name": "USPS COLLECTION BOX - BLUE BOX", "address": {"city": "WEST COLUMBIA", "state": "SC", "street": "3236 AUGUSTA RD", "postcode": "29169"}}},
{"geometry": {"type": "Point", "coordinates": [-81.0779326915, 33.9981224717]}, "type": "Feature", "properties": {"collection_times": [{"days": "Mon-Fri", "time": "3:15pm"}, {"days": "Sat", "time": "11:00am"}, {"days": "Sun", "time": "Closed"}], "id": "2916900018", "name": "USPS COLLECTION BOX - BLUE BOX", "address": {"city": "WEST COLUMBIA", "state": "SC", "street": "1190 SUNSET BLVD", "postcode": "29169"}}},
{"geometry": {"type": "Point", "coordinates": [-81.1021507514, 34.0008929118]}, "type": "Feature", "properties": {"collection_times": [{"days": "Mon-Fri", "time": "4:00pm"}, {"days": "Sat", "time": "11:00am"}, {"days": "Sun", "time": "Closed"}], "id": "2916900019", "name": "USPS COLLECTION BOX - BLUE BOX", "address": {"city": "WEST COLUMBIA", "state": "SC", "street": "2271 SUNSET BLVD", "postcode": "29169"}}},
{"geometry": {"type": "Point", "coordinates": [-81.0979147589, 33.9971028159]}, "type": "Feature", "properties": {"collection_times": [{"days": "Mon-Fri", "time": "4:30pm"}, {"days": "Sat", "time": "11:00am"}, {"days": "Sun", "time": "Closed"}], "id": "2916900024", "name": "USPS COLLECTION BOX - BLUE BOX", "address": {"city": "WEST COLUMBIA", "state": "SC", "street": "200 KNOX ABBOTT DR", "postcode": "29169"}}},
{"geometry": {"type": "Point", "coordinates": [-81.0979147589, 33.9971028159]}, "type": "Feature", "properties": {"collection_times": [{"days": "Mon-Fri", "time": "4:30pm"}, {"days": "Sat", "time": "11:00am"}, {"days": "Sun", "time": "Closed"}], "id": "2916900025", "name": "USPS COLLECTION BOX - BLUE BOX", "address": {"city": "WEST COLUMBIA", "state": "SC", "street": "200 KNOX ABBOTT DR", "postcode": "29169"}}},
{"geometry": {"type": "Point", "coordinates": [-81.0979147589, 33.9971028159]}, "type": "Feature", "properties": {"collection_times": [{"days": "Mon-Fri", "time": "3:00pm"}, {"days": "Sat", "time": "11:00am"}, {"days": "Sun", "time": "Closed"}], "id": "2916900028", "name": "USPS COLLECTION BOX - BLUE BOX", "address": {"city": "WEST COLUMBIA", "state": "SC", "street": "989 KNOX ABBOTT DR", "postcode": "29169"}}},
{"geometry": {"type": "Point", "coordinates": [-81.0979147589, 33.9971028159]}, "type": "Feature", "properties": {"collection_times": [{"days": "Mon-Fri", "time": "3:00pm"}, {"days": "Sat", "time": "11:00am"}, {"days": "Sun", "time": "Closed"}], "id": "2916900030", "name": "USPS COLLECTION BOX - BLUE BOX", "address": {"city": "WEST COLUMBIA", "state": "SC", "street": "1329 STATE ST", "postcode": "29169"}}},
{"geometry": {"type": "Point", "coordinates": [-81.1109974511, 33.9583729586]}, "type": "Feature", "properties": {"collection_times": [{"days": "Mon-Fri", "time": "3:00pm"}, {"days": "Sat", "time": "11:00am"}, {"days": "Sun", "time": "Closed"}], "id": "2916900032", "name": "USPS COLLECTION BOX - BLUE BOX", "address": {"city": "WEST COLUMBIA", "state": "SC", "street": "3142 PLATT SPRINGS RD", "postcode": "29169"}}},
{"geometry": {"type": "Point", "coordinates": [-81.0979147589, 33.9971028159]}, "type": "Feature", "properties": {"collection_times": [{"days": "Mon-Fri", "time": "2:45pm"}, {"days": "Sat", "time": "11:00am"}, {"days": "Sun", "time": "Closed"}], "id": "2916900035", "name": "USPS COLLECTION BOX - BLUE BOX", "address": {"city": "WEST COLUMBIA", "state": "SC", "street": "2427 CHARLESTON HWY", "postcode": "29169"}}},
{"geometry": {"type": "Point", "coordinates": [-81.1149801019, 34.0045046884]}, "type": "Feature", "properties": {"collection_times": [{"days": "Mon-Fri", "time": "3:30pm"}, {"days": "Sat", "time": "11:00am"}, {"days": "Sun", "time": "Closed"}], "id": "2916900036", "name": "USPS COLLECTION BOX - BLUE BOX", "address": {"city": "WEST COLUMBIA", "state": "SC", "street": "2720 SUNSET BLVD", "postcode": "29169"}}},
{"geometry": {"type": "Point", "coordinates": [-81.1121910484, 34.0030527195]}, "type": "Feature", "properties": {"collection_times": [{"days": "Mon-Fri", "time": "3:45pm"}, {"days": "Sat", "time": "11:00am"}, {"days": "Sun", "time": "Closed"}], "id": "2916900037", "name": "USPS COLLECTION BOX - BLUE BOX", "address": {"city": "WEST COLUMBIA", "state": "SC", "street": "205 MEDICAL CIR", "postcode": "29169"}}},
{"geometry": {"type": "Point", "coordinates": [-81.1043263735, 33.9940248549]}, "type": "Feature", "properties": {"collection_times": [{"days": "Mon-Fri", "time": "3:45pm"}, {"days": "Sat", "time": "11:00am"}, {"days": "Sun", "time": "Closed"}], "id": "2916900045", "name": "USPS COLLECTION BOX - BLUE BOX", "address": {"city": "WEST COLUMBIA", "state": "SC", "street": "104 CORPORATE BLVD", "postcode": "29169"}}},
{"geometry": {"type": "Point", "coordinates": [-81.0886359361, 33.9942231253]}, "type": "Feature", "properties": {"collection_times": [{"days": "Mon-Fri", "time": "2:30pm"}, {"days": "Sat", "time": "11:00am"}, {"days": "Sun", "time": "Closed"}], "id": "2916900048", "name": "USPS COLLECTION BOX - BLUE BOX", "address": {"city": "WEST COLUMBIA", "state": "SC", "street": "702 MAIN ST", "postcode": "29169"}}},
{"geometry": {"type": "Point", "coordinates": [-81.064471123, 33.930290103]}, "type": "Feature", "properties": {"collection_times": [{"days": "Mon-Sat", "time": "8:00pm"}, {"days": "Sun", "time": "Closed"}], "id": "2916900050", "name": "USPS COLLECTION BOX - BLUE BOX", "address": {"city": "WEST COLUMBIA", "state": "SC", "street": "2001 DIXIANA RD", "postcode": "29169"}}},
{"geometry": {"type": "Point", "coordinates": [-81.064471123, 33.930290103]}, "type": "Feature", "properties": {"collection_times": [{"days": "Mon-Sat", "time": "8:00pm"}, {"days": "Sun", "time": "Closed"}], "id": "2916900051", "name": "USPS COLLECTION BOX - BLUE BOX", "address": {"city": "WEST COLUMBIA", "state": "SC", "street": "2001 DIXIANA RD", "postcode": "29169"}}},
{"geometry": {"type": "Point", "coordinates": [-81.0789727832, 33.9791818106]}, "type": "Feature", "properties": {"collection_times": [{"days": "Mon-Fri", "time": "5:30pm"}, {"days": "Sat", "time": "3:45pm"}, {"days": "Sun", "time": "Closed"}], "id": "2916900056", "name": "USPS COLLECTION BOX - PO LOBBY", "address": {"city": "WEST COLUMBIA", "state": "SC", "street": "1535 PLATT SPRINGS RD", "postcode": "29169"}}},
{"geometry": {"type": "Point", "coordinates": [-81.1033417509, 33.9441570117]}, "type": "Feature", "properties": {"collection_times": [{"days": "Mon-Fri", "time": "2:30pm"}, {"days": "Sat", "time": "11:00am"}, {"days": "Sun", "time": "Closed"}], "id": "2916900057", "name": "USPS COLLECTION BOX - BLUE BOX", "address": {"city": "WEST COLUMBIA", "state": "SC", "street": "102 TRADE ZONE DR", "postcode": "29169"}}},
{"geometry": {"type": "Point", "coordinates": [-81.1102151432, 34.0089526141]}, "type": "Feature", "properties": {"collection_times": [{"days": "Mon-Fri", "time": "3:30pm"}, {"days": "Sat", "time": "11:00am"}, {"days": "Sun", "time": "Closed"}], "id": "2916900058", "name": "USPS COLLECTION BOX - BLUE BOX", "address": {"city": "WEST COLUMBIA", "state": "SC", "street": "172 MCSWAIN DR", "postcode": "29169"}}},
{"geometry": {"type": "Point", "coordinates": [-81.0732677067, 33.9889638045]}, "type": "Feature", "properties": {"collection_times": [{"days": "Mon-Fri", "time": "2:45pm"}, {"days": "Sat", "time": "11:00am"}, {"days": "Sun", "time": "Closed"}], "id": "2916900060", "name": "USPS COLLECTION BOX - BLUE BOX", "address": {"city": "WEST COLUMBIA", "state": "SC", "street": "3040 CHARLESTON HWY", "postcode": "29169"}}},
{"geometry": {"type": "Point", "coordinates": [-81.1270386294, 33.9468217817]}, "type": "Feature", "properties": {"collection_times": [{"days": "Mon-Fri", "time": "2:15pm"}, {"days": "Sat", "time": "11:00am"}, {"days": "Sun", "time": "Closed"}], "id": "2916900062", "name": "USPS COLLECTION BOX - BLUE BOX", "address": {"city": "WEST COLUMBIA", "state": "SC", "street": "3000 AVIATION WAY (AIRPORT TERMINAL)", "postcode": "29169"}}},
{"geometry": {"type": "Point", "coordinates": [-81.0789727832, 33.9791818106]}, "type": "Feature", "properties": {"collection_times": [{"days": "Mon-Fri", "time": "5:30pm"}, {"days": "Sat", "time": "3:45pm"}, {"days": "Sun", "time": "Closed"}], "id": "2916900064", "name": "USPS COLLECTION BOX - APC", "address": {"city": "WEST COLUMBIA", "state": "SC", "street": "1535 PLATT SPRINGS RD", "postcode": "29169"}}},
{"geometry": {"type": "Point", "coordinates": [-81.0979147589, 33.9971028159]}, "type": "Feature", "properties": {"collection_times": [{"days": "Mon-Sat", "time": "12:00pm"}, {"days": "Sun", "time": "Closed"}], "id": "2916900071", "name": "USPS COLLECTION BOX - BLUE BOX", "address": {"city": "WEST COLUMBIA", "state": "SC", "street": "105 FARMERS MARKET DR", "postcode": "29169"}}},
{"geometry": {"type": "Point", "coordinates": [-80.599738502, 34.4442390467]}, "type": "Feature", "properties": {"collection_times": [{"days": "Mon-Fri", "time": "3:45pm"}, {"days": "Sat", "time": "9:45am"}, {"days": "Sun", "time": "Closed"}], "id": "2917500000", "name": "USPS COLLECTION BOX - BLUE BOX", "address": {"city": "WESTVILLE", "state": "SC", "street": "3141 KERSHAW HWY", "postcode": "29175"}}},
{"geometry": {"type": "Point", "coordinates": [-80.599738502, 34.4442390467]}, "type": "Feature", "properties": {"collection_times": [{"days": "Mon-Fri", "time": "3:45pm"}, {"days": "Sat", "time": "9:45am"}, {"days": "Sun", "time": "Closed"}], "id": "2917500001", "name": "USPS COLLECTION BOX - PO LOBBY", "address": {"city": "WESTVILLE", "state": "SC", "street": "3141 KERSHAW HWY", "postcode": "29175"}}},
{"geometry": {"type": "Point", "coordinates": [-81.2750823876, 34.1440631345]}, "type": "Feature", "properties": {"collection_times": [{"days": "Mon-Fri", "time": "3:45pm"}, {"days": "Sat", "time": "9:45am"}, {"days": "Sun", "time": "Closed"}], "id": "2917700001", "name": "USPS COLLECTION BOX - BLUE BOX", "address": {"city": "WHITE ROCK", "state": "SC", "street": "1947 DUTCH FORK RD", "postcode": "29177"}}},
{"geometry": {"type": "Point", "coordinates": [-81.2750823876, 34.1440631345]}, "type": "Feature", "properties": {"collection_times": [{"days": "Mon-Fri", "time": "3:45pm"}, {"days": "Sat", "time": "9:45am"}, {"days": "Sun", "time": "Closed"}], "id": "2917700003", "name": "USPS COLLECTION BOX - PO LOBBY", "address": {"city": "WHITE ROCK", "state": "SC", "street": "1947 DUTCH FORK RD", "postcode": "29177"}}},
{"geometry": {"type": "Point", "coordinates": [-81.6141401776, 34.5020027995]}, "type": "Feature", "properties": {"collection_times": [{"days": "Mon-Fri", "time": "3:45pm"}, {"days": "Sat", "time": "9:45am"}, {"days": "Sun", "time": "Closed"}], "id": "2917800000", "name": "USPS COLLECTION BOX - BLUE BOX", "address": {"city": "WHITMIRE", "state": "SC", "street": "205 MAIN ST", "postcode": "29178"}}},
{"geometry": {"type": "Point", "coordinates": [-81.6141401776, 34.5020027995]}, "type": "Feature", "properties": {"collection_times": [{"days": "Mon-Fri", "time": "3:45pm"}, {"days": "Sat", "time": "9:45am"}, {"days": "Sun", "time": "Closed"}], "id": "2917800001", "name": "USPS COLLECTION BOX - PO LOBBY", "address": {"city": "WHITMIRE", "state": "SC", "street": "205 MAIN ST", "postcode": "29178"}}},
{"geometry": {"type": "Point", "coordinates": [-81.0868457631, 34.381692682]}, "type": "Feature", "properties": {"collection_times": [{"days": "Mon-Fri", "time": "3:45pm"}, {"days": "Sat", "time": "10:15am"}, {"days": "Sun", "time": "Closed"}], "id": "2918000000", "name": "USPS COLLECTION BOX - PO LOBBY", "address": {"city": "WINNSBORO", "state": "SC", "street": "144 N CONGRESS ST", "postcode": "29180"}}},
{"geometry": {"type": "Point", "coordinates": [-81.1009111945, 34.377101713]}, "type": "Feature", "properties": {"collection_times": [{"days": "Mon-Fri", "time": "1:00pm"}, {"days": "Sat-Sun", "time": "Closed"}], "id": "2918000002", "name": "USPS COLLECTION BOX - BLUE BOX", "address": {"city": "WINNSBORO", "state": "SC", "street": "107 S 321 BYP", "postcode": "29180"}}},
{"geometry": {"type": "Point", "coordinates": [-81.1009111945, 34.377101713]}, "type": "Feature", "properties": {"collection_times": [{"days": "Mon-Fri", "time": "2:00pm"}, {"days": "Sat-Sun", "time": "Closed"}], "id": "2918000003", "name": "USPS COLLECTION BOX - BLUE BOX", "address": {"city": "WINNSBORO", "state": "SC", "street": "1200 COLUMBIA RD", "postcode": "29180"}}},
{"geometry": {"type": "Point", "coordinates": [-81.0865360395, 34.3805238845]}, "type": "Feature", "properties": {"collection_times": [{"days": "Mon-Fri", "time": "1:30pm"}, {"days": "Sat-Sun", "time": "Closed"}], "id": "2918000006", "name": "USPS COLLECTION BOX - BLUE BOX", "address": {"city": "WINNSBORO", "state": "SC", "street": "101 W WASHINGTON ST", "postcode": "29180"}}},
{"geometry": {"type": "Point", "coordinates": [-81.0873370116, 34.3833357136]}, "type": "Feature", "properties": {"collection_times": [{"days": "Mon-Fri", "time": "1:30pm"}, {"days": "Sat-Sun", "time": "Closed"}], "id": "2918000008", "name": "USPS COLLECTION BOX - BLUE BOX", "address": {"city": "WINNSBORO", "state": "SC", "street": "214 N CONGRESS ST", "postcode": "29180"}}},
{"geometry": {"type": "Point", "coordinates": [-81.0873370116, 34.3833357136]}, "type": "Feature", "properties": {"collection_times": [{"days": "Mon-Fri", "time": "1:30pm"}, {"days": "Sat-Sun", "time": "Closed"}], "id": "2918000009", "name": "USPS COLLECTION BOX - BLUE BOX", "address": {"city": "WINNSBORO", "state": "SC", "street": "214 N CONGRESS ST", "postcode": "29180"}}},
{"geometry": {"type": "Point", "coordinates": [-81.0863493396, 34.3499164703]}, "type": "Feature", "properties": {"collection_times": [{"days": "Mon-Fri", "time": "1:45pm"}, {"days": "Sat-Sun", "time": "Closed"}], "id": "2918000010", "name": "USPS COLLECTION BOX - BLUE BOX", "address": {"city": "WINNSBORO", "state": "SC", "street": "900 COLUMBIA RD", "postcode": "29180"}}},
{"geometry": {"type": "Point", "coordinates": [-81.0868457631, 34.381692682]}, "type": "Feature", "properties": {"collection_times": [{"days": "Mon-Fri", "time": "3:45pm"}, {"days": "Sat", "time": "10:15am"}, {"days": "Sun", "time": "Closed"}], "id": "2918000015", "name": "USPS COLLECTION BOX - BLUE BOX", "address": {"city": "WINNSBORO", "state": "SC", "street": "144 N CONGRESS ST", "postcode": "29180"}}}
]}
