{"type": "FeatureCollection", "features": [
{"geometry": {"type": "Point", "coordinates": [-81.023629875, 33.974786771]}, "type": "Feature", "properties": {"collection_times": [{"days": "Mon-Fri", "time": "12:00pm"}, {"days": "Sat-Sun", "time": "Closed"}], "id": "2920100028", "name": "USPS COLLECTION BOX - BLUE BOX", "address": {"city": "COLUMBIA", "state": "SC", "street": "825 BLUFF RD", "postcode": "29201"}}},
{"geometry": {"type": "Point", "coordinates": [-81.0213835417, 33.967834913]}, "type": "Feature", "properties": {"collection_times": [{"days": "Mon-Fri", "time": "4:45pm"}, {"days": "Sat-Sun", "time": "Closed"}], "id": "2920100031", "name": "USPS COLLECTION BOX - BLUE BOX", "address": {"city": "COLUMBIA", "state": "SC", "street": "1 NATIONAL GUARD RD", "postcode": "29201"}}},
{"geometry": {"type": "Point", "coordinates": [-81.0376621503, 34.0203962414]}, "type": "Feature", "properties": {"collection_times": [{"days": "Mon-Fri", "time": "2:00pm"}, {"days": "Sat-Sun", "time": "Closed"}], "id": "2920100041", "name": "USPS COLLECTION BOX - BLUE BOX", "address": {"city": "COLUMBIA", "state": "SC", "street": "1535 CONFEDERATE AVE", "postcode": "29201"}}},
{"geometry": {"type": "Point", "coordinates": [-81.0306164822, 34.0027410334]}, "type": "Feature", "properties": {"collection_times": [{"days": "Mon-Fri", "time": "3:45pm"}, {"days": "Sat", "time": "1:00pm"}, {"days": "Sun", "time": "Closed"}], "id": "2920100042", "name": "USPS COLLECTION BOX - BLUE BOX", "address": {"city": "COLUMBIA", "state": "SC", "street": "1233 MARION ST", "postcode": "29201"}}},
{"geometry": {"type": "Point", "coordinates": [-81.0306164822, 34.0027410334]}, "type": "Feature", "properties": {"collection_times": [{"days": "Mon-Fri", "time": "3:45pm"}, {"days": "Sat", "time": "1:00pm"}, {"days": "Sun", "time": "Closed"}], "id": "2920100043", "name": "USPS COLLECTION BOX - BLUE BOX", "address": {"city": "COLUMBIA", "state": "SC", "street": "1233 MARION ST", "postcode": "29201"}}},
{"geometry": {"type": "Point", "coordinates": [-81.0187330537, 33.9751839871]}, "type": "Feature", "properties": {"collection_times": [{"days": "Mon-Fri", "time": "12:15pm"}, {"days": "Sat-Sun", "time": "Closed"}], "id": "2920100056", "name": "USPS COLLECTION BOX - BLUE BOX", "address": {"city": "COLUMBIA", "state": "SC", "street": "800 HUGER ST", "postcode": "29201"}}},
{"geometry": {"type": "Point", "coordinates": [-81.0466452277, 33.997308566]}, "type": "Feature", "properties": {"collection_times": [{"days": "Mon-Fri", "time": "4:30pm"}, {"days": "Sat-Sun", "time": "Closed"}], "id": "2920100060", "name": "USPS COLLECTION BOX - BLUE BOX", "address": {"city": "COLUMBIA", "state": "SC", "street": "301 GERVAIS ST", "postcode": "29201"}}},
{"geometry": {"type": "Point", "coordinates": [-81.031178961, 33.9958198844]}, "type": "Feature", "properties": {"collection_times": [{"days": "Mon-Fri", "time": "12:00pm"}, {"days": "Sat-Sun", "time": "Closed"}], "id": "2920100066", "name": "USPS COLLECTION BOX - BLUE BOX", "address": {"city": "COLUMBIA", "state": "SC", "street": "801 MAIN ST", "postcode": "29201"}}},
{"geometry": {"type": "Point", "coordinates": [-81.0353024345, 34.0022311699]}, "type": "Feature", "properties": {"collection_times": [{"days": "Mon-Fri", "time": "4:00pm"}, {"days": "Sat-Sun", "time": "Closed"}], "id": "2920100090", "name": "USPS COLLECTION BOX - BLUE BOX", "address": {"city": "COLUMBIA", "state": "SC", "street": "1122 LADY ST", "postcode": "29201"}}},
{"geometry": {"type": "Point", "coordinates": [-81.0324496833, 34.0031384699]}, "type": "Feature", "properties": {"collection_times": [{"days": "Mon-Fri", "time": "4:00pm"}, {"days": "Sat-Sun", "time": "Closed"}], "id": "2920100091", "name": "USPS COLLECTION BOX - BLUE BOX", "address": {"city": "COLUMBIA", "state": "SC", "street": "1301 LADY ST", "postcode": "29201"}}},
{"geometry": {"type": "Point", "coordinates": [-81.0350776363, 34.0045156575]}, "type": "Feature", "properties": {"collection_times": [{"days": "Mon-Fri", "time": "3:15pm"}, {"days": "Sat-Sun", "time": "Closed"}], "id": "2920100111", "name": "USPS COLLECTION BOX - BLUE BOX", "address": {"city": "COLUMBIA", "state": "SC", "street": "1441 MAIN ST", "postcode": "29201"}}},
{"geometry": {"type": "Point", "coordinates": [-81.0354639635, 33.9968112986]}, "type": "Feature", "properties": {"collection_times": [{"days": "Mon-Fri", "time": "3:15pm"}, {"days": "Sat-Sun", "time": "Closed"}], "id": "2920100119", "name": "USPS COLLECTION BOX - BLUE BOX", "address": {"city": "COLUMBIA", "state": "SC", "street": "955 PARK ST", "postcode": "29201"}}},
{"geometry": {"type": "Point", "coordinates": [-81.0304173162, 33.9982364482]}, "type": "Feature", "properties": {"collection_times": [{"days": "Mon-Fri", "time": "12:00pm"}, {"days": "Sat-Sun", "time": "Closed"}], "id": "2920100122", "name": "USPS COLLECTION BOX - BLUE BOX", "address": {"city": "COLUMBIA", "state": "SC", "street": "945 SUMTER ST", "postcode": "29201"}}},
{"geometry": {"type": "Point", "coordinates": [-81.0287644459, 34.0072984009]}, "type": "Feature", "properties": {"collection_times": [{"days": "Mon-Fri", "time": "1:45pm"}, {"days": "Sat-Sun", "time": "Closed"}], "id": "2920100127", "name": "USPS COLLECTION BOX - BLUE BOX", "address": {"city": "COLUMBIA", "state": "SC", "street": "1600 HAMPTON ST", "postcode": "29201"}}},
{"geometry": {"type": "Point", "coordinates": [-81.0492932646, 34.0084910869]}, "type": "Feature", "properties": {"collection_times": [{"days": "Mon-Fri", "time": "4:00pm"}, {"days": "Sat-Sun", "time": "Closed"}], "id": "2920100139", "name": "USPS COLLECTION BOX - BLUE BOX", "address": {"city": "COLUMBIA", "state": "SC", "street": "5000 THURMOND MALL", "postcode": "29201"}}},
{"geometry": {"type": "Point", "coordinates": [-81.0360343782, 34.0034726284]}, "type": "Feature", "properties": {"collection_times": [{"days": "Mon-Fri", "time": "1:30pm"}, {"days": "Sat-Sun", "time": "Closed"}], "id": "2920100144", "name": "USPS COLLECTION BOX - BLUE BOX", "address": {"city": "COLUMBIA", "state": "SC", "street": "1114 WASHINGTON ST", "postcode": "29201"}}},
{"geometry": {"type": "Point", "coordinates": [-81.0344449255, 34.0040238461]}, "type": "Feature", "properties": {"collection_times": [{"days": "Mon-Fri", "time": "1:15pm"}, {"days": "Sat-Sun", "time": "Closed"}], "id": "2920100146", "name": "USPS COLLECTION BOX - BLUE BOX", "address": {"city": "COLUMBIA", "state": "SC", "street": "1216 WASHINGTON ST", "postcode": "29201"}}},
{"geometry": {"type": "Point", "coordinates": [-81.0357293795, 34.0036211774]}, "type": "Feature", "properties": {"collection_times": [{"days": "Mon-Fri", "time": "1:30pm"}, {"days": "Sat-Sun", "time": "Closed"}], "id": "2920100147", "name": "USPS COLLECTION BOX - BLUE BOX", "address": {"city": "COLUMBIA", "state": "SC", "street": "1136 WASHINGTON ST", "postcode": "29201"}}},
{"geometry": {"type": "Point", "coordinates": [-81.0397238014, 34.010600476]}, "type": "Feature", "properties": {"collection_times": [{"days": "Mon-Fri", "time": "3:30pm"}, {"days": "Sat-Sun", "time": "Closed"}], "id": "2920100153", "name": "USPS COLLECTION BOX - BLUE BOX", "address": {"city": "COLUMBIA", "state": "SC", "street": "1901 ASSEMBLY ST", "postcode": "29201"}}},
{"geometry": {"type": "Point", "coordinates": [-81.0355444074, 34.005699477]}, "type": "Feature", "properties": {"collection_times": [{"days": "Mon-Fri", "time": "3:00pm"}, {"days": "Sat-Sun", "time": "Closed"}], "id": "2920100170", "name": "USPS COLLECTION BOX - BLUE BOX", "address": {"city": "COLUMBIA", "state": "SC", "street": "1501 MAIN ST", "postcode": "29201"}}},
{"geometry": {"type": "Point", "coordinates": [-81.0402324738, 34.0117739713]}, "type": "Feature", "properties": {"collection_times": [{"days": "Mon-Fri", "time": "3:30pm"}, {"days": "Sat-Sun", "time": "Closed"}], "id": "2920100178", "name": "USPS COLLECTION BOX - BLUE BOX", "address": {"city": "COLUMBIA", "state": "SC", "street": "2001 ASSEMBLY ST", "postcode": "29201"}}},
{"geometry": {"type": "Point", "coordinates": [-81.0344505957, 34.0085840843]}, "type": "Feature", "properties": {"collection_times": [{"days": "Mon-Fri", "time": "4:00pm"}, {"days": "Sat-Sun", "time": "Closed"}], "id": "2920100183", "name": "USPS COLLECTION BOX - BLUE BOX", "address": {"city": "COLUMBIA", "state": "SC", "street": "1328 BLANDING ST", "postcode": "29201"}}},
{"geometry": {"type": "Point", "coordinates": [-81.0306164822, 34.0027410334]}, "type": "Feature", "properties": {"collection_times": [{"days": "Mon-Fri", "time": "3:45pm"}, {"days": "Sat", "time": "1:00pm"}, {"days": "Sun", "time": "Closed"}], "id": "2920100184", "name": "USPS COLLECTION BOX - BLUE BOX", "address": {"city": "COLUMBIA", "state": "SC", "street": "1233 MARION ST", "postcode": "29201"}}},
{"geometry": {"type": "Point", "coordinates": [-81.0377890519, 34.0060741278]}, "type": "Feature", "properties": {"collection_times": [{"days": "Mon-Fri", "time": "5:00pm"}, {"days": "Sat", "time": "3:00pm"}, {"days": "Sun", "time": "Closed"}], "id": "2920200000", "name": "USPS COLLECTION BOX - BLUE BOX", "address": {"city": "COLUMBIA", "state": "SC", "street": "1601 ASSEMBLY ST", "postcode": "29202"}}},
{"geometry": {"type": "Point", "coordinates": [-81.0377890519, 34.0060741278]}, "type": "Feature", "properties": {"collection_times": [{"days": "Mon-Fri", "time": "5:00pm"}, {"days": "Sat", "time": "3:00pm"}, {"days": "Sun", "time": "Closed"}], "id": "2920200005", "name": "USPS COLLECTION BOX - PO LOBBY", "address": {"city": "COLUMBIA", "state": "SC", "street": "1601 ASSEMBLY ST", "postcode": "29202"}}},
{"geometry": {"type": "Point", "coordinates": [-81.0377516877, 34.0061470906]}, "type": "Feature", "properties": {"collection_times": [{"days": "Mon-Fri", "time": "5:00pm"}, {"days": "Sat-Sun", "time": "Closed"}], "id": "2920200009", "name": "USPS COLLECTION BOX - BLUE BOX", "address": {"city": "COLUMBIA", "state": "SC", "street": "1601 ASSEMBLY ST", "postcode": "29202"}}},
{"geometry": {"type": "Point", "coordinates": [-81.0377890519, 34.0060741278]}, "type": "Feature", "properties": {"collection_times": [{"days": "Mon-Fri", "time": "5:00pm"}, {"days": "Sat", "time": "3:00pm"}, {"days": "Sun", "time": "Closed"}], "id": "2920200010", "name": "USPS COLLECTION BOX - BLUE BOX", "address": {"city": "COLUMBIA", "state": "SC", "street": "1601 ASSEMBLY ST", "postcode": "29202"}}},
{"geometry": {"type": "Point", "coordinates": [-81.0377890519, 34.0060741278]}, "type": "Feature", "properties": {"collection_times": [{"days": "Mon-Fri", "time": "5:00pm"}, {"days": "Sat", "time": "3:00pm"}, {"days": "Sun", "time": "Closed"}], "id": "2920200011", "name": "USPS COLLECTION BOX - APC", "address": {"city": "COLUMBIA", "state": "SC", "street": "1601 ASSEMBLY ST", "postcode": "29202"}}},
{"geometry": {"type": "Point", "coordinates": [-81.0277629033, 34.0460159015]}, "type": "Feature", "properties": {"collection_times": [{"days": "Mon-Fri", "time": "4:15pm"}, {"days": "Sat-Sun", "time": "Closed"}], "id": "2920300003", "name": "USPS COLLECTION BOX - BLUE BOX", "address": {"city": "COLUMBIA", "state": "SC", "street": "4908 COLONIAL DR", "postcode": "29203"}}},
{"geometry": {"type": "Point", "coordinates": [-81.0432821508, 34.0395134138]}, "type": "Feature", "properties": {"collection_times": [{"days": "Mon-Fri", "time": "4:15pm"}, {"days": "Sat", "time": "1:45pm"}, {"days": "Sun", "time": "Closed"}], "id": "2920300011", "name": "USPS COLLECTION BOX - BLUE BOX", "address": {"city": "COLUMBIA", "state": "SC", "street": "4026 LAMAR ST", "postcode": "29203"}}},
{"geometry": {"type": "Point", "coordinates": [-81.0432821508, 34.0395134138]}, "type": "Feature", "properties": {"collection_times": [{"days": "Mon-Fri", "time": "4:15pm"}, {"days": "Sat-Sun", "time": "Closed"}], "id": "2920300012", "name": "USPS COLLECTION BOX - PO LOBBY", "address": {"city": "COLUMBIA", "state": "SC", "street": "4026 LAMAR ST", "postcode": "29203"}}},
{"geometry": {"type": "Point", "coordinates": [-81.0281852625, 34.0533601082]}, "type": "Feature", "properties": {"collection_times": [{"days": "Mon-Fri", "time": "4:15pm"}, {"days": "Sat-Sun", "time": "Closed"}], "id": "2920300013", "name": "USPS COLLECTION BOX - BLUE BOX", "address": {"city": "COLUMBIA", "state": "SC", "street": "5112 FAIRFIELD RD", "postcode": "29203"}}},
{"geometry": {"type": "Point", "coordinates": [-80.9524164051, 34.1065885882]}, "type": "Feature", "properties": {"collection_times": [{"days": "Mon-Fri", "time": "3:30pm"}, {"days": "Sat-Sun", "time": "Closed"}], "id": "2920300015", "name": "USPS COLLECTION BOX - BLUE BOX", "address": {"city": "COLUMBIA", "state": "SC", "street": "8901 FARROW RD", "postcode": "29203"}}},
{"geometry": {"type": "Point", "coordinates": [-80.9950482705, 34.0596572937]}, "type": "Feature", "properties": {"collection_times": [{"days": "Mon-Fri", "time": "3:45pm"}, {"days": "Sat-Sun", "time": "Closed"}], "id": "2920300018", "name": "USPS COLLECTION BOX - BLUE BOX", "address": {"city": "COLUMBIA", "state": "SC", "street": "6200 FARROW RD", "postcode": "29203"}}},
{"geometry": {"type": "Point", "coordinates": [-81.0087640533, 34.0623825969]}, "type": "Feature", "properties": {"collection_times": [{"days": "Mon-Fri", "time": "4:00pm"}, {"days": "Sat-Sun", "time": "Closed"}], "id": "2920300022", "name": "USPS COLLECTION BOX - BLUE BOX", "address": {"city": "COLUMBIA", "state": "SC", "street": "6325 N MAIN ST", "postcode": "29203"}}},
{"geometry": {"type": "Point", "coordinates": [-81.0350522965, 34.0271417912]}, "type": "Feature", "properties": {"collection_times": [{"days": "Mon-Fri", "time": "3:00pm"}, {"days": "Sat-Sun", "time": "Closed"}], "id": "2920300027", "name": "USPS COLLECTION BOX - BLUE BOX", "address": {"city": "COLUMBIA", "state": "SC", "street": "2 MEDICAL PARK RD", "postcode": "29203"}}},
{"geometry": {"type": "Point", "coordinates": [-81.003294696, 34.0695315468]}, "type": "Feature", "properties": {"collection_times": [{"days": "Mon-Fri", "time": "4:00pm"}, {"days": "Sat-Sun", "time": "Closed"}], "id": "2920300029", "name": "USPS COLLECTION BOX - BLUE BOX", "address": {"city": "COLUMBIA", "state": "SC", "street": "6904 N MAIN ST", "postcode": "29203"}}},
{"geometry": {"type": "Point", "coordinates": [-80.9988117975, 34.0748608829]}, "type": "Feature", "properties": {"collection_times": [{"days": "Mon-Fri", "time": "4:00pm"}, {"days": "Sat-Sun", "time": "Closed"}], "id": "2920300032", "name": "USPS COLLECTION BOX - BLUE BOX", "address": {"city": "COLUMBIA", "state": "SC", "street": "7400 WILSON BLVD", "postcode": "29203"}}},
{"geometry": {"type": "Point", "coordinates": [-81.0229749477, 34.0638815188]}, "type": "Feature", "properties": {"collection_times": [{"days": "Mon-Fri", "time": "4:00pm"}, {"days": "Sat-Sun", "time": "Closed"}], "id": "2920300038", "name": "USPS COLLECTION BOX - BLUE BOX", "address": {"city": "COLUMBIA", "state": "SC", "street": "5901 FAIRFIELD RD", "postcode": "29203"}}},
{"geometry": {"type": "Point", "coordinates": [-81.0300548882, 34.0265845768]}, "type": "Feature", "properties": {"collection_times": [{"days": "Mon-Fri", "time": "3:00pm"}, {"days": "Sat-Sun", "time": "Closed"}], "id": "2920300040", "name": "USPS COLLECTION BOX - BLUE BOX", "address": {"city": "COLUMBIA", "state": "SC", "street": "9 RICHLAND MEDICAL PARK DR", "postcode": "29203"}}},
{"geometry": {"type": "Point", "coordinates": [-81.038956717, 34.0413444834]}, "type": "Feature", "properties": {"collection_times": [{"days": "Mon-Fri", "time": "4:15pm"}, {"days": "Sat-Sun", "time": "Closed"}], "id": "2920300047", "name": "USPS COLLECTION BOX - BLUE BOX", "address": {"city": "COLUMBIA", "state": "SC", "street": "4201 N MAIN ST", "postcode": "29203"}}},
{"geometry": {"type": "Point", "coordinates": [-81.0859239018, 34.0354004796]}, "type": "Feature", "properties": {"collection_times": [{"days": "Mon-Fri", "time": "3:30pm"}, {"days": "Sat-Sun", "time": "Closed"}], "id": "2920300049", "name": "USPS COLLECTION BOX - BLUE BOX", "address": {"city": "COLUMBIA", "state": "SC", "street": "125 GATEWAY BLVD.", "postcode": "29203"}}},
{"geometry": {"type": "Point", "coordinates": [-81.0301842938, 34.0267208622]}, "type": "Feature", "properties": {"collection_times": [{"days": "Mon-Fri", "time": "3:00pm"}, {"days": "Sat-Sun", "time": "Closed"}], "id": "2920300050", "name": "USPS COLLECTION BOX - BLUE BOX", "address": {"city": "COLUMBIA", "state": "SC", "street": "14 RICHLAND MEDICAL PARK DR", "postcode": "29203"}}},
{"geometry": {"type": "Point", "coordinates": [-80.970059348, 34.1011548018]}, "type": "Feature", "properties": {"collection_times": [{"days": "Mon-Fri", "time": "3:45pm"}, {"days": "Sat-Sun", "time": "Closed"}], "id": "2920300051", "name": "USPS COLLECTION BOX - BLUE BOX", "address": {"city": "COLUMBIA", "state": "SC", "street": "101 RESEARCH DR", "postcode": "29203"}}},
{"geometry": {"type": "Point", "coordinates": [-80.970059348, 34.1011548018]}, "type": "Feature", "properties": {"collection_times": [{"days": "Mon-Fri", "time": "3:45pm"}, {"days": "Sat-Sun", "time": "Closed"}], "id": "2920300054", "name": "USPS COLLECTION BOX - BLUE BOX", "address": {"city": "COLUMBIA", "state": "SC", "street": "101 RESEARCH DR", "postcode": "29203"}}},
{"geometry": {"type": "Point", "coordinates": [-81.0076687702, 34.0301018315]}, "type": "Feature", "properties": {"collection_times": [{"days": "Mon-Fri", "time": "4:30pm"}, {"days": "Sat", "time": "1:45pm"}, {"days": "Sun", "time": "Closed"}], "id": "2920400009", "name": "USPS COLLECTION BOX - BLUE BOX", "address": {"city": "COLUMBIA", "state": "SC", "street": "2638 TWO NOTCH RD", "postcode": "29204"}}},
{"geometry": {"type": "Point", "coordinates": [-81.0084690613, 34.0138598707]}, "type": "Feature", "properties": {"collection_times": [{"days": "Mon-Fri", "time": "3:15pm"}, {"days": "Sat-Sun", "time": "Closed"}], "id": "2920400014", "name": "USPS COLLECTION BOX - BLUE BOX", "address": {"city": "COLUMBIA", "state": "SC", "street": "2551 FOREST DR", "postcode": "29204"}}},
{"geometry": {"type": "Point", "coordinates": [-80.9883226032, 34.0193243495]}, "type": "Feature", "properties": {"collection_times": [{"days": "Mon-Fri", "time": "4:00pm"}, {"days": "Sat-Sun", "time": "Closed"}], "id": "2920400017", "name": "USPS COLLECTION BOX - BLUE BOX", "address": {"city": "COLUMBIA", "state": "SC", "street": "3600 FOREST DR", "postcode": "29204"}}},
{"geometry": {"type": "Point", "coordinates": [-80.9869362688, 34.0196108213]}, "type": "Feature", "properties": {"collection_times": [{"days": "Mon-Fri", "time": "3:45pm"}, {"days": "Sat-Sun", "time": "Closed"}], "id": "2920400021", "name": "USPS COLLECTION BOX - BLUE BOX", "address": {"city": "COLUMBIA", "state": "SC", "street": "3700 FOREST DR", "postcode": "29204"}}},
{"geometry": {"type": "Point", "coordinates": [-81.0121738701, 34.0132739632]}, "type": "Feature", "properties": {"collection_times": [{"days": "Mon-Fri", "time": "3:15pm"}, {"days": "Sat-Sun", "time": "Closed"}], "id": "2920400025", "name": "USPS COLLECTION BOX - BLUE BOX", "address": {"city": "COLUMBIA", "state": "SC", "street": "2435 FOREST DR", "postcode": "29204"}}},
{"geometry": {"type": "Point", "coordinates": [-81.0114345207, 34.0152353092]}, "type": "Feature", "properties": {"collection_times": [{"days": "Mon-Fri", "time": "11:00am"}, {"days": "Sat-Sun", "time": "Closed"}], "id": "2920400034", "name": "USPS COLLECTION BOX - BLUE BOX", "address": {"city": "COLUMBIA", "state": "SC", "street": "2761 LAUREL ST", "postcode": "29204"}}},
{"geometry": {"type": "Point", "coordinates": [-81.0043612655, 34.0156289671]}, "type": "Feature", "properties": {"collection_times": [{"days": "Mon-Fri", "time": "2:45pm"}, {"days": "Sat-Sun", "time": "Closed"}], "id": "2920400037", "name": "USPS COLLECTION BOX - BLUE BOX", "address": {"city": "COLUMBIA", "state": "SC", "street": "2719 MIDDLEBURG DR", "postcode": "29204"}}},
{"geometry": {"type": "Point", "coordinates": [-81.0036222597, 34.0156375152]}, "type": "Feature", "properties": {"collection_times": [{"days": "Mon-Fri", "time": "2:45pm"}, {"days": "Sat-Sun", "time": "Closed"}], "id": "2920400040", "name": "USPS COLLECTION BOX - BLUE BOX", "address": {"city": "COLUMBIA", "state": "SC", "street": "2711 MIDDLEBURG DR", "postcode": "29204"}}},
{"geometry": {"type": "Point", "coordinates": [-81.021429341, 34.0165105389]}, "type": "Feature", "properties": {"collection_times": [{"days": "Mon-Fri", "time": "11:00am"}, {"days": "Sat-Sun", "time": "Closed"}], "id": "2920400041", "name": "USPS COLLECTION BOX - BLUE BOX", "address": {"city": "COLUMBIA", "state": "SC", "street": "2211 READ ST", "postcode": "29204"}}},
{"geometry": {"type": "Point", "coordinates": [-81.0026770755, 34.0192076854]}, "type": "Feature", "properties": {"collection_times": [{"days": "Mon-Fri", "time": "11:15am"}, {"days": "Sat-Sun", "time": "Closed"}], "id": "2920400042", "name": "USPS COLLECTION BOX - BLUE BOX", "address": {"city": "COLUMBIA", "state": "SC", "street": "1777 SAINT JULIAN PL", "postcode": "29204"}}},
{"geometry": {"type": "Point", "coordinates": [-81.0076687702, 34.0301018315]}, "type": "Feature", "properties": {"collection_times": [{"days": "Mon-Fri", "time": "4:15pm"}, {"days": "Sat", "time": "1:45pm"}, {"days": "Sun", "time": "Closed"}], "id": "2920400045", "name": "USPS COLLECTION BOX - BLUE BOX", "address": {"city": "COLUMBIA", "state": "SC", "street": "2638 TWO NOTCH RD", "postcode": "29204"}}},
{"geometry": {"type": "Point", "coordinates": [-81.0020465584, 34.0189770084]}, "type": "Feature", "properties": {"collection_times": [{"days": "Mon-Fri", "time": "3:00pm"}, {"days": "Sat-Sun", "time": "Closed"}], "id": "2920400046", "name": "USPS COLLECTION BOX - BLUE BOX", "address": {"city": "COLUMBIA", "state": "SC", "street": "1800 SAINT JULIAN PL", "postcode": "29204"}}},
{"geometry": {"type": "Point", "coordinates": [-81.0013681233, 34.0389263967]}, "type": "Feature", "properties": {"collection_times": [{"days": "Mon-Fri", "time": "3:30pm"}, {"days": "Sat-Sun", "time": "Closed"}], "id": "2920400054", "name": "USPS COLLECTION BOX - BLUE BOX", "address": {"city": "COLUMBIA", "state": "SC", "street": "3220 TWO NOTCH RD", "postcode": "29204"}}},
{"geometry": {"type": "Point", "coordinates": [-80.9954350007, 33.9975855614]}, "type": "Feature", "properties": {"collection_times": [{"days": "Mon-Fri", "time": "2:00pm"}, {"days": "Sat-Sun", "time": "Closed"}], "id": "2920500001", "name": "USPS COLLECTION BOX - BLUE BOX", "address": {"city": "COLUMBIA", "state": "SC", "street": "3200 DEVINE ST", "postcode": "29205"}}},
{"geometry": {"type": "Point", "coordinates": [-80.9995635275, 33.9978611909]}, "type": "Feature", "properties": {"collection_times": [{"days": "Mon-Fri", "time": "2:00pm"}, {"days": "Sat-Sun", "time": "Closed"}], "id": "2920500008", "name": "USPS COLLECTION BOX - BLUE BOX", "address": {"city": "COLUMBIA", "state": "SC", "street": "2930 DEVINE ST", "postcode": "29205"}}},
{"geometry": {"type": "Point", "coordinates": [-80.9855998799, 33.9914081497]}, "type": "Feature", "properties": {"collection_times": [{"days": "Mon-Fri", "time": "12:15pm"}, {"days": "Sat-Sun", "time": "Closed"}], "id": "2920500017", "name": "USPS COLLECTION BOX - BLUE BOX", "address": {"city": "COLUMBIA", "state": "SC", "street": "3923 DUNCAN ST", "postcode": "29205"}}},
{"geometry": {"type": "Point", "coordinates": [-81.0110181192, 33.9957661705]}, "type": "Feature", "properties": {"collection_times": [{"days": "Mon-Fri", "time": "12:15pm"}, {"days": "Sat-Sun", "time": "Closed"}], "id": "2920500019", "name": "USPS COLLECTION BOX - BLUE BOX", "address": {"city": "COLUMBIA", "state": "SC", "street": "2414 WHEAT ST", "postcode": "29205"}}},
{"geometry": {"type": "Point", "coordinates": [-81.0163475924, 34.0003246631]}, "type": "Feature", "properties": {"collection_times": [{"days": "Mon-Fri", "time": "2:30pm"}, {"days": "Sat", "time": "1:30pm"}, {"days": "Sun", "time": "Closed"}], "id": "2920500021", "name": "USPS COLLECTION BOX - BLUE BOX", "address": {"city": "COLUMBIA", "state": "SC", "street": "2108 GREENE ST", "postcode": "29205"}}},
{"geometry": {"type": "Point", "coordinates": [-80.9888920547, 33.9878628217]}, "type": "Feature", "properties": {"collection_times": [{"days": "Mon-Fri", "time": "12:15pm"}, {"days": "Sat-Sun", "time": "Closed"}], "id": "2920500038", "name": "USPS COLLECTION BOX - BLUE BOX", "address": {"city": "COLUMBIA", "state": "SC", "street": "3729 ROSEWOOD DR", "postcode": "29205"}}},
{"geometry": {"type": "Point", "coordinates": [-81.0061821829, 33.9869010761]}, "type": "Feature", "properties": {"collection_times": [{"days": "Mon-Fri", "time": "12:15pm"}, {"days": "Sat-Sun", "time": "Closed"}], "id": "2920500041", "name": "USPS COLLECTION BOX - BLUE BOX", "address": {"city": "COLUMBIA", "state": "SC", "street": "2708 ROSEWOOD DR", "postcode": "29205"}}},
{"geometry": {"type": "Point", "coordinates": [-80.9799299576, 33.9919534938]}, "type": "Feature", "properties": {"collection_times": [{"days": "Mon-Fri", "time": "12:15pm"}, {"days": "Sat-Sun", "time": "Closed"}], "id": "2920500053", "name": "USPS COLLECTION BOX - BLUE BOX", "address": {"city": "COLUMBIA", "state": "SC", "street": "619 BELTLINE BLVD", "postcode": "29205"}}},
{"geometry": {"type": "Point", "coordinates": [-80.9748629343, 34.0201261535]}, "type": "Feature", "properties": {"collection_times": [{"days": "Mon-Fri", "time": "11:15am"}, {"days": "Sat-Sun", "time": "Closed"}], "id": "2920600001", "name": "USPS COLLECTION BOX - BLUE BOX", "address": {"city": "COLUMBIA", "state": "SC", "street": "5220 CLEMSON AVE", "postcode": "29206"}}},
{"geometry": {"type": "Point", "coordinates": [-80.9496320126, 34.057011505]}, "type": "Feature", "properties": {"collection_times": [{"days": "Mon-Fri", "time": "3:45pm"}, {"days": "Sat-Sun", "time": "Closed"}], "id": "2920600003", "name": "USPS COLLECTION BOX - BLUE BOX", "address": {"city": "COLUMBIA", "state": "SC", "street": "2500 DECKER BLVD", "postcode": "29206"}}},
{"geometry": {"type": "Point", "coordinates": [-80.8937521976, 33.9038639711]}, "type": "Feature", "properties": {"collection_times": [{"days": "Mon-Fri", "time": "4:30pm"}, {"days": "Sat", "time": "2:15pm"}, {"days": "Sun", "time": "Closed"}], "id": "2920600006", "name": "USPS COLLECTION BOX - BLUE BOX", "address": {"city": "COLUMBIA", "state": "SC", "street": "4840 FOREST DR", "postcode": "29206"}}},
{"geometry": {"type": "Point", "coordinates": [-80.9658610237, 34.0184053239]}, "type": "Feature", "properties": {"collection_times": [{"days": "Mon-Fri", "time": "4:30pm"}, {"days": "Sat", "time": "2:15pm"}, {"days": "Sun", "time": "Closed"}], "id": "2920600007", "name": "USPS COLLECTION BOX - BLUE BOX", "address": {"city": "COLUMBIA", "state": "SC", "street": "4810 FOREST DR", "postcode": "29206"}}},
{"geometry": {"type": "Point", "coordinates": [-80.9708318202, 34.0198618617]}, "type": "Feature", "properties": {"collection_times": [{"days": "Mon-Fri", "time": "11:15am"}, {"days": "Sat-Sun", "time": "Closed"}], "id": "2920600010", "name": "USPS COLLECTION BOX - BLUE BOX", "address": {"city": "COLUMBIA", "state": "SC", "street": "4700 FOREST DR", "postcode": "29206"}}},
{"geometry": {"type": "Point", "coordinates": [-80.8937521976, 33.9038639711]}, "type": "Feature", "properties": {"collection_times": [{"days": "Mon-Fri", "time": "1:00pm"}, {"days": "Sat-Sun", "time": "Closed"}], "id": "2920600013", "name": "USPS COLLECTION BOX - PO LOBBY", "address": {"city": "COLUMBIA", "state": "SC", "street": "4400 EARLY ST", "postcode": "29206"}}},
{"geometry": {"type": "Point", "coordinates": [-80.8937521976, 33.9038639711]}, "type": "Feature", "properties": {"collection_times": [{"days": "Mon-Fri", "time": "1:00pm"}, {"days": "Sat", "time": "2:30pm"}, {"days": "Sun", "time": "Closed"}], "id": "2920600014", "name": "USPS COLLECTION BOX - BLUE BOX", "address": {"city": "COLUMBIA", "state": "SC", "street": "4400 EARLY ST", "postcode": "29206"}}},
{"geometry": {"type": "Point", "coordinates": [-80.9624997394, 34.0305196794]}, "type": "Feature", "properties": {"collection_times": [{"days": "Mon-Fri", "time": "1:00pm"}, {"days": "Sat-Sun", "time": "Closed"}], "id": "2920600015", "name": "USPS COLLECTION BOX - BLUE BOX", "address": {"city": "COLUMBIA", "state": "SC", "street": "4282 EARLY ST", "postcode": "29206"}}},
{"geometry": {"type": "Point", "coordinates": [-80.8937521976, 33.9038639711]}, "type": "Feature", "properties": {"collection_times": [{"days": "Mon-Fri", "time": "12:45pm"}, {"days": "Sat-Sun", "time": "Closed"}], "id": "2920600016", "name": "USPS COLLECTION BOX - BLUE BOX", "address": {"city": "COLUMBIA", "state": "SC", "street": "4500 STUART ST", "postcode": "29206"}}},
{"geometry": {"type": "Point", "coordinates": [-81.0381959967, 34.0153932546]}, "type": "Feature", "properties": {"collection_times": [{"days": "Mon-Fri", "time": "1:00pm"}, {"days": "Sat-Sun", "time": "Closed"}], "id": "2920600020", "name": "USPS COLLECTION BOX - BLUE BOX", "address": {"city": "COLUMBIA", "state": "SC", "street": "2159 SUMTER ST", "postcode": "29206"}}},
{"geometry": {"type": "Point", "coordinates": [-81.0453676567, 33.9988206008]}, "type": "Feature", "properties": {"collection_times": [{"days": "Mon-Fri", "time": "12:00pm"}, {"days": "Sat-Sun", "time": "Closed"}], "id": "2920600023", "name": "USPS COLLECTION BOX - BLUE BOX", "address": {"city": "COLUMBIA", "state": "SC", "street": "4110 MOSEBY ST", "postcode": "29206"}}},
{"geometry": {"type": "Point", "coordinates": [-80.9570432394, 34.0605029101]}, "type": "Feature", "properties": {"collection_times": [{"days": "Mon-Fri", "time": "4:00pm"}, {"days": "Sat-Sun", "time": "Closed"}], "id": "2920600026", "name": "USPS COLLECTION BOX - BLUE BOX", "address": {"city": "COLUMBIA", "state": "SC", "street": "6941 N TRENHOLM RD", "postcode": "29206"}}},
{"geometry": {"type": "Point", "coordinates": [-80.9274992394, 34.0233062407]}, "type": "Feature", "properties": {"collection_times": [{"days": "Mon-Fri", "time": "12:00pm"}, {"days": "Sat-Sun", "time": "Closed"}], "id": "2920600031", "name": "USPS COLLECTION BOX - BLUE BOX", "address": {"city": "COLUMBIA", "state": "SC", "street": "10000 HAMPTON PKWY", "postcode": "29206"}}},
{"geometry": {"type": "Point", "coordinates": [-80.9521312747, 34.0234750551]}, "type": "Feature", "properties": {"collection_times": [{"days": "Mon-Fri", "time": "11:30am"}, {"days": "Sat-Sun", "time": "Closed"}], "id": "2920600033", "name": "USPS COLLECTION BOX - BLUE BOX", "address": {"city": "COLUMBIA", "state": "SC", "street": "5450 FOREST DR", "postcode": "29206"}}},
{"geometry": {"type": "Point", "coordinates": [-80.8937521976, 33.9038639711]}, "type": "Feature", "properties": {"collection_times": [{"days": "Mon-Fri", "time": "4:30pm"}, {"days": "Sat", "time": "2:15pm"}, {"days": "Sun", "time": "Closed"}], "id": "2920600037", "name": "USPS COLLECTION BOX - APC", "address": {"city": "COLUMBIA", "state": "SC", "street": "4840 FOREST DR", "postcode": "29206"}}},
{"geometry": {"type": "Point", "coordinates": [-80.9652257435, 34.0185078638]}, "type": "Feature", "properties": {"collection_times": [{"days": "Mon-Fri", "time": "4:45pm"}, {"days": "Sat", "time": "1:45pm"}, {"days": "Sun", "time": "Closed"}], "id": "2920600040", "name": "USPS COLLECTION BOX - PO LOBBY", "address": {"city": "COLUMBIA", "state": "SC", "street": "4840 FOREST DR", "postcode": "29206"}}},
{"geometry": {"type": "Point", "coordinates": [-80.9433146662, 33.9648092298]}, "type": "Feature", "properties": {"collection_times": [{"days": "Mon-Fri", "time": "2:30pm"}, {"days": "Sat-Sun", "time": "Closed"}], "id": "2920900002", "name": "USPS COLLECTION BOX - BLUE BOX", "address": {"city": "COLUMBIA", "state": "SC", "street": "7509 GARNERS FERRY RD", "postcode": "29209"}}},
{"geometry": {"type": "Point", "coordinates": [-80.9586307814, 33.9771523112]}, "type": "Feature", "properties": {"collection_times": [{"days": "Mon-Fri", "time": "3:00pm"}, {"days": "Sat-Sun", "time": "Closed"}], "id": "2920900003", "name": "USPS COLLECTION BOX - BLUE BOX", "address": {"city": "COLUMBIA", "state": "SC", "street": "6800 GARNERS FERRY RD", "postcode": "29209"}}},
{"geometry": {"type": "Point", "coordinates": [-80.967992089, 33.9838046915]}, "type": "Feature", "properties": {"collection_times": [{"days": "Mon-Fri", "time": "4:00pm"}, {"days": "Sat", "time": "2:45pm"}, {"days": "Sun", "time": "Closed"}], "id": "2920900006", "name": "USPS COLLECTION BOX - BLUE BOX", "address": {"city": "COLUMBIA", "state": "SC", "street": "6000 GARNERS FERRY RD", "postcode": "29209"}}},
{"geometry": {"type": "Point", "coordinates": [-80.9440124848, 33.945924719]}, "type": "Feature", "properties": {"collection_times": [{"days": "Mon-Fri", "time": "1:00pm"}, {"days": "Sat-Sun", "time": "Closed"}], "id": "2920900011", "name": "USPS COLLECTION BOX - BLUE BOX", "address": {"city": "COLUMBIA", "state": "SC", "street": "4500 JACKSON BLVD", "postcode": "29209"}}},
{"geometry": {"type": "Point", "coordinates": [-80.9459944138, 33.9691543257]}, "type": "Feature", "properties": {"collection_times": [{"days": "Mon-Fri", "time": "4:30pm"}, {"days": "Sat", "time": "3:00pm"}, {"days": "Sun", "time": "Closed"}], "id": "2920900012", "name": "USPS COLLECTION BOX - BLUE BOX", "address": {"city": "COLUMBIA", "state": "SC", "street": "7406 GARNERS FERRY RD", "postcode": "29209"}}},
{"geometry": {"type": "Point", "coordinates": [-80.9459944138, 33.9691543257]}, "type": "Feature", "properties": {"collection_times": [{"days": "Mon-Fri", "time": "4:30pm"}, {"days": "Sat", "time": "3:00pm"}, {"days": "Sun", "time": "Closed"}], "id": "2920900017", "name": "USPS COLLECTION BOX - BLUE BOX", "address": {"city": "COLUMBIA", "state": "SC", "street": "7406 GARNERS FERRY RD", "postcode": "29209"}}},
{"geometry": {"type": "Point", "coordinates": [-80.9874210179, 33.9457383221]}, "type": "Feature", "properties": {"collection_times": [{"days": "Mon-Fri", "time": "4:15pm"}, {"days": "Sat-Sun", "time": "Closed"}], "id": "2920900025", "name": "USPS COLLECTION BOX - BLUE BOX", "address": {"city": "COLUMBIA", "state": "SC", "street": "3020 BLUFF RD", "postcode": "29209"}}},
{"geometry": {"type": "Point", "coordinates": [-81.1088470249, 34.0531213074]}, "type": "Feature", "properties": {"collection_times": [{"days": "Mon-Fri", "time": "2:00pm"}, {"days": "Sat-Sun", "time": "Closed"}], "id": "2921000001", "name": "USPS COLLECTION BOX - BLUE BOX", "address": {"city": "COLUMBIA", "state": "SC", "street": "3315 BROAD RIVER RD", "postcode": "29210"}}},
{"geometry": {"type": "Point", "coordinates": [-81.0878010053, 34.0323016272]}, "type": "Feature", "properties": {"collection_times": [{"days": "Mon-Fri", "time": "3:30pm"}, {"days": "Sat-Sun", "time": "Closed"}], "id": "2921000005", "name": "USPS COLLECTION BOX - BLUE BOX", "address": {"city": "COLUMBIA", "state": "SC", "street": "1613 BROAD RIVER RD", "postcode": "29210"}}},
{"geometry": {"type": "Point", "coordinates": [-81.108509991, 34.0440820629]}, "type": "Feature", "properties": {"collection_times": [{"days": "Mon-Fri", "time": "5:00pm"}, {"days": "Sat", "time": "2:15pm"}, {"days": "Sun", "time": "Closed"}], "id": "2921000009", "name": "USPS COLLECTION BOX - BLUE BOX", "address": {"city": "COLUMBIA", "state": "SC", "street": "1120 BRIARGATE CIR", "postcode": "29210"}}},
{"geometry": {"type": "Point", "coordinates": [-81.09848157, 34.040166377]}, "type": "Feature", "properties": {"collection_times": [{"days": "Mon-Fri", "time": "5:00pm"}, {"days": "Sat", "time": "1:00pm"}, {"days": "Sun", "time": "Closed"}], "id": "2921000015", "name": "USPS COLLECTION BOX - PO LOBBY", "address": {"city": "COLUMBIA", "state": "SC", "street": "1120 BRIARGATE CIR", "postcode": "29210"}}},
{"geometry": {"type": "Point", "coordinates": [-81.108509991, 34.0440820629]}, "type": "Feature", "properties": {"collection_times": [{"days": "Mon-Fri", "time": "5:00pm"}, {"days": "Sat", "time": "1:00pm"}, {"days": "Sun", "time": "Closed"}], "id": "2921000016", "name": "USPS COLLECTION BOX - PO LOBBY", "address": {"city": "COLUMBIA", "state": "SC", "street": "1120 BRIARGATE CIR", "postcode": "29210"}}},
{"geometry": {"type": "Point", "coordinates": [-81.0938629549, 34.0338824611]}, "type": "Feature", "properties": {"collection_times": [{"days": "Mon-Fri", "time": "3:15pm"}, {"days": "Sat", "time": "2:00pm"}, {"days": "Sun", "time": "Closed"}], "id": "2921000019", "name": "USPS COLLECTION BOX - BLUE BOX", "address": {"city": "COLUMBIA", "state": "SC", "street": "810 DUTCH SQUARE BLVD", "postcode": "29210"}}},
{"geometry": {"type": "Point", "coordinates": [-81.0883582951, 34.0411444602]}, "type": "Feature", "properties": {"collection_times": [{"days": "Mon-Fri", "time": "3:00pm"}, {"days": "Sat-Sun", "time": "Closed"}], "id": "2921000031", "name": "USPS COLLECTION BOX - BLUE BOX", "address": {"city": "COLUMBIA", "state": "SC", "street": "1345 GARNER LN", "postcode": "29210"}}},
{"geometry": {"type": "Point", "coordinates": [-81.0776388192, 34.0221402407]}, "type": "Feature", "properties": {"collection_times": [{"days": "Mon-Fri", "time": "3:45pm"}, {"days": "Sat-Sun", "time": "Closed"}], "id": "2921000032", "name": "USPS COLLECTION BOX - BLUE BOX", "address": {"city": "COLUMBIA", "state": "SC", "street": "177 GREYSTONE BLVD", "postcode": "29210"}}},
{"geometry": {"type": "Point", "coordinates": [-81.124442346, 34.0324140576]}, "type": "Feature", "properties": {"collection_times": [{"days": "Mon-Fri", "time": "4:00pm"}, {"days": "Sat-Sun", "time": "Closed"}], "id": "2921000039", "name": "USPS COLLECTION BOX - BLUE BOX", "address": {"city": "COLUMBIA", "state": "SC", "street": "125 OUTLET POINTE BLVD", "postcode": "29210"}}},
{"geometry": {"type": "Point", "coordinates": [-81.1252423678, 34.0450356405]}, "type": "Feature", "properties": {"collection_times": [{"days": "Mon-Fri", "time": "2:45pm"}, {"days": "Sat-Sun", "time": "Closed"}], "id": "2921000043", "name": "USPS COLLECTION BOX - BLUE BOX", "address": {"city": "COLUMBIA", "state": "SC", "street": "612 SAINT ANDREWS RD", "postcode": "29210"}}},
{"geometry": {"type": "Point", "coordinates": [-81.1417910839, 34.0441354952]}, "type": "Feature", "properties": {"collection_times": [{"days": "Mon-Fri", "time": "3:00pm"}, {"days": "Sat-Sun", "time": "Closed"}], "id": "2921000044", "name": "USPS COLLECTION BOX - BLUE BOX", "address": {"city": "COLUMBIA", "state": "SC", "street": "326 SAINT ANDREWS RD", "postcode": "29210"}}},
{"geometry": {"type": "Point", "coordinates": [-81.1213777302, 34.0443093179]}, "type": "Feature", "properties": {"collection_times": [{"days": "Mon-Fri", "time": "2:30pm"}, {"days": "Sat", "time": "2:45pm"}, {"days": "Sun", "time": "Closed"}], "id": "2921000048", "name": "USPS COLLECTION BOX - BLUE BOX", "address": {"city": "COLUMBIA", "state": "SC", "street": "736 SAINT ANDREWS RD", "postcode": "29210"}}},
{"geometry": {"type": "Point", "coordinates": [-81.0699531348, 34.0126990452]}, "type": "Feature", "properties": {"collection_times": [{"days": "Mon-Fri", "time": "3:45pm"}, {"days": "Sat-Sun", "time": "Closed"}], "id": "2921000053", "name": "USPS COLLECTION BOX - BLUE BOX", "address": {"city": "COLUMBIA", "state": "SC", "street": "140 STONERIDGE DR", "postcode": "29210"}}},
{"geometry": {"type": "Point", "coordinates": [-81.0804684821, 34.0160302046]}, "type": "Feature", "properties": {"collection_times": [{"days": "Mon-Fri", "time": "3:45pm"}, {"days": "Sat-Sun", "time": "Closed"}], "id": "2921000054", "name": "USPS COLLECTION BOX - BLUE BOX", "address": {"city": "COLUMBIA", "state": "SC", "street": "236 STONERIDGE DR", "postcode": "29210"}}},
{"geometry": {"type": "Point", "coordinates": [-81.0804684821, 34.0160302046]}, "type": "Feature", "properties": {"collection_times": [{"days": "Mon-Fri", "time": "3:45pm"}, {"days": "Sat-Sun", "time": "Closed"}], "id": "2921000055", "name": "USPS COLLECTION BOX - BLUE BOX", "address": {"city": "COLUMBIA", "state": "SC", "street": "236 STONERIDGE DR", "postcode": "29210"}}},
{"geometry": {"type": "Point", "coordinates": [-81.132389709, 34.04501985]}, "type": "Feature", "properties": {"collection_times": [{"days": "Mon-Fri", "time": "3:00pm"}, {"days": "Sat-Sun", "time": "Closed"}], "id": "2921000062", "name": "USPS COLLECTION BOX - BLUE BOX", "address": {"city": "COLUMBIA", "state": "SC", "street": "455 SAINT ANDREWS RD", "postcode": "29210"}}},
{"geometry": {"type": "Point", "coordinates": [-81.1360344345, 34.0619252107]}, "type": "Feature", "properties": {"collection_times": [{"days": "Mon-Fri", "time": "1:45pm"}, {"days": "Sat-Sun", "time": "Closed"}], "id": "2921000081", "name": "USPS COLLECTION BOX - BLUE BOX", "address": {"city": "COLUMBIA", "state": "SC", "street": "3800 FERNANDINA RD", "postcode": "29210"}}},
{"geometry": {"type": "Point", "coordinates": [-81.1053598791, 34.0323137368]}, "type": "Feature", "properties": {"collection_times": [{"days": "Mon-Fri", "time": "2:30pm"}, {"days": "Sat-Sun", "time": "Closed"}], "id": "2921000082", "name": "USPS COLLECTION BOX - BLUE BOX", "address": {"city": "COLUMBIA", "state": "SC", "street": "1400 BROWNING RD", "postcode": "29210"}}},
{"geometry": {"type": "Point", "coordinates": [-81.121162981, 34.033492959]}, "type": "Feature", "properties": {"collection_times": [{"days": "Mon-Fri", "time": "4:15pm"}, {"days": "Sat-Sun", "time": "Closed"}], "id": "2921000088", "name": "USPS COLLECTION BOX - BLUE BOX", "address": {"city": "COLUMBIA", "state": "SC", "street": "221 EXECUTIVE CENTER DR", "postcode": "29210"}}},
{"geometry": {"type": "Point", "coordinates": [-81.1594203213, 34.0723142622]}, "type": "Feature", "properties": {"collection_times": [{"days": "Mon-Fri", "time": "3:45pm"}, {"days": "Sat", "time": "2:30pm"}, {"days": "Sun", "time": "Closed"}], "id": "2921200000", "name": "USPS COLLECTION BOX - BLUE BOX", "address": {"city": "COLUMBIA", "state": "SC", "street": "275 HARBISON BLVD", "postcode": "29212"}}},
{"geometry": {"type": "Point", "coordinates": [-81.1497744739, 34.0804601176]}, "type": "Feature", "properties": {"collection_times": [{"days": "Mon-Fri", "time": "4:00pm"}, {"days": "Sat-Sun", "time": "Closed"}], "id": "2921200004", "name": "USPS COLLECTION BOX - BLUE BOX", "address": {"city": "COLUMBIA", "state": "SC", "street": "401 HARBISON BLVD", "postcode": "29212"}}},
{"geometry": {"type": "Point", "coordinates": [-81.1468348209, 34.0729613408]}, "type": "Feature", "properties": {"collection_times": [{"days": "Mon-Fri", "time": "4:15pm"}, {"days": "Sat-Sun", "time": "Closed"}], "id": "2921200006", "name": "USPS COLLECTION BOX - BLUE BOX", "address": {"city": "COLUMBIA", "state": "SC", "street": "1 HARBISON WAY", "postcode": "29212"}}},
{"geometry": {"type": "Point", "coordinates": [-81.1619341091, 34.0583470657]}, "type": "Feature", "properties": {"collection_times": [{"days": "Mon-Fri", "time": "3:15pm"}, {"days": "Sat", "time": "2:30pm"}, {"days": "Sun", "time": "Closed"}], "id": "2921200010", "name": "USPS COLLECTION BOX - BLUE BOX", "address": {"city": "COLUMBIA", "state": "SC", "street": "6169 SAINT ANDREWS RD", "postcode": "29212"}}},
{"geometry": {"type": "Point", "coordinates": [-81.1785969811, 34.0774169566]}, "type": "Feature", "properties": {"collection_times": [{"days": "Mon-Fri", "time": "3:15pm"}, {"days": "Sat-Sun", "time": "Closed"}], "id": "2921200025", "name": "USPS COLLECTION BOX - BLUE BOX", "address": {"city": "COLUMBIA", "state": "SC", "street": "7033 SAINT ANDREWS RD", "postcode": "29212"}}},
{"geometry": {"type": "Point", "coordinates": [-81.1756860071, 34.0726005383]}, "type": "Feature", "properties": {"collection_times": [{"days": "Mon-Fri", "time": "3:15pm"}, {"days": "Sat", "time": "1:15pm"}, {"days": "Sun", "time": "Closed"}], "id": "2921200033", "name": "USPS COLLECTION BOX - BLUE BOX", "address": {"city": "COLUMBIA", "state": "SC", "street": "6903 SAINT ANDREWS RD STE 1", "postcode": "29212"}}},
{"geometry": {"type": "Point", "coordinates": [-80.9928372883, 34.0593742035]}, "type": "Feature", "properties": {"collection_times": [{"days": "Mon-Fri", "time": "3:30pm"}, {"days": "Sat-Sun", "time": "Closed"}], "id": "2922300003", "name": "USPS COLLECTION BOX - BLUE BOX", "address": {"city": "COLUMBIA", "state": "SC", "street": "300 ARBOR LAKE DR", "postcode": "29223"}}},
{"geometry": {"type": "Point", "coordinates": [-80.9577014979, 34.0644906691]}, "type": "Feature", "properties": {"collection_times": [{"days": "Mon-Fri", "time": "3:15pm"}, {"days": "Sat-Sun", "time": "Closed"}], "id": "2922300006", "name": "USPS COLLECTION BOX - BLUE BOX", "address": {"city": "COLUMBIA", "state": "SC", "street": "7201 TWO NOTCH RD", "postcode": "29223"}}},
{"geometry": {"type": "Point", "coordinates": [-80.9354102811, 34.0860481923]}, "type": "Feature", "properties": {"collection_times": [{"days": "Mon-Fri", "time": "5:00pm"}, {"days": "Sat", "time": "1:30pm"}, {"days": "Sun", "time": "Closed"}], "id": "2922300014", "name": "USPS COLLECTION BOX - BLUE BOX", "address": {"city": "COLUMBIA", "state": "SC", "street": "8505 TWO NOTCH RD", "postcode": "29223"}}},
{"geometry": {"type": "Point", "coordinates": [-80.9354102811, 34.0860481923]}, "type": "Feature", "properties": {"collection_times": [{"days": "Mon-Fri", "time": "5:00pm"}, {"days": "Sat", "time": "1:30pm"}, {"days": "Sun", "time": "Closed"}], "id": "2922300015", "name": "USPS COLLECTION BOX - BLUE BOX", "address": {"city": "COLUMBIA", "state": "SC", "street": "8505 TWO NOTCH RD", "postcode": "29223"}}},
{"geometry": {"type": "Point", "coordinates": [-80.9354102811, 34.0860481923]}, "type": "Feature", "properties": {"collection_times": [{"days": "Mon-Fri", "time": "5:00pm"}, {"days": "Sat", "time": "1:30pm"}, {"days": "Sun", "time": "Closed"}], "id": "2922300017", "name": "USPS COLLECTION BOX - BLUE BOX", "address": {"city": "COLUMBIA", "state": "SC", "street": "8505 TWO NOTCH RD", "postcode": "29223"}}},
{"geometry": {"type": "Point", "coordinates": [-80.9736445116, 34.0592332261]}, "type": "Feature", "properties": {"collection_times": [{"days": "Mon-Fri", "time": "3:15pm"}, {"days": "Sat-Sun", "time": "Closed"}], "id": "2922300024", "name": "USPS COLLECTION BOX - BLUE BOX", "address": {"city": "COLUMBIA", "state": "SC", "street": "6202 SHAKESPEARE RD", "postcode": "29223"}}},
{"geometry": {"type": "Point", "coordinates": [-80.9186888935, 34.0992686101]}, "type": "Feature", "properties": {"collection_times": [{"days": "Mon-Fri", "time": "2:30pm"}, {"days": "Sat-Sun", "time": "Closed"}], "id": "2922300026", "name": "USPS COLLECTION BOX - BLUE BOX", "address": {"city": "COLUMBIA", "state": "SC", "street": "9380 TWO NOTCH RD", "postcode": "29223"}}},
{"geometry": {"type": "Point", "coordinates": [-80.955405563, 34.0664622162]}, "type": "Feature", "properties": {"collection_times": [{"days": "Mon-Fri", "time": "3:00pm"}, {"days": "Sat-Sun", "time": "Closed"}], "id": "2922300027", "name": "USPS COLLECTION BOX - BLUE BOX", "address": {"city": "COLUMBIA", "state": "SC", "street": "7325 TWO NOTCH RD", "postcode": "29223"}}},
{"geometry": {"type": "Point", "coordinates": [-80.9064761647, 34.1043536044]}, "type": "Feature", "properties": {"collection_times": [{"days": "Mon-Fri", "time": "2:45pm"}, {"days": "Sat-Sun", "time": "Closed"}], "id": "2922300029", "name": "USPS COLLECTION BOX - BLUE BOX", "address": {"city": "COLUMBIA", "state": "SC", "street": "9710 TWO NOTCH RD", "postcode": "29223"}}},
{"geometry": {"type": "Point", "coordinates": [-80.9583740793, 34.0844419575]}, "type": "Feature", "properties": {"collection_times": [{"days": "Mon-Fri", "time": "3:15pm"}, {"days": "Sat-Sun", "time": "Closed"}], "id": "2922300031", "name": "USPS COLLECTION BOX - BLUE BOX", "address": {"city": "COLUMBIA", "state": "SC", "street": "7909 PARKLANE RD", "postcode": "29223"}}},
{"geometry": {"type": "Point", "coordinates": [-80.9354102811, 34.0860481923]}, "type": "Feature", "properties": {"collection_times": [{"days": "Mon-Fri", "time": "5:00pm"}, {"days": "Sat", "time": "1:00pm"}, {"days": "Sun", "time": "Closed"}], "id": "2922300032", "name": "USPS COLLECTION BOX - PO LOBBY", "address": {"city": "COLUMBIA", "state": "SC", "street": "8505 TWO NOTCH RD", "postcode": "29223"}}},
{"geometry": {"type": "Point", "coordinates": [-80.9354102811, 34.0860481923]}, "type": "Feature", "properties": {"collection_times": [{"days": "Mon-Fri", "time": "5:00pm"}, {"days": "Sat", "time": "1:00pm"}, {"days": "Sun", "time": "Closed"}], "id": "2922300047", "name": "USPS COLLECTION BOX - PO LOBBY", "address": {"city": "COLUMBIA", "state": "SC", "street": "8505 TWO NOTCH RD", "postcode": "29223"}}},
{"geometry": {"type": "Point", "coordinates": [-80.9113169057, 34.1020431099]}, "type": "Feature", "properties": {"collection_times": [{"days": "Mon-Fri", "time": "2:30pm"}, {"days": "Sat-Sun", "time": "Closed"}], "id": "2922300051", "name": "USPS COLLECTION BOX - BLUE BOX", "address": {"city": "COLUMBIA", "state": "SC", "street": "9600 TWO NOTCH RD", "postcode": "29223"}}},
{"geometry": {"type": "Point", "coordinates": [-80.8859582534, 34.1158443382]}, "type": "Feature", "properties": {"collection_times": [{"days": "Mon-Fri", "time": "2:45pm"}, {"days": "Sat-Sun", "time": "Closed"}], "id": "2922300052", "name": "USPS COLLECTION BOX - BLUE BOX", "address": {"city": "COLUMBIA", "state": "SC", "street": "10134 TWO NOTCH RD", "postcode": "29223"}}},
{"geometry": {"type": "Point", "coordinates": [-80.9444153856, 34.0712970877]}, "type": "Feature", "properties": {"collection_times": [{"days": "Mon-Fri", "time": "3:00pm"}, {"days": "Sat-Sun", "time": "Closed"}], "id": "2922300053", "name": "USPS COLLECTION BOX - BLUE BOX", "address": {"city": "COLUMBIA", "state": "SC", "street": "3000 SCOTSMAN RD", "postcode": "29223"}}},
{"geometry": {"type": "Point", "coordinates": [-80.9354102811, 34.0860481923]}, "type": "Feature", "properties": {"collection_times": [{"days": "Mon-Fri", "time": "5:00pm"}, {"days": "Sat", "time": "1:00pm"}, {"days": "Sun", "time": "Closed"}], "id": "2922300060", "name": "USPS COLLECTION BOX - APC", "address": {"city": "COLUMBIA", "state": "SC", "street": "8505 TWO NOTCH RD", "postcode": "29223"}}},
{"geometry": {"type": "Point", "coordinates": [-80.8974312004, 34.142828336]}, "type": "Feature", "properties": {"collection_times": [{"days": "Mon-Fri", "time": "3:30pm"}, {"days": "Sat", "time": "2:00pm"}, {"days": "Sun", "time": "Closed"}], "id": "2922900000", "name": "USPS COLLECTION BOX - BLUE BOX", "address": {"city": "COLUMBIA", "state": "SC", "street": "1805 CLEMSON RD", "postcode": "29229"}}},
{"geometry": {"type": "Point", "coordinates": [-80.8974312004, 34.142828336]}, "type": "Feature", "properties": {"collection_times": [{"days": "Mon-Fri", "time": "3:30pm"}, {"days": "Sat", "time": "1:45pm"}, {"days": "Sun", "time": "Closed"}], "id": "2922900003", "name": "USPS COLLECTION BOX - PO LOBBY", "address": {"city": "COLUMBIA", "state": "SC", "street": "1805 CLEMSON RD", "postcode": "29229"}}},
{"geometry": {"type": "Point", "coordinates": [-80.8974312004, 34.142828336]}, "type": "Feature", "properties": {"collection_times": [{"days": "Mon-Fri", "time": "3:30pm"}, {"days": "Sat", "time": "1:45pm"}, {"days": "Sun", "time": "Closed"}], "id": "2922900004", "name": "USPS COLLECTION BOX - PO LOBBY", "address": {"city": "COLUMBIA", "state": "SC", "street": "1805 CLEMSON RD", "postcode": "29229"}}},
{"geometry": {"type": "Point", "coordinates": [-80.8974312004, 34.142828336]}, "type": "Feature", "properties": {"collection_times": [{"days": "Mon-Fri", "time": "3:30pm"}, {"days": "Sat", "time": "1:45pm"}, {"days": "Sun", "time": "Closed"}], "id": "2922900005", "name": "USPS COLLECTION BOX - APC", "address": {"city": "COLUMBIA", "state": "SC", "street": "1805 CLEMSON RD", "postcode": "29229"}}}
]}
