{"type": "FeatureCollection", "features": [
{"geometry": {"type": "Point", "coordinates": [-82.0042115389, 34.935546627]}, "type": "Feature", "properties": {"collection_times": [{"days": "Mon-Sat", "time": "12:45pm"}, {"days": "Sun", "time": "Closed"}], "id": "2930100010", "name": "USPS COLLECTION BOX - BLUE BOX", "address": {"city": "SPARTANBURG", "state": "SC", "street": "8004 WARREN H ABERNATHY HWY", "postcode": "29301"}}},
{"geometry": {"type": "Point", "coordinates": [-82.0009644389, 34.9180956407]}, "type": "Feature", "properties": {"collection_times": [{"days": "Mon-Sat", "time": "1:00pm"}, {"days": "Sun", "time": "Closed"}], "id": "2930100036", "name": "USPS COLLECTION BOX - BLUE BOX", "address": {"city": "SPARTANBURG", "state": "SC", "street": "2660 REIDVILLE RD", "postcode": "29301"}}},
{"geometry": {"type": "Point", "coordinates": [-81.9342177546, 34.9513319252]}, "type": "Feature", "properties": {"collection_times": [{"days": "Mon-Sat", "time": "1:00pm"}, {"days": "Sun", "time": "Closed"}], "id": "2930100044", "name": "USPS COLLECTION BOX - BLUE BOX", "address": {"city": "SPARTANBURG", "state": "SC", "street": "180 MAGNOLIA ST", "postcode": "29301"}}},
{"geometry": {"type": "Point", "coordinates": [-81.9334102618, 34.9677692463]}, "type": "Feature", "properties": {"collection_times": [{"days": "Mon-Sat", "time": "12:15pm"}, {"days": "Sun", "time": "Closed"}], "id": "2930100047", "name": "USPS COLLECTION BOX - BLUE BOX", "address": {"city": "SPARTANBURG", "state": "SC", "street": "1000 N PINE ST", "postcode": "29301"}}},
{"geometry": {"type": "Point", "coordinates": [-81.9295334481, 34.9449727717]}, "type": "Feature", "properties": {"collection_times": [{"days": "Mon-Fri", "time": "5:00pm"}, {"days": "Sat", "time": "1:00pm"}, {"days": "Sun", "time": "Closed"}], "id": "2930100050", "name": "USPS COLLECTION BOX - BLUE BOX", "address": {"city": "SPARTANBURG", "state": "SC", "street": "250 S CHURCH ST", "postcode": "29301"}}},
{"geometry": {"type": "Point", "coordinates": [-81.9295334481, 34.9449727717]}, "type": "Feature", "properties": {"collection_times": [{"days": "Mon-Fri", "time": "5:00pm"}, {"days": "Sat", "time": "1:00pm"}, {"days": "Sun", "time": "Closed"}], "id": "2930100051", "name": "USPS COLLECTION BOX - PO LOBBY", "address": {"city": "SPARTANBURG", "state": "SC", "street": "250 S CHURCH ST", "postcode": "29301"}}},
{"geometry": {"type": "Point", "coordinates": [-81.9295334481, 34.9449727717]}, "type": "Feature", "properties": {"collection_times": [{"days": "Mon-Fri", "time": "5:00pm"}, {"days": "Sat", "time": "1:00pm"}, {"days": "Sun", "time": "Closed"}], "id": "2930100052", "name": "USPS COLLECTION BOX - PO LOBBY", "address": {"city": "SPARTANBURG", "state": "SC", "street": "250 S CHURCH ST", "postcode": "29301"}}},
{"geometry": {"type": "Point", "coordinates": [-81.8860303785, 34.9187988541]}, "type": "Feature", "properties": {"collection_times": [{"days": "Mon-Sat", "time": "12:30pm"}, {"days": "Sun", "time": "Closed"}], "id": "2930100061", "name": "USPS COLLECTION BOX - BLUE BOX", "address": {"city": "SPARTANBURG", "state": "SC", "street": "230 CEDAR SPRINGS RD", "postcode": "29301"}}},
{"geometry": {"type": "Point", "coordinates": [-81.8780101389, 34.9364030343]}, "type": "Feature", "properties": {"collection_times": [{"days": "Mon-Sat", "time": "12:30pm"}, {"days": "Sun", "time": "Closed"}], "id": "2930100064", "name": "USPS COLLECTION BOX - BLUE BOX", "address": {"city": "SPARTANBURG", "state": "SC", "street": "2445 COUNTRY CLUB RD", "postcode": "29301"}}},
{"geometry": {"type": "Point", "coordinates": [-80.8937521976, 33.9038639711]}, "type": "Feature", "properties": {"collection_times": [{"days": "Mon-Sat", "time": "12:00pm"}, {"days": "Sun", "time": "Closed"}], "id": "2930100065", "name": "USPS COLLECTION BOX - BLUE BOX", "address": {"city": "SPARTANBURG", "state": "SC", "street": "627 OTIS BLVD", "postcode": "29301"}}},
{"geometry": {"type": "Point", "coordinates": [-81.8942406513, 34.9644325705]}, "type": "Feature", "properties": {"collection_times": [{"days": "Mon-Fri", "time": "4:00pm"}, {"days": "Sat", "time": "12:15pm"}, {"days": "Sun", "time": "Closed"}], "id": "2930100072", "name": "USPS COLLECTION BOX - BLUE BOX", "address": {"city": "SPARTANBURG", "state": "SC", "street": "147 FERNWOOD DR", "postcode": "29301"}}},
{"geometry": {"type": "Point", "coordinates": [-81.899413265, 34.9336645714]}, "type": "Feature", "properties": {"collection_times": [{"days": "Mon-Sat", "time": "12:15pm"}, {"days": "Sun", "time": "Closed"}], "id": "2930100076", "name": "USPS COLLECTION BOX - BLUE BOX", "address": {"city": "SPARTANBURG", "state": "SC", "street": "1214 UNION ST", "postcode": "29301"}}},
{"geometry": {"type": "Point", "coordinates": [-81.8936592917, 34.9782857515]}, "type": "Feature", "properties": {"collection_times": [{"days": "Mon-Sat", "time": "12:30pm"}, {"days": "Sun", "time": "Closed"}], "id": "2930100077", "name": "USPS COLLECTION BOX - BLUE BOX", "address": {"city": "SPARTANBURG", "state": "SC", "street": "1700 SKYLYN DR", "postcode": "29301"}}},
{"geometry": {"type": "Point", "coordinates": [-81.9609664352, 34.9418499823]}, "type": "Feature", "properties": {"collection_times": [{"days": "Mon-Fri", "time": "12:15pm"}, {"days": "Sat", "time": "12:00pm"}, {"days": "Sun", "time": "Closed"}], "id": "2930100083", "name": "USPS COLLECTION BOX - BLUE BOX", "address": {"city": "SPARTANBURG", "state": "SC", "street": "945 E MAIN ST", "postcode": "29301"}}},
{"geometry": {"type": "Point", "coordinates": [-81.9233366684, 34.9571376258]}, "type": "Feature", "properties": {"collection_times": [{"days": "Mon-Sat", "time": "12:45pm"}, {"days": "Sun", "time": "Closed"}], "id": "2930100087", "name": "USPS COLLECTION BOX - BLUE BOX", "address": {"city": "SPARTANBURG", "state": "SC", "street": "410 DRAYTON AVE", "postcode": "29301"}}},
{"geometry": {"type": "Point", "coordinates": [-82.0553467546, 34.9000337144]}, "type": "Feature", "properties": {"collection_times": [{"days": "Mon-Sat", "time": "11:15am"}, {"days": "Sun", "time": "Closed"}], "id": "2930100091", "name": "USPS COLLECTION BOX - BLUE BOX", "address": {"city": "SPARTANBURG", "state": "SC", "street": "130 S PINE ST", "postcode": "29301"}}},
{"geometry": {"type": "Point", "coordinates": [-81.9215972849, 34.9494949922]}, "type": "Feature", "properties": {"collection_times": [{"days": "Mon-Sat", "time": "11:30am"}, {"days": "Sun", "time": "Closed"}], "id": "2930100101", "name": "USPS COLLECTION BOX - BLUE BOX", "address": {"city": "SPARTANBURG", "state": "SC", "street": "401 E KENNEDY ST", "postcode": "29301"}}},
{"geometry": {"type": "Point", "coordinates": [-81.9109502091, 34.952801373]}, "type": "Feature", "properties": {"collection_times": [{"days": "Mon-Sat", "time": "12:00pm"}, {"days": "Sun", "time": "Closed"}], "id": "2930100105", "name": "USPS COLLECTION BOX - BLUE BOX", "address": {"city": "SPARTANBURG", "state": "SC", "street": "701 PLUME ST", "postcode": "29301"}}},
{"geometry": {"type": "Point", "coordinates": [-81.9359939117, 34.9556812987]}, "type": "Feature", "properties": {"collection_times": [{"days": "Mon-Sat", "time": "11:45am"}, {"days": "Sun", "time": "Closed"}], "id": "2930100113", "name": "USPS COLLECTION BOX - BLUE BOX", "address": {"city": "SPARTANBURG", "state": "SC", "street": "366 N CHURCH ST", "postcode": "29301"}}},
{"geometry": {"type": "Point", "coordinates": [-81.9332616322, 34.9778389432]}, "type": "Feature", "properties": {"collection_times": [{"days": "Mon-Sat", "time": "12:30pm"}, {"days": "Sun", "time": "Closed"}], "id": "2930100116", "name": "USPS COLLECTION BOX - BLUE BOX", "address": {"city": "SPARTANBURG", "state": "SC", "street": "630 CHESNEE HWY", "postcode": "29301"}}},
{"geometry": {"type": "Point", "coordinates": [-80.8937521976, 33.9038639711]}, "type": "Feature", "properties": {"collection_times": [{"days": "Mon-Sat", "time": "12:00pm"}, {"days": "Sun", "time": "Closed"}], "id": "2930100124", "name": "USPS COLLECTION BOX - BLUE BOX", "address": {"city": "SPARTANBURG", "state": "SC", "street": "1305 ASHEVILLE HWY", "postcode": "29301"}}},
{"geometry": {"type": "Point", "coordinates": [-81.9800897184, 34.99154426]}, "type": "Feature", "properties": {"collection_times": [{"days": "Mon-Sat", "time": "12:45pm"}, {"days": "Sun", "time": "Closed"}], "id": "2930100127", "name": "USPS COLLECTION BOX - BLUE BOX", "address": {"city": "SPARTANBURG", "state": "SC", "street": "7312 VALLEY FALLS RD", "postcode": "29301"}}},
{"geometry": {"type": "Point", "coordinates": [-81.9863878961, 34.9208294345]}, "type": "Feature", "properties": {"collection_times": [{"days": "Mon-Fri", "time": "4:45pm"}, {"days": "Sat", "time": "1:15pm"}, {"days": "Sun", "time": "Closed"}], "id": "2930100130", "name": "USPS COLLECTION BOX - BLUE BOX", "address": {"city": "SPARTANBURG", "state": "SC", "street": "300 E BLACKSTOCK RD", "postcode": "29301"}}},
{"geometry": {"type": "Point", "coordinates": [-81.934445909, 34.9514383797]}, "type": "Feature", "properties": {"collection_times": [{"days": "Mon-Sat", "time": "1:00pm"}, {"days": "Sun", "time": "Closed"}], "id": "2930100133", "name": "USPS COLLECTION BOX - BLUE BOX", "address": {"city": "SPARTANBURG", "state": "SC", "street": "201 MAGNOLIA ST", "postcode": "29301"}}},
{"geometry": {"type": "Point", "coordinates": [-81.9295334481, 34.9449727717]}, "type": "Feature", "properties": {"collection_times": [{"days": "Mon-Fri", "time": "5:00pm"}, {"days": "Sat", "time": "1:00pm"}, {"days": "Sun", "time": "Closed"}], "id": "2930100135", "name": "USPS COLLECTION BOX - BLUE BOX", "address": {"city": "SPARTANBURG", "state": "SC", "street": "250 S CHURCH ST", "postcode": "29301"}}},
{"geometry": {"type": "Point", "coordinates": [-81.928211302, 34.9508107337]}, "type": "Feature", "properties": {"collection_times": [{"days": "Mon-Sat", "time": "12:45pm"}, {"days": "Sun", "time": "Closed"}], "id": "2930100136", "name": "USPS COLLECTION BOX - BLUE BOX", "address": {"city": "SPARTANBURG", "state": "SC", "street": "115 N CONVERSE ST", "postcode": "29301"}}},
{"geometry": {"type": "Point", "coordinates": [-81.9451400182, 34.9447562383]}, "type": "Feature", "properties": {"collection_times": [{"days": "Mon-Sat", "time": "11:45am"}, {"days": "Sun", "time": "Closed"}], "id": "2930100139", "name": "USPS COLLECTION BOX - BLUE BOX", "address": {"city": "SPARTANBURG", "state": "SC", "street": "551 E MAIN ST", "postcode": "29301"}}},
{"geometry": {"type": "Point", "coordinates": [-81.8926762528, 34.9677231109]}, "type": "Feature", "properties": {"collection_times": [{"days": "Mon-Fri", "time": "12:30pm"}, {"days": "Sat", "time": "12:15pm"}, {"days": "Sun", "time": "Closed"}], "id": "2930100142", "name": "USPS COLLECTION BOX - BLUE BOX", "address": {"city": "SPARTANBURG", "state": "SC", "street": "1855 E MAIN ST", "postcode": "29301"}}},
{"geometry": {"type": "Point", "coordinates": [-81.9404441358, 34.9678319431]}, "type": "Feature", "properties": {"collection_times": [{"days": "Mon-Sat", "time": "12:30pm"}, {"days": "Sun", "time": "Closed"}], "id": "2930100145", "name": "USPS COLLECTION BOX - BLUE BOX", "address": {"city": "SPARTANBURG", "state": "SC", "street": "100 E WOOD ST", "postcode": "29301"}}},
{"geometry": {"type": "Point", "coordinates": [-82.0112379885, 34.9355668363]}, "type": "Feature", "properties": {"collection_times": [{"days": "Mon-Sat", "time": "1:30pm"}, {"days": "Sun", "time": "Closed"}], "id": "2930100148", "name": "USPS COLLECTION BOX - BLUE BOX", "address": {"city": "SPARTANBURG", "state": "SC", "street": "1200 TEXTILE RD", "postcode": "29301"}}},
{"geometry": {"type": "Point", "coordinates": [-81.9914095569, 34.9400383222]}, "type": "Feature", "properties": {"collection_times": [{"days": "Mon-Sat", "time": "12:45pm"}, {"days": "Sun", "time": "Closed"}], "id": "2930100151", "name": "USPS COLLECTION BOX - BLUE BOX", "address": {"city": "SPARTANBURG", "state": "SC", "street": "205 W BLACKSTOCK RD", "postcode": "29301"}}},
{"geometry": {"type": "Point", "coordinates": [-81.9404714088, 34.9466322703]}, "type": "Feature", "properties": {"collection_times": [{"days": "Mon-Sat", "time": "12:45pm"}, {"days": "Sun", "time": "Closed"}], "id": "2930100156", "name": "USPS COLLECTION BOX - BLUE BOX", "address": {"city": "SPARTANBURG", "state": "SC", "street": "382 E MAIN ST", "postcode": "29301"}}},
{"geometry": {"type": "Point", "coordinates": [-81.9169293525, 34.9490179785]}, "type": "Feature", "properties": {"collection_times": [{"days": "Mon-Sat", "time": "11:30am"}, {"days": "Sun", "time": "Closed"}], "id": "2930100160", "name": "USPS COLLECTION BOX - BLUE BOX", "address": {"city": "SPARTANBURG", "state": "SC", "street": "266 S PINE ST", "postcode": "29301"}}},
{"geometry": {"type": "Point", "coordinates": [-81.9340061768, 34.9507970652]}, "type": "Feature", "properties": {"collection_times": [{"days": "Mon-Sat", "time": "1:00pm"}, {"days": "Sun", "time": "Closed"}], "id": "2930100163", "name": "USPS COLLECTION BOX - BLUE BOX", "address": {"city": "SPARTANBURG", "state": "SC", "street": "155 MAGNOLIA ST", "postcode": "29301"}}},
{"geometry": {"type": "Point", "coordinates": [-82.0112379885, 34.9355668363]}, "type": "Feature", "properties": {"collection_times": [{"days": "Mon-Sat", "time": "12:45pm"}, {"days": "Sun", "time": "Closed"}], "id": "2930100165", "name": "USPS COLLECTION BOX - BLUE BOX", "address": {"city": "SPARTANBURG", "state": "SC", "street": "3720 BOILING SPRINGS RD", "postcode": "29301"}}},
{"geometry": {"type": "Point", "coordinates": [-82.0550219923, 34.9001595925]}, "type": "Feature", "properties": {"collection_times": [{"days": "Mon-Sat", "time": "12:45pm"}, {"days": "Sun", "time": "Closed"}], "id": "2930100169", "name": "USPS COLLECTION BOX - BLUE BOX", "address": {"city": "SPARTANBURG", "state": "SC", "street": "105 N PINE ST", "postcode": "29301"}}},
{"geometry": {"type": "Point", "coordinates": [-81.9303670683, 34.9498859988]}, "type": "Feature", "properties": {"collection_times": [{"days": "Mon-Sat", "time": "12:45pm"}, {"days": "Sun", "time": "Closed"}], "id": "2930100173", "name": "USPS COLLECTION BOX - BLUE BOX", "address": {"city": "SPARTANBURG", "state": "SC", "street": "142 E MAIN ST", "postcode": "29301"}}},
{"geometry": {"type": "Point", "coordinates": [-81.9576408341, 34.9416336636]}, "type": "Feature", "properties": {"collection_times": [{"days": "Mon-Sat", "time": "12:30pm"}, {"days": "Sun", "time": "Closed"}], "id": "2930100202", "name": "USPS COLLECTION BOX - BLUE BOX", "address": {"city": "SPARTANBURG", "state": "SC", "street": "818 E MAIN ST", "postcode": "29301"}}},
{"geometry": {"type": "Point", "coordinates": [-81.9295334481, 34.9449727717]}, "type": "Feature", "properties": {"collection_times": [{"days": "Mon-Fri", "time": "5:00pm"}, {"days": "Sat", "time": "1:00pm"}, {"days": "Sun", "time": "Closed"}], "id": "2930100209", "name": "USPS COLLECTION BOX - BLUE BOX", "address": {"city": "SPARTANBURG", "state": "SC", "street": "250 S CHURCH ST", "postcode": "29301"}}},
{"geometry": {"type": "Point", "coordinates": [-81.9295334481, 34.9449727717]}, "type": "Feature", "properties": {"collection_times": [{"days": "Mon-Fri", "time": "5:00pm"}, {"days": "Sat", "time": "1:00pm"}, {"days": "Sun", "time": "Closed"}], "id": "2930100210", "name": "USPS COLLECTION BOX - BLUE BOX", "address": {"city": "SPARTANBURG", "state": "SC", "street": "250 S CHURCH ST", "postcode": "29301"}}},
{"geometry": {"type": "Point", "coordinates": [-81.991106613, 34.9387708351]}, "type": "Feature", "properties": {"collection_times": [{"days": "Mon-Sat", "time": "12:15pm"}, {"days": "Sun", "time": "Closed"}], "id": "2930100222", "name": "USPS COLLECTION BOX - BLUE BOX", "address": {"city": "SPARTANBURG", "state": "SC", "street": "400 WEBBER RD", "postcode": "29301"}}},
{"geometry": {"type": "Point", "coordinates": [-81.9932083925, 34.9434955279]}, "type": "Feature", "properties": {"collection_times": [{"days": "Mon-Fri", "time": "5:00pm"}, {"days": "Sat", "time": "1:15pm"}, {"days": "Sun", "time": "Closed"}], "id": "2930100225", "name": "USPS COLLECTION BOX - PO LOBBY", "address": {"city": "SPARTANBURG", "state": "SC", "street": "520 W BLACKSTOCK RD", "postcode": "29301"}}},
{"geometry": {"type": "Point", "coordinates": [-81.9932083925, 34.9434955279]}, "type": "Feature", "properties": {"collection_times": [{"days": "Mon-Fri", "time": "5:00pm"}, {"days": "Sat", "time": "1:15pm"}, {"days": "Sun", "time": "Closed"}], "id": "2930100226", "name": "USPS COLLECTION BOX - PO LOBBY", "address": {"city": "SPARTANBURG", "state": "SC", "street": "520 W BLACKSTOCK RD", "postcode": "29301"}}},
{"geometry": {"type": "Point", "coordinates": [-81.9932083925, 34.9434955279]}, "type": "Feature", "properties": {"collection_times": [{"days": "Mon-Fri", "time": "5:00pm"}, {"days": "Sat", "time": "1:15pm"}, {"days": "Sun", "time": "Closed"}], "id": "2930100227", "name": "USPS COLLECTION BOX - BLUE BOX", "address": {"city": "SPARTANBURG", "state": "SC", "street": "520 W BLACKSTOCK RD", "postcode": "29301"}}},
{"geometry": {"type": "Point", "coordinates": [-81.9932083925, 34.9434955279]}, "type": "Feature", "properties": {"collection_times": [{"days": "Mon-Fri", "time": "5:00pm"}, {"days": "Sat", "time": "1:15pm"}, {"days": "Sun", "time": "Closed"}], "id": "2930100228", "name": "USPS COLLECTION BOX - BLUE BOX", "address": {"city": "SPARTANBURG", "state": "SC", "street": "520 W BLACKSTOCK RD", "postcode": "29301"}}},
{"geometry": {"type": "Point", "coordinates": [-81.9295334481, 34.9449727717]}, "type": "Feature", "properties": {"collection_times": [{"days": "Mon-Fri", "time": "5:00pm"}, {"days": "Sat", "time": "1:00pm"}, {"days": "Sun", "time": "Closed"}], "id": "2930100245", "name": "USPS COLLECTION BOX - PO LOBBY", "address": {"city": "SPARTANBURG", "state": "SC", "street": "250 S CHURCH ST", "postcode": "29301"}}},
{"geometry": {"type": "Point", "coordinates": [-81.9627373234, 35.0193637049]}, "type": "Feature", "properties": {"collection_times": [{"days": "Mon-Fri", "time": "5:00pm"}, {"days": "Sat", "time": "1:00pm"}, {"days": "Sun", "time": "Closed"}], "id": "2931600000", "name": "USPS COLLECTION BOX - BLUE BOX", "address": {"city": "BOILING SPRINGS", "state": "SC", "street": "1943 BOILING SPRINGS RD", "postcode": "29316"}}},
{"geometry": {"type": "Point", "coordinates": [-81.9627373234, 35.0193637049]}, "type": "Feature", "properties": {"collection_times": [{"days": "Mon-Fri", "time": "5:00pm"}, {"days": "Sat", "time": "1:00pm"}, {"days": "Sun", "time": "Closed"}], "id": "2931600001", "name": "USPS COLLECTION BOX - BLUE BOX", "address": {"city": "BOILING SPRINGS", "state": "SC", "street": "1943 BOILING SPRINGS RD", "postcode": "29316"}}},
{"geometry": {"type": "Point", "coordinates": [-81.9906110317, 34.9579356755]}, "type": "Feature", "properties": {"collection_times": [{"days": "Mon-Fri", "time": "3:45pm"}, {"days": "Sat", "time": "9:45am"}, {"days": "Sun", "time": "Closed"}], "id": "2932000000", "name": "USPS COLLECTION BOX - BLUE BOX", "address": {"city": "ARCADIA", "state": "SC", "street": "1893 HAYNE ST", "postcode": "29320"}}},
{"geometry": {"type": "Point", "coordinates": [-81.9906110317, 34.9579356755]}, "type": "Feature", "properties": {"collection_times": [{"days": "Mon-Fri", "time": "3:45pm"}, {"days": "Sat", "time": "9:45am"}, {"days": "Sun", "time": "Closed"}], "id": "2932000001", "name": "USPS COLLECTION BOX - PO LOBBY", "address": {"city": "ARCADIA", "state": "SC", "street": "1893 HAYNE ST", "postcode": "29320"}}},
{"geometry": {"type": "Point", "coordinates": [-81.6616006844, 34.7233909302]}, "type": "Feature", "properties": {"collection_times": [{"days": "Mon-Fri", "time": "3:45pm"}, {"days": "Sat", "time": "9:45am"}, {"days": "Sun", "time": "Closed"}], "id": "2932100000", "name": "USPS COLLECTION BOX - BLUE BOX", "address": {"city": "BUFFALO", "state": "SC", "street": "857 MAIN ST", "postcode": "29321"}}},
{"geometry": {"type": "Point", "coordinates": [-81.6616006844, 34.7233909302]}, "type": "Feature", "properties": {"collection_times": [{"days": "Mon-Fri", "time": "3:45pm"}, {"days": "Sat", "time": "9:45am"}, {"days": "Sun", "time": "Closed"}], "id": "2932100001", "name": "USPS COLLECTION BOX - PO LOBBY", "address": {"city": "BUFFALO", "state": "SC", "street": "857 MAIN ST", "postcode": "29321"}}},
{"geometry": {"type": "Point", "coordinates": [-81.6616006844, 34.7233909302]}, "type": "Feature", "properties": {"collection_times": [{"days": "Mon-Fri", "time": "3:45pm"}, {"days": "Sat", "time": "9:45am"}, {"days": "Sun", "time": "Closed"}], "id": "2932100002", "name": "USPS COLLECTION BOX - PO LOBBY", "address": {"city": "BUFFALO", "state": "SC", "street": "857 MAIN ST", "postcode": "29321"}}},
{"geometry": {"type": "Point", "coordinates": [-82.149989938, 35.1150760284]}, "type": "Feature", "properties": {"collection_times": [{"days": "Mon-Fri", "time": "3:45pm"}, {"days": "Sat", "time": "9:45am"}, {"days": "Sun", "time": "Closed"}], "id": "2932200000", "name": "USPS COLLECTION BOX - BLUE BOX", "address": {"city": "CAMPOBELLO", "state": "SC", "street": "30 S MAIN ST", "postcode": "29322"}}},
{"geometry": {"type": "Point", "coordinates": [-82.149989938, 35.1150760284]}, "type": "Feature", "properties": {"collection_times": [{"days": "Mon-Fri", "time": "3:45pm"}, {"days": "Sat", "time": "9:45am"}, {"days": "Sun", "time": "Closed"}], "id": "2932200001", "name": "USPS COLLECTION BOX - PO LOBBY", "address": {"city": "CAMPOBELLO", "state": "SC", "street": "30 S MAIN ST", "postcode": "29322"}}},
{"geometry": {"type": "Point", "coordinates": [-82.1465231671, 35.1136420051]}, "type": "Feature", "properties": {"collection_times": [{"days": "Mon-Fri", "time": "3:45pm"}, {"days": "Sat", "time": "9:45am"}, {"days": "Sun", "time": "Closed"}], "id": "2932200004", "name": "USPS COLLECTION BOX - PO LOBBY", "address": {"city": "CAMPOBELLO", "state": "SC", "street": "320 S MAIN ST", "postcode": "29322"}}},
{"geometry": {"type": "Point", "coordinates": [-81.8596444897, 35.1473140261]}, "type": "Feature", "properties": {"collection_times": [{"days": "Mon-Fri", "time": "4:00pm"}, {"days": "Sat", "time": "10:30am"}, {"days": "Sun", "time": "Closed"}], "id": "2932300000", "name": "USPS COLLECTION BOX - BLUE BOX", "address": {"city": "CHESNEE", "state": "SC", "street": "103 E CHESTER ST", "postcode": "29323"}}},
{"geometry": {"type": "Point", "coordinates": [-81.8596444897, 35.1473140261]}, "type": "Feature", "properties": {"collection_times": [{"days": "Mon-Fri", "time": "4:00pm"}, {"days": "Sat", "time": "10:30am"}, {"days": "Sun", "time": "Closed"}], "id": "2932300001", "name": "USPS COLLECTION BOX - PO LOBBY", "address": {"city": "CHESNEE", "state": "SC", "street": "103 E CHESTER ST", "postcode": "29323"}}},
{"geometry": {"type": "Point", "coordinates": [-81.8596444897, 35.1473140261]}, "type": "Feature", "properties": {"collection_times": [{"days": "Mon-Fri", "time": "4:00pm"}, {"days": "Sat", "time": "10:30am"}, {"days": "Sun", "time": "Closed"}], "id": "2932300006", "name": "USPS COLLECTION BOX - PO LOBBY", "address": {"city": "CHESNEE", "state": "SC", "street": "103 E CHESTER ST", "postcode": "29323"}}},
{"geometry": {"type": "Point", "coordinates": [-81.8228660492, 34.984625122]}, "type": "Feature", "properties": {"collection_times": [{"days": "Mon-Fri", "time": "3:45pm"}, {"days": "Sat", "time": "9:45am"}, {"days": "Sun", "time": "Closed"}], "id": "2932400000", "name": "USPS COLLECTION BOX - BLUE BOX", "address": {"city": "CLIFTON", "state": "SC", "street": "1017 COWPENS CLIFTON RD", "postcode": "29324"}}},
{"geometry": {"type": "Point", "coordinates": [-81.8228660492, 34.984625122]}, "type": "Feature", "properties": {"collection_times": [{"days": "Mon-Fri", "time": "3:45pm"}, {"days": "Sat", "time": "9:45am"}, {"days": "Sun", "time": "Closed"}], "id": "2932400001", "name": "USPS COLLECTION BOX - PO LOBBY", "address": {"city": "CLIFTON", "state": "SC", "street": "1017 COWPENS CLIFTON RD", "postcode": "29324"}}},
{"geometry": {"type": "Point", "coordinates": [-81.8798450632, 34.4670292179]}, "type": "Feature", "properties": {"collection_times": [{"days": "Mon-Sat", "time": "1:15pm"}, {"days": "Sun", "time": "Closed"}], "id": "2932500008", "name": "USPS COLLECTION BOX - BLUE BOX", "address": {"city": "CLINTON", "state": "SC", "street": "503 S BROAD ST", "postcode": "29325"}}},
{"geometry": {"type": "Point", "coordinates": [-81.863774851, 34.4681400655]}, "type": "Feature", "properties": {"collection_times": [{"days": "Mon-Sat", "time": "10:30am"}, {"days": "Sun", "time": "Closed"}], "id": "2932500022", "name": "USPS COLLECTION BOX - BLUE BOX", "address": {"city": "CLINTON", "state": "SC", "street": "22725 HIGHWAY 76 E", "postcode": "29325"}}},
{"geometry": {"type": "Point", "coordinates": [-81.8826298096, 34.4750281084]}, "type": "Feature", "properties": {"collection_times": [{"days": "Mon-Fri", "time": "4:15pm"}, {"days": "Sat", "time": "3:00pm"}, {"days": "Sun", "time": "Closed"}], "id": "2932500023", "name": "USPS COLLECTION BOX - PO LOBBY", "address": {"city": "CLINTON", "state": "SC", "street": "202 ELIZABETH ST", "postcode": "29325"}}},
{"geometry": {"type": "Point", "coordinates": [-81.8826298096, 34.4750281084]}, "type": "Feature", "properties": {"collection_times": [{"days": "Mon-Fri", "time": "4:15pm"}, {"days": "Sat", "time": "3:00pm"}, {"days": "Sun", "time": "Closed"}], "id": "2932500024", "name": "USPS COLLECTION BOX - PO LOBBY", "address": {"city": "CLINTON", "state": "SC", "street": "202 ELIZABETH ST", "postcode": "29325"}}},
{"geometry": {"type": "Point", "coordinates": [-81.8826298096, 34.4750281084]}, "type": "Feature", "properties": {"collection_times": [{"days": "Mon-Fri", "time": "4:15pm"}, {"days": "Sat", "time": "3:00pm"}, {"days": "Sun", "time": "Closed"}], "id": "2932500025", "name": "USPS COLLECTION BOX - BLUE BOX", "address": {"city": "CLINTON", "state": "SC", "street": "202 ELIZABETH ST", "postcode": "29325"}}},
{"geometry": {"type": "Point", "coordinates": [-81.8826298096, 34.4750281084]}, "type": "Feature", "properties": {"collection_times": [{"days": "Mon-Fri", "time": "4:15pm"}, {"days": "Sat", "time": "3:00pm"}, {"days": "Sun", "time": "Closed"}], "id": "2932500026", "name": "USPS COLLECTION BOX - PO LOBBY", "address": {"city": "CLINTON", "state": "SC", "street": "202 ELIZABETH ST", "postcode": "29325"}}},
{"geometry": {"type": "Point", "coordinates": [-81.8826298096, 34.4750281084]}, "type": "Feature", "properties": {"collection_times": [{"days": "Mon-Fri", "time": "4:15pm"}, {"days": "Sat", "time": "3:00pm"}, {"days": "Sun", "time": "Closed"}], "id": "2932500029", "name": "USPS COLLECTION BOX - BLUE BOX", "address": {"city": "CLINTON", "state": "SC", "street": "202 ELIZABETH ST", "postcode": "29325"}}},
{"geometry": {"type": "Point", "coordinates": [-81.8348993206, 34.9919015167]}, "type": "Feature", "properties": {"collection_times": [{"days": "Mon-Fri", "time": "3:45pm"}, {"days": "Sat", "time": "9:45am"}, {"days": "Sun", "time": "Closed"}], "id": "2932900000", "name": "USPS COLLECTION BOX - BLUE BOX", "address": {"city": "CONVERSE", "state": "SC", "street": "250 E MAIN ST", "postcode": "29329"}}},
{"geometry": {"type": "Point", "coordinates": [-81.8348993206, 34.9919015167]}, "type": "Feature", "properties": {"collection_times": [{"days": "Mon-Fri", "time": "3:45pm"}, {"days": "Sat", "time": "9:45am"}, {"days": "Sun", "time": "Closed"}], "id": "2932900003", "name": "USPS COLLECTION BOX - PO LOBBY", "address": {"city": "CONVERSE", "state": "SC", "street": "250 E MAIN ST", "postcode": "29329"}}},
{"geometry": {"type": "Point", "coordinates": [-81.8049336175, 35.0174144756]}, "type": "Feature", "properties": {"collection_times": [{"days": "Mon-Fri", "time": "3:45pm"}, {"days": "Sat", "time": "10:45am"}, {"days": "Sun", "time": "Closed"}], "id": "2933000000", "name": "USPS COLLECTION BOX - PO LOBBY", "address": {"city": "COWPENS", "state": "SC", "street": "106 W CHURCH ST", "postcode": "29330"}}},
{"geometry": {"type": "Point", "coordinates": [-81.8049336175, 35.0174144756]}, "type": "Feature", "properties": {"collection_times": [{"days": "Mon-Fri", "time": "3:45pm"}, {"days": "Sat", "time": "10:45am"}, {"days": "Sun", "time": "Closed"}], "id": "2933000001", "name": "USPS COLLECTION BOX - BLUE BOX", "address": {"city": "COWPENS", "state": "SC", "street": "106 W CHURCH ST", "postcode": "29330"}}},
{"geometry": {"type": "Point", "coordinates": [-81.8583302639, 34.6427160503]}, "type": "Feature", "properties": {"collection_times": [{"days": "Mon-Fri", "time": "3:45pm"}, {"days": "Sat", "time": "9:45am"}, {"days": "Sun", "time": "Closed"}], "id": "2933100000", "name": "USPS COLLECTION BOX - BLUE BOX", "address": {"city": "CROSS ANCHOR", "state": "SC", "street": "635 UNION HWY", "postcode": "29331"}}},
{"geometry": {"type": "Point", "coordinates": [-81.9791254057, 34.2760995272]}, "type": "Feature", "properties": {"collection_times": [{"days": "Mon-Fri", "time": "3:45pm"}, {"days": "Sat", "time": "9:45am"}, {"days": "Sun", "time": "Closed"}], "id": "2933200000", "name": "USPS COLLECTION BOX - BLUE BOX", "address": {"city": "CROSS HILL", "state": "SC", "street": "968 N MAIN ST", "postcode": "29332"}}},
{"geometry": {"type": "Point", "coordinates": [-81.9791254057, 34.2760995272]}, "type": "Feature", "properties": {"collection_times": [{"days": "Mon-Fri", "time": "3:45pm"}, {"days": "Sat", "time": "9:45am"}, {"days": "Sun", "time": "Closed"}], "id": "2933200001", "name": "USPS COLLECTION BOX - PO LOBBY", "address": {"city": "CROSS HILL", "state": "SC", "street": "968 N MAIN ST", "postcode": "29332"}}},
{"geometry": {"type": "Point", "coordinates": [-81.9031347193, 34.9697040378]}, "type": "Feature", "properties": {"collection_times": [{"days": "Mon-Fri", "time": "3:45pm"}, {"days": "Sat", "time": "10:45am"}, {"days": "Sun", "time": "Closed"}], "id": "2933300000", "name": "USPS COLLECTION BOX - BLUE BOX", "address": {"city": "DRAYTON", "state": "SC", "street": "1955 DRAYTON RD", "postcode": "29333"}}},
{"geometry": {"type": "Point", "coordinates": [-81.9031347193, 34.9697040378]}, "type": "Feature", "properties": {"collection_times": [{"days": "Mon-Fri", "time": "3:45pm"}, {"days": "Sat", "time": "10:45am"}, {"days": "Sun", "time": "Closed"}], "id": "2933300001", "name": "USPS COLLECTION BOX - PO LOBBY", "address": {"city": "DRAYTON", "state": "SC", "street": "1955 DRAYTON RD", "postcode": "29333"}}},
{"geometry": {"type": "Point", "coordinates": [-81.9031347193, 34.9697040378]}, "type": "Feature", "properties": {"collection_times": [{"days": "Mon-Fri", "time": "3:45pm"}, {"days": "Sat", "time": "10:45am"}, {"days": "Sun", "time": "Closed"}], "id": "2933300002", "name": "USPS COLLECTION BOX - PO LOBBY", "address": {"city": "DRAYTON", "state": "SC", "street": "1955 DRAYTON RD", "postcode": "29333"}}},
{"geometry": {"type": "Point", "coordinates": [-82.1090960499, 34.9151531735]}, "type": "Feature", "properties": {"collection_times": [{"days": "Mon-Fri", "time": "12:00pm"}, {"days": "Sat-Sun", "time": "Closed"}], "id": "2933400000", "name": "USPS COLLECTION BOX - BLUE BOX", "address": {"city": "DUNCAN", "state": "SC", "street": "1402 E MAIN ST", "postcode": "29334"}}},
{"geometry": {"type": "Point", "coordinates": [-82.1412360417, 34.9378758732]}, "type": "Feature", "properties": {"collection_times": [{"days": "Mon-Fri", "time": "3:45pm"}, {"days": "Sat", "time": "10:45am"}, {"days": "Sun", "time": "Closed"}], "id": "2933400003", "name": "USPS COLLECTION BOX - BLUE BOX", "address": {"city": "DUNCAN", "state": "SC", "street": "131 W MAIN ST", "postcode": "29334"}}},
{"geometry": {"type": "Point", "coordinates": [-82.1412360417, 34.9378758732]}, "type": "Feature", "properties": {"collection_times": [{"days": "Mon-Fri", "time": "3:45pm"}, {"days": "Sat", "time": "10:45am"}, {"days": "Sun", "time": "Closed"}], "id": "2933400004", "name": "USPS COLLECTION BOX - BLUE BOX", "address": {"city": "DUNCAN", "state": "SC", "street": "131 W MAIN ST", "postcode": "29334"}}},
{"geometry": {"type": "Point", "coordinates": [-82.1412360417, 34.9378758732]}, "type": "Feature", "properties": {"collection_times": [{"days": "Mon-Fri", "time": "3:45pm"}, {"days": "Sat", "time": "10:45am"}, {"days": "Sun", "time": "Closed"}], "id": "2933400005", "name": "USPS COLLECTION BOX - PO LOBBY", "address": {"city": "DUNCAN", "state": "SC", "street": "131 W MAIN ST", "postcode": "29334"}}},
{"geometry": {"type": "Point", "coordinates": [-82.0684698698, 34.8872830842]}, "type": "Feature", "properties": {"collection_times": [{"days": "Mon-Fri", "time": "12:00pm"}, {"days": "Sat-Sun", "time": "Closed"}], "id": "2933400006", "name": "USPS COLLECTION BOX - BLUE BOX", "address": {"city": "DUNCAN", "state": "SC", "street": "2153 E MAIN ST", "postcode": "29334"}}},
{"geometry": {"type": "Point", "coordinates": [-82.0989973089, 34.9055266774]}, "type": "Feature", "properties": {"collection_times": [{"days": "Mon-Fri", "time": "12:00pm"}, {"days": "Sat-Sun", "time": "Closed"}], "id": "2933400007", "name": "USPS COLLECTION BOX - BLUE BOX", "address": {"city": "DUNCAN", "state": "SC", "street": "1605 E MAIN ST", "postcode": "29334"}}},
{"geometry": {"type": "Point", "coordinates": [-81.9496404588, 34.6587200337]}, "type": "Feature", "properties": {"collection_times": [{"days": "Mon-Fri", "time": "3:45pm"}, {"days": "Sat", "time": "9:45am"}, {"days": "Sun", "time": "Closed"}], "id": "2933500000", "name": "USPS COLLECTION BOX - BLUE BOX", "address": {"city": "ENOREE", "state": "SC", "street": "1369 PARKER RD", "postcode": "29335"}}},
{"geometry": {"type": "Point", "coordinates": [-81.9496404588, 34.6587200337]}, "type": "Feature", "properties": {"collection_times": [{"days": "Mon-Fri", "time": "3:45pm"}, {"days": "Sat", "time": "9:45am"}, {"days": "Sun", "time": "Closed"}], "id": "2933500001", "name": "USPS COLLECTION BOX - PO LOBBY", "address": {"city": "ENOREE", "state": "SC", "street": "1369 PARKER RD", "postcode": "29335"}}},
{"geometry": {"type": "Point", "coordinates": [-82.0105645364, 34.956465163]}, "type": "Feature", "properties": {"collection_times": [{"days": "Mon-Fri", "time": "3:45pm"}, {"days": "Sat-Sun", "time": "Closed"}], "id": "2933600000", "name": "USPS COLLECTION BOX - BLUE BOX", "address": {"city": "FAIRFOREST", "state": "SC", "street": "2435 FAIRFOREST CLEVEDALE RD", "postcode": "29336"}}},
{"geometry": {"type": "Point", "coordinates": [-82.0105645364, 34.956465163]}, "type": "Feature", "properties": {"collection_times": [{"days": "Mon-Fri", "time": "3:45pm"}, {"days": "Sat-Sun", "time": "Closed"}], "id": "2933600001", "name": "USPS COLLECTION BOX - PO LOBBY", "address": {"city": "FAIRFOREST", "state": "SC", "street": "2435 FAIRFOREST CLEVEDALE RD", "postcode": "29336"}}},
{"geometry": {"type": "Point", "coordinates": [-82.0026791796, 35.135977087]}, "type": "Feature", "properties": {"collection_times": [{"days": "Mon-Fri", "time": "3:45pm"}, {"days": "Sat", "time": "9:45am"}, {"days": "Sun", "time": "Closed"}], "id": "2933800000", "name": "USPS COLLECTION BOX - PO LOBBY", "address": {"city": "FINGERVILLE", "state": "SC", "street": "10275 FRANKLIN ST", "postcode": "29338"}}},
{"geometry": {"type": "Point", "coordinates": [-82.0026791796, 35.135977087]}, "type": "Feature", "properties": {"collection_times": [{"days": "Mon-Fri", "time": "3:45pm"}, {"days": "Sat", "time": "9:45am"}, {"days": "Sun", "time": "Closed"}], "id": "2933800001", "name": "USPS COLLECTION BOX - BLUE BOX", "address": {"city": "FINGERVILLE", "state": "SC", "street": "10275 FRANKLIN ST", "postcode": "29338"}}},
{"geometry": {"type": "Point", "coordinates": [-81.6458471955, 35.0601937244]}, "type": "Feature", "properties": {"collection_times": [{"days": "Mon-Fri", "time": "10:45am"}, {"days": "Sat-Sun", "time": "Closed"}], "id": "2934000007", "name": "USPS COLLECTION BOX - BLUE BOX", "address": {"city": "GAFFNEY", "state": "SC", "street": "901 COLLEGE DR", "postcode": "29340"}}},
{"geometry": {"type": "Point", "coordinates": [-81.6524565563, 35.0671239601]}, "type": "Feature", "properties": {"collection_times": [{"days": "Mon-Fri", "time": "10:45am"}, {"days": "Sat", "time": "11:15am"}, {"days": "Sun", "time": "Closed"}], "id": "2934000010", "name": "USPS COLLECTION BOX - BLUE BOX", "address": {"city": "GAFFNEY", "state": "SC", "street": "500 S PETTY ST", "postcode": "29340"}}},
{"geometry": {"type": "Point", "coordinates": [-81.627660511, 35.0810873923]}, "type": "Feature", "properties": {"collection_times": [{"days": "Mon-Fri", "time": "10:30am"}, {"days": "Sat-Sun", "time": "Closed"}], "id": "2934000019", "name": "USPS COLLECTION BOX - BLUE BOX", "address": {"city": "GAFFNEY", "state": "SC", "street": "1607 CHEROKEE AVE", "postcode": "29340"}}},
{"geometry": {"type": "Point", "coordinates": [-81.6507595449, 35.0712888396]}, "type": "Feature", "properties": {"collection_times": [{"days": "Mon-Fri", "time": "10:30am"}, {"days": "Sat-Sun", "time": "Closed"}], "id": "2934000021", "name": "USPS COLLECTION BOX - BLUE BOX", "address": {"city": "GAFFNEY", "state": "SC", "street": "204 S LIMESTONE ST", "postcode": "29340"}}},
{"geometry": {"type": "Point", "coordinates": [-81.6467742238, 35.075863971]}, "type": "Feature", "properties": {"collection_times": [{"days": "Mon-Fri", "time": "10:30am"}, {"days": "Sat-Sun", "time": "Closed"}], "id": "2934000026", "name": "USPS COLLECTION BOX - BLUE BOX", "address": {"city": "GAFFNEY", "state": "SC", "street": "523 N LIMESTONE ST", "postcode": "29340"}}},
{"geometry": {"type": "Point", "coordinates": [-81.6365492553, 35.0891160068]}, "type": "Feature", "properties": {"collection_times": [{"days": "Mon-Fri", "time": "10:15am"}, {"days": "Sat-Sun", "time": "Closed"}], "id": "2934000027", "name": "USPS COLLECTION BOX - BLUE BOX", "address": {"city": "GAFFNEY", "state": "SC", "street": "1530 N LIMESTONE ST", "postcode": "29340"}}},
{"geometry": {"type": "Point", "coordinates": [-81.64869679, 35.0730724632]}, "type": "Feature", "properties": {"collection_times": [{"days": "Mon-Fri", "time": "11:00am"}, {"days": "Sat", "time": "11:15am"}, {"days": "Sun", "time": "Closed"}], "id": "2934000028", "name": "USPS COLLECTION BOX - BLUE BOX", "address": {"city": "GAFFNEY", "state": "SC", "street": "125 E FLOYD BAKER BLVD", "postcode": "29340"}}},
{"geometry": {"type": "Point", "coordinates": [-81.6374595514, 35.0877487985]}, "type": "Feature", "properties": {"collection_times": [{"days": "Mon-Fri", "time": "10:15am"}, {"days": "Sat", "time": "11:30am"}, {"days": "Sun", "time": "Closed"}], "id": "2934000031", "name": "USPS COLLECTION BOX - BLUE BOX", "address": {"city": "GAFFNEY", "state": "SC", "street": "1434 N LIMESTONE ST", "postcode": "29340"}}},
{"geometry": {"type": "Point", "coordinates": [-81.6441803463, 35.0739119183]}, "type": "Feature", "properties": {"collection_times": [{"days": "Mon-Fri", "time": "10:45am"}, {"days": "Sat", "time": "11:15am"}, {"days": "Sun", "time": "Closed"}], "id": "2934000032", "name": "USPS COLLECTION BOX - BLUE BOX", "address": {"city": "GAFFNEY", "state": "SC", "street": "312 E FREDERICK ST", "postcode": "29340"}}},
{"geometry": {"type": "Point", "coordinates": [-81.6592680435, 35.085462825]}, "type": "Feature", "properties": {"collection_times": [{"days": "Mon-Fri", "time": "5:00pm"}, {"days": "Sat", "time": "11:45am"}, {"days": "Sun", "time": "Closed"}], "id": "2934100009", "name": "USPS COLLECTION BOX - BLUE BOX", "address": {"city": "GAFFNEY", "state": "SC", "street": "1208 W FLOYD BAKER BLVD", "postcode": "29341"}}},
{"geometry": {"type": "Point", "coordinates": [-81.6592680435, 35.085462825]}, "type": "Feature", "properties": {"collection_times": [{"days": "Mon-Fri", "time": "5:00pm"}, {"days": "Sat", "time": "11:45am"}, {"days": "Sun", "time": "Closed"}], "id": "2934100010", "name": "USPS COLLECTION BOX - BLUE BOX", "address": {"city": "GAFFNEY", "state": "SC", "street": "1208 W FLOYD BAKER BLVD", "postcode": "29341"}}},
{"geometry": {"type": "Point", "coordinates": [-81.6592680435, 35.085462825]}, "type": "Feature", "properties": {"collection_times": [{"days": "Mon-Fri", "time": "5:00pm"}, {"days": "Sat", "time": "11:45am"}, {"days": "Sun", "time": "Closed"}], "id": "2934100012", "name": "USPS COLLECTION BOX - BLUE BOX", "address": {"city": "GAFFNEY", "state": "SC", "street": "1208 W FLOYD BAKER BLVD", "postcode": "29341"}}},
{"geometry": {"type": "Point", "coordinates": [-81.6592680435, 35.085462825]}, "type": "Feature", "properties": {"collection_times": [{"days": "Mon-Fri", "time": "5:00pm"}, {"days": "Sat", "time": "11:45am"}, {"days": "Sun", "time": "Closed"}], "id": "2934100014", "name": "USPS COLLECTION BOX - PO LOBBY", "address": {"city": "GAFFNEY", "state": "SC", "street": "1208 W FLOYD BAKER BLVD", "postcode": "29341"}}},
{"geometry": {"type": "Point", "coordinates": [-81.6592680435, 35.085462825]}, "type": "Feature", "properties": {"collection_times": [{"days": "Mon-Fri", "time": "5:00pm"}, {"days": "Sat", "time": "11:45am"}, {"days": "Sun", "time": "Closed"}], "id": "2934100015", "name": "USPS COLLECTION BOX - PO LOBBY", "address": {"city": "GAFFNEY", "state": "SC", "street": "1208 W FLOYD BAKER BLVD", "postcode": "29341"}}},
{"geometry": {"type": "Point", "coordinates": [-81.6486599008, 35.0736223503]}, "type": "Feature", "properties": {"collection_times": [{"days": "Mon-Fri", "time": "11:30am"}, {"days": "Sat-Sun", "time": "Closed"}], "id": "2934100016", "name": "USPS COLLECTION BOX - BLUE BOX", "address": {"city": "GAFFNEY", "state": "SC", "street": "1 FACTORY SHOPS BLVD", "postcode": "29341"}}},
{"geometry": {"type": "Point", "coordinates": [-81.6877147545, 35.074853219]}, "type": "Feature", "properties": {"collection_times": [{"days": "Mon-Fri", "time": "11:30am"}, {"days": "Sat-Sun", "time": "Closed"}], "id": "2934100018", "name": "USPS COLLECTION BOX - BLUE BOX", "address": {"city": "GAFFNEY", "state": "SC", "street": "909 HYATT ST", "postcode": "29341"}}},
{"geometry": {"type": "Point", "coordinates": [-81.8379263703, 34.942871092]}, "type": "Feature", "properties": {"collection_times": [{"days": "Mon-Fri", "time": "3:45pm"}, {"days": "Sat", "time": "9:45am"}, {"days": "Sun", "time": "Closed"}], "id": "2934600000", "name": "USPS COLLECTION BOX - BLUE BOX", "address": {"city": "GLENDALE", "state": "SC", "street": "350 BROADWAY ST", "postcode": "29346"}}},
{"geometry": {"type": "Point", "coordinates": [-81.8379263703, 34.942871092]}, "type": "Feature", "properties": {"collection_times": [{"days": "Mon-Fri", "time": "3:45pm"}, {"days": "Sat", "time": "9:45am"}, {"days": "Sun", "time": "Closed"}], "id": "2934600001", "name": "USPS COLLECTION BOX - PO LOBBY", "address": {"city": "GLENDALE", "state": "SC", "street": "350 BROADWAY ST", "postcode": "29346"}}},
{"geometry": {"type": "Point", "coordinates": [-82.1332734756, 35.0792536662]}, "type": "Feature", "properties": {"collection_times": [{"days": "Mon-Fri", "time": "3:45pm"}, {"days": "Sat", "time": "9:45am"}, {"days": "Sun", "time": "Closed"}], "id": "2934800000", "name": "USPS COLLECTION BOX - BLUE BOX", "address": {"city": "GRAMLING", "state": "SC", "street": "14921 ASHEVILLE HWY", "postcode": "29348"}}},
{"geometry": {"type": "Point", "coordinates": [-82.1332734756, 35.0792536662]}, "type": "Feature", "properties": {"collection_times": [{"days": "Mon-Fri", "time": "3:45pm"}, {"days": "Sat", "time": "9:45am"}, {"days": "Sun", "time": "Closed"}], "id": "2934800001", "name": "USPS COLLECTION BOX - PO LOBBY", "address": {"city": "GRAMLING", "state": "SC", "street": "14921 ASHEVILLE HWY", "postcode": "29348"}}},
{"geometry": {"type": "Point", "coordinates": [-82.0907355235, 35.0454376001]}, "type": "Feature", "properties": {"collection_times": [{"days": "Mon-Fri", "time": "3:45pm"}, {"days": "Sat", "time": "10:45am"}, {"days": "Sun", "time": "Closed"}], "id": "2934900000", "name": "USPS COLLECTION BOX - BLUE BOX", "address": {"city": "INMAN", "state": "SC", "street": "14 BLACKSTOCK RD", "postcode": "29349"}}},
{"geometry": {"type": "Point", "coordinates": [-82.0907355235, 35.0454376001]}, "type": "Feature", "properties": {"collection_times": [{"days": "Mon-Fri", "time": "3:45pm"}, {"days": "Sat", "time": "10:45am"}, {"days": "Sun", "time": "Closed"}], "id": "2934900001", "name": "USPS COLLECTION BOX - BLUE BOX", "address": {"city": "INMAN", "state": "SC", "street": "14 BLACKSTOCK RD", "postcode": "29349"}}},
{"geometry": {"type": "Point", "coordinates": [-82.0907355235, 35.0454376001]}, "type": "Feature", "properties": {"collection_times": [{"days": "Mon-Fri", "time": "3:45pm"}, {"days": "Sat", "time": "10:45am"}, {"days": "Sun", "time": "Closed"}], "id": "2934900003", "name": "USPS COLLECTION BOX - PO LOBBY", "address": {"city": "INMAN", "state": "SC", "street": "14 BLACKSTOCK RD", "postcode": "29349"}}},
{"geometry": {"type": "Point", "coordinates": [-82.0907355235, 35.0454376001]}, "type": "Feature", "properties": {"collection_times": [{"days": "Mon-Fri", "time": "3:45pm"}, {"days": "Sat", "time": "10:45am"}, {"days": "Sun", "time": "Closed"}], "id": "2934900004", "name": "USPS COLLECTION BOX - PO LOBBY", "address": {"city": "INMAN", "state": "SC", "street": "14 BLACKSTOCK RD", "postcode": "29349"}}},
{"geometry": {"type": "Point", "coordinates": [-81.8108541808, 34.413975422]}, "type": "Feature", "properties": {"collection_times": [{"days": "Mon-Fri", "time": "3:45pm"}, {"days": "Sat", "time": "9:45am"}, {"days": "Sun", "time": "Closed"}], "id": "2935100000", "name": "USPS COLLECTION BOX - BLUE BOX", "address": {"city": "JOANNA", "state": "SC", "street": "106 REGNERY PLZ", "postcode": "29351"}}},
{"geometry": {"type": "Point", "coordinates": [-81.8108541808, 34.413975422]}, "type": "Feature", "properties": {"collection_times": [{"days": "Mon-Fri", "time": "3:45pm"}, {"days": "Sat", "time": "9:45am"}, {"days": "Sun", "time": "Closed"}], "id": "2935100003", "name": "USPS COLLECTION BOX - PO LOBBY", "address": {"city": "JOANNA", "state": "SC", "street": "106 REGNERY PLZ", "postcode": "29351"}}},
{"geometry": {"type": "Point", "coordinates": [-81.6549178945, 34.8300422918]}, "type": "Feature", "properties": {"collection_times": [{"days": "Mon-Fri", "time": "3:45pm"}, {"days": "Sat", "time": "9:45am"}, {"days": "Sun", "time": "Closed"}], "id": "2935300000", "name": "USPS COLLECTION BOX - BLUE BOX", "address": {"city": "JONESVILLE", "state": "SC", "street": "2912 FURMAN FENDLEY HWY", "postcode": "29353"}}},
{"geometry": {"type": "Point", "coordinates": [-81.6549178945, 34.8300422918]}, "type": "Feature", "properties": {"collection_times": [{"days": "Mon-Fri", "time": "3:45pm"}, {"days": "Sat", "time": "9:45am"}, {"days": "Sun", "time": "Closed"}], "id": "2935300001", "name": "USPS COLLECTION BOX - PO LOBBY", "address": {"city": "JONESVILLE", "state": "SC", "street": "2912 FURMAN FENDLEY HWY", "postcode": "29353"}}},
{"geometry": {"type": "Point", "coordinates": [-82.1842200386, 35.1765130023]}, "type": "Feature", "properties": {"collection_times": [{"days": "Mon-Fri", "time": "3:45pm"}, {"days": "Sat", "time": "10:45am"}, {"days": "Sun", "time": "Closed"}], "id": "2935600000", "name": "USPS COLLECTION BOX - BLUE BOX", "address": {"city": "LANDRUM", "state": "SC", "street": "500 E RUTHERFORD ST", "postcode": "29356"}}},
{"geometry": {"type": "Point", "coordinates": [-82.1842200386, 35.1765130023]}, "type": "Feature", "properties": {"collection_times": [{"days": "Mon-Fri", "time": "3:45pm"}, {"days": "Sat", "time": "10:45am"}, {"days": "Sun", "time": "Closed"}], "id": "2935600007", "name": "USPS COLLECTION BOX - PO LOBBY", "address": {"city": "LANDRUM", "state": "SC", "street": "500 E RUTHERFORD ST", "postcode": "29356"}}},
{"geometry": {"type": "Point", "coordinates": [-82.1842200386, 35.1765130023]}, "type": "Feature", "properties": {"collection_times": [{"days": "Mon-Fri", "time": "3:45pm"}, {"days": "Sat", "time": "10:45am"}, {"days": "Sun", "time": "Closed"}], "id": "2935600008", "name": "USPS COLLECTION BOX - PO LOBBY", "address": {"city": "LANDRUM", "state": "SC", "street": "500 E RUTHERFORD ST", "postcode": "29356"}}},
{"geometry": {"type": "Point", "coordinates": [-82.1842200386, 35.1765130023]}, "type": "Feature", "properties": {"collection_times": [{"days": "Mon-Fri", "time": "3:45pm"}, {"days": "Sat", "time": "10:45am"}, {"days": "Sun", "time": "Closed"}], "id": "2935600010", "name": "USPS COLLECTION BOX - BLUE BOX", "address": {"city": "LANDRUM", "state": "SC", "street": "500 E RUTHERFORD ST", "postcode": "29356"}}},
{"geometry": {"type": "Point", "coordinates": [-82.1616235164, 35.1808545376]}, "type": "Feature", "properties": {"collection_times": [{"days": "Mon-Fri", "time": "11:30am"}, {"days": "Sat-Sun", "time": "Closed"}], "id": "2935600011", "name": "USPS COLLECTION BOX - BLUE BOX", "address": {"city": "LANDRUM", "state": "SC", "street": "1851 HIGHWAY 14 E", "postcode": "29356"}}},
{"geometry": {"type": "Point", "coordinates": [-82.0127928458, 34.500569747]}, "type": "Feature", "properties": {"collection_times": [{"days": "Mon-Fri", "time": "5:00pm"}, {"days": "Sat", "time": "12:30pm"}, {"days": "Sun", "time": "Closed"}], "id": "2936000001", "name": "USPS COLLECTION BOX - BLUE BOX", "address": {"city": "LAURENS", "state": "SC", "street": "302 N HARPER ST", "postcode": "29360"}}},
{"geometry": {"type": "Point", "coordinates": [-82.0127928458, 34.500569747]}, "type": "Feature", "properties": {"collection_times": [{"days": "Mon-Fri", "time": "5:00pm"}, {"days": "Sat", "time": "12:30pm"}, {"days": "Sun", "time": "Closed"}], "id": "2936000002", "name": "USPS COLLECTION BOX - BLUE BOX", "address": {"city": "LAURENS", "state": "SC", "street": "302 N HARPER ST", "postcode": "29360"}}},
{"geometry": {"type": "Point", "coordinates": [-82.0127928458, 34.500569747]}, "type": "Feature", "properties": {"collection_times": [{"days": "Mon-Fri", "time": "4:45pm"}, {"days": "Sat", "time": "12:30pm"}, {"days": "Sun", "time": "Closed"}], "id": "2936000003", "name": "USPS COLLECTION BOX - PO LOBBY", "address": {"city": "LAURENS", "state": "SC", "street": "302 N HARPER ST", "postcode": "29360"}}},
{"geometry": {"type": "Point", "coordinates": [-82.0127928458, 34.500569747]}, "type": "Feature", "properties": {"collection_times": [{"days": "Mon-Fri", "time": "4:45pm"}, {"days": "Sat", "time": "12:30pm"}, {"days": "Sun", "time": "Closed"}], "id": "2936000004", "name": "USPS COLLECTION BOX - PO LOBBY", "address": {"city": "LAURENS", "state": "SC", "street": "302 N HARPER ST", "postcode": "29360"}}},
{"geometry": {"type": "Point", "coordinates": [-82.0350722884, 34.493463482]}, "type": "Feature", "properties": {"collection_times": [{"days": "Mon-Sat", "time": "10:00am"}, {"days": "Sun", "time": "Closed"}], "id": "2936000009", "name": "USPS COLLECTION BOX - BLUE BOX", "address": {"city": "LAURENS", "state": "SC", "street": "1017 W MAIN ST", "postcode": "29360"}}},
{"geometry": {"type": "Point", "coordinates": [-82.0202403622, 34.5018140241]}, "type": "Feature", "properties": {"collection_times": [{"days": "Mon-Sat", "time": "9:30am"}, {"days": "Sun", "time": "Closed"}], "id": "2936000013", "name": "USPS COLLECTION BOX - BLUE BOX", "address": {"city": "LAURENS", "state": "SC", "street": "330 CHURCH ST", "postcode": "29360"}}},
{"geometry": {"type": "Point", "coordinates": [-82.0311685639, 34.4933707049]}, "type": "Feature", "properties": {"collection_times": [{"days": "Mon-Sat", "time": "10:00am"}, {"days": "Sun", "time": "Closed"}], "id": "2936000015", "name": "USPS COLLECTION BOX - BLUE BOX", "address": {"city": "LAURENS", "state": "SC", "street": "918 W MAIN ST", "postcode": "29360"}}},
{"geometry": {"type": "Point", "coordinates": [-82.0616213731, 34.5012388707]}, "type": "Feature", "properties": {"collection_times": [{"days": "Mon-Sat", "time": "9:30am"}, {"days": "Sun", "time": "Closed"}], "id": "2936000024", "name": "USPS COLLECTION BOX - BLUE BOX", "address": {"city": "LAURENS", "state": "SC", "street": "1518 W MAIN ST", "postcode": "29360"}}},
{"geometry": {"type": "Point", "coordinates": [-82.0127928458, 34.500569747]}, "type": "Feature", "properties": {"collection_times": [{"days": "Mon-Fri", "time": "4:45pm"}, {"days": "Sat", "time": "12:30pm"}, {"days": "Sun", "time": "Closed"}], "id": "2936000026", "name": "USPS COLLECTION BOX - PO LOBBY", "address": {"city": "LAURENS", "state": "SC", "street": "302 N HARPER ST", "postcode": "29360"}}},
{"geometry": {"type": "Point", "coordinates": [-82.009743367, 34.5050549189]}, "type": "Feature", "properties": {"collection_times": [{"days": "Mon-Sat", "time": "9:30am"}, {"days": "Sun", "time": "Closed"}], "id": "2936000028", "name": "USPS COLLECTION BOX - BLUE BOX", "address": {"city": "LAURENS", "state": "SC", "street": "100 HILLCREST SQ", "postcode": "29360"}}},
{"geometry": {"type": "Point", "coordinates": [-81.4599961362, 34.7882783164]}, "type": "Feature", "properties": {"collection_times": [{"days": "Mon-Fri", "time": "3:45pm"}, {"days": "Sat", "time": "10:00am"}, {"days": "Sun", "time": "Closed"}], "id": "2936400000", "name": "USPS COLLECTION BOX - BLUE BOX", "address": {"city": "LOCKHART", "state": "SC", "street": "404 S 2ND ST", "postcode": "29364"}}},
{"geometry": {"type": "Point", "coordinates": [-81.4599961362, 34.7882783164]}, "type": "Feature", "properties": {"collection_times": [{"days": "Mon-Fri", "time": "12:00pm"}, {"days": "Sat", "time": "10:00am"}, {"days": "Sun", "time": "Closed"}], "id": "2936400001", "name": "USPS COLLECTION BOX - PO LOBBY", "address": {"city": "LOCKHART", "state": "SC", "street": "404 S 2ND ST", "postcode": "29364"}}},
{"geometry": {"type": "Point", "coordinates": [-82.1232645291, 34.9498012826]}, "type": "Feature", "properties": {"collection_times": [{"days": "Mon-Fri", "time": "1:15pm"}, {"days": "Sat-Sun", "time": "Closed"}], "id": "2936500000", "name": "USPS COLLECTION BOX - BLUE BOX", "address": {"city": "LYMAN", "state": "SC", "street": "57 GROCE RD", "postcode": "29365"}}},
{"geometry": {"type": "Point", "coordinates": [-82.1426295673, 34.9556817716]}, "type": "Feature", "properties": {"collection_times": [{"days": "Mon-Fri", "time": "4:15pm"}, {"days": "Sat", "time": "10:45am"}, {"days": "Sun", "time": "Closed"}], "id": "2936500001", "name": "USPS COLLECTION BOX - BLUE BOX", "address": {"city": "LYMAN", "state": "SC", "street": "12490 GREENVILLE HWY", "postcode": "29365"}}},
{"geometry": {"type": "Point", "coordinates": [-82.1426295673, 34.9556817716]}, "type": "Feature", "properties": {"collection_times": [{"days": "Mon-Fri", "time": "4:15pm"}, {"days": "Sat", "time": "10:45am"}, {"days": "Sun", "time": "Closed"}], "id": "2936500002", "name": "USPS COLLECTION BOX - BLUE BOX", "address": {"city": "LYMAN", "state": "SC", "street": "12490 GREENVILLE HWY", "postcode": "29365"}}},
{"geometry": {"type": "Point", "coordinates": [-82.1426295673, 34.9556817716]}, "type": "Feature", "properties": {"collection_times": [{"days": "Mon-Fri", "time": "4:15pm"}, {"days": "Sat", "time": "10:45am"}, {"days": "Sun", "time": "Closed"}], "id": "2936500008", "name": "USPS COLLECTION BOX - PO LOBBY", "address": {"city": "LYMAN", "state": "SC", "street": "12490 GREENVILLE HWY", "postcode": "29365"}}},
{"geometry": {"type": "Point", "coordinates": [-82.1426295673, 34.9556817716]}, "type": "Feature", "properties": {"collection_times": [{"days": "Mon-Fri", "time": "4:15pm"}, {"days": "Sat", "time": "10:45am"}, {"days": "Sun", "time": "Closed"}], "id": "2936500009", "name": "USPS COLLECTION BOX - PO LOBBY", "address": {"city": "LYMAN", "state": "SC", "street": "12490 GREENVILLE HWY", "postcode": "29365"}}},
{"geometry": {"type": "Point", "coordinates": [-82.1426295673, 34.9556817716]}, "type": "Feature", "properties": {"collection_times": [{"days": "Mon-Fri", "time": "4:15pm"}, {"days": "Sat", "time": "10:45am"}, {"days": "Sun", "time": "Closed"}], "id": "2936500010", "name": "USPS COLLECTION BOX - PO LOBBY", "address": {"city": "LYMAN", "state": "SC", "street": "12490 GREENVILLE HWY", "postcode": "29365"}}},
{"geometry": {"type": "Point", "coordinates": [-81.8613361758, 35.0825056522]}, "type": "Feature", "properties": {"collection_times": [{"days": "Mon-Fri", "time": "3:45pm"}, {"days": "Sat", "time": "9:45am"}, {"days": "Sun", "time": "Closed"}], "id": "2936800000", "name": "USPS COLLECTION BOX - BLUE BOX", "address": {"city": "MAYO", "state": "SC", "street": "4496 CHESNEE HWY", "postcode": "29368"}}},
{"geometry": {"type": "Point", "coordinates": [-81.8613361758, 35.0825056522]}, "type": "Feature", "properties": {"collection_times": [{"days": "Mon-Fri", "time": "3:45pm"}, {"days": "Sat", "time": "9:45am"}, {"days": "Sun", "time": "Closed"}], "id": "2936800001", "name": "USPS COLLECTION BOX - PO LOBBY", "address": {"city": "MAYO", "state": "SC", "street": "4496 CHESNEE HWY", "postcode": "29368"}}},
{"geometry": {"type": "Point", "coordinates": [-81.8613361758, 35.0825056522]}, "type": "Feature", "properties": {"collection_times": [{"days": "Mon-Fri", "time": "3:45pm"}, {"days": "Sat", "time": "9:45am"}, {"days": "Sun", "time": "Closed"}], "id": "2936800002", "name": "USPS COLLECTION BOX - PO LOBBY", "address": {"city": "MAYO", "state": "SC", "street": "4496 CHESNEE HWY", "postcode": "29368"}}},
{"geometry": {"type": "Point", "coordinates": [-81.9946473156, 34.8356410106]}, "type": "Feature", "properties": {"collection_times": [{"days": "Mon-Fri", "time": "3:45pm"}, {"days": "Sat", "time": "9:45am"}, {"days": "Sun", "time": "Closed"}], "id": "2936900001", "name": "USPS COLLECTION BOX - PO LOBBY", "address": {"city": "MOORE", "state": "SC", "street": "1129 MOORE DUNCAN HWY", "postcode": "29369"}}},
{"geometry": {"type": "Point", "coordinates": [-81.9946473156, 34.8356410106]}, "type": "Feature", "properties": {"collection_times": [{"days": "Mon-Fri", "time": "3:45pm"}, {"days": "Sat", "time": "9:45am"}, {"days": "Sun", "time": "Closed"}], "id": "2936900002", "name": "USPS COLLECTION BOX - PO LOBBY", "address": {"city": "MOORE", "state": "SC", "street": "1129 MOORE DUNCAN HWY", "postcode": "29369"}}},
{"geometry": {"type": "Point", "coordinates": [-81.9946473156, 34.8356410106]}, "type": "Feature", "properties": {"collection_times": [{"days": "Mon-Fri", "time": "3:45pm"}, {"days": "Sat", "time": "9:45am"}, {"days": "Sun", "time": "Closed"}], "id": "2936900004", "name": "USPS COLLECTION BOX - BLUE BOX", "address": {"city": "MOORE", "state": "SC", "street": "1129 MOORE DUNCAN HWY", "postcode": "29369"}}},
{"geometry": {"type": "Point", "coordinates": [-81.9654411429, 34.3586395165]}, "type": "Feature", "properties": {"collection_times": [{"days": "Mon-Fri", "time": "3:45pm"}, {"days": "Sat", "time": "9:45am"}, {"days": "Sun", "time": "Closed"}], "id": "2937000001", "name": "USPS COLLECTION BOX - PO LOBBY", "address": {"city": "MOUNTVILLE", "state": "SC", "street": "1466 MOUNTVILLE RD", "postcode": "29370"}}},
{"geometry": {"type": "Point", "coordinates": [-81.9654411429, 34.3586395165]}, "type": "Feature", "properties": {"collection_times": [{"days": "Mon-Fri", "time": "3:45pm"}, {"days": "Sat", "time": "9:45am"}, {"days": "Sun", "time": "Closed"}], "id": "2937000002", "name": "USPS COLLECTION BOX - BLUE BOX", "address": {"city": "MOUNTVILLE", "state": "SC", "street": "1466 MOUNTVILLE RD", "postcode": "29370"}}},
{"geometry": {"type": "Point", "coordinates": [-81.7631588076, 34.8998520232]}, "type": "Feature", "properties": {"collection_times": [{"days": "Mon-Fri", "time": "3:45pm"}, {"days": "Sat", "time": "9:45am"}, {"days": "Sun", "time": "Closed"}], "id": "2937200000", "name": "USPS COLLECTION BOX - BLUE BOX", "address": {"city": "PACOLET", "state": "SC", "street": "250 W MAIN ST", "postcode": "29372"}}},
{"geometry": {"type": "Point", "coordinates": [-81.7631588076, 34.8998520232]}, "type": "Feature", "properties": {"collection_times": [{"days": "Mon-Fri", "time": "3:45pm"}, {"days": "Sat", "time": "9:45am"}, {"days": "Sun", "time": "Closed"}], "id": "2937200001", "name": "USPS COLLECTION BOX - PO LOBBY", "address": {"city": "PACOLET", "state": "SC", "street": "250 W MAIN ST", "postcode": "29372"}}},
{"geometry": {"type": "Point", "coordinates": [-81.7389402785, 34.918022983]}, "type": "Feature", "properties": {"collection_times": [{"days": "Mon-Fri", "time": "11:15am"}, {"days": "Sat", "time": "9:45am"}, {"days": "Sun", "time": "Closed"}], "id": "2937300000", "name": "USPS COLLECTION BOX - BLUE BOX", "address": {"city": "PACOLET MILLS", "state": "SC", "street": "215 MONTGOMERY AVE", "postcode": "29373"}}},
{"geometry": {"type": "Point", "coordinates": [-81.7389402785, 34.918022983]}, "type": "Feature", "properties": {"collection_times": [{"days": "Mon-Fri", "time": "11:15am"}, {"days": "Sat", "time": "9:45am"}, {"days": "Sun", "time": "Closed"}], "id": "2937300001", "name": "USPS COLLECTION BOX - PO LOBBY", "address": {"city": "PACOLET MILLS", "state": "SC", "street": "215 MONTGOMERY AVE", "postcode": "29373"}}},
{"geometry": {"type": "Point", "coordinates": [-81.8702682072, 34.8277725676]}, "type": "Feature", "properties": {"collection_times": [{"days": "Mon-Fri", "time": "3:45pm"}, {"days": "Sat", "time": "9:45am"}, {"days": "Sun", "time": "Closed"}], "id": "2937400000", "name": "USPS COLLECTION BOX - BLUE BOX", "address": {"city": "PAULINE", "state": "SC", "street": "2990 HIGHWAY 56", "postcode": "29374"}}},
{"geometry": {"type": "Point", "coordinates": [-81.8702682072, 34.8277725676]}, "type": "Feature", "properties": {"collection_times": [{"days": "Mon-Fri", "time": "3:45pm"}, {"days": "Sat", "time": "9:45am"}, {"days": "Sun", "time": "Closed"}], "id": "2937400001", "name": "USPS COLLECTION BOX - PO LOBBY", "address": {"city": "PAULINE", "state": "SC", "street": "2990 HIGHWAY 56", "postcode": "29374"}}},
{"geometry": {"type": "Point", "coordinates": [-82.1172511642, 34.8636838812]}, "type": "Feature", "properties": {"collection_times": [{"days": "Mon-Fri", "time": "3:45pm"}, {"days": "Sat", "time": "9:45am"}, {"days": "Sun", "time": "Closed"}], "id": "2937500000", "name": "USPS COLLECTION BOX - BLUE BOX", "address": {"city": "REIDVILLE", "state": "SC", "street": "7460 REIDVILLE RD", "postcode": "29375"}}},
{"geometry": {"type": "Point", "coordinates": [-82.1172511642, 34.8636838812]}, "type": "Feature", "properties": {"collection_times": [{"days": "Mon-Fri", "time": "3:45pm"}, {"days": "Sat", "time": "9:45am"}, {"days": "Sun", "time": "Closed"}], "id": "2937500001", "name": "USPS COLLECTION BOX - PO LOBBY", "address": {"city": "REIDVILLE", "state": "SC", "street": "7460 REIDVILLE RD", "postcode": "29375"}}},
{"geometry": {"type": "Point", "coordinates": [-80.8937521976, 33.9038639711]}, "type": "Feature", "properties": {"collection_times": [{"days": "Mon-Fri", "time": "3:45pm"}, {"days": "Sat", "time": "9:45am"}, {"days": "Sun", "time": "Closed"}], "id": "2937500003", "name": "USPS COLLECTION BOX - PO LOBBY", "address": {"city": "REIDVILLE", "state": "SC", "street": "7460 REIDVILLE RD", "postcode": "29375"}}},
{"geometry": {"type": "Point", "coordinates": [-81.9570954662, 34.8832006928]}, "type": "Feature", "properties": {"collection_times": [{"days": "Mon-Fri", "time": "3:45pm"}, {"days": "Sat", "time": "10:45am"}, {"days": "Sun", "time": "Closed"}], "id": "2937600000", "name": "USPS COLLECTION BOX - BLUE BOX", "address": {"city": "ROEBUCK", "state": "SC", "street": "4301 S CHURCH STREET EXT", "postcode": "29376"}}},
{"geometry": {"type": "Point", "coordinates": [-81.9570954662, 34.8832006928]}, "type": "Feature", "properties": {"collection_times": [{"days": "Mon-Fri", "time": "3:45pm"}, {"days": "Sat", "time": "10:45am"}, {"days": "Sun", "time": "Closed"}], "id": "2937600001", "name": "USPS COLLECTION BOX - PO LOBBY", "address": {"city": "ROEBUCK", "state": "SC", "street": "4301 S CHURCH STREET EXT", "postcode": "29376"}}},
{"geometry": {"type": "Point", "coordinates": [-81.9570954662, 34.8832006928]}, "type": "Feature", "properties": {"collection_times": [{"days": "Mon-Fri", "time": "3:45pm"}, {"days": "Sat", "time": "10:45am"}, {"days": "Sun", "time": "Closed"}], "id": "2937600002", "name": "USPS COLLECTION BOX - BLUE BOX", "address": {"city": "ROEBUCK", "state": "SC", "street": "4301 S CHURCH STREET EXT", "postcode": "29376"}}},
{"geometry": {"type": "Point", "coordinates": [-81.9570954662, 34.8832006928]}, "type": "Feature", "properties": {"collection_times": [{"days": "Mon-Fri", "time": "3:45pm"}, {"days": "Sat", "time": "10:45am"}, {"days": "Sun", "time": "Closed"}], "id": "2937600003", "name": "USPS COLLECTION BOX - PO LOBBY", "address": {"city": "ROEBUCK", "state": "SC", "street": "4301 S CHURCH STREET EXT", "postcode": "29376"}}},
{"geometry": {"type": "Point", "coordinates": [-82.0986904546, 34.9278853439]}, "type": "Feature", "properties": {"collection_times": [{"days": "Mon-Fri", "time": "3:45pm"}, {"days": "Sat", "time": "9:45am"}, {"days": "Sun", "time": "Closed"}], "id": "2937700000", "name": "USPS COLLECTION BOX - BLUE BOX", "address": {"city": "STARTEX", "state": "SC", "street": "21 N MAIN ST", "postcode": "29377"}}},
{"geometry": {"type": "Point", "coordinates": [-82.0986904546, 34.9278853439]}, "type": "Feature", "properties": {"collection_times": [{"days": "Mon-Fri", "time": "3:45pm"}, {"days": "Sat", "time": "9:45am"}, {"days": "Sun", "time": "Closed"}], "id": "2937700001", "name": "USPS COLLECTION BOX - PO LOBBY", "address": {"city": "STARTEX", "state": "SC", "street": "21 N MAIN ST", "postcode": "29377"}}},
{"geometry": {"type": "Point", "coordinates": [-81.9704358845, 34.9689893829]}, "type": "Feature", "properties": {"collection_times": [{"days": "Mon-Fri", "time": "3:45pm"}, {"days": "Sat", "time": "9:45am"}, {"days": "Sun", "time": "Closed"}], "id": "2937800000", "name": "USPS COLLECTION BOX - PO LOBBY", "address": {"city": "UNA", "state": "SC", "street": "331 SIBLEY ST", "postcode": "29378"}}},
{"geometry": {"type": "Point", "coordinates": [-81.9704358845, 34.9689893829]}, "type": "Feature", "properties": {"collection_times": [{"days": "Mon-Fri", "time": "3:45pm"}, {"days": "Sat", "time": "9:45am"}, {"days": "Sun", "time": "Closed"}], "id": "2937800001", "name": "USPS COLLECTION BOX - BLUE BOX", "address": {"city": "UNA", "state": "SC", "street": "331 SIBLEY ST", "postcode": "29378"}}},
{"geometry": {"type": "Point", "coordinates": [-81.6490321695, 34.7230844356]}, "type": "Feature", "properties": {"collection_times": [{"days": "Mon-Fri", "time": "4:15pm"}, {"days": "Sat", "time": "3:30pm"}, {"days": "Sun", "time": "Closed"}], "id": "2937900000", "name": "USPS COLLECTION BOX - BLUE BOX", "address": {"city": "UNION", "state": "SC", "street": "804 INDUSTRIAL PARK RD", "postcode": "29379"}}},
{"geometry": {"type": "Point", "coordinates": [-81.6200433925, 34.7154885392]}, "type": "Feature", "properties": {"collection_times": [{"days": "Mon-Sat", "time": "3:15pm"}, {"days": "Sun", "time": "Closed"}], "id": "2937900001", "name": "USPS COLLECTION BOX - BLUE BOX", "address": {"city": "UNION", "state": "SC", "street": "400 E MAIN ST", "postcode": "29379"}}},
{"geometry": {"type": "Point", "coordinates": [-81.6490321695, 34.7230844356]}, "type": "Feature", "properties": {"collection_times": [{"days": "Mon-Fri", "time": "4:15pm"}, {"days": "Sat", "time": "3:30pm"}, {"days": "Sun", "time": "Closed"}], "id": "2937900002", "name": "USPS COLLECTION BOX - BLUE BOX", "address": {"city": "UNION", "state": "SC", "street": "804 INDUSTRIAL PARK RD", "postcode": "29379"}}},
{"geometry": {"type": "Point", "coordinates": [-81.6225700804, 34.7152937836]}, "type": "Feature", "properties": {"collection_times": [{"days": "Mon-Sat", "time": "3:00pm"}, {"days": "Sun", "time": "Closed"}], "id": "2937900009", "name": "USPS COLLECTION BOX - BLUE BOX", "address": {"city": "UNION", "state": "SC", "street": "200 E MAIN ST", "postcode": "29379"}}},
{"geometry": {"type": "Point", "coordinates": [-81.6237849606, 34.7156359684]}, "type": "Feature", "properties": {"collection_times": [{"days": "Mon-Sat", "time": "3:00pm"}, {"days": "Sun", "time": "Closed"}], "id": "2937900010", "name": "USPS COLLECTION BOX - BLUE BOX", "address": {"city": "UNION", "state": "SC", "street": "100 SHARPE AVE", "postcode": "29379"}}},
{"geometry": {"type": "Point", "coordinates": [-81.6292092281, 34.7254538092]}, "type": "Feature", "properties": {"collection_times": [{"days": "Mon-Sat", "time": "3:00pm"}, {"days": "Sun", "time": "Closed"}], "id": "2937900013", "name": "USPS COLLECTION BOX - BLUE BOX", "address": {"city": "UNION", "state": "SC", "street": "315 THOMPSON BLVD", "postcode": "29379"}}},
{"geometry": {"type": "Point", "coordinates": [-81.6237515721, 34.7151998847]}, "type": "Feature", "properties": {"collection_times": [{"days": "Mon-Sat", "time": "3:00pm"}, {"days": "Sun", "time": "Closed"}], "id": "2937900017", "name": "USPS COLLECTION BOX - BLUE BOX", "address": {"city": "UNION", "state": "SC", "street": "100 E MAIN ST", "postcode": "29379"}}},
{"geometry": {"type": "Point", "coordinates": [-81.6490321695, 34.7230844356]}, "type": "Feature", "properties": {"collection_times": [{"days": "Mon-Fri", "time": "4:15pm"}, {"days": "Sat", "time": "3:30pm"}, {"days": "Sun", "time": "Closed"}], "id": "2937900029", "name": "USPS COLLECTION BOX - PO LOBBY", "address": {"city": "UNION", "state": "SC", "street": "804 INDUSTRIAL PARK RD", "postcode": "29379"}}},
{"geometry": {"type": "Point", "coordinates": [-81.6490321695, 34.7230844356]}, "type": "Feature", "properties": {"collection_times": [{"days": "Mon-Fri", "time": "4:15pm"}, {"days": "Sat", "time": "3:30pm"}, {"days": "Sun", "time": "Closed"}], "id": "2937900030", "name": "USPS COLLECTION BOX - PO LOBBY", "address": {"city": "UNION", "state": "SC", "street": "804 INDUSTRIAL PARK RD", "postcode": "29379"}}},
{"geometry": {"type": "Point", "coordinates": [-81.6397858525, 34.7191806826]}, "type": "Feature", "properties": {"collection_times": [{"days": "Mon-Sat", "time": "11:00am"}, {"days": "Sun", "time": "Closed"}], "id": "2937900031", "name": "USPS COLLECTION BOX - BLUE BOX", "address": {"city": "UNION", "state": "SC", "street": "408 N DUNCAN BY-PASS", "postcode": "29379"}}},
{"geometry": {"type": "Point", "coordinates": [-82.0558410856, 34.3582414996]}, "type": "Feature", "properties": {"collection_times": [{"days": "Mon-Fri", "time": "3:45pm"}, {"days": "Sat", "time": "9:45am"}, {"days": "Sun", "time": "Closed"}], "id": "2938400000", "name": "USPS COLLECTION BOX - BLUE BOX", "address": {"city": "WATERLOO", "state": "SC", "street": "11219 HIGHWAY 221 S", "postcode": "29384"}}},
{"geometry": {"type": "Point", "coordinates": [-82.0558410856, 34.3582414996]}, "type": "Feature", "properties": {"collection_times": [{"days": "Mon-Fri", "time": "3:45pm"}, {"days": "Sat", "time": "9:45am"}, {"days": "Sun", "time": "Closed"}], "id": "2938400001", "name": "USPS COLLECTION BOX - PO LOBBY", "address": {"city": "WATERLOO", "state": "SC", "street": "11219 HIGHWAY 221 S", "postcode": "29384"}}},
{"geometry": {"type": "Point", "coordinates": [-82.0987122158, 34.9560366593]}, "type": "Feature", "properties": {"collection_times": [{"days": "Mon-Fri", "time": "3:45pm"}, {"days": "Sat", "time": "9:15am"}, {"days": "Sun", "time": "Closed"}], "id": "2938500000", "name": "USPS COLLECTION BOX - BLUE BOX", "address": {"city": "WELLFORD", "state": "SC", "street": "1003 MAIN ST", "postcode": "29385"}}},
{"geometry": {"type": "Point", "coordinates": [-82.0987122158, 34.9560366593]}, "type": "Feature", "properties": {"collection_times": [{"days": "Mon-Fri", "time": "3:45pm"}, {"days": "Sat", "time": "9:15am"}, {"days": "Sun", "time": "Closed"}], "id": "2938500001", "name": "USPS COLLECTION BOX - PO LOBBY", "address": {"city": "WELLFORD", "state": "SC", "street": "1003 MAIN ST", "postcode": "29385"}}},
{"geometry": {"type": "Point", "coordinates": [-81.8118492822, 34.9022309575]}, "type": "Feature", "properties": {"collection_times": [{"days": "Mon-Fri", "time": "3:45pm"}, {"days": "Sat", "time": "9:45am"}, {"days": "Sun", "time": "Closed"}], "id": "2938600001", "name": "USPS COLLECTION BOX - PO LOBBY", "address": {"city": "WHITE STONE", "state": "SC", "street": "3430 SOUTHPORT RD", "postcode": "29386"}}},
{"geometry": {"type": "Point", "coordinates": [-81.8118492822, 34.9022309575]}, "type": "Feature", "properties": {"collection_times": [{"days": "Mon-Fri", "time": "3:45pm"}, {"days": "Sat", "time": "9:45am"}, {"days": "Sun", "time": "Closed"}], "id": "2938600002", "name": "USPS COLLECTION BOX - BLUE BOX", "address": {"city": "WHITE STONE", "state": "SC", "street": "3430 SOUTHPORT RD", "postcode": "29386"}}},
{"geometry": {"type": "Point", "coordinates": [-82.0437709819, 34.7531607747]}, "type": "Feature", "properties": {"collection_times": [{"days": "Mon-Fri", "time": "4:30pm"}, {"days": "Sat", "time": "12:15pm"}, {"days": "Sun", "time": "Closed"}], "id": "2938800000", "name": "USPS COLLECTION BOX - BLUE BOX", "address": {"city": "WOODRUFF", "state": "SC", "street": "955 N MAIN ST", "postcode": "29388"}}},
{"geometry": {"type": "Point", "coordinates": [-82.0437709819, 34.7531607747]}, "type": "Feature", "properties": {"collection_times": [{"days": "Mon-Fri", "time": "4:30pm"}, {"days": "Sat", "time": "12:15pm"}, {"days": "Sun", "time": "Closed"}], "id": "2938800001", "name": "USPS COLLECTION BOX - BLUE BOX", "address": {"city": "WOODRUFF", "state": "SC", "street": "955 N MAIN ST", "postcode": "29388"}}},
{"geometry": {"type": "Point", "coordinates": [-82.0437709819, 34.7531607747]}, "type": "Feature", "properties": {"collection_times": [{"days": "Mon-Fri", "time": "4:30pm"}, {"days": "Sat", "time": "12:15pm"}, {"days": "Sun", "time": "Closed"}], "id": "2938800002", "name": "USPS COLLECTION BOX - PO LOBBY", "address": {"city": "WOODRUFF", "state": "SC", "street": "955 N MAIN ST", "postcode": "29388"}}},
{"geometry": {"type": "Point", "coordinates": [-82.036812705, 34.7391813536]}, "type": "Feature", "properties": {"collection_times": [{"days": "Mon-Fri", "time": "12:00pm"}, {"days": "Sat-Sun", "time": "Closed"}], "id": "2938800004", "name": "USPS COLLECTION BOX - BLUE BOX", "address": {"city": "WOODRUFF", "state": "SC", "street": "131 S MAIN ST", "postcode": "29388"}}},
{"geometry": {"type": "Point", "coordinates": [-82.0349850334, 34.7363954853]}, "type": "Feature", "properties": {"collection_times": [{"days": "Mon-Fri", "time": "12:00pm"}, {"days": "Sat-Sun", "time": "Closed"}], "id": "2938800006", "name": "USPS COLLECTION BOX - BLUE BOX", "address": {"city": "WOODRUFF", "state": "SC", "street": "345 S MAIN ST", "postcode": "29388"}}},
{"geometry": {"type": "Point", "coordinates": [-82.0386924268, 34.7413532663]}, "type": "Feature", "properties": {"collection_times": [{"days": "Mon-Fri", "time": "12:00pm"}, {"days": "Sat-Sun", "time": "Closed"}], "id": "2938800011", "name": "USPS COLLECTION BOX - BLUE BOX", "address": {"city": "WOODRUFF", "state": "SC", "street": "247 N MAIN ST", "postcode": "29388"}}},
{"geometry": {"type": "Point", "coordinates": [-82.0437709819, 34.7531607747]}, "type": "Feature", "properties": {"collection_times": [{"days": "Mon-Fri", "time": "4:30pm"}, {"days": "Sat", "time": "12:15pm"}, {"days": "Sun", "time": "Closed"}], "id": "2938800013", "name": "USPS COLLECTION BOX - PO LOBBY", "address": {"city": "WOODRUFF", "state": "SC", "street": "955 N MAIN ST", "postcode": "29388"}}},
{"geometry": {"type": "Point", "coordinates": [-82.0437709819, 34.7531607747]}, "type": "Feature", "properties": {"collection_times": [{"days": "Mon-Fri", "time": "4:30pm"}, {"days": "Sat", "time": "12:15pm"}, {"days": "Sun", "time": "Closed"}], "id": "2938800014", "name": "USPS COLLECTION BOX - PO LOBBY", "address": {"city": "WOODRUFF", "state": "SC", "street": "955 N MAIN ST", "postcode": "29388"}}}
]}
