{"type": "FeatureCollection", "features": [
{"geometry": {"type": "Point", "coordinates": [-79.9422975014, 32.7840459242]}, "type": "Feature", "properties": {"collection_times": [{"days": "Mon-Fri", "time": "11:30am"}, {"days": "Sat", "time": "12:30pm"}, {"days": "Sun", "time": "Closed"}], "id": "2940100005", "name": "USPS COLLECTION BOX - BLUE BOX", "address": {"city": "CHARLESTON", "state": "SC", "street": "225 CALHOUN ST", "postcode": "29401"}}},
{"geometry": {"type": "Point", "coordinates": [-79.9498770143, 32.7795255552]}, "type": "Feature", "properties": {"collection_times": [{"days": "Mon-Fri", "time": "10:45am"}, {"days": "Sat", "time": "11:15am"}, {"days": "Sun", "time": "Closed"}], "id": "2940100038", "name": "USPS COLLECTION BOX - BLUE BOX", "address": {"city": "CHARLESTON", "state": "SC", "street": "14 LOCKWOOD DR", "postcode": "29401"}}},
{"geometry": {"type": "Point", "coordinates": [-79.9329337094, 32.7776284153]}, "type": "Feature", "properties": {"collection_times": [{"days": "Mon-Fri", "time": "12:00pm"}, {"days": "Sat", "time": "1:15pm"}, {"days": "Sun", "time": "Closed"}], "id": "2940100051", "name": "USPS COLLECTION BOX - BLUE BOX", "address": {"city": "CHARLESTON", "state": "SC", "street": "147 KING ST", "postcode": "29401"}}},
{"geometry": {"type": "Point", "coordinates": [-79.932730391, 32.7764524218]}, "type": "Feature", "properties": {"collection_times": [{"days": "Mon-Fri", "time": "12:00pm"}, {"days": "Sat", "time": "2:15pm"}, {"days": "Sun", "time": "Closed"}], "id": "2940100053", "name": "USPS COLLECTION BOX - BLUE BOX", "address": {"city": "CHARLESTON", "state": "SC", "street": "32 VENDUE ST", "postcode": "29401"}}},
{"geometry": {"type": "Point", "coordinates": [-79.9410377074, 32.7754928548]}, "type": "Feature", "properties": {"collection_times": [{"days": "Mon-Fri", "time": "10:45am"}, {"days": "Sat", "time": "12:15pm"}, {"days": "Sun", "time": "Closed"}], "id": "2940100074", "name": "USPS COLLECTION BOX - BLUE BOX", "address": {"city": "CHARLESTON", "state": "SC", "street": "207 BROAD ST", "postcode": "29401"}}},
{"geometry": {"type": "Point", "coordinates": [-79.9314828906, 32.7764241196]}, "type": "Feature", "properties": {"collection_times": [{"days": "Mon-Fri", "time": "5:00pm"}, {"days": "Sat", "time": "1:30pm"}, {"days": "Sun", "time": "Closed"}], "id": "2940100077", "name": "USPS COLLECTION BOX - BLUE BOX", "address": {"city": "CHARLESTON", "state": "SC", "street": "83 BROAD ST", "postcode": "29401"}}},
{"geometry": {"type": "Point", "coordinates": [-79.9314828906, 32.7764241196]}, "type": "Feature", "properties": {"collection_times": [{"days": "Mon-Fri", "time": "5:00pm"}, {"days": "Sat", "time": "1:30pm"}, {"days": "Sun", "time": "Closed"}], "id": "2940100078", "name": "USPS COLLECTION BOX - BLUE BOX", "address": {"city": "CHARLESTON", "state": "SC", "street": "83 BROAD ST", "postcode": "29401"}}},
{"geometry": {"type": "Point", "coordinates": [-79.9348588305, 32.7798027316]}, "type": "Feature", "properties": {"collection_times": [{"days": "Mon-Fri", "time": "5:00pm"}, {"days": "Sat", "time": "1:30pm"}, {"days": "Sun", "time": "Closed"}], "id": "2940100079", "name": "USPS COLLECTION BOX - EXPRESS", "address": {"city": "CHARLESTON", "state": "SC", "street": "83 BROAD ST", "postcode": "29401"}}},
{"geometry": {"type": "Point", "coordinates": [-79.9313510116, 32.787916235]}, "type": "Feature", "properties": {"collection_times": [{"days": "Mon-Fri", "time": "12:15pm"}, {"days": "Sat", "time": "3:00pm"}, {"days": "Sun", "time": "Closed"}], "id": "2940100088", "name": "USPS COLLECTION BOX - BLUE BOX", "address": {"city": "CHARLESTON", "state": "SC", "street": "75 CALHOUN ST", "postcode": "29401"}}},
{"geometry": {"type": "Point", "coordinates": [-79.9330751533, 32.7793566749]}, "type": "Feature", "properties": {"collection_times": [{"days": "Mon-Fri", "time": "12:00pm"}, {"days": "Sat", "time": "1:00pm"}, {"days": "Sun", "time": "Closed"}], "id": "2940100090", "name": "USPS COLLECTION BOX - BLUE BOX", "address": {"city": "CHARLESTON", "state": "SC", "street": "191 KING ST", "postcode": "29401"}}},
{"geometry": {"type": "Point", "coordinates": [-79.9333578805, 32.7853578257]}, "type": "Feature", "properties": {"collection_times": [{"days": "Mon-Fri", "time": "12:15pm"}, {"days": "Sat", "time": "2:45pm"}, {"days": "Sun", "time": "Closed"}], "id": "2940100097", "name": "USPS COLLECTION BOX - BLUE BOX", "address": {"city": "CHARLESTON", "state": "SC", "street": "292 MEETING ST", "postcode": "29401"}}},
{"geometry": {"type": "Point", "coordinates": [-79.9315697463, 32.7804821686]}, "type": "Feature", "properties": {"collection_times": [{"days": "Mon-Fri", "time": "12:00pm"}, {"days": "Sat", "time": "1:45pm"}, {"days": "Sun", "time": "Closed"}], "id": "2940100098", "name": "USPS COLLECTION BOX - BLUE BOX", "address": {"city": "CHARLESTON", "state": "SC", "street": "177 MEETING ST", "postcode": "29401"}}},
{"geometry": {"type": "Point", "coordinates": [-79.9353107254, 32.7803378569]}, "type": "Feature", "properties": {"collection_times": [{"days": "Mon-Fri", "time": "11:45am"}, {"days": "Sat", "time": "1:00pm"}, {"days": "Sun", "time": "Closed"}], "id": "2940100100", "name": "USPS COLLECTION BOX - BLUE BOX", "address": {"city": "CHARLESTON", "state": "SC", "street": "175 MARKET ST", "postcode": "29401"}}},
{"geometry": {"type": "Point", "coordinates": [-79.9494842336, 32.7792353403]}, "type": "Feature", "properties": {"collection_times": [{"days": "Mon-Fri", "time": "10:45am"}, {"days": "Sat", "time": "11:15am"}, {"days": "Sun", "time": "Closed"}], "id": "2940100101", "name": "USPS COLLECTION BOX - BLUE BOX", "address": {"city": "CHARLESTON", "state": "SC", "street": "17 LOCKWOOD DR", "postcode": "29401"}}},
{"geometry": {"type": "Point", "coordinates": [-79.9296258812, 32.7805482687]}, "type": "Feature", "properties": {"collection_times": [{"days": "Mon-Fri", "time": "12:00pm"}, {"days": "Sat", "time": "2:45pm"}, {"days": "Sun", "time": "Closed"}], "id": "2940100104", "name": "USPS COLLECTION BOX - BLUE BOX", "address": {"city": "CHARLESTON", "state": "SC", "street": "171 CHURCH ST", "postcode": "29401"}}},
{"geometry": {"type": "Point", "coordinates": [-79.9316697981, 32.7817805578]}, "type": "Feature", "properties": {"collection_times": [{"days": "Mon-Fri", "time": "12:15pm"}, {"days": "Sat-Sun", "time": "Closed"}], "id": "2940100116", "name": "USPS COLLECTION BOX - BLUE BOX", "address": {"city": "CHARLESTON", "state": "SC", "street": "200 MEETING ST", "postcode": "29401"}}},
{"geometry": {"type": "Point", "coordinates": [-79.9290152382, 32.7890794146]}, "type": "Feature", "properties": {"collection_times": [{"days": "Mon-Fri", "time": "12:15pm"}, {"days": "Sat", "time": "3:15pm"}, {"days": "Sun", "time": "Closed"}], "id": "2940100119", "name": "USPS COLLECTION BOX - BLUE BOX", "address": {"city": "CHARLESTON", "state": "SC", "street": "40 CALHOUN ST", "postcode": "29401"}}},
{"geometry": {"type": "Point", "coordinates": [-79.9347393414, 32.7812405587]}, "type": "Feature", "properties": {"collection_times": [{"days": "Mon-Fri", "time": "2:00pm"}, {"days": "Sat", "time": "9:30am"}, {"days": "Sun", "time": "Closed"}], "id": "2940100123", "name": "USPS COLLECTION BOX - BLUE BOX", "address": {"city": "CHARLESTON", "state": "SC", "street": "80 SAINT PHILIP ST", "postcode": "29401"}}},
{"geometry": {"type": "Point", "coordinates": [-79.9321384859, 32.7939664378]}, "type": "Feature", "properties": {"collection_times": [{"days": "Mon-Fri", "time": "5:00pm"}, {"days": "Sat", "time": "3:30pm"}, {"days": "Sun", "time": "Closed"}], "id": "2940300007", "name": "USPS COLLECTION BOX - BLUE BOX", "address": {"city": "CHARLESTON", "state": "SC", "street": "557 E BAY ST", "postcode": "29403"}}},
{"geometry": {"type": "Point", "coordinates": [-79.9509981646, 32.803972868]}, "type": "Feature", "properties": {"collection_times": [{"days": "Mon-Fri", "time": "9:45am"}, {"days": "Sat", "time": "11:45am"}, {"days": "Sun", "time": "Closed"}], "id": "2940300012", "name": "USPS COLLECTION BOX - BLUE BOX", "address": {"city": "CHARLESTON", "state": "SC", "street": "1015 KING ST", "postcode": "29403"}}},
{"geometry": {"type": "Point", "coordinates": [-79.9406410745, 32.7920628927]}, "type": "Feature", "properties": {"collection_times": [{"days": "Mon-Fri", "time": "10:15am"}, {"days": "Sat", "time": "9:45am"}, {"days": "Sun", "time": "Closed"}], "id": "2940300017", "name": "USPS COLLECTION BOX - BLUE BOX", "address": {"city": "CHARLESTON", "state": "SC", "street": "571 KING ST", "postcode": "29403"}}},
{"geometry": {"type": "Point", "coordinates": [-79.9414043674, 32.7939827795]}, "type": "Feature", "properties": {"collection_times": [{"days": "Mon-Fri", "time": "10:00am"}, {"days": "Sat", "time": "9:45am"}, {"days": "Sun", "time": "Closed"}], "id": "2940300021", "name": "USPS COLLECTION BOX - BLUE BOX", "address": {"city": "CHARLESTON", "state": "SC", "street": "134 COLUMBUS ST", "postcode": "29403"}}},
{"geometry": {"type": "Point", "coordinates": [-79.9499818332, 32.7864543368]}, "type": "Feature", "properties": {"collection_times": [{"days": "Mon-Sat", "time": "10:15am"}, {"days": "Sun", "time": "Closed"}], "id": "2940300031", "name": "USPS COLLECTION BOX - BLUE BOX", "address": {"city": "CHARLESTON", "state": "SC", "street": "42 BEE ST", "postcode": "29403"}}},
{"geometry": {"type": "Point", "coordinates": [-79.9465401542, 32.78552262]}, "type": "Feature", "properties": {"collection_times": [{"days": "Mon-Fri", "time": "10:15am"}, {"days": "Sat", "time": "10:00am"}, {"days": "Sun", "time": "Closed"}], "id": "2940300034", "name": "USPS COLLECTION BOX - BLUE BOX", "address": {"city": "CHARLESTON", "state": "SC", "street": "171 ASHLEY AVE", "postcode": "29403"}}},
{"geometry": {"type": "Point", "coordinates": [-79.9465077902, 32.7964701727]}, "type": "Feature", "properties": {"collection_times": [{"days": "Mon-Fri", "time": "5:00pm"}, {"days": "Sat", "time": "3:30pm"}, {"days": "Sun", "time": "Closed"}], "id": "2940300054", "name": "USPS COLLECTION BOX - EXPRESS", "address": {"city": "CHARLESTON", "state": "SC", "street": "557 E BAY ST", "postcode": "29403"}}},
{"geometry": {"type": "Point", "coordinates": [-79.9373061437, 32.7914410619]}, "type": "Feature", "properties": {"collection_times": [{"days": "Mon-Fri", "time": "9:45am"}, {"days": "Sat", "time": "9:30am"}, {"days": "Sun", "time": "Closed"}], "id": "2940300057", "name": "USPS COLLECTION BOX - BLUE BOX", "address": {"city": "CHARLESTON", "state": "SC", "street": "392 MEETING ST", "postcode": "29403"}}},
{"geometry": {"type": "Point", "coordinates": [-79.9364810102, 32.7901945897]}, "type": "Feature", "properties": {"collection_times": [{"days": "Mon-Fri", "time": "1:15pm"}, {"days": "Sat", "time": "9:30am"}, {"days": "Sun", "time": "Closed"}], "id": "2940300058", "name": "USPS COLLECTION BOX - BLUE BOX", "address": {"city": "CHARLESTON", "state": "SC", "street": "360 MEETING ST", "postcode": "29403"}}},
{"geometry": {"type": "Point", "coordinates": [-79.9458877819, 32.7871180687]}, "type": "Feature", "properties": {"collection_times": [{"days": "Mon-Fri", "time": "10:15am"}, {"days": "Sat", "time": "12:00pm"}, {"days": "Sun", "time": "Closed"}], "id": "2940300064", "name": "USPS COLLECTION BOX - BLUE BOX", "address": {"city": "CHARLESTON", "state": "SC", "street": "174 RUTLEDGE AVE", "postcode": "29403"}}},
{"geometry": {"type": "Point", "coordinates": [-79.9521846725, 32.8123777914]}, "type": "Feature", "properties": {"collection_times": [{"days": "Mon-Fri", "time": "4:15pm"}, {"days": "Sat", "time": "3:45pm"}, {"days": "Sun", "time": "Closed"}], "id": "2940300068", "name": "USPS COLLECTION BOX - BLUE BOX", "address": {"city": "CHARLESTON", "state": "SC", "street": "2106 MOUNT PLEASANT ST", "postcode": "29403"}}},
{"geometry": {"type": "Point", "coordinates": [-79.9548794275, 32.7883473792]}, "type": "Feature", "properties": {"collection_times": [{"days": "Mon-Fri", "time": "1:30pm"}, {"days": "Sat", "time": "11:00am"}, {"days": "Sun", "time": "Closed"}], "id": "2940300072", "name": "USPS COLLECTION BOX - BLUE BOX", "address": {"city": "CHARLESTON", "state": "SC", "street": "19 HAGOOD AVE", "postcode": "29403"}}},
{"geometry": {"type": "Point", "coordinates": [-79.9321384859, 32.7939664378]}, "type": "Feature", "properties": {"collection_times": [{"days": "Mon-Fri", "time": "5:00pm"}, {"days": "Sat", "time": "3:30pm"}, {"days": "Sun", "time": "Closed"}], "id": "2940300080", "name": "USPS COLLECTION BOX - BLUE BOX", "address": {"city": "CHARLESTON", "state": "SC", "street": "557 E BAY ST", "postcode": "29403"}}},
{"geometry": {"type": "Point", "coordinates": [-79.9316350284, 32.7928373606]}, "type": "Feature", "properties": {"collection_times": [{"days": "Mon-Fri", "time": "5:00pm"}, {"days": "Sat", "time": "3:30pm"}, {"days": "Sun", "time": "Closed"}], "id": "2940300089", "name": "USPS COLLECTION BOX - PO LOBBY", "address": {"city": "CHARLESTON", "state": "SC", "street": "557 E BAY ST", "postcode": "29403"}}},
{"geometry": {"type": "Point", "coordinates": [-79.9316350284, 32.7928373606]}, "type": "Feature", "properties": {"collection_times": [{"days": "Mon-Fri", "time": "5:00pm"}, {"days": "Sat", "time": "3:30pm"}, {"days": "Sun", "time": "Closed"}], "id": "2940300095", "name": "USPS COLLECTION BOX - PO LOBBY", "address": {"city": "CHARLESTON", "state": "SC", "street": "557 E BAY ST", "postcode": "29403"}}},
{"geometry": {"type": "Point", "coordinates": [-80.0567964452, 32.8998523271]}, "type": "Feature", "properties": {"collection_times": [{"days": "Mon-Fri", "time": "2:45pm"}, {"days": "Sat-Sun", "time": "Closed"}], "id": "2940400006", "name": "USPS COLLECTION BOX - BLUE BOX", "address": {"city": "CHARLESTON", "state": "SC", "street": "101 W SIMPSON ST", "postcode": "29404"}}},
{"geometry": {"type": "Point", "coordinates": [-80.065746757, 32.892640534]}, "type": "Feature", "properties": {"collection_times": [{"days": "Mon-Fri", "time": "2:30pm"}, {"days": "Sat-Sun", "time": "Closed"}], "id": "2940400008", "name": "USPS COLLECTION BOX - BLUE BOX", "address": {"city": "CHARLESTON", "state": "SC", "street": "204 W HILL ST", "postcode": "29404"}}},
{"geometry": {"type": "Point", "coordinates": [-80.0234496694, 32.8448819549]}, "type": "Feature", "properties": {"collection_times": [{"days": "Mon-Fri", "time": "11:15am"}, {"days": "Sat-Sun", "time": "Closed"}], "id": "2940500007", "name": "USPS COLLECTION BOX - BLUE BOX", "address": {"city": "CHARLESTON", "state": "SC", "street": "4500 LEEDS AVE", "postcode": "29405"}}},
{"geometry": {"type": "Point", "coordinates": [-79.9751411741, 32.8546579278]}, "type": "Feature", "properties": {"collection_times": [{"days": "Mon-Fri", "time": "11:45am"}, {"days": "Sat", "time": "1:15pm"}, {"days": "Sun", "time": "Closed"}], "id": "2940500008", "name": "USPS COLLECTION BOX - BLUE BOX", "address": {"city": "CHARLESTON", "state": "SC", "street": "3346 RIVERS AVE", "postcode": "29405"}}},
{"geometry": {"type": "Point", "coordinates": [-79.9833881969, 32.8604025836]}, "type": "Feature", "properties": {"collection_times": [{"days": "Mon-Fri", "time": "11:00am"}, {"days": "Sat-Sun", "time": "Closed"}], "id": "2940500014", "name": "USPS COLLECTION BOX - BLUE BOX", "address": {"city": "CHARLESTON", "state": "SC", "street": "4200 AZALEA DR", "postcode": "29405"}}},
{"geometry": {"type": "Point", "coordinates": [-80.011111746, 32.8541407024]}, "type": "Feature", "properties": {"collection_times": [{"days": "Mon-Fri", "time": "11:15am"}, {"days": "Sat", "time": "9:00am"}, {"days": "Sun", "time": "Closed"}], "id": "2940500022", "name": "USPS COLLECTION BOX - BLUE BOX", "address": {"city": "CHARLESTON", "state": "SC", "street": "4400 DORCHESTER RD", "postcode": "29405"}}},
{"geometry": {"type": "Point", "coordinates": [-79.9852365459, 32.8568913543]}, "type": "Feature", "properties": {"collection_times": [{"days": "Mon-Fri", "time": "5:00pm"}, {"days": "Sat", "time": "1:30pm"}, {"days": "Sun", "time": "Closed"}], "id": "2940500025", "name": "USPS COLLECTION BOX - BLUE BOX", "address": {"city": "CHARLESTON", "state": "SC", "street": "2180 MCMILLAN AVE", "postcode": "29405"}}},
{"geometry": {"type": "Point", "coordinates": [-79.9928683977, 32.8813567444]}, "type": "Feature", "properties": {"collection_times": [{"days": "Mon-Fri", "time": "11:45am"}, {"days": "Sat", "time": "1:45pm"}, {"days": "Sun", "time": "Closed"}], "id": "2940500041", "name": "USPS COLLECTION BOX - BLUE BOX", "address": {"city": "CHARLESTON", "state": "SC", "street": "1506 E MONTAGUE AVE", "postcode": "29405"}}},
{"geometry": {"type": "Point", "coordinates": [-79.9852365459, 32.8568913543]}, "type": "Feature", "properties": {"collection_times": [{"days": "Mon-Fri", "time": "5:00pm"}, {"days": "Sat", "time": "1:30pm"}, {"days": "Sun", "time": "Closed"}], "id": "2940500056", "name": "USPS COLLECTION BOX - PO LOBBY", "address": {"city": "CHARLESTON", "state": "SC", "street": "2180 MCMILLAN AVE", "postcode": "29405"}}},
{"geometry": {"type": "Point", "coordinates": [-79.9833881969, 32.8604025836]}, "type": "Feature", "properties": {"collection_times": [{"days": "Mon-Fri", "time": "5:00pm"}, {"days": "Sat", "time": "1:30pm"}, {"days": "Sun", "time": "Closed"}], "id": "2940500058", "name": "USPS COLLECTION BOX - EXPRESS", "address": {"city": "CHARLESTON", "state": "SC", "street": "2180 MCMILLAN AVE", "postcode": "29405"}}},
{"geometry": {"type": "Point", "coordinates": [-79.9758190096, 32.8815442192]}, "type": "Feature", "properties": {"collection_times": [{"days": "Mon-Fri", "time": "4:00pm"}, {"days": "Sat", "time": "1:45pm"}, {"days": "Sun", "time": "Closed"}], "id": "2940500059", "name": "USPS COLLECTION BOX - BLUE BOX", "address": {"city": "CHARLESTON", "state": "SC", "street": "1050 E MONTAGUE AVE", "postcode": "29405"}}},
{"geometry": {"type": "Point", "coordinates": [-80.0148188008, 32.8411733786]}, "type": "Feature", "properties": {"collection_times": [{"days": "Mon-Fri", "time": "11:30am"}, {"days": "Sat-Sun", "time": "Closed"}], "id": "2940500066", "name": "USPS COLLECTION BOX - BLUE BOX", "address": {"city": "CHARLESTON", "state": "SC", "street": "4045 BRIDGE VIEW DR", "postcode": "29405"}}},
{"geometry": {"type": "Point", "coordinates": [-79.9833881969, 32.8604025836]}, "type": "Feature", "properties": {"collection_times": [{"days": "Mon-Fri", "time": "4:00pm"}, {"days": "Sat-Sun", "time": "Closed"}], "id": "2940500067", "name": "USPS COLLECTION BOX - BLUE BOX", "address": {"city": "CHARLESTON", "state": "SC", "street": "7400 RIVERS AVE", "postcode": "29405"}}},
{"geometry": {"type": "Point", "coordinates": [-80.0422659883, 32.9693110452]}, "type": "Feature", "properties": {"collection_times": [{"days": "Mon-Fri", "time": "1:30pm"}, {"days": "Sat", "time": "3:00pm"}, {"days": "Sun", "time": "Closed"}], "id": "2940600035", "name": "USPS COLLECTION BOX - BLUE BOX", "address": {"city": "N CHARLESTON", "state": "SC", "street": "2178 N PARK BLVD", "postcode": "29406"}}},
{"geometry": {"type": "Point", "coordinates": [-80.0189521422, 32.9025715442]}, "type": "Feature", "properties": {"collection_times": [{"days": "Mon-Fri", "time": "12:30pm"}, {"days": "Sat", "time": "2:45pm"}, {"days": "Sun", "time": "Closed"}], "id": "2940600036", "name": "USPS COLLECTION BOX - BLUE BOX", "address": {"city": "N CHARLESTON", "state": "SC", "street": "5900 RIVERS AVE", "postcode": "29406"}}},
{"geometry": {"type": "Point", "coordinates": [-80.0407464788, 32.943192915]}, "type": "Feature", "properties": {"collection_times": [{"days": "Mon-Fri", "time": "2:00pm"}, {"days": "Sat", "time": "3:15pm"}, {"days": "Sun", "time": "Closed"}], "id": "2940600039", "name": "USPS COLLECTION BOX - BLUE BOX", "address": {"city": "N CHARLESTON", "state": "SC", "street": "7801 RIVERS AVE", "postcode": "29406"}}},
{"geometry": {"type": "Point", "coordinates": [-80.0270387669, 32.898096181]}, "type": "Feature", "properties": {"collection_times": [{"days": "Mon-Fri", "time": "10:30am"}, {"days": "Sat-Sun", "time": "Closed"}], "id": "2940600040", "name": "USPS COLLECTION BOX - BLUE BOX", "address": {"city": "N CHARLESTON", "state": "SC", "street": "2460 REMOUNT RD", "postcode": "29406"}}},
{"geometry": {"type": "Point", "coordinates": [-80.0134950697, 32.8785536989]}, "type": "Feature", "properties": {"collection_times": [{"days": "Mon-Fri", "time": "12:00pm"}, {"days": "Sat-Sun", "time": "Closed"}], "id": "2940600046", "name": "USPS COLLECTION BOX - BLUE BOX", "address": {"city": "N CHARLESTON", "state": "SC", "street": "2420 MALL DR", "postcode": "29406"}}},
{"geometry": {"type": "Point", "coordinates": [-80.0256357722, 32.9129377585]}, "type": "Feature", "properties": {"collection_times": [{"days": "Mon-Fri", "time": "5:00pm"}, {"days": "Sat", "time": "3:00pm"}, {"days": "Sun", "time": "Closed"}], "id": "2940600051", "name": "USPS COLLECTION BOX - BLUE BOX", "address": {"city": "N CHARLESTON", "state": "SC", "street": "6401 RIVERS AVE", "postcode": "29406"}}},
{"geometry": {"type": "Point", "coordinates": [-80.0346679518, 32.9281803244]}, "type": "Feature", "properties": {"collection_times": [{"days": "Mon-Fri", "time": "5:00pm"}, {"days": "Sat", "time": "3:00pm"}, {"days": "Sun", "time": "Closed"}], "id": "2940600055", "name": "USPS COLLECTION BOX - EXPRESS", "address": {"city": "N CHARLESTON", "state": "SC", "street": "6401 RIVERS AVE", "postcode": "29406"}}},
{"geometry": {"type": "Point", "coordinates": [-80.0145005848, 32.88019328]}, "type": "Feature", "properties": {"collection_times": [{"days": "Mon-Fri", "time": "12:00pm"}, {"days": "Sat-Sun", "time": "Closed"}], "id": "2940600068", "name": "USPS COLLECTION BOX - BLUE BOX", "address": {"city": "N CHARLESTON", "state": "SC", "street": "4975 LACROSS RD", "postcode": "29406"}}},
{"geometry": {"type": "Point", "coordinates": [-80.073650899, 32.9774620809]}, "type": "Feature", "properties": {"collection_times": [{"days": "Mon-Fri", "time": "1:45pm"}, {"days": "Sat-Sun", "time": "Closed"}], "id": "2940600083", "name": "USPS COLLECTION BOX - BLUE BOX", "address": {"city": "N CHARLESTON", "state": "SC", "street": "9330 MEDICAL PLAZA DR", "postcode": "29406"}}},
{"geometry": {"type": "Point", "coordinates": [-80.03467, 32.92818]}, "type": "Feature", "properties": {"collection_times": [{"days": "Mon-Fri", "time": "12:30pm"}, {"days": "Sat", "time": "2:15pm"}, {"days": "Sun", "time": "Closed"}], "id": "2940600093", "name": "USPS COLLECTION BOX - BLUE BOX", "address": {"city": "N CHARLESTON", "state": "SC", "street": "1270 YEAMANS HALL RD", "postcode": "29406"}}},
{"geometry": {"type": "Point", "coordinates": [-80.0266682579, 32.9145882318]}, "type": "Feature", "properties": {"collection_times": [{"days": "Mon-Fri", "time": "5:00pm"}, {"days": "Sat", "time": "3:00pm"}, {"days": "Sun", "time": "Closed"}], "id": "2940600094", "name": "USPS COLLECTION BOX - APC", "address": {"city": "N CHARLESTON", "state": "SC", "street": "6401 RIVERS AVE", "postcode": "29406"}}},
{"geometry": {"type": "Point", "coordinates": [-80.8937521976, 33.9038639711]}, "type": "Feature", "properties": {"collection_times": [{"days": "Mon-Fri", "time": "1:45pm"}, {"days": "Sat", "time": "2:00pm"}, {"days": "Sun", "time": "Closed"}], "id": "2940600096", "name": "USPS COLLECTION BOX - BLUE BOX", "address": {"city": "N CHARLESTON", "state": "SC", "street": "901 ISLAND PARK DR", "postcode": "29406"}}},
{"geometry": {"type": "Point", "coordinates": [-80.0266682579, 32.9145882318]}, "type": "Feature", "properties": {"collection_times": [{"days": "Mon-Fri", "time": "5:00pm"}, {"days": "Sat", "time": "3:00pm"}, {"days": "Sun", "time": "Closed"}], "id": "2940600097", "name": "USPS COLLECTION BOX - PO LOBBY", "address": {"city": "N CHARLESTON", "state": "SC", "street": "6401 RIVERS AVE", "postcode": "29406"}}},
{"geometry": {"type": "Point", "coordinates": [-80.0266682579, 32.9145882318]}, "type": "Feature", "properties": {"collection_times": [{"days": "Mon-Fri", "time": "5:00pm"}, {"days": "Sat", "time": "3:00pm"}, {"days": "Sun", "time": "Closed"}], "id": "2940600099", "name": "USPS COLLECTION BOX - PO LOBBY", "address": {"city": "N CHARLESTON", "state": "SC", "street": "6401 RIVERS AVE", "postcode": "29406"}}},
{"geometry": {"type": "Point", "coordinates": [-80.0416175532, 32.9363329636]}, "type": "Feature", "properties": {"collection_times": [{"days": "Mon-Fri", "time": "2:15pm"}, {"days": "Sat-Sun", "time": "Closed"}], "id": "2940600103", "name": "USPS COLLECTION BOX - BLUE BOX", "address": {"city": "N CHARLESTON", "state": "SC", "street": "2170 ASHLEY PHOSPHATE RD", "postcode": "29406"}}},
{"geometry": {"type": "Point", "coordinates": [-79.9937174621, 32.8175779677]}, "type": "Feature", "properties": {"collection_times": [{"days": "Mon-Fri", "time": "11:30am"}, {"days": "Sat-Sun", "time": "Closed"}], "id": "2940700001", "name": "USPS COLLECTION BOX - BLUE BOX", "address": {"city": "CHARLESTON", "state": "SC", "street": "1180 SAM RITTENBERG BLVD", "postcode": "29407"}}},
{"geometry": {"type": "Point", "coordinates": [-80.0046441707, 32.8098651866]}, "type": "Feature", "properties": {"collection_times": [{"days": "Mon-Fri", "time": "11:45am"}, {"days": "Sat", "time": "9:45am"}, {"days": "Sun", "time": "Closed"}], "id": "2940700007", "name": "USPS COLLECTION BOX - BLUE BOX", "address": {"city": "CHARLESTON", "state": "SC", "street": "1529 SAM RITTENBERG BLVD", "postcode": "29407"}}},
{"geometry": {"type": "Point", "coordinates": [-80.0310309866, 32.792247069]}, "type": "Feature", "properties": {"collection_times": [{"days": "Mon-Fri", "time": "12:30pm"}, {"days": "Sat", "time": "10:45am"}, {"days": "Sun", "time": "Closed"}], "id": "2940700011", "name": "USPS COLLECTION BOX - BLUE BOX", "address": {"city": "CHARLESTON", "state": "SC", "street": "2070 SAM RITTENBERG BLVD", "postcode": "29407"}}},
{"geometry": {"type": "Point", "coordinates": [-79.9909127979, 32.788927475]}, "type": "Feature", "properties": {"collection_times": [{"days": "Mon-Fri", "time": "5:00pm"}, {"days": "Sat", "time": "1:00pm"}, {"days": "Sun", "time": "Closed"}], "id": "2940700016", "name": "USPS COLLECTION BOX - BLUE BOX", "address": {"city": "CHARLESTON", "state": "SC", "street": "78 SYCAMORE AVE", "postcode": "29407"}}},
{"geometry": {"type": "Point", "coordinates": [-79.9909127979, 32.788927475]}, "type": "Feature", "properties": {"collection_times": [{"days": "Mon-Fri", "time": "5:00pm"}, {"days": "Sat", "time": "1:00pm"}, {"days": "Sun", "time": "Closed"}], "id": "2940700017", "name": "USPS COLLECTION BOX - BLUE BOX", "address": {"city": "CHARLESTON", "state": "SC", "street": "78 SYCAMORE AVE", "postcode": "29407"}}},
{"geometry": {"type": "Point", "coordinates": [-80.0148306304, 32.7870944095]}, "type": "Feature", "properties": {"collection_times": [{"days": "Mon-Fri", "time": "12:45pm"}, {"days": "Sat", "time": "11:15am"}, {"days": "Sun", "time": "Closed"}], "id": "2940700024", "name": "USPS COLLECTION BOX - BLUE BOX", "address": {"city": "CHARLESTON", "state": "SC", "street": "1655 SAVANNAH HWY", "postcode": "29407"}}},
{"geometry": {"type": "Point", "coordinates": [-79.997025915, 32.7980722687]}, "type": "Feature", "properties": {"collection_times": [{"days": "Mon-Fri", "time": "1:45pm"}, {"days": "Sat", "time": "9:45am"}, {"days": "Sun", "time": "Closed"}], "id": "2940700025", "name": "USPS COLLECTION BOX - BLUE BOX", "address": {"city": "CHARLESTON", "state": "SC", "street": "10 CARRIAGE LN", "postcode": "29407"}}},
{"geometry": {"type": "Point", "coordinates": [-80.0114473677, 32.8053971506]}, "type": "Feature", "properties": {"collection_times": [{"days": "Mon-Fri", "time": "11:45am"}, {"days": "Sat", "time": "9:30am"}, {"days": "Sun", "time": "Closed"}], "id": "2940700029", "name": "USPS COLLECTION BOX - BLUE BOX", "address": {"city": "CHARLESTON", "state": "SC", "street": "1640 SAM RITTENBERG BLVD", "postcode": "29407"}}},
{"geometry": {"type": "Point", "coordinates": [-79.9890551375, 32.8269589436]}, "type": "Feature", "properties": {"collection_times": [{"days": "Mon-Fri", "time": "2:15pm"}, {"days": "Sat-Sun", "time": "Closed"}], "id": "2940700035", "name": "USPS COLLECTION BOX - BLUE BOX", "address": {"city": "CHARLESTON", "state": "SC", "street": "1 POSTON RD", "postcode": "29407"}}},
{"geometry": {"type": "Point", "coordinates": [-80.0160953826, 32.7969367388]}, "type": "Feature", "properties": {"collection_times": [{"days": "Mon-Fri", "time": "12:45pm"}, {"days": "Sat-Sun", "time": "Closed"}], "id": "2940700038", "name": "USPS COLLECTION BOX - BLUE BOX", "address": {"city": "CHARLESTON", "state": "SC", "street": "1023 WAPPOO RD", "postcode": "29407"}}},
{"geometry": {"type": "Point", "coordinates": [-80.0077293277, 32.7858582174]}, "type": "Feature", "properties": {"collection_times": [{"days": "Mon-Fri", "time": "1:00pm"}, {"days": "Sat", "time": "11:15am"}, {"days": "Sun", "time": "Closed"}], "id": "2940700045", "name": "USPS COLLECTION BOX - BLUE BOX", "address": {"city": "CHARLESTON", "state": "SC", "street": "1535 SAVANNAH HWY", "postcode": "29407"}}},
{"geometry": {"type": "Point", "coordinates": [-80.0188751671, 32.8008202823]}, "type": "Feature", "properties": {"collection_times": [{"days": "Mon-Fri", "time": "11:45am"}, {"days": "Sat", "time": "9:45am"}, {"days": "Sun", "time": "Closed"}], "id": "2940700049", "name": "USPS COLLECTION BOX - BLUE BOX", "address": {"city": "CHARLESTON", "state": "SC", "street": "1808 SAM RITTENBERG BLVD", "postcode": "29407"}}},
{"geometry": {"type": "Point", "coordinates": [-79.99358, 32.81611]}, "type": "Feature", "properties": {"collection_times": [{"days": "Mon-Fri", "time": "2:00pm"}, {"days": "Sat", "time": "1:00pm"}, {"days": "Sun", "time": "Closed"}], "id": "2940700062", "name": "USPS COLLECTION BOX - BLUE BOX", "address": {"city": "CHARLESTON", "state": "SC", "street": "1668 OLD TOWNE RD", "postcode": "29407"}}},
{"geometry": {"type": "Point", "coordinates": [-79.9994781889, 32.7844067267]}, "type": "Feature", "properties": {"collection_times": [{"days": "Mon-Fri", "time": "1:00pm"}, {"days": "Sat", "time": "11:30am"}, {"days": "Sun", "time": "Closed"}], "id": "2940700068", "name": "USPS COLLECTION BOX - BLUE BOX", "address": {"city": "CHARLESTON", "state": "SC", "street": "1243 SAVANNAH HWY", "postcode": "29407"}}},
{"geometry": {"type": "Point", "coordinates": [-80.0024273056, 32.7979989252]}, "type": "Feature", "properties": {"collection_times": [{"days": "Mon-Fri", "time": "1:45pm"}, {"days": "Sat", "time": "10:00am"}, {"days": "Sun", "time": "Closed"}], "id": "2940700070", "name": "USPS COLLECTION BOX - BLUE BOX", "address": {"city": "CHARLESTON", "state": "SC", "street": "1365 ASHLEY RIVER RD", "postcode": "29407"}}},
{"geometry": {"type": "Point", "coordinates": [-80.0051392944, 32.7985514303]}, "type": "Feature", "properties": {"collection_times": [{"days": "Mon-Fri", "time": "5:00pm"}, {"days": "Sat", "time": "1:00pm"}, {"days": "Sun", "time": "Closed"}], "id": "2940700078", "name": "USPS COLLECTION BOX - EXPRESS", "address": {"city": "CHARLESTON", "state": "SC", "street": "78 SYCAMORE AVE", "postcode": "29407"}}},
{"geometry": {"type": "Point", "coordinates": [-79.993275739, 32.821031138]}, "type": "Feature", "properties": {"collection_times": [{"days": "Mon-Fri", "time": "11:30am"}, {"days": "Sat", "time": "9:15am"}, {"days": "Sun", "time": "Closed"}], "id": "2940700085", "name": "USPS COLLECTION BOX - BLUE BOX", "address": {"city": "CHARLESTON", "state": "SC", "street": "21 GAMECOCK AVE", "postcode": "29407"}}},
{"geometry": {"type": "Point", "coordinates": [-80.0192312377, 32.7994527818]}, "type": "Feature", "properties": {"collection_times": [{"days": "Mon-Fri", "time": "12:45pm"}, {"days": "Sat-Sun", "time": "Closed"}], "id": "2940700094", "name": "USPS COLLECTION BOX - BLUE BOX", "address": {"city": "CHARLESTON", "state": "SC", "street": "1064 GARDNER RD", "postcode": "29407"}}},
{"geometry": {"type": "Point", "coordinates": [-80.0283423877, 32.8061400488]}, "type": "Feature", "properties": {"collection_times": [{"days": "Mon-Fri", "time": "12:00pm"}, {"days": "Sat-Sun", "time": "Closed"}], "id": "2940700099", "name": "USPS COLLECTION BOX - BLUE BOX", "address": {"city": "CHARLESTON", "state": "SC", "street": "1941 SAVAGE RD", "postcode": "29407"}}},
{"geometry": {"type": "Point", "coordinates": [-79.973760661, 32.776382716]}, "type": "Feature", "properties": {"collection_times": [{"days": "Mon-Fri", "time": "1:00pm"}, {"days": "Sat", "time": "11:30am"}, {"days": "Sun", "time": "Closed"}], "id": "2940700100", "name": "USPS COLLECTION BOX - BLUE BOX", "address": {"city": "CHARLESTON", "state": "SC", "street": "72 FOLLY ROAD BLVD", "postcode": "29407"}}},
{"geometry": {"type": "Point", "coordinates": [-79.9909127979, 32.788927475]}, "type": "Feature", "properties": {"collection_times": [{"days": "Mon-Fri", "time": "5:00pm"}, {"days": "Sat", "time": "1:00pm"}, {"days": "Sun", "time": "Closed"}], "id": "2940700103", "name": "USPS COLLECTION BOX - PO LOBBY", "address": {"city": "CHARLESTON", "state": "SC", "street": "78 SYCAMORE AVE", "postcode": "29407"}}},
{"geometry": {"type": "Point", "coordinates": [-79.9909127979, 32.788927475]}, "type": "Feature", "properties": {"collection_times": [{"days": "Mon-Fri", "time": "5:00pm"}, {"days": "Sat", "time": "1:00pm"}, {"days": "Sun", "time": "Closed"}], "id": "2940700104", "name": "USPS COLLECTION BOX - PO LOBBY", "address": {"city": "CHARLESTON", "state": "SC", "street": "78 SYCAMORE AVE", "postcode": "29407"}}},
{"geometry": {"type": "Point", "coordinates": [-79.998103551, 32.799608376]}, "type": "Feature", "properties": {"collection_times": [{"days": "Mon-Fri", "time": "1:45pm"}, {"days": "Sat-Sun", "time": "Closed"}], "id": "2940700105", "name": "USPS COLLECTION BOX - BLUE BOX", "address": {"city": "CHARLESTON", "state": "SC", "street": "176 CROGHAN SPUR", "postcode": "29407"}}},
{"geometry": {"type": "Point", "coordinates": [-79.9890551375, 32.8269589436]}, "type": "Feature", "properties": {"collection_times": [{"days": "Mon-Fri", "time": "2:15pm"}, {"days": "Sat-Sun", "time": "Closed"}], "id": "2940700107", "name": "USPS COLLECTION BOX - BLUE BOX", "address": {"city": "CHARLESTON", "state": "SC", "street": "1 POSTON RD", "postcode": "29407"}}},
{"geometry": {"type": "Point", "coordinates": [-79.9909127979, 32.788927475]}, "type": "Feature", "properties": {"collection_times": [{"days": "Mon-Fri", "time": "5:00pm"}, {"days": "Sat", "time": "1:00pm"}, {"days": "Sun", "time": "Closed"}], "id": "2940700109", "name": "USPS COLLECTION BOX - APC", "address": {"city": "CHARLESTON", "state": "SC", "street": "78 SYCAMORE AVE", "postcode": "29407"}}},
{"geometry": {"type": "Point", "coordinates": [-80.0051392944, 32.7985514303]}, "type": "Feature", "properties": {"collection_times": [{"days": "Mon-Fri", "time": "3:00pm"}, {"days": "Sat-Sun", "time": "Closed"}], "id": "2940700110", "name": "USPS COLLECTION BOX - BLUE BOX", "address": {"city": "CHARLESTON", "state": "SC", "street": "1124 SAM RITTENBERG BLVD STE 11", "postcode": "29407"}}},
{"geometry": {"type": "Point", "coordinates": [-79.9722168996, 32.7501588817]}, "type": "Feature", "properties": {"collection_times": [{"days": "Mon-Fri", "time": "5:00pm"}, {"days": "Sat", "time": "1:00pm"}, {"days": "Sun", "time": "Closed"}], "id": "2941200004", "name": "USPS COLLECTION BOX - BLUE BOX", "address": {"city": "CHARLESTON", "state": "SC", "street": "579 FOLLY RD", "postcode": "29412"}}},
{"geometry": {"type": "Point", "coordinates": [-79.9722168996, 32.7501588817]}, "type": "Feature", "properties": {"collection_times": [{"days": "Mon-Fri", "time": "5:00pm"}, {"days": "Sat", "time": "1:00pm"}, {"days": "Sun", "time": "Closed"}], "id": "2941200009", "name": "USPS COLLECTION BOX - BLUE BOX", "address": {"city": "CHARLESTON", "state": "SC", "street": "579 FOLLY RD", "postcode": "29412"}}},
{"geometry": {"type": "Point", "coordinates": [-79.976384464, 32.7626816853]}, "type": "Feature", "properties": {"collection_times": [{"days": "Mon-Fri", "time": "1:15pm"}, {"days": "Sat", "time": "11:45am"}, {"days": "Sun", "time": "Closed"}], "id": "2941200013", "name": "USPS COLLECTION BOX - BLUE BOX", "address": {"city": "CHARLESTON", "state": "SC", "street": "1739 MAYBANK HWY", "postcode": "29412"}}},
{"geometry": {"type": "Point", "coordinates": [-79.9722168996, 32.7501588817]}, "type": "Feature", "properties": {"collection_times": [{"days": "Mon-Fri", "time": "5:00pm"}, {"days": "Sat", "time": "1:00pm"}, {"days": "Sun", "time": "Closed"}], "id": "2941200016", "name": "USPS COLLECTION BOX - PO LOBBY", "address": {"city": "CHARLESTON", "state": "SC", "street": "579 FOLLY RD", "postcode": "29412"}}},
{"geometry": {"type": "Point", "coordinates": [-79.9722168996, 32.7501588817]}, "type": "Feature", "properties": {"collection_times": [{"days": "Mon-Fri", "time": "5:00pm"}, {"days": "Sat", "time": "1:00pm"}, {"days": "Sun", "time": "Closed"}], "id": "2941200017", "name": "USPS COLLECTION BOX - PO LOBBY", "address": {"city": "CHARLESTON", "state": "SC", "street": "579 FOLLY RD", "postcode": "29412"}}},
{"geometry": {"type": "Point", "coordinates": [-79.9753961769, 32.7649609188]}, "type": "Feature", "properties": {"collection_times": [{"days": "Mon-Fri", "time": "1:15pm"}, {"days": "Sat-Sun", "time": "Closed"}], "id": "2941200020", "name": "USPS COLLECTION BOX - BLUE BOX", "address": {"city": "CHARLESTON", "state": "SC", "street": "147 WAPPOO CREEK DR", "postcode": "29412"}}},
{"geometry": {"type": "Point", "coordinates": [-79.958925816, 32.7354228454]}, "type": "Feature", "properties": {"collection_times": [{"days": "Mon-Fri", "time": "5:00pm"}, {"days": "Sat", "time": "1:00pm"}, {"days": "Sun", "time": "Closed"}], "id": "2941200021", "name": "USPS COLLECTION BOX - EXPRESS", "address": {"city": "CHARLESTON", "state": "SC", "street": "579 FOLLY RD", "postcode": "29412"}}},
{"geometry": {"type": "Point", "coordinates": [-79.9722168996, 32.7501588817]}, "type": "Feature", "properties": {"collection_times": [{"days": "Mon-Fri", "time": "5:00pm"}, {"days": "Sat", "time": "1:00pm"}, {"days": "Sun", "time": "Closed"}], "id": "2941200022", "name": "USPS COLLECTION BOX - APC", "address": {"city": "CHARLESTON", "state": "SC", "street": "579 FOLLY RD", "postcode": "29412"}}},
{"geometry": {"type": "Point", "coordinates": [-80.0609899951, 32.8207240395]}, "type": "Feature", "properties": {"collection_times": [{"days": "Mon-Fri", "time": "5:00pm"}, {"days": "Sat", "time": "1:00pm"}, {"days": "Sun", "time": "Closed"}], "id": "2941400000", "name": "USPS COLLECTION BOX - BLUE BOX", "address": {"city": "CHARLESTON", "state": "SC", "street": "1964 ASHLEY RIVER RD STE B", "postcode": "29414"}}},
{"geometry": {"type": "Point", "coordinates": [-80.0248435261, 32.8085789318]}, "type": "Feature", "properties": {"collection_times": [{"days": "Mon-Fri", "time": "5:00pm"}, {"days": "Sat", "time": "1:00pm"}, {"days": "Sun", "time": "Closed"}], "id": "2941400001", "name": "USPS COLLECTION BOX - BLUE BOX", "address": {"city": "CHARLESTON", "state": "SC", "street": "1964 ASHLEY RIVER RD STE B", "postcode": "29414"}}},
{"geometry": {"type": "Point", "coordinates": [-80.0609899951, 32.8207326834]}, "type": "Feature", "properties": {"collection_times": [{"days": "Mon-Fri", "time": "5:00pm"}, {"days": "Sat", "time": "1:00pm"}, {"days": "Sun", "time": "Closed"}], "id": "2941400002", "name": "USPS COLLECTION BOX - EXPRESS", "address": {"city": "CHARLESTON", "state": "SC", "street": "1964 ASHLEY RIVER RD STE B", "postcode": "29414"}}},
{"geometry": {"type": "Point", "coordinates": [-80.0609899951, 32.8207240395]}, "type": "Feature", "properties": {"collection_times": [{"days": "Mon-Fri", "time": "5:00pm"}, {"days": "Sat", "time": "1:00pm"}, {"days": "Sun", "time": "Closed"}], "id": "2941400006", "name": "USPS COLLECTION BOX - PO LOBBY", "address": {"city": "CHARLESTON", "state": "SC", "street": "1964 ASHLEY RIVER RD STE B", "postcode": "29414"}}},
{"geometry": {"type": "Point", "coordinates": [-80.0609899951, 32.8207240395]}, "type": "Feature", "properties": {"collection_times": [{"days": "Mon-Fri", "time": "5:00pm"}, {"days": "Sat", "time": "1:00pm"}, {"days": "Sun", "time": "Closed"}], "id": "2941400007", "name": "USPS COLLECTION BOX - PO LOBBY", "address": {"city": "CHARLESTON", "state": "SC", "street": "1964 ASHLEY RIVER RD STE B", "postcode": "29414"}}},
{"geometry": {"type": "Point", "coordinates": [-80.0367283952, 32.790935482]}, "type": "Feature", "properties": {"collection_times": [{"days": "Mon-Fri", "time": "4:15pm"}, {"days": "Sat", "time": "11:15am"}, {"days": "Sun", "time": "Closed"}], "id": "2941400009", "name": "USPS COLLECTION BOX - BLUE BOX", "address": {"city": "CHARLESTON", "state": "SC", "street": "3025 ASHLEY TOWN CENTER DR", "postcode": "29414"}}},
{"geometry": {"type": "Point", "coordinates": [-80.1734880945, 32.89754877]}, "type": "Feature", "properties": {"collection_times": [{"days": "Mon-Fri", "time": "12:00pm"}, {"days": "Sat", "time": "10:30am"}, {"days": "Sun", "time": "Closed"}], "id": "2941400010", "name": "USPS COLLECTION BOX - BLUE BOX", "address": {"city": "CHARLESTON", "state": "SC", "street": "421 MAGWOOD RD", "postcode": "29414"}}},
{"geometry": {"type": "Point", "coordinates": [-80.0412922395, 32.8104472024]}, "type": "Feature", "properties": {"collection_times": [{"days": "Mon-Fri", "time": "12:15pm"}, {"days": "Sat", "time": "10:30am"}, {"days": "Sun", "time": "Closed"}], "id": "2941400011", "name": "USPS COLLECTION BOX - BLUE BOX", "address": {"city": "CHARLESTON", "state": "SC", "street": "2095 HENRY TECKLENBURG DR", "postcode": "29414"}}},
{"geometry": {"type": "Point", "coordinates": [-80.0609899951, 32.8207240395]}, "type": "Feature", "properties": {"collection_times": [{"days": "Mon-Fri", "time": "5:00pm"}, {"days": "Sat", "time": "1:00pm"}, {"days": "Sun", "time": "Closed"}], "id": "2941400014", "name": "USPS COLLECTION BOX - APC", "address": {"city": "CHARLESTON", "state": "SC", "street": "1964 ASHLEY RIVER RD STE B", "postcode": "29414"}}},
{"geometry": {"type": "Point", "coordinates": [-80.1043740945, 32.9166028101]}, "type": "Feature", "properties": {"collection_times": [{"days": "Mon-Fri", "time": "2:45pm"}, {"days": "Sat", "time": "3:45pm"}, {"days": "Sun", "time": "Closed"}], "id": "2941800023", "name": "USPS COLLECTION BOX - BLUE BOX", "address": {"city": "CHARLESTON", "state": "SC", "street": "5101 ASHLEY PHOSPHATE RD", "postcode": "29418"}}},
{"geometry": {"type": "Point", "coordinates": [-80.0335048206, 32.857103104]}, "type": "Feature", "properties": {"collection_times": [{"days": "Mon-Fri", "time": "11:15am"}, {"days": "Sat", "time": "9:00am"}, {"days": "Sun", "time": "Closed"}], "id": "2941800031", "name": "USPS COLLECTION BOX - BLUE BOX", "address": {"city": "CHARLESTON", "state": "SC", "street": "5060 DORCHESTER RD", "postcode": "29418"}}},
{"geometry": {"type": "Point", "coordinates": [-80.0683373994, 32.8880628886]}, "type": "Feature", "properties": {"collection_times": [{"days": "Mon-Fri", "time": "8:30pm"}, {"days": "Sat", "time": "6:00pm"}, {"days": "Sun", "time": "Closed"}], "id": "2941800054", "name": "USPS COLLECTION BOX - EXPRESS", "address": {"city": "CHARLESTON", "state": "SC", "street": "7075 CROSS COUNTY RD", "postcode": "29418"}}},
{"geometry": {"type": "Point", "coordinates": [-80.075026599, 32.9031524583]}, "type": "Feature", "properties": {"collection_times": [{"days": "Mon-Fri", "time": "8:30pm"}, {"days": "Sat", "time": "6:00pm"}, {"days": "Sun", "time": "Closed"}], "id": "2941800057", "name": "USPS COLLECTION BOX - BLUE BOX", "address": {"city": "CHARLESTON", "state": "SC", "street": "7075 CROSS COUNTY RD", "postcode": "29418"}}},
{"geometry": {"type": "Point", "coordinates": [-80.075026599, 32.9031524583]}, "type": "Feature", "properties": {"collection_times": [{"days": "Mon-Fri", "time": "8:30pm"}, {"days": "Sat", "time": "6:00pm"}, {"days": "Sun", "time": "Closed"}], "id": "2941800058", "name": "USPS COLLECTION BOX - PO LOBBY", "address": {"city": "CHARLESTON", "state": "SC", "street": "7075 CROSS COUNTY RD", "postcode": "29418"}}},
{"geometry": {"type": "Point", "coordinates": [-80.0205623287, 32.8712252019]}, "type": "Feature", "properties": {"collection_times": [{"days": "Mon-Fri", "time": "2:30pm"}, {"days": "Sat-Sun", "time": "Closed"}], "id": "2941800059", "name": "USPS COLLECTION BOX - BLUE BOX", "address": {"city": "CHARLESTON", "state": "SC", "street": "4969 CENTRE POINTE DR", "postcode": "29418"}}},
{"geometry": {"type": "Point", "coordinates": [-80.0674499407, 32.8864617799]}, "type": "Feature", "properties": {"collection_times": [{"days": "Mon-Fri", "time": "11:15am"}, {"days": "Sat", "time": "9:00am"}, {"days": "Sun", "time": "Closed"}], "id": "2941800094", "name": "USPS COLLECTION BOX - BLUE BOX", "address": {"city": "CHARLESTON", "state": "SC", "street": "6877 DORCHESTER RD", "postcode": "29418"}}},
{"geometry": {"type": "Point", "coordinates": [-80.075026599, 32.9031524583]}, "type": "Feature", "properties": {"collection_times": [{"days": "Mon-Fri", "time": "8:30pm"}, {"days": "Sat", "time": "6:00pm"}, {"days": "Sun", "time": "Closed"}], "id": "2941800095", "name": "USPS COLLECTION BOX - APC", "address": {"city": "CHARLESTON", "state": "SC", "street": "7075 CROSS COUNTY RD", "postcode": "29418"}}},
{"geometry": {"type": "Point", "coordinates": [-80.3484061312, 32.7200218191]}, "type": "Feature", "properties": {"collection_times": [{"days": "Mon-Sat", "time": "12:30pm"}, {"days": "Sun", "time": "Closed"}], "id": "2942600001", "name": "USPS COLLECTION BOX - BLUE BOX", "address": {"city": "ADAMS RUN", "state": "SC", "street": "5190 HIGHWAY 174", "postcode": "29426"}}},
{"geometry": {"type": "Point", "coordinates": [-79.6575557297, 32.9823536162]}, "type": "Feature", "properties": {"collection_times": [{"days": "Mon-Fri", "time": "3:45pm"}, {"days": "Sat", "time": "9:45am"}, {"days": "Sun", "time": "Closed"}], "id": "2942900001", "name": "USPS COLLECTION BOX - BLUE BOX", "address": {"city": "AWENDAW", "state": "SC", "street": "6201 N HIGHWAY 17", "postcode": "29429"}}},
{"geometry": {"type": "Point", "coordinates": [-79.6575557297, 32.9823536162]}, "type": "Feature", "properties": {"collection_times": [{"days": "Mon-Fri", "time": "3:45pm"}, {"days": "Sat", "time": "9:45am"}, {"days": "Sun", "time": "Closed"}], "id": "2942900002", "name": "USPS COLLECTION BOX - PO LOBBY", "address": {"city": "AWENDAW", "state": "SC", "street": "6201 N HIGHWAY 17", "postcode": "29429"}}},
{"geometry": {"type": "Point", "coordinates": [-79.6575557297, 32.9823536162]}, "type": "Feature", "properties": {"collection_times": [{"days": "Mon-Fri", "time": "3:45pm"}, {"days": "Sat", "time": "9:45am"}, {"days": "Sun", "time": "Closed"}], "id": "2942900003", "name": "USPS COLLECTION BOX - PO LOBBY", "address": {"city": "AWENDAW", "state": "SC", "street": "6201 N HIGHWAY 17", "postcode": "29429"}}},
{"geometry": {"type": "Point", "coordinates": [-79.9542264596, 33.3069220675]}, "type": "Feature", "properties": {"collection_times": [{"days": "Mon-Fri", "time": "3:45pm"}, {"days": "Sat", "time": "9:45am"}, {"days": "Sun", "time": "Closed"}], "id": "2943100001", "name": "USPS COLLECTION BOX - BLUE BOX", "address": {"city": "BONNEAU", "state": "SC", "street": "104 CEDAR ST", "postcode": "29431"}}},
{"geometry": {"type": "Point", "coordinates": [-79.9542264596, 33.3069220675]}, "type": "Feature", "properties": {"collection_times": [{"days": "Mon-Fri", "time": "3:45pm"}, {"days": "Sat", "time": "9:45am"}, {"days": "Sun", "time": "Closed"}], "id": "2943100002", "name": "USPS COLLECTION BOX - PO LOBBY", "address": {"city": "BONNEAU", "state": "SC", "street": "104 CEDAR ST", "postcode": "29431"}}},
{"geometry": {"type": "Point", "coordinates": [-80.818268711, 33.2502343375]}, "type": "Feature", "properties": {"collection_times": [{"days": "Mon-Fri", "time": "3:45pm"}, {"days": "Sat", "time": "9:45am"}, {"days": "Sun", "time": "Closed"}], "id": "2943200004", "name": "USPS COLLECTION BOX - BLUE BOX", "address": {"city": "BRANCHVILLE", "state": "SC", "street": "250 EDWARD ST", "postcode": "29432"}}},
{"geometry": {"type": "Point", "coordinates": [-80.818268711, 33.2502343375]}, "type": "Feature", "properties": {"collection_times": [{"days": "Mon-Fri", "time": "3:45pm"}, {"days": "Sat", "time": "9:45am"}, {"days": "Sun", "time": "Closed"}], "id": "2943200008", "name": "USPS COLLECTION BOX - PO LOBBY", "address": {"city": "BRANCHVILLE", "state": "SC", "street": "250 EDWARD ST", "postcode": "29432"}}},
{"geometry": {"type": "Point", "coordinates": [-79.8858270068, 33.1335558671]}, "type": "Feature", "properties": {"collection_times": [{"days": "Mon-Fri", "time": "11:45am"}, {"days": "Sat", "time": "9:45am"}, {"days": "Sun", "time": "Closed"}], "id": "2943400001", "name": "USPS COLLECTION BOX - BLUE BOX", "address": {"city": "CORDESVILLE", "state": "SC", "street": "2732 HIGHWAY 402", "postcode": "29434"}}},
{"geometry": {"type": "Point", "coordinates": [-80.477200702, 32.9346881905]}, "type": "Feature", "properties": {"collection_times": [{"days": "Mon-Fri", "time": "3:45pm"}, {"days": "Sat", "time": "9:45am"}, {"days": "Sun", "time": "Closed"}], "id": "2943500001", "name": "USPS COLLECTION BOX - BLUE BOX", "address": {"city": "COTTAGEVILLE", "state": "SC", "street": "10969 COTTAGEVILLE HWY", "postcode": "29435"}}},
{"geometry": {"type": "Point", "coordinates": [-80.477200702, 32.9346881905]}, "type": "Feature", "properties": {"collection_times": [{"days": "Mon-Fri", "time": "3:45pm"}, {"days": "Sat", "time": "9:45am"}, {"days": "Sun", "time": "Closed"}], "id": "2943500002", "name": "USPS COLLECTION BOX - PO LOBBY", "address": {"city": "COTTAGEVILLE", "state": "SC", "street": "10969 COTTAGEVILLE HWY", "postcode": "29435"}}},
{"geometry": {"type": "Point", "coordinates": [-80.477200702, 32.9346881905]}, "type": "Feature", "properties": {"collection_times": [{"days": "Mon-Fri", "time": "3:45pm"}, {"days": "Sat", "time": "9:45am"}, {"days": "Sun", "time": "Closed"}], "id": "2943500003", "name": "USPS COLLECTION BOX - PO LOBBY", "address": {"city": "COTTAGEVILLE", "state": "SC", "street": "10969 COTTAGEVILLE HWY", "postcode": "29435"}}},
{"geometry": {"type": "Point", "coordinates": [-80.1532971602, 33.3299838525]}, "type": "Feature", "properties": {"collection_times": [{"days": "Mon-Fri", "time": "3:45pm"}, {"days": "Sat", "time": "9:45am"}, {"days": "Sun", "time": "Closed"}], "id": "2943600001", "name": "USPS COLLECTION BOX - BLUE BOX", "address": {"city": "CROSS", "state": "SC", "street": "1836 RANGER DR", "postcode": "29436"}}},
{"geometry": {"type": "Point", "coordinates": [-80.1532971602, 33.3299838525]}, "type": "Feature", "properties": {"collection_times": [{"days": "Mon-Fri", "time": "3:45pm"}, {"days": "Sat", "time": "9:45am"}, {"days": "Sun", "time": "Closed"}], "id": "2943600002", "name": "USPS COLLECTION BOX - PO LOBBY", "address": {"city": "CROSS", "state": "SC", "street": "1836 RANGER DR", "postcode": "29436"}}},
{"geometry": {"type": "Point", "coordinates": [-80.1532971602, 33.3299838525]}, "type": "Feature", "properties": {"collection_times": [{"days": "Mon-Fri", "time": "3:45pm"}, {"days": "Sat", "time": "9:45am"}, {"days": "Sun", "time": "Closed"}], "id": "2943600003", "name": "USPS COLLECTION BOX - PO LOBBY", "address": {"city": "CROSS", "state": "SC", "street": "1836 RANGER DR", "postcode": "29436"}}},
{"geometry": {"type": "Point", "coordinates": [-80.3824877058, 33.1357853843]}, "type": "Feature", "properties": {"collection_times": [{"days": "Mon-Fri", "time": "3:45pm"}, {"days": "Sat", "time": "9:45am"}, {"days": "Sun", "time": "Closed"}], "id": "2943700001", "name": "USPS COLLECTION BOX - BLUE BOX", "address": {"city": "DORCHESTER", "state": "SC", "street": "2650 HIGHWAY 78", "postcode": "29437"}}},
{"geometry": {"type": "Point", "coordinates": [-80.3824877058, 33.1357853843]}, "type": "Feature", "properties": {"collection_times": [{"days": "Mon-Fri", "time": "3:45pm"}, {"days": "Sat", "time": "9:45am"}, {"days": "Sun", "time": "Closed"}], "id": "2943700002", "name": "USPS COLLECTION BOX - PO LOBBY", "address": {"city": "DORCHESTER", "state": "SC", "street": "2650 HIGHWAY 78", "postcode": "29437"}}},
{"geometry": {"type": "Point", "coordinates": [-80.3824877058, 33.1357853843]}, "type": "Feature", "properties": {"collection_times": [{"days": "Mon-Fri", "time": "3:45pm"}, {"days": "Sat", "time": "9:45am"}, {"days": "Sun", "time": "Closed"}], "id": "2943700003", "name": "USPS COLLECTION BOX - PO LOBBY", "address": {"city": "DORCHESTER", "state": "SC", "street": "2650 HIGHWAY 78", "postcode": "29437"}}},
{"geometry": {"type": "Point", "coordinates": [-80.299245736, 32.5243546312]}, "type": "Feature", "properties": {"collection_times": [{"days": "Mon-Fri", "time": "3:45pm"}, {"days": "Sat", "time": "10:45am"}, {"days": "Sun", "time": "Closed"}], "id": "2943800001", "name": "USPS COLLECTION BOX - BLUE BOX", "address": {"city": "EDISTO ISLAND", "state": "SC", "street": "539 HIGHWAY 174", "postcode": "29438"}}},
{"geometry": {"type": "Point", "coordinates": [-80.2977988565, 32.504210857]}, "type": "Feature", "properties": {"collection_times": [{"days": "Mon-Fri", "time": "11:00am"}, {"days": "Sat", "time": "10:45am"}, {"days": "Sun", "time": "Closed"}], "id": "2943800002", "name": "USPS COLLECTION BOX - BLUE BOX", "address": {"city": "EDISTO ISLAND", "state": "SC", "street": "108 JUNGLE RD", "postcode": "29438"}}},
{"geometry": {"type": "Point", "coordinates": [-80.299245736, 32.5243546312]}, "type": "Feature", "properties": {"collection_times": [{"days": "Mon-Fri", "time": "3:45pm"}, {"days": "Sat", "time": "10:45am"}, {"days": "Sun", "time": "Closed"}], "id": "2943800003", "name": "USPS COLLECTION BOX - PO LOBBY", "address": {"city": "EDISTO ISLAND", "state": "SC", "street": "539 HIGHWAY 174", "postcode": "29438"}}},
{"geometry": {"type": "Point", "coordinates": [-80.299245736, 32.5243546312]}, "type": "Feature", "properties": {"collection_times": [{"days": "Mon-Fri", "time": "3:45pm"}, {"days": "Sat", "time": "10:45am"}, {"days": "Sun", "time": "Closed"}], "id": "2943800004", "name": "USPS COLLECTION BOX - PO LOBBY", "address": {"city": "EDISTO ISLAND", "state": "SC", "street": "539 HIGHWAY 174", "postcode": "29438"}}},
{"geometry": {"type": "Point", "coordinates": [-79.9420149849, 32.6579431397]}, "type": "Feature", "properties": {"collection_times": [{"days": "Mon-Fri", "time": "3:45pm"}, {"days": "Sat", "time": "9:45am"}, {"days": "Sun", "time": "Closed"}], "id": "2943900001", "name": "USPS COLLECTION BOX - BLUE BOX", "address": {"city": "FOLLY BEACH", "state": "SC", "street": "107 E INDIAN AVE", "postcode": "29439"}}},
{"geometry": {"type": "Point", "coordinates": [-79.9420149849, 32.6579431397]}, "type": "Feature", "properties": {"collection_times": [{"days": "Mon-Fri", "time": "3:45pm"}, {"days": "Sat", "time": "9:45am"}, {"days": "Sun", "time": "Closed"}], "id": "2943900003", "name": "USPS COLLECTION BOX - PO LOBBY", "address": {"city": "FOLLY BEACH", "state": "SC", "street": "107 E INDIAN AVE", "postcode": "29439"}}},
{"geometry": {"type": "Point", "coordinates": [-79.9420149849, 32.6579431397]}, "type": "Feature", "properties": {"collection_times": [{"days": "Mon-Fri", "time": "3:45pm"}, {"days": "Sat", "time": "9:45am"}, {"days": "Sun", "time": "Closed"}], "id": "2943900004", "name": "USPS COLLECTION BOX - PO LOBBY", "address": {"city": "FOLLY BEACH", "state": "SC", "street": "107 E INDIAN AVE", "postcode": "29439"}}},
{"geometry": {"type": "Point", "coordinates": [-79.2845432122, 33.3674662336]}, "type": "Feature", "properties": {"collection_times": [{"days": "Mon-Sat", "time": "1:15pm"}, {"days": "Sun", "time": "Closed"}], "id": "2944000003", "name": "USPS COLLECTION BOX - BLUE BOX", "address": {"city": "GEORGETOWN", "state": "SC", "street": "110 ORANGE ST", "postcode": "29440"}}},
{"geometry": {"type": "Point", "coordinates": [-79.2822532714, 33.3656624248]}, "type": "Feature", "properties": {"collection_times": [{"days": "Mon-Sat", "time": "1:15pm"}, {"days": "Sun", "time": "Closed"}], "id": "2944000007", "name": "USPS COLLECTION BOX - BLUE BOX", "address": {"city": "GEORGETOWN", "state": "SC", "street": "100 SCREVEN ST", "postcode": "29440"}}},
{"geometry": {"type": "Point", "coordinates": [-79.2765828595, 33.3654079745]}, "type": "Feature", "properties": {"collection_times": [{"days": "Mon-Sat", "time": "1:15pm"}, {"days": "Sun", "time": "Closed"}], "id": "2944000011", "name": "USPS COLLECTION BOX - BLUE BOX", "address": {"city": "GEORGETOWN", "state": "SC", "street": "301 SAINT JAMES ST", "postcode": "29440"}}},
{"geometry": {"type": "Point", "coordinates": [-79.2891229396, 33.3902751111]}, "type": "Feature", "properties": {"collection_times": [{"days": "Mon-Sat", "time": "12:45pm"}, {"days": "Sun", "time": "Closed"}], "id": "2944000013", "name": "USPS COLLECTION BOX - BLUE BOX", "address": {"city": "GEORGETOWN", "state": "SC", "street": "1255 N FRASER ST", "postcode": "29440"}}},
{"geometry": {"type": "Point", "coordinates": [-79.2814938143, 33.3668792697]}, "type": "Feature", "properties": {"collection_times": [{"days": "Mon-Sat", "time": "1:15pm"}, {"days": "Sun", "time": "Closed"}], "id": "2944000014", "name": "USPS COLLECTION BOX - BLUE BOX", "address": {"city": "GEORGETOWN", "state": "SC", "street": "715 PRINCE ST", "postcode": "29440"}}},
{"geometry": {"type": "Point", "coordinates": [-79.2808626691, 33.3671094159]}, "type": "Feature", "properties": {"collection_times": [{"days": "Mon-Sat", "time": "1:15pm"}, {"days": "Sun", "time": "Closed"}], "id": "2944000017", "name": "USPS COLLECTION BOX - BLUE BOX", "address": {"city": "GEORGETOWN", "state": "SC", "street": "230 SCREVEN ST", "postcode": "29440"}}},
{"geometry": {"type": "Point", "coordinates": [-79.2890064776, 33.3909913012]}, "type": "Feature", "properties": {"collection_times": [{"days": "Mon-Sat", "time": "12:45pm"}, {"days": "Sun", "time": "Closed"}], "id": "2944000021", "name": "USPS COLLECTION BOX - BLUE BOX", "address": {"city": "GEORGETOWN", "state": "SC", "street": "1300 N FRASER ST", "postcode": "29440"}}},
{"geometry": {"type": "Point", "coordinates": [-79.2888304044, 33.3876682408]}, "type": "Feature", "properties": {"collection_times": [{"days": "Mon-Fri", "time": "4:15pm"}, {"days": "Sat", "time": "10:45am"}, {"days": "Sun", "time": "Closed"}], "id": "2944000025", "name": "USPS COLLECTION BOX - PO LOBBY", "address": {"city": "GEORGETOWN", "state": "SC", "street": "1101 CHARLOTTE ST", "postcode": "29440"}}},
{"geometry": {"type": "Point", "coordinates": [-79.2888304044, 33.3876682408]}, "type": "Feature", "properties": {"collection_times": [{"days": "Mon-Fri", "time": "4:15pm"}, {"days": "Sat", "time": "10:45am"}, {"days": "Sun", "time": "Closed"}], "id": "2944000026", "name": "USPS COLLECTION BOX - PO LOBBY", "address": {"city": "GEORGETOWN", "state": "SC", "street": "1101 CHARLOTTE ST", "postcode": "29440"}}},
{"geometry": {"type": "Point", "coordinates": [-79.2875732261, 33.387991769]}, "type": "Feature", "properties": {"collection_times": [{"days": "Mon-Fri", "time": "4:15pm"}, {"days": "Sat", "time": "10:45am"}, {"days": "Sun", "time": "Closed"}], "id": "2944000027", "name": "USPS COLLECTION BOX - BLUE BOX", "address": {"city": "GEORGETOWN", "state": "SC", "street": "1101 CHARLOTTE ST", "postcode": "29440"}}},
{"geometry": {"type": "Point", "coordinates": [-79.2962749937, 33.3439445828]}, "type": "Feature", "properties": {"collection_times": [{"days": "Mon-Sat", "time": "1:00pm"}, {"days": "Sun", "time": "Closed"}], "id": "2944000028", "name": "USPS COLLECTION BOX - BLUE BOX", "address": {"city": "GEORGETOWN", "state": "SC", "street": "815 ELIZABETH ST", "postcode": "29440"}}},
{"geometry": {"type": "Point", "coordinates": [-80.0376297985, 33.0060435525]}, "type": "Feature", "properties": {"collection_times": [{"days": "Mon-Fri", "time": "4:45pm"}, {"days": "Sat", "time": "3:45pm"}, {"days": "Sun", "time": "Closed"}], "id": "2944500002", "name": "USPS COLLECTION BOX - BLUE BOX", "address": {"city": "GOOSE CREEK", "state": "SC", "street": "307 N GOOSE CREEK BLVD", "postcode": "29445"}}},
{"geometry": {"type": "Point", "coordinates": [-80.0403092006, 32.9887344969]}, "type": "Feature", "properties": {"collection_times": [{"days": "Mon-Sat", "time": "2:15pm"}, {"days": "Sun", "time": "Closed"}], "id": "2944500005", "name": "USPS COLLECTION BOX - BLUE BOX", "address": {"city": "GOOSE CREEK", "state": "SC", "street": "205 N GOOSE CREEK BLVD", "postcode": "29445"}}},
{"geometry": {"type": "Point", "coordinates": [-80.0101839676, 32.9659388776]}, "type": "Feature", "properties": {"collection_times": [{"days": "Mon-Sat", "time": "2:00pm"}, {"days": "Sun", "time": "Closed"}], "id": "2944500009", "name": "USPS COLLECTION BOX - BLUE BOX", "address": {"city": "GOOSE CREEK", "state": "SC", "street": "4000 HARBOUR LAKE DR", "postcode": "29445"}}},
{"geometry": {"type": "Point", "coordinates": [-80.0315786532, 32.9968314571]}, "type": "Feature", "properties": {"collection_times": [{"days": "Mon-Sat", "time": "1:45pm"}, {"days": "Sun", "time": "Closed"}], "id": "2944500012", "name": "USPS COLLECTION BOX - BLUE BOX", "address": {"city": "GOOSE CREEK", "state": "SC", "street": "1743 RED BANK RD", "postcode": "29445"}}},
{"geometry": {"type": "Point", "coordinates": [-80.0446128053, 33.0069355035]}, "type": "Feature", "properties": {"collection_times": [{"days": "Mon-Sat", "time": "2:00pm"}, {"days": "Sun", "time": "Closed"}], "id": "2944500023", "name": "USPS COLLECTION BOX - BLUE BOX", "address": {"city": "GOOSE CREEK", "state": "SC", "street": "208 SAINT JAMES AVE STE C", "postcode": "29445"}}},
{"geometry": {"type": "Point", "coordinates": [-80.0546434356, 33.0234676209]}, "type": "Feature", "properties": {"collection_times": [{"days": "Mon-Sat", "time": "2:15pm"}, {"days": "Sun", "time": "Closed"}], "id": "2944500027", "name": "USPS COLLECTION BOX - BLUE BOX", "address": {"city": "GOOSE CREEK", "state": "SC", "street": "431 SAINT JAMES AVE", "postcode": "29445"}}},
{"geometry": {"type": "Point", "coordinates": [-80.0376297985, 33.0060435525]}, "type": "Feature", "properties": {"collection_times": [{"days": "Mon-Fri", "time": "4:45pm"}, {"days": "Sat", "time": "3:45pm"}, {"days": "Sun", "time": "Closed"}], "id": "2944500028", "name": "USPS COLLECTION BOX - PO LOBBY", "address": {"city": "GOOSE CREEK", "state": "SC", "street": "307 N GOOSE CREEK BLVD", "postcode": "29445"}}},
{"geometry": {"type": "Point", "coordinates": [-80.0376297985, 33.0060435525]}, "type": "Feature", "properties": {"collection_times": [{"days": "Mon-Fri", "time": "4:45pm"}, {"days": "Sat", "time": "3:45pm"}, {"days": "Sun", "time": "Closed"}], "id": "2944500029", "name": "USPS COLLECTION BOX - PO LOBBY", "address": {"city": "GOOSE CREEK", "state": "SC", "street": "307 N GOOSE CREEK BLVD", "postcode": "29445"}}},
{"geometry": {"type": "Point", "coordinates": [-80.0376297985, 33.0060435525]}, "type": "Feature", "properties": {"collection_times": [{"days": "Mon-Fri", "time": "4:45pm"}, {"days": "Sat", "time": "3:45pm"}, {"days": "Sun", "time": "Closed"}], "id": "2944500033", "name": "USPS COLLECTION BOX - APC", "address": {"city": "GOOSE CREEK", "state": "SC", "street": "307 N GOOSE CREEK BLVD", "postcode": "29445"}}},
{"geometry": {"type": "Point", "coordinates": [-82.0797685971, 34.8004233817]}, "type": "Feature", "properties": {"collection_times": [{"days": "Mon-Fri", "time": "3:45pm"}, {"days": "Sat", "time": "9:45am"}, {"days": "Sun", "time": "Closed"}], "id": "2944600001", "name": "USPS COLLECTION BOX - BLUE BOX", "address": {"city": "GREEN POND", "state": "SC", "street": "12225 GREEN POND HWY", "postcode": "29446"}}},
{"geometry": {"type": "Point", "coordinates": [-80.59376588, 33.105943236]}, "type": "Feature", "properties": {"collection_times": [{"days": "Mon-Fri", "time": "10:45am"}, {"days": "Sat", "time": "11:45am"}, {"days": "Sun", "time": "Closed"}], "id": "2944700001", "name": "USPS COLLECTION BOX - BLUE BOX", "address": {"city": "GROVER", "state": "SC", "street": "1923 HIGHWAY 15", "postcode": "29447"}}},
{"geometry": {"type": "Point", "coordinates": [-80.4461945997, 33.2138311104]}, "type": "Feature", "properties": {"collection_times": [{"days": "Mon-Fri", "time": "3:45pm"}, {"days": "Sat", "time": "9:45am"}, {"days": "Sun", "time": "Closed"}], "id": "2944800001", "name": "USPS COLLECTION BOX - BLUE BOX", "address": {"city": "HARLEYVILLE", "state": "SC", "street": "130 E MAIN ST", "postcode": "29448"}}},
{"geometry": {"type": "Point", "coordinates": [-80.4461945997, 33.2138311104]}, "type": "Feature", "properties": {"collection_times": [{"days": "Mon-Fri", "time": "3:45pm"}, {"days": "Sat", "time": "9:45am"}, {"days": "Sun", "time": "Closed"}], "id": "2944800003", "name": "USPS COLLECTION BOX - PO LOBBY", "address": {"city": "HARLEYVILLE", "state": "SC", "street": "130 E MAIN ST", "postcode": "29448"}}},
{"geometry": {"type": "Point", "coordinates": [-80.244144128, 32.7340541537]}, "type": "Feature", "properties": {"collection_times": [{"days": "Mon-Fri", "time": "3:45pm"}, {"days": "Sat", "time": "10:45am"}, {"days": "Sun", "time": "Closed"}], "id": "2944900001", "name": "USPS COLLECTION BOX - PO LOBBY", "address": {"city": "HOLLYWOOD", "state": "SC", "street": "6345 HIGHWAY 162", "postcode": "29449"}}},
{"geometry": {"type": "Point", "coordinates": [-80.244144128, 32.7340541537]}, "type": "Feature", "properties": {"collection_times": [{"days": "Mon-Fri", "time": "3:45pm"}, {"days": "Sat", "time": "10:45am"}, {"days": "Sun", "time": "Closed"}], "id": "2944900002", "name": "USPS COLLECTION BOX - PO LOBBY", "address": {"city": "HOLLYWOOD", "state": "SC", "street": "6345 HIGHWAY 162", "postcode": "29449"}}},
{"geometry": {"type": "Point", "coordinates": [-80.2500551168, 32.7332474111]}, "type": "Feature", "properties": {"collection_times": [{"days": "Mon-Fri", "time": "3:45pm"}, {"days": "Sat", "time": "10:45am"}, {"days": "Sun", "time": "Closed"}], "id": "2944900003", "name": "USPS COLLECTION BOX - BLUE BOX", "address": {"city": "HOLLYWOOD", "state": "SC", "street": "6435 HIGHWAY 162", "postcode": "29449"}}},
{"geometry": {"type": "Point", "coordinates": [-79.8143675871, 32.982936815]}, "type": "Feature", "properties": {"collection_times": [{"days": "Mon-Fri", "time": "3:45pm"}, {"days": "Sat", "time": "10:00am"}, {"days": "Sun", "time": "Closed"}], "id": "2945000001", "name": "USPS COLLECTION BOX - BLUE BOX", "address": {"city": "HUGER", "state": "SC", "street": "3282 HIGHWAY 41", "postcode": "29450"}}},
{"geometry": {"type": "Point", "coordinates": [-79.8143675871, 32.982936815]}, "type": "Feature", "properties": {"collection_times": [{"days": "Mon-Fri", "time": "3:45pm"}, {"days": "Sat", "time": "10:00am"}, {"days": "Sun", "time": "Closed"}], "id": "2945000002", "name": "USPS COLLECTION BOX - PO LOBBY", "address": {"city": "HUGER", "state": "SC", "street": "3282 HIGHWAY 41", "postcode": "29450"}}},
{"geometry": {"type": "Point", "coordinates": [-79.8143675871, 32.982936815]}, "type": "Feature", "properties": {"collection_times": [{"days": "Mon-Fri", "time": "3:45pm"}, {"days": "Sat", "time": "10:00am"}, {"days": "Sun", "time": "Closed"}], "id": "2945000005", "name": "USPS COLLECTION BOX - PO LOBBY", "address": {"city": "HUGER", "state": "SC", "street": "3282 HIGHWAY 41", "postcode": "29450"}}},
{"geometry": {"type": "Point", "coordinates": [-79.7919413629, 32.7862943958]}, "type": "Feature", "properties": {"collection_times": [{"days": "Mon-Fri", "time": "5:00pm"}, {"days": "Sat", "time": "2:30pm"}, {"days": "Sun", "time": "Closed"}], "id": "2945100003", "name": "USPS COLLECTION BOX - BLUE BOX", "address": {"city": "ISLE OF PALMS", "state": "SC", "street": "1000 PALM BLVD", "postcode": "29451"}}},
{"geometry": {"type": "Point", "coordinates": [-79.7919413629, 32.7862943958]}, "type": "Feature", "properties": {"collection_times": [{"days": "Mon-Fri", "time": "5:00pm"}, {"days": "Sat", "time": "2:30pm"}, {"days": "Sun", "time": "Closed"}], "id": "2945100007", "name": "USPS COLLECTION BOX - PO LOBBY", "address": {"city": "ISLE OF PALMS", "state": "SC", "street": "1000 PALM BLVD", "postcode": "29451"}}},
{"geometry": {"type": "Point", "coordinates": [-79.7919413629, 32.7862943958]}, "type": "Feature", "properties": {"collection_times": [{"days": "Mon-Fri", "time": "5:00pm"}, {"days": "Sat", "time": "2:30pm"}, {"days": "Sun", "time": "Closed"}], "id": "2945100008", "name": "USPS COLLECTION BOX - PO LOBBY", "address": {"city": "ISLE OF PALMS", "state": "SC", "street": "1000 PALM BLVD", "postcode": "29451"}}},
{"geometry": {"type": "Point", "coordinates": [-80.4604582513, 32.7741876905]}, "type": "Feature", "properties": {"collection_times": [{"days": "Mon-Fri", "time": "3:45pm"}, {"days": "Sat", "time": "9:45am"}, {"days": "Sun", "time": "Closed"}], "id": "2945200001", "name": "USPS COLLECTION BOX - BLUE BOX", "address": {"city": "JACKSONBORO", "state": "SC", "street": "16534 ACE BASIN PKWY", "postcode": "29452"}}},
{"geometry": {"type": "Point", "coordinates": [-80.4604582513, 32.7741876905]}, "type": "Feature", "properties": {"collection_times": [{"days": "Mon-Fri", "time": "3:45pm"}, {"days": "Sat", "time": "9:45am"}, {"days": "Sun", "time": "Closed"}], "id": "2945200002", "name": "USPS COLLECTION BOX - PO LOBBY", "address": {"city": "JACKSONBORO", "state": "SC", "street": "16534 ACE BASIN PKWY", "postcode": "29452"}}},
{"geometry": {"type": "Point", "coordinates": [-79.6965377764, 33.2870306125]}, "type": "Feature", "properties": {"collection_times": [{"days": "Mon-Fri", "time": "3:45pm"}, {"days": "Sat", "time": "9:45am"}, {"days": "Sun", "time": "Closed"}], "id": "2945300001", "name": "USPS COLLECTION BOX - PO LOBBY", "address": {"city": "JAMESTOWN", "state": "SC", "street": "4354 N HIGHWAY 17A", "postcode": "29453"}}},
{"geometry": {"type": "Point", "coordinates": [-79.6965377764, 33.2870306125]}, "type": "Feature", "properties": {"collection_times": [{"days": "Mon-Fri", "time": "3:45pm"}, {"days": "Sat", "time": "9:45am"}, {"days": "Sun", "time": "Closed"}], "id": "2945300002", "name": "USPS COLLECTION BOX - BLUE BOX", "address": {"city": "JAMESTOWN", "state": "SC", "street": "4354 N HIGHWAY 17A", "postcode": "29453"}}},
{"geometry": {"type": "Point", "coordinates": [-80.1551560991, 32.6057156892]}, "type": "Feature", "properties": {"collection_times": [{"days": "Mon-Fri", "time": "12:00pm"}, {"days": "Sat-Sun", "time": "Closed"}], "id": "2945500001", "name": "USPS COLLECTION BOX - BLUE BOX", "address": {"city": "JOHNS ISLAND", "state": "SC", "street": "1889 ANDELL BLUFF BLVD", "postcode": "29455"}}},
{"geometry": {"type": "Point", "coordinates": [-80.0414983107, 32.7419539314]}, "type": "Feature", "properties": {"collection_times": [{"days": "Mon-Fri", "time": "4:45pm"}, {"days": "Sat", "time": "12:00pm"}, {"days": "Sun", "time": "Closed"}], "id": "2945500002", "name": "USPS COLLECTION BOX - BLUE BOX", "address": {"city": "JOHNS ISLAND", "state": "SC", "street": "2860 MAYBANK HWY", "postcode": "29455"}}},
{"geometry": {"type": "Point", "coordinates": [-80.1480480538, 32.6069634135]}, "type": "Feature", "properties": {"collection_times": [{"days": "Mon-Fri", "time": "12:00pm"}, {"days": "Sat-Sun", "time": "Closed"}], "id": "2945500003", "name": "USPS COLLECTION BOX - BLUE BOX", "address": {"city": "JOHNS ISLAND", "state": "SC", "street": "515 FRESHFIELDS DR", "postcode": "29455"}}},
{"geometry": {"type": "Point", "coordinates": [-80.0371447853, 32.7444002375]}, "type": "Feature", "properties": {"collection_times": [{"days": "Mon-Fri", "time": "11:00am"}, {"days": "Sat-Sun", "time": "Closed"}], "id": "2945500005", "name": "USPS COLLECTION BOX - BLUE BOX", "address": {"city": "JOHNS ISLAND", "state": "SC", "street": "2770 MAYBANK HWY", "postcode": "29455"}}},
{"geometry": {"type": "Point", "coordinates": [-80.0414983107, 32.7419539314]}, "type": "Feature", "properties": {"collection_times": [{"days": "Mon-Fri", "time": "4:45pm"}, {"days": "Sat", "time": "12:00pm"}, {"days": "Sun", "time": "Closed"}], "id": "2945500006", "name": "USPS COLLECTION BOX - BLUE BOX", "address": {"city": "JOHNS ISLAND", "state": "SC", "street": "2860 MAYBANK HWY", "postcode": "29455"}}},
{"geometry": {"type": "Point", "coordinates": [-80.0414983107, 32.7419539314]}, "type": "Feature", "properties": {"collection_times": [{"days": "Mon-Fri", "time": "4:45pm"}, {"days": "Sat", "time": "12:00pm"}, {"days": "Sun", "time": "Closed"}], "id": "2945500008", "name": "USPS COLLECTION BOX - PO LOBBY", "address": {"city": "JOHNS ISLAND", "state": "SC", "street": "2860 MAYBANK HWY", "postcode": "29455"}}},
{"geometry": {"type": "Point", "coordinates": [-80.0414983107, 32.7419539314]}, "type": "Feature", "properties": {"collection_times": [{"days": "Mon-Fri", "time": "4:45pm"}, {"days": "Sat", "time": "12:00pm"}, {"days": "Sun", "time": "Closed"}], "id": "2945500009", "name": "USPS COLLECTION BOX - PO LOBBY", "address": {"city": "JOHNS ISLAND", "state": "SC", "street": "2860 MAYBANK HWY", "postcode": "29455"}}},
{"geometry": {"type": "Point", "coordinates": [-80.080193845, 32.7216199967]}, "type": "Feature", "properties": {"collection_times": [{"days": "Mon-Fri", "time": "12:00pm"}, {"days": "Sat-Sun", "time": "Closed"}], "id": "2945500010", "name": "USPS COLLECTION BOX - BLUE BOX", "address": {"city": "JOHNS ISLAND", "state": "SC", "street": "3575 MAYBANK HWY", "postcode": "29455"}}},
{"geometry": {"type": "Point", "coordinates": [-80.1366706719, 32.6478021743]}, "type": "Feature", "properties": {"collection_times": [{"days": "Mon-Fri", "time": "12:00pm"}, {"days": "Sat-Sun", "time": "Closed"}], "id": "2945500011", "name": "USPS COLLECTION BOX - BLUE BOX", "address": {"city": "JOHNS ISLAND", "state": "SC", "street": "3714 BOHICKET RD", "postcode": "29455"}}},
{"geometry": {"type": "Point", "coordinates": [-80.0957329299, 32.6005814735]}, "type": "Feature", "properties": {"collection_times": [{"days": "Mon-Fri", "time": "12:00pm"}, {"days": "Sat-Sun", "time": "Closed"}], "id": "2945500012", "name": "USPS COLLECTION BOX - BLUE BOX", "address": {"city": "JOHNS ISLAND", "state": "SC", "street": "5480 SEA FOREST DR", "postcode": "29455"}}},
{"geometry": {"type": "Point", "coordinates": [-80.099040547, 32.9878529839]}, "type": "Feature", "properties": {"collection_times": [{"days": "Mon-Fri", "time": "3:45pm"}, {"days": "Sat", "time": "10:45am"}, {"days": "Sun", "time": "Closed"}], "id": "2945600011", "name": "USPS COLLECTION BOX - PO LOBBY", "address": {"city": "LADSON", "state": "SC", "street": "3213 LADSON RD", "postcode": "29456"}}},
{"geometry": {"type": "Point", "coordinates": [-80.099040547, 32.9878529839]}, "type": "Feature", "properties": {"collection_times": [{"days": "Mon-Fri", "time": "3:45pm"}, {"days": "Sat", "time": "10:45am"}, {"days": "Sun", "time": "Closed"}], "id": "2945600012", "name": "USPS COLLECTION BOX - PO LOBBY", "address": {"city": "LADSON", "state": "SC", "street": "3213 LADSON RD", "postcode": "29456"}}},
{"geometry": {"type": "Point", "coordinates": [-80.099040547, 32.9878529839]}, "type": "Feature", "properties": {"collection_times": [{"days": "Mon-Fri", "time": "3:45pm"}, {"days": "Sat", "time": "10:45am"}, {"days": "Sun", "time": "Closed"}], "id": "2945600017", "name": "USPS COLLECTION BOX - BLUE BOX", "address": {"city": "LADSON", "state": "SC", "street": "3213 LADSON RD", "postcode": "29456"}}},
{"geometry": {"type": "Point", "coordinates": [-80.099040547, 32.9878529839]}, "type": "Feature", "properties": {"collection_times": [{"days": "Mon-Fri", "time": "3:45pm"}, {"days": "Sat", "time": "10:45am"}, {"days": "Sun", "time": "Closed"}], "id": "2945600018", "name": "USPS COLLECTION BOX - BLUE BOX", "address": {"city": "LADSON", "state": "SC", "street": "3213 LADSON RD", "postcode": "29456"}}},
{"geometry": {"type": "Point", "coordinates": [-79.464844181, 33.0926246655]}, "type": "Feature", "properties": {"collection_times": [{"days": "Mon-Fri", "time": "3:45pm"}, {"days": "Sat", "time": "9:45am"}, {"days": "Sun", "time": "Closed"}], "id": "2945800001", "name": "USPS COLLECTION BOX - PO LOBBY", "address": {"city": "MC CLELLANVILLE", "state": "SC", "street": "959 PINCKNEY ST", "postcode": "29458"}}},
{"geometry": {"type": "Point", "coordinates": [-79.464844181, 33.0926246655]}, "type": "Feature", "properties": {"collection_times": [{"days": "Mon-Fri", "time": "3:45pm"}, {"days": "Sat", "time": "9:45am"}, {"days": "Sun", "time": "Closed"}], "id": "2945800002", "name": "USPS COLLECTION BOX - PO LOBBY", "address": {"city": "MC CLELLANVILLE", "state": "SC", "street": "959 PINCKNEY ST", "postcode": "29458"}}},
{"geometry": {"type": "Point", "coordinates": [-79.464844181, 33.0926246655]}, "type": "Feature", "properties": {"collection_times": [{"days": "Mon-Fri", "time": "3:45pm"}, {"days": "Sat", "time": "9:45am"}, {"days": "Sun", "time": "Closed"}], "id": "2945800004", "name": "USPS COLLECTION BOX - BLUE BOX", "address": {"city": "MC CLELLANVILLE", "state": "SC", "street": "959 PINCKNEY ST", "postcode": "29458"}}},
{"geometry": {"type": "Point", "coordinates": [-80.0181393666, 33.2003315499]}, "type": "Feature", "properties": {"collection_times": [{"days": "Mon-Sat", "time": "1:30pm"}, {"days": "Sun", "time": "Closed"}], "id": "2946100001", "name": "USPS COLLECTION BOX - BLUE BOX", "address": {"city": "MONCKS CORNER", "state": "SC", "street": "300 CALIFORNIA AVE STE B", "postcode": "29461"}}},
{"geometry": {"type": "Point", "coordinates": [-79.9954916172, 33.1936584784]}, "type": "Feature", "properties": {"collection_times": [{"days": "Mon-Fri", "time": "5:00pm"}, {"days": "Sat", "time": "11:45am"}, {"days": "Sun", "time": "Closed"}], "id": "2946100003", "name": "USPS COLLECTION BOX - BLUE BOX", "address": {"city": "MONCKS CORNER", "state": "SC", "street": "117 N HIGHWAY 52", "postcode": "29461"}}},
{"geometry": {"type": "Point", "coordinates": [-79.9954916172, 33.1936584784]}, "type": "Feature", "properties": {"collection_times": [{"days": "Mon-Fri", "time": "5:00pm"}, {"days": "Sat", "time": "11:45am"}, {"days": "Sun", "time": "Closed"}], "id": "2946100004", "name": "USPS COLLECTION BOX - BLUE BOX", "address": {"city": "MONCKS CORNER", "state": "SC", "street": "117 N HIGHWAY 52", "postcode": "29461"}}},
{"geometry": {"type": "Point", "coordinates": [-80.0053480313, 33.192804382]}, "type": "Feature", "properties": {"collection_times": [{"days": "Mon-Sat", "time": "1:30pm"}, {"days": "Sun", "time": "Closed"}], "id": "2946100011", "name": "USPS COLLECTION BOX - BLUE BOX", "address": {"city": "MONCKS CORNER", "state": "SC", "street": "337 E MAIN ST", "postcode": "29461"}}},
{"geometry": {"type": "Point", "coordinates": [-79.9954916172, 33.1936584784]}, "type": "Feature", "properties": {"collection_times": [{"days": "Mon-Fri", "time": "4:45pm"}, {"days": "Sat", "time": "11:45am"}, {"days": "Sun", "time": "Closed"}], "id": "2946100012", "name": "USPS COLLECTION BOX - PO LOBBY", "address": {"city": "MONCKS CORNER", "state": "SC", "street": "117 N HIGHWAY 52", "postcode": "29461"}}},
{"geometry": {"type": "Point", "coordinates": [-79.9954916172, 33.1936584784]}, "type": "Feature", "properties": {"collection_times": [{"days": "Mon-Fri", "time": "4:45pm"}, {"days": "Sat", "time": "11:45am"}, {"days": "Sun", "time": "Closed"}], "id": "2946100013", "name": "USPS COLLECTION BOX - PO LOBBY", "address": {"city": "MONCKS CORNER", "state": "SC", "street": "117 N HIGHWAY 52", "postcode": "29461"}}},
{"geometry": {"type": "Point", "coordinates": [-79.8581240563, 32.8409616289]}, "type": "Feature", "properties": {"collection_times": [{"days": "Mon-Sat", "time": "12:30pm"}, {"days": "Sun", "time": "Closed"}], "id": "2946400002", "name": "USPS COLLECTION BOX - BLUE BOX", "address": {"city": "MOUNT PLEASANT", "state": "SC", "street": "620 LONG POINT RD", "postcode": "29464"}}},
{"geometry": {"type": "Point", "coordinates": [-79.8603897808, 32.8125728093]}, "type": "Feature", "properties": {"collection_times": [{"days": "Mon-Sat", "time": "2:45pm"}, {"days": "Sun", "time": "Closed"}], "id": "2946400003", "name": "USPS COLLECTION BOX - BLUE BOX", "address": {"city": "MOUNT PLEASANT", "state": "SC", "street": "1220 BEN SAWYER BLVD", "postcode": "29464"}}},
{"geometry": {"type": "Point", "coordinates": [-79.867961543, 32.784255308]}, "type": "Feature", "properties": {"collection_times": [{"days": "Mon-Sat", "time": "2:30pm"}, {"days": "Sun", "time": "Closed"}], "id": "2946400005", "name": "USPS COLLECTION BOX - BLUE BOX", "address": {"city": "MOUNT PLEASANT", "state": "SC", "street": "507 MCCANTS DR", "postcode": "29464"}}},
{"geometry": {"type": "Point", "coordinates": [-79.8679261661, 32.8414549616]}, "type": "Feature", "properties": {"collection_times": [{"days": "Mon-Sat", "time": "12:30pm"}, {"days": "Sun", "time": "Closed"}], "id": "2946400006", "name": "USPS COLLECTION BOX - BLUE BOX", "address": {"city": "MOUNT PLEASANT", "state": "SC", "street": "501 WANDO PARK BLVD", "postcode": "29464"}}},
{"geometry": {"type": "Point", "coordinates": [-79.8903116368, 32.8033969575]}, "type": "Feature", "properties": {"collection_times": [{"days": "Mon-Sat", "time": "1:30pm"}, {"days": "Sun", "time": "Closed"}], "id": "2946400007", "name": "USPS COLLECTION BOX - BLUE BOX", "address": {"city": "MOUNT PLEASANT", "state": "SC", "street": "923 HOUSTON NORTHCUTT BLVD", "postcode": "29464"}}},
{"geometry": {"type": "Point", "coordinates": [-79.8746736522, 32.8090584086]}, "type": "Feature", "properties": {"collection_times": [{"days": "Mon-Sat", "time": "1:15pm"}, {"days": "Sun", "time": "Closed"}], "id": "2946400008", "name": "USPS COLLECTION BOX - BLUE BOX", "address": {"city": "MOUNT PLEASANT", "state": "SC", "street": "735 JOHNNIE DODDS BLVD", "postcode": "29464"}}},
{"geometry": {"type": "Point", "coordinates": [-79.8572582911, 32.8211417936]}, "type": "Feature", "properties": {"collection_times": [{"days": "Mon-Sat", "time": "12:30pm"}, {"days": "Sun", "time": "Closed"}], "id": "2946400010", "name": "USPS COLLECTION BOX - BLUE BOX", "address": {"city": "MOUNT PLEASANT", "state": "SC", "street": "1100 QUEENSBOROUGH BLVD", "postcode": "29464"}}},
{"geometry": {"type": "Point", "coordinates": [-79.8723279058, 32.8102412125]}, "type": "Feature", "properties": {"collection_times": [{"days": "Mon-Sat", "time": "12:45pm"}, {"days": "Sun", "time": "Closed"}], "id": "2946400013", "name": "USPS COLLECTION BOX - BLUE BOX", "address": {"city": "MOUNT PLEASANT", "state": "SC", "street": "800 JOHNNIE DODDS BLVD", "postcode": "29464"}}},
{"geometry": {"type": "Point", "coordinates": [-79.8742359574, 32.7909626853]}, "type": "Feature", "properties": {"collection_times": [{"days": "Mon-Sat", "time": "2:30pm"}, {"days": "Sun", "time": "Closed"}], "id": "2946400014", "name": "USPS COLLECTION BOX - BLUE BOX", "address": {"city": "MOUNT PLEASANT", "state": "SC", "street": "602 COLEMAN BLVD", "postcode": "29464"}}},
{"geometry": {"type": "Point", "coordinates": [-79.8539399304, 32.7920107869]}, "type": "Feature", "properties": {"collection_times": [{"days": "Mon-Sat", "time": "2:30pm"}, {"days": "Sun", "time": "Closed"}], "id": "2946400017", "name": "USPS COLLECTION BOX - BLUE BOX", "address": {"city": "MOUNT PLEASANT", "state": "SC", "street": "1440 BEN SAWYER BLVD", "postcode": "29464"}}},
{"geometry": {"type": "Point", "coordinates": [-79.8624731417, 32.8122418055]}, "type": "Feature", "properties": {"collection_times": [{"days": "Mon-Fri", "time": "5:00pm"}, {"days": "Sat", "time": "4:00pm"}, {"days": "Sun", "time": "Closed"}], "id": "2946400018", "name": "USPS COLLECTION BOX - BLUE BOX", "address": {"city": "MOUNT PLEASANT", "state": "SC", "street": "1050 JOHNNIE DODDS BLVD", "postcode": "29464"}}},
{"geometry": {"type": "Point", "coordinates": [-79.8275516648, 32.8326383296]}, "type": "Feature", "properties": {"collection_times": [{"days": "Mon-Sat", "time": "12:00pm"}, {"days": "Sun", "time": "Closed"}], "id": "2946400023", "name": "USPS COLLECTION BOX - BLUE BOX", "address": {"city": "MOUNT PLEASANT", "state": "SC", "street": "1909 N HIGHWAY 17", "postcode": "29464"}}},
{"geometry": {"type": "Point", "coordinates": [-79.8899728605, 32.7973329193]}, "type": "Feature", "properties": {"collection_times": [{"days": "Mon-Sat", "time": "2:15pm"}, {"days": "Sun", "time": "Closed"}], "id": "2946400025", "name": "USPS COLLECTION BOX - BLUE BOX", "address": {"city": "MOUNT PLEASANT", "state": "SC", "street": "300 W COLEMAN BLVD", "postcode": "29464"}}},
{"geometry": {"type": "Point", "coordinates": [-79.8942670015, 32.7974535811]}, "type": "Feature", "properties": {"collection_times": [{"days": "Mon-Sat", "time": "2:00pm"}, {"days": "Sun", "time": "Closed"}], "id": "2946400031", "name": "USPS COLLECTION BOX - BLUE BOX", "address": {"city": "MOUNT PLEASANT", "state": "SC", "street": "222 W COLEMAN BLVD", "postcode": "29464"}}},
{"geometry": {"type": "Point", "coordinates": [-79.8624731417, 32.8122418055]}, "type": "Feature", "properties": {"collection_times": [{"days": "Mon-Fri", "time": "5:00pm"}, {"days": "Sat", "time": "4:00pm"}, {"days": "Sun", "time": "Closed"}], "id": "2946400033", "name": "USPS COLLECTION BOX - PO LOBBY", "address": {"city": "MOUNT PLEASANT", "state": "SC", "street": "1050 JOHNNIE DODDS BLVD", "postcode": "29464"}}},
{"geometry": {"type": "Point", "coordinates": [-79.8624731417, 32.8122418055]}, "type": "Feature", "properties": {"collection_times": [{"days": "Mon-Fri", "time": "5:00pm"}, {"days": "Sat", "time": "4:00pm"}, {"days": "Sun", "time": "Closed"}], "id": "2946400034", "name": "USPS COLLECTION BOX - PO LOBBY", "address": {"city": "MOUNT PLEASANT", "state": "SC", "street": "1050 JOHNNIE DODDS BLVD", "postcode": "29464"}}},
{"geometry": {"type": "Point", "coordinates": [-79.8974387734, 32.8016821371]}, "type": "Feature", "properties": {"collection_times": [{"days": "Mon-Sat", "time": "12:15pm"}, {"days": "Sun", "time": "Closed"}], "id": "2946400047", "name": "USPS COLLECTION BOX - BLUE BOX", "address": {"city": "MOUNT PLEASANT", "state": "SC", "street": "2884 N HIGHWAY 17", "postcode": "29464"}}},
{"geometry": {"type": "Point", "coordinates": [-79.8793084854, 32.8127232155]}, "type": "Feature", "properties": {"collection_times": [{"days": "Mon-Sat", "time": "1:00pm"}, {"days": "Sun", "time": "Closed"}], "id": "2946400048", "name": "USPS COLLECTION BOX - BLUE BOX", "address": {"city": "MOUNT PLEASANT", "state": "SC", "street": "10 RESOLUTE LN", "postcode": "29464"}}},
{"geometry": {"type": "Point", "coordinates": [-79.7831245429, 32.8817318761]}, "type": "Feature", "properties": {"collection_times": [{"days": "Mon-Sat", "time": "12:15pm"}, {"days": "Sun", "time": "Closed"}], "id": "2946400051", "name": "USPS COLLECTION BOX - BLUE BOX", "address": {"city": "MOUNT PLEASANT", "state": "SC", "street": "1125 PARK WEST BLVD", "postcode": "29464"}}},
{"geometry": {"type": "Point", "coordinates": [-79.8624731417, 32.8122418055]}, "type": "Feature", "properties": {"collection_times": [{"days": "Mon-Fri", "time": "5:00pm"}, {"days": "Sat", "time": "3:30pm"}, {"days": "Sun", "time": "Closed"}], "id": "2946400053", "name": "USPS COLLECTION BOX - APC", "address": {"city": "MOUNT PLEASANT", "state": "SC", "street": "1050 JOHNNIE DODDS BLVD", "postcode": "29464"}}},
{"geometry": {"type": "Point", "coordinates": [-79.8991086049, 32.8030128867]}, "type": "Feature", "properties": {"collection_times": [{"days": "Mon-Sat", "time": "1:30pm"}, {"days": "Sun", "time": "Closed"}], "id": "2946400059", "name": "USPS COLLECTION BOX - BLUE BOX", "address": {"city": "MOUNT PLEASANT", "state": "SC", "street": "180 WINGO WAY", "postcode": "29464"}}},
{"geometry": {"type": "Point", "coordinates": [-80.0244622823, 33.4303934094]}, "type": "Feature", "properties": {"collection_times": [{"days": "Mon-Fri", "time": "3:45pm"}, {"days": "Sat", "time": "9:45am"}, {"days": "Sun", "time": "Closed"}], "id": "2946800001", "name": "USPS COLLECTION BOX - BLUE BOX", "address": {"city": "PINEVILLE", "state": "SC", "street": "2080 HIGHWAY 45", "postcode": "29468"}}},
{"geometry": {"type": "Point", "coordinates": [-80.0244622823, 33.4303934094]}, "type": "Feature", "properties": {"collection_times": [{"days": "Mon-Fri", "time": "3:45pm"}, {"days": "Sat", "time": "9:45am"}, {"days": "Sun", "time": "Closed"}], "id": "2946800002", "name": "USPS COLLECTION BOX - PO LOBBY", "address": {"city": "PINEVILLE", "state": "SC", "street": "2080 HIGHWAY 45", "postcode": "29468"}}},
{"geometry": {"type": "Point", "coordinates": [-80.0367165542, 33.2306779963]}, "type": "Feature", "properties": {"collection_times": [{"days": "Mon-Fri", "time": "3:45pm"}, {"days": "Sat", "time": "9:45am"}, {"days": "Sun", "time": "Closed"}], "id": "2946900001", "name": "USPS COLLECTION BOX - BLUE BOX", "address": {"city": "PINOPOLIS", "state": "SC", "street": "1940 PINOPOLIS RD", "postcode": "29469"}}},
{"geometry": {"type": "Point", "coordinates": [-80.0367165542, 33.2306779963]}, "type": "Feature", "properties": {"collection_times": [{"days": "Mon-Fri", "time": "3:45pm"}, {"days": "Sat", "time": "9:45am"}, {"days": "Sun", "time": "Closed"}], "id": "2946900002", "name": "USPS COLLECTION BOX - PO LOBBY", "address": {"city": "PINOPOLIS", "state": "SC", "street": "1940 PINOPOLIS RD", "postcode": "29469"}}},
{"geometry": {"type": "Point", "coordinates": [-80.2452271823, 32.7767587706]}, "type": "Feature", "properties": {"collection_times": [{"days": "Mon-Fri", "time": "3:45pm"}, {"days": "Sat", "time": "10:45am"}, {"days": "Sun", "time": "Closed"}], "id": "2947000001", "name": "USPS COLLECTION BOX - BLUE BOX", "address": {"city": "RAVENEL", "state": "SC", "street": "6239 SAVANNAH HWY", "postcode": "29470"}}},
{"geometry": {"type": "Point", "coordinates": [-80.2452271823, 32.7767587706]}, "type": "Feature", "properties": {"collection_times": [{"days": "Mon-Fri", "time": "3:45pm"}, {"days": "Sat", "time": "10:45am"}, {"days": "Sun", "time": "Closed"}], "id": "2947000002", "name": "USPS COLLECTION BOX - PO LOBBY", "address": {"city": "RAVENEL", "state": "SC", "street": "6239 SAVANNAH HWY", "postcode": "29470"}}},
{"geometry": {"type": "Point", "coordinates": [-80.2452271823, 32.7767587706]}, "type": "Feature", "properties": {"collection_times": [{"days": "Mon-Fri", "time": "3:45pm"}, {"days": "Sat", "time": "10:45am"}, {"days": "Sun", "time": "Closed"}], "id": "2947000003", "name": "USPS COLLECTION BOX - PO LOBBY", "address": {"city": "RAVENEL", "state": "SC", "street": "6239 SAVANNAH HWY", "postcode": "29470"}}},
{"geometry": {"type": "Point", "coordinates": [-80.2452271823, 32.7767587706]}, "type": "Feature", "properties": {"collection_times": [{"days": "Mon-Fri", "time": "3:45pm"}, {"days": "Sat", "time": "10:45am"}, {"days": "Sun", "time": "Closed"}], "id": "2947000005", "name": "USPS COLLECTION BOX - PO LOBBY", "address": {"city": "RAVENEL", "state": "SC", "street": "6239 SAVANNAH HWY", "postcode": "29470"}}},
{"geometry": {"type": "Point", "coordinates": [-80.646877013, 33.2038911411]}, "type": "Feature", "properties": {"collection_times": [{"days": "Mon-Fri", "time": "3:45pm"}, {"days": "Sat", "time": "9:45am"}, {"days": "Sun", "time": "Closed"}], "id": "2947100001", "name": "USPS COLLECTION BOX - BLUE BOX", "address": {"city": "REEVESVILLE", "state": "SC", "street": "108 RIGBY ST", "postcode": "29471"}}},
{"geometry": {"type": "Point", "coordinates": [-80.64665, 33.20476]}, "type": "Feature", "properties": {"collection_times": [{"days": "Mon-Fri", "time": "3:45pm"}, {"days": "Sat", "time": "9:45am"}, {"days": "Sun", "time": "Closed"}], "id": "2947100003", "name": "USPS COLLECTION BOX - PO LOBBY", "address": {"city": "REEVESVILLE", "state": "SC", "street": "108 RIGBY ST", "postcode": "29471"}}},
{"geometry": {"type": "Point", "coordinates": [-80.3133338191, 33.0962238335]}, "type": "Feature", "properties": {"collection_times": [{"days": "Mon-Fri", "time": "3:45pm"}, {"days": "Sat", "time": "9:45am"}, {"days": "Sun", "time": "Closed"}], "id": "2947200001", "name": "USPS COLLECTION BOX - BLUE BOX", "address": {"city": "RIDGEVILLE", "state": "SC", "street": "185 CHURCH ST", "postcode": "29472"}}},
{"geometry": {"type": "Point", "coordinates": [-80.3133338191, 33.0962238335]}, "type": "Feature", "properties": {"collection_times": [{"days": "Mon-Fri", "time": "3:45pm"}, {"days": "Sat", "time": "9:45am"}, {"days": "Sun", "time": "Closed"}], "id": "2947200002", "name": "USPS COLLECTION BOX - PO LOBBY", "address": {"city": "RIDGEVILLE", "state": "SC", "street": "185 CHURCH ST", "postcode": "29472"}}},
{"geometry": {"type": "Point", "coordinates": [-80.3133338191, 33.0962238335]}, "type": "Feature", "properties": {"collection_times": [{"days": "Mon-Fri", "time": "3:45pm"}, {"days": "Sat", "time": "9:45am"}, {"days": "Sun", "time": "Closed"}], "id": "2947200003", "name": "USPS COLLECTION BOX - PO LOBBY", "address": {"city": "RIDGEVILLE", "state": "SC", "street": "185 CHURCH ST", "postcode": "29472"}}},
{"geometry": {"type": "Point", "coordinates": [-80.5401060884, 32.9369922388]}, "type": "Feature", "properties": {"collection_times": [{"days": "Mon-Fri", "time": "3:45pm"}, {"days": "Sat", "time": "9:45am"}, {"days": "Sun", "time": "Closed"}], "id": "2947400001", "name": "USPS COLLECTION BOX - PO LOBBY", "address": {"city": "ROUND O", "state": "SC", "street": "11110 ROUND O RD", "postcode": "29474"}}},
{"geometry": {"type": "Point", "coordinates": [-80.5401060884, 32.9369922388]}, "type": "Feature", "properties": {"collection_times": [{"days": "Mon-Fri", "time": "3:45pm"}, {"days": "Sat", "time": "9:45am"}, {"days": "Sun", "time": "Closed"}], "id": "2947400002", "name": "USPS COLLECTION BOX - BLUE BOX", "address": {"city": "ROUND O", "state": "SC", "street": "11110 ROUND O RD", "postcode": "29474"}}},
{"geometry": {"type": "Point", "coordinates": [-80.8205186812, 32.9433227145]}, "type": "Feature", "properties": {"collection_times": [{"days": "Mon-Fri", "time": "3:45pm"}, {"days": "Sat", "time": "9:45am"}, {"days": "Sun", "time": "Closed"}], "id": "2947500001", "name": "USPS COLLECTION BOX - BLUE BOX", "address": {"city": "RUFFIN", "state": "SC", "street": "21972 LOWCOUNTRY HWY", "postcode": "29475"}}},
{"geometry": {"type": "Point", "coordinates": [-80.8205186812, 32.9433227145]}, "type": "Feature", "properties": {"collection_times": [{"days": "Mon-Fri", "time": "3:45pm"}, {"days": "Sat", "time": "9:45am"}, {"days": "Sun", "time": "Closed"}], "id": "2947500002", "name": "USPS COLLECTION BOX - PO LOBBY", "address": {"city": "RUFFIN", "state": "SC", "street": "21972 LOWCOUNTRY HWY", "postcode": "29475"}}},
{"geometry": {"type": "Point", "coordinates": [-79.9721514919, 33.396848143]}, "type": "Feature", "properties": {"collection_times": [{"days": "Mon-Fri", "time": "3:45pm"}, {"days": "Sat", "time": "9:45am"}, {"days": "Sun", "time": "Closed"}], "id": "2947600001", "name": "USPS COLLECTION BOX - BLUE BOX", "address": {"city": "RUSSELLVILLE", "state": "SC", "street": "1737 HIGHWAY 35", "postcode": "29476"}}},
{"geometry": {"type": "Point", "coordinates": [-80.6015954922, 33.195129036]}, "type": "Feature", "properties": {"collection_times": [{"days": "Mon-Fri", "time": "3:45pm"}, {"days": "Sat", "time": "10:45am"}, {"days": "Sun", "time": "Closed"}], "id": "2947700001", "name": "USPS COLLECTION BOX - PO LOBBY", "address": {"city": "SAINT GEORGE", "state": "SC", "street": "5988 W JIM BILTON BLVD", "postcode": "29477"}}},
{"geometry": {"type": "Point", "coordinates": [-80.5773390778, 33.1842824103]}, "type": "Feature", "properties": {"collection_times": [{"days": "Mon-Fri", "time": "2:00pm"}, {"days": "Sat-Sun", "time": "Closed"}], "id": "2947700002", "name": "USPS COLLECTION BOX - BLUE BOX", "address": {"city": "SAINT GEORGE", "state": "SC", "street": "101 RIDGE ST", "postcode": "29477"}}},
{"geometry": {"type": "Point", "coordinates": [-80.6015954922, 33.195129036]}, "type": "Feature", "properties": {"collection_times": [{"days": "Mon-Fri", "time": "3:45pm"}, {"days": "Sat", "time": "10:45am"}, {"days": "Sun", "time": "Closed"}], "id": "2947700005", "name": "USPS COLLECTION BOX - BLUE BOX", "address": {"city": "SAINT GEORGE", "state": "SC", "street": "5988 W JIM BILTON BLVD", "postcode": "29477"}}},
{"geometry": {"type": "Point", "coordinates": [-80.5729066252, 33.1861816392]}, "type": "Feature", "properties": {"collection_times": [{"days": "Mon-Fri", "time": "2:00pm"}, {"days": "Sat-Sun", "time": "Closed"}], "id": "2947700012", "name": "USPS COLLECTION BOX - BLUE BOX", "address": {"city": "SAINT GEORGE", "state": "SC", "street": "310 N PARLER AVE", "postcode": "29477"}}},
{"geometry": {"type": "Point", "coordinates": [-80.6015954922, 33.195129036]}, "type": "Feature", "properties": {"collection_times": [{"days": "Mon-Fri", "time": "3:45pm"}, {"days": "Sat", "time": "10:45am"}, {"days": "Sun", "time": "Closed"}], "id": "2947700015", "name": "USPS COLLECTION BOX - PO LOBBY", "address": {"city": "SAINT GEORGE", "state": "SC", "street": "5988 W JIM BILTON BLVD", "postcode": "29477"}}},
{"geometry": {"type": "Point", "coordinates": [-80.5738031477, 33.1878365688]}, "type": "Feature", "properties": {"collection_times": [{"days": "Mon-Fri", "time": "2:00pm"}, {"days": "Sat-Sun", "time": "Closed"}], "id": "2947700016", "name": "USPS COLLECTION BOX - BLUE BOX", "address": {"city": "SAINT GEORGE", "state": "SC", "street": "200 W RAYSOR ST", "postcode": "29477"}}},
{"geometry": {"type": "Point", "coordinates": [-80.5738031477, 33.1878365688]}, "type": "Feature", "properties": {"collection_times": [{"days": "Mon-Fri", "time": "2:00pm"}, {"days": "Sat-Sun", "time": "Closed"}], "id": "2947700018", "name": "USPS COLLECTION BOX - BLUE BOX", "address": {"city": "SAINT GEORGE", "state": "SC", "street": "200 W RAYSOR ST", "postcode": "29477"}}},
{"geometry": {"type": "Point", "coordinates": [-79.9287644509, 33.4083217611]}, "type": "Feature", "properties": {"collection_times": [{"days": "Mon-Fri", "time": "3:45pm"}, {"days": "Sat", "time": "10:45am"}, {"days": "Sun", "time": "Closed"}], "id": "2947900001", "name": "USPS COLLECTION BOX - BLUE BOX", "address": {"city": "SAINT STEPHEN", "state": "SC", "street": "3981 BYRNES DR", "postcode": "29479"}}},
{"geometry": {"type": "Point", "coordinates": [-79.9287644509, 33.4083217611]}, "type": "Feature", "properties": {"collection_times": [{"days": "Mon-Fri", "time": "3:45pm"}, {"days": "Sat", "time": "10:45am"}, {"days": "Sun", "time": "Closed"}], "id": "2947900002", "name": "USPS COLLECTION BOX - PO LOBBY", "address": {"city": "SAINT STEPHEN", "state": "SC", "street": "3981 BYRNES DR", "postcode": "29479"}}},
{"geometry": {"type": "Point", "coordinates": [-79.9287644509, 33.4083217611]}, "type": "Feature", "properties": {"collection_times": [{"days": "Mon-Fri", "time": "3:45pm"}, {"days": "Sat", "time": "10:45am"}, {"days": "Sun", "time": "Closed"}], "id": "2947900003", "name": "USPS COLLECTION BOX - PO LOBBY", "address": {"city": "SAINT STEPHEN", "state": "SC", "street": "3981 BYRNES DR", "postcode": "29479"}}},
{"geometry": {"type": "Point", "coordinates": [-79.9287644509, 33.4083217611]}, "type": "Feature", "properties": {"collection_times": [{"days": "Mon-Fri", "time": "3:45pm"}, {"days": "Sat", "time": "10:45am"}, {"days": "Sun", "time": "Closed"}], "id": "2947900004", "name": "USPS COLLECTION BOX - PO LOBBY", "address": {"city": "SAINT STEPHEN", "state": "SC", "street": "3981 BYRNES DR", "postcode": "29479"}}},
{"geometry": {"type": "Point", "coordinates": [-80.8131691894, 33.0882292039]}, "type": "Feature", "properties": {"collection_times": [{"days": "Mon-Fri", "time": "11:15am"}, {"days": "Sat", "time": "9:45am"}, {"days": "Sun", "time": "Closed"}], "id": "2948100001", "name": "USPS COLLECTION BOX - BLUE BOX", "address": {"city": "SMOAKS", "state": "SC", "street": "27639 LOWCOUNTRY HWY", "postcode": "29481"}}},
{"geometry": {"type": "Point", "coordinates": [-80.8131691894, 33.0882292039]}, "type": "Feature", "properties": {"collection_times": [{"days": "Mon-Fri", "time": "11:15am"}, {"days": "Sat", "time": "9:45am"}, {"days": "Sun", "time": "Closed"}], "id": "2948100002", "name": "USPS COLLECTION BOX - PO LOBBY", "address": {"city": "SMOAKS", "state": "SC", "street": "27639 LOWCOUNTRY HWY", "postcode": "29481"}}},
{"geometry": {"type": "Point", "coordinates": [-79.8400247841, 32.761249122]}, "type": "Feature", "properties": {"collection_times": [{"days": "Mon-Fri", "time": "3:45pm"}, {"days": "Sat", "time": "9:45am"}, {"days": "Sun", "time": "Closed"}], "id": "2948200001", "name": "USPS COLLECTION BOX - BLUE BOX", "address": {"city": "SULLIVANS IS", "state": "SC", "street": "2061 MIDDLE ST", "postcode": "29482"}}},
{"geometry": {"type": "Point", "coordinates": [-79.8400247841, 32.761249122]}, "type": "Feature", "properties": {"collection_times": [{"days": "Mon-Fri", "time": "3:45pm"}, {"days": "Sat", "time": "9:45am"}, {"days": "Sun", "time": "Closed"}], "id": "2948200002", "name": "USPS COLLECTION BOX - PO LOBBY", "address": {"city": "SULLIVANS IS", "state": "SC", "street": "2061 MIDDLE ST", "postcode": "29482"}}},
{"geometry": {"type": "Point", "coordinates": [-80.2225715313, 32.990649639]}, "type": "Feature", "properties": {"collection_times": [{"days": "Mon-Fri", "time": "11:15am"}, {"days": "Sat", "time": "10:45am"}, {"days": "Sun", "time": "Closed"}], "id": "2948300002", "name": "USPS COLLECTION BOX - BLUE BOX", "address": {"city": "SUMMERVILLE", "state": "SC", "street": "1450 BOONE HILL RD", "postcode": "29483"}}},
{"geometry": {"type": "Point", "coordinates": [-80.171221931, 33.0252381105]}, "type": "Feature", "properties": {"collection_times": [{"days": "Mon-Sat", "time": "2:00pm"}, {"days": "Sun", "time": "Closed"}], "id": "2948300010", "name": "USPS COLLECTION BOX - BLUE BOX", "address": {"city": "SUMMERVILLE", "state": "SC", "street": "500 N MAIN ST", "postcode": "29483"}}},
{"geometry": {"type": "Point", "coordinates": [-80.1539525194, 33.0369873931]}, "type": "Feature", "properties": {"collection_times": [{"days": "Mon-Sat", "time": "2:00pm"}, {"days": "Sun", "time": "Closed"}], "id": "2948300019", "name": "USPS COLLECTION BOX - BLUE BOX", "address": {"city": "SUMMERVILLE", "state": "SC", "street": "1319 N MAIN ST", "postcode": "29483"}}},
{"geometry": {"type": "Point", "coordinates": [-80.2118529085, 33.0426928057]}, "type": "Feature", "properties": {"collection_times": [{"days": "Mon-Sat", "time": "9:15am"}, {"days": "Sun", "time": "Closed"}], "id": "2948300022", "name": "USPS COLLECTION BOX - BLUE BOX", "address": {"city": "SUMMERVILLE", "state": "SC", "street": "212 DEMING WAY", "postcode": "29483"}}},
{"geometry": {"type": "Point", "coordinates": [-80.1740356138, 33.0159413701]}, "type": "Feature", "properties": {"collection_times": [{"days": "Mon-Fri", "time": "4:15pm"}, {"days": "Sat", "time": "12:00pm"}, {"days": "Sun", "time": "Closed"}], "id": "2948300026", "name": "USPS COLLECTION BOX - PO LOBBY", "address": {"city": "SUMMERVILLE", "state": "SC", "street": "301 N GUM ST", "postcode": "29483"}}},
{"geometry": {"type": "Point", "coordinates": [-80.1740356138, 33.0159413701]}, "type": "Feature", "properties": {"collection_times": [{"days": "Mon-Fri", "time": "4:15pm"}, {"days": "Sat", "time": "12:00pm"}, {"days": "Sun", "time": "Closed"}], "id": "2948300028", "name": "USPS COLLECTION BOX - BLUE BOX", "address": {"city": "SUMMERVILLE", "state": "SC", "street": "301 N GUM ST", "postcode": "29483"}}},
{"geometry": {"type": "Point", "coordinates": [-80.1749735882, 33.0198848125]}, "type": "Feature", "properties": {"collection_times": [{"days": "Mon-Sat", "time": "2:45pm"}, {"days": "Sun", "time": "Closed"}], "id": "2948300029", "name": "USPS COLLECTION BOX - BLUE BOX", "address": {"city": "SUMMERVILLE", "state": "SC", "street": "100 S MAIN ST", "postcode": "29483"}}},
{"geometry": {"type": "Point", "coordinates": [-80.1295054895, 33.0421557408]}, "type": "Feature", "properties": {"collection_times": [{"days": "Mon-Sat", "time": "9:30am"}, {"days": "Sun", "time": "Closed"}], "id": "2948300031", "name": "USPS COLLECTION BOX - BLUE BOX", "address": {"city": "SUMMERVILLE", "state": "SC", "street": "1761 N MAIN ST", "postcode": "29483"}}},
{"geometry": {"type": "Point", "coordinates": [-80.1832584499, 33.0332642824]}, "type": "Feature", "properties": {"collection_times": [{"days": "Mon-Fri", "time": "4:15pm"}, {"days": "Sat", "time": "12:00pm"}, {"days": "Sun", "time": "Closed"}], "id": "2948300040", "name": "USPS COLLECTION BOX - EXPRESS", "address": {"city": "SUMMERVILLE", "state": "SC", "street": "301 N GUM ST", "postcode": "29483"}}},
{"geometry": {"type": "Point", "coordinates": [-80.2514419755, 33.0073940183]}, "type": "Feature", "properties": {"collection_times": [{"days": "Mon-Fri", "time": "10:45am"}, {"days": "Sat", "time": "9:15am"}, {"days": "Sun", "time": "Closed"}], "id": "2948300044", "name": "USPS COLLECTION BOX - BLUE BOX", "address": {"city": "SUMMERVILLE", "state": "SC", "street": "1605 CENTRAL AVE", "postcode": "29483"}}},
{"geometry": {"type": "Point", "coordinates": [-80.1945114503, 33.0696569833]}, "type": "Feature", "properties": {"collection_times": [{"days": "Mon-Sat", "time": "9:30am"}, {"days": "Sun", "time": "Closed"}], "id": "2948300048", "name": "USPS COLLECTION BOX - BLUE BOX", "address": {"city": "SUMMERVILLE", "state": "SC", "street": "420 CARNES XING", "postcode": "29483"}}},
{"geometry": {"type": "Point", "coordinates": [-80.1740356138, 33.0159413701]}, "type": "Feature", "properties": {"collection_times": [{"days": "Mon-Fri", "time": "4:15pm"}, {"days": "Sat", "time": "12:00pm"}, {"days": "Sun", "time": "Closed"}], "id": "2948300050", "name": "USPS COLLECTION BOX - PO LOBBY", "address": {"city": "SUMMERVILLE", "state": "SC", "street": "301 N GUM ST", "postcode": "29483"}}},
{"geometry": {"type": "Point", "coordinates": [-80.1740356138, 33.0159413701]}, "type": "Feature", "properties": {"collection_times": [{"days": "Mon-Fri", "time": "4:15pm"}, {"days": "Sat", "time": "12:00pm"}, {"days": "Sun", "time": "Closed"}], "id": "2948300051", "name": "USPS COLLECTION BOX - APC", "address": {"city": "SUMMERVILLE", "state": "SC", "street": "301 N GUM ST", "postcode": "29483"}}},
{"geometry": {"type": "Point", "coordinates": [-80.1839803096, 32.9596161693]}, "type": "Feature", "properties": {"collection_times": [{"days": "Mon-Fri", "time": "5:00pm"}, {"days": "Sat", "time": "4:00pm"}, {"days": "Sun", "time": "Closed"}], "id": "2948500003", "name": "USPS COLLECTION BOX - BLUE BOX", "address": {"city": "SUMMERVILLE", "state": "SC", "street": "10070 DORCHESTER RD", "postcode": "29485"}}},
{"geometry": {"type": "Point", "coordinates": [-80.1752969978, 32.9824247457]}, "type": "Feature", "properties": {"collection_times": [{"days": "Mon-Fri", "time": "2:45pm"}, {"days": "Sat", "time": "12:30pm"}, {"days": "Sun", "time": "Closed"}], "id": "2948500005", "name": "USPS COLLECTION BOX - BLUE BOX", "address": {"city": "SUMMERVILLE", "state": "SC", "street": "622 OLD TROLLEY RD", "postcode": "29485"}}},
{"geometry": {"type": "Point", "coordinates": [-80.183791518, 32.9992166992]}, "type": "Feature", "properties": {"collection_times": [{"days": "Mon-Fri", "time": "2:45pm"}, {"days": "Sat", "time": "12:15pm"}, {"days": "Sun", "time": "Closed"}], "id": "2948500006", "name": "USPS COLLECTION BOX - BLUE BOX", "address": {"city": "SUMMERVILLE", "state": "SC", "street": "680 BACONS BRIDGE RD", "postcode": "29485"}}},
{"geometry": {"type": "Point", "coordinates": [-80.1863579937, 32.9960314255]}, "type": "Feature", "properties": {"collection_times": [{"days": "Mon-Fri", "time": "2:45pm"}, {"days": "Sat", "time": "12:15pm"}, {"days": "Sun", "time": "Closed"}], "id": "2948500007", "name": "USPS COLLECTION BOX - BLUE BOX", "address": {"city": "SUMMERVILLE", "state": "SC", "street": "950 BACONS BRIDGE RD", "postcode": "29485"}}},
{"geometry": {"type": "Point", "coordinates": [-80.1569286574, 32.9647519298]}, "type": "Feature", "properties": {"collection_times": [{"days": "Mon-Fri", "time": "2:30pm"}, {"days": "Sat", "time": "12:00pm"}, {"days": "Sun", "time": "Closed"}], "id": "2948500008", "name": "USPS COLLECTION BOX - BLUE BOX", "address": {"city": "SUMMERVILLE", "state": "SC", "street": "295 MIDLAND PKWY", "postcode": "29485"}}},
{"geometry": {"type": "Point", "coordinates": [-80.1750256531, 32.9816191133]}, "type": "Feature", "properties": {"collection_times": [{"days": "Mon-Fri", "time": "2:30pm"}, {"days": "Sat", "time": "12:15pm"}, {"days": "Sun", "time": "Closed"}], "id": "2948500010", "name": "USPS COLLECTION BOX - BLUE BOX", "address": {"city": "SUMMERVILLE", "state": "SC", "street": "705 TROLLEY RD", "postcode": "29485"}}},
{"geometry": {"type": "Point", "coordinates": [-80.181095448, 32.995332544]}, "type": "Feature", "properties": {"collection_times": [{"days": "Mon-Fri", "time": "2:45pm"}, {"days": "Sat", "time": "12:15pm"}, {"days": "Sun", "time": "Closed"}], "id": "2948500015", "name": "USPS COLLECTION BOX - BLUE BOX", "address": {"city": "SUMMERVILLE", "state": "SC", "street": "100 MILES JAMISON RD", "postcode": "29485"}}},
{"geometry": {"type": "Point", "coordinates": [-80.1673459754, 32.9662977341]}, "type": "Feature", "properties": {"collection_times": [{"days": "Mon-Fri", "time": "2:30pm"}, {"days": "Sat", "time": "12:00pm"}, {"days": "Sun", "time": "Closed"}], "id": "2948500022", "name": "USPS COLLECTION BOX - BLUE BOX", "address": {"city": "SUMMERVILLE", "state": "SC", "street": "1575 OLD TROLLEY RD", "postcode": "29485"}}},
{"geometry": {"type": "Point", "coordinates": [-80.1740383482, 32.9753019091]}, "type": "Feature", "properties": {"collection_times": [{"days": "Mon-Fri", "time": "5:00pm"}, {"days": "Sat", "time": "4:00pm"}, {"days": "Sun", "time": "Closed"}], "id": "2948500023", "name": "USPS COLLECTION BOX - EXPRESS", "address": {"city": "SUMMERVILLE", "state": "SC", "street": "10070 DORCHESTER RD", "postcode": "29485"}}},
{"geometry": {"type": "Point", "coordinates": [-80.1839803096, 32.9596161693]}, "type": "Feature", "properties": {"collection_times": [{"days": "Mon-Fri", "time": "5:00pm"}, {"days": "Sat", "time": "4:00pm"}, {"days": "Sun", "time": "Closed"}], "id": "2948500024", "name": "USPS COLLECTION BOX - PO LOBBY", "address": {"city": "SUMMERVILLE", "state": "SC", "street": "10070 DORCHESTER RD", "postcode": "29485"}}},
{"geometry": {"type": "Point", "coordinates": [-80.1839803096, 32.9596161693]}, "type": "Feature", "properties": {"collection_times": [{"days": "Mon-Fri", "time": "5:00pm"}, {"days": "Sat", "time": "4:00pm"}, {"days": "Sun", "time": "Closed"}], "id": "2948500025", "name": "USPS COLLECTION BOX - PO LOBBY", "address": {"city": "SUMMERVILLE", "state": "SC", "street": "10070 DORCHESTER RD", "postcode": "29485"}}},
{"geometry": {"type": "Point", "coordinates": [-80.195055611, 32.9499785786]}, "type": "Feature", "properties": {"collection_times": [{"days": "Mon-Sat", "time": "11:15am"}, {"days": "Sun", "time": "Closed"}], "id": "2948500029", "name": "USPS COLLECTION BOX - BLUE BOX", "address": {"city": "SUMMERVILLE", "state": "SC", "street": "9494 HWY 78", "postcode": "29485"}}},
{"geometry": {"type": "Point", "coordinates": [-80.195055611, 32.9499785786]}, "type": "Feature", "properties": {"collection_times": [{"days": "Mon-Sat", "time": "9:45am"}, {"days": "Sun", "time": "Closed"}], "id": "2948500030", "name": "USPS COLLECTION BOX - BLUE BOX", "address": {"city": "SUMMERVILLE", "state": "SC", "street": "650 COLLEGE PARK RD", "postcode": "29485"}}},
{"geometry": {"type": "Point", "coordinates": [-80.1740383484, 32.9753019553]}, "type": "Feature", "properties": {"collection_times": [{"days": "Mon-Fri", "time": "2:00pm"}, {"days": "Sat", "time": "12:00pm"}, {"days": "Sun", "time": "Closed"}], "id": "2948500033", "name": "USPS COLLECTION BOX - BLUE BOX", "address": {"city": "SUMMERVILLE", "state": "SC", "street": "141 W BROAD ST", "postcode": "29485"}}},
{"geometry": {"type": "Point", "coordinates": [-80.1839803096, 32.9596161693]}, "type": "Feature", "properties": {"collection_times": [{"days": "Mon-Fri", "time": "5:00pm"}, {"days": "Sat", "time": "4:00pm"}, {"days": "Sun", "time": "Closed"}], "id": "2948500036", "name": "USPS COLLECTION BOX - APC", "address": {"city": "SUMMERVILLE", "state": "SC", "street": "10070 DORCHESTER RD", "postcode": "29485"}}},
{"geometry": {"type": "Point", "coordinates": [-80.195055611, 32.9499785786]}, "type": "Feature", "properties": {"collection_times": [{"days": "Mon-Sat", "time": "10:00am"}, {"days": "Sun", "time": "Closed"}], "id": "2948500039", "name": "USPS COLLECTION BOX - BLUE BOX", "address": {"city": "SUMMERVILLE", "state": "SC", "street": "9801 HWY. 78", "postcode": "29485"}}},
{"geometry": {"type": "Point", "coordinates": [-80.1796842429, 32.6664609861]}, "type": "Feature", "properties": {"collection_times": [{"days": "Mon-Fri", "time": "3:45pm"}, {"days": "Sat", "time": "9:45am"}, {"days": "Sun", "time": "Closed"}], "id": "2948700001", "name": "USPS COLLECTION BOX - BLUE BOX", "address": {"city": "WADMALAW ISLAND", "state": "SC", "street": "1917 LIBERIA RD", "postcode": "29487"}}},
{"geometry": {"type": "Point", "coordinates": [-80.1796842429, 32.6664609861]}, "type": "Feature", "properties": {"collection_times": [{"days": "Mon-Fri", "time": "3:45pm"}, {"days": "Sat", "time": "9:45am"}, {"days": "Sun", "time": "Closed"}], "id": "2948700002", "name": "USPS COLLECTION BOX - PO LOBBY", "address": {"city": "WADMALAW ISLAND", "state": "SC", "street": "1917 LIBERIA RD", "postcode": "29487"}}},
{"geometry": {"type": "Point", "coordinates": [-80.6741238358, 32.9168786091]}, "type": "Feature", "properties": {"collection_times": [{"days": "Mon-Fri", "time": "12:45pm"}, {"days": "Sat-Sun", "time": "Closed"}], "id": "2948800003", "name": "USPS COLLECTION BOX - BLUE BOX", "address": {"city": "WALTERBORO", "state": "SC", "street": "489 BELLS HWY", "postcode": "29488"}}},
{"geometry": {"type": "Point", "coordinates": [-80.663784641, 32.9028214287]}, "type": "Feature", "properties": {"collection_times": [{"days": "Mon-Fri", "time": "4:45pm"}, {"days": "Sat", "time": "2:00pm"}, {"days": "Sun", "time": "Closed"}], "id": "2948800004", "name": "USPS COLLECTION BOX - BLUE BOX", "address": {"city": "WALTERBORO", "state": "SC", "street": "333 E WASHINGTON ST", "postcode": "29488"}}},
{"geometry": {"type": "Point", "coordinates": [-80.6690710431, 32.9011911485]}, "type": "Feature", "properties": {"collection_times": [{"days": "Mon-Fri", "time": "1:00pm"}, {"days": "Sat-Sun", "time": "Closed"}], "id": "2948800005", "name": "USPS COLLECTION BOX - BLUE BOX", "address": {"city": "WALTERBORO", "state": "SC", "street": "31 KLEIN ST", "postcode": "29488"}}},
{"geometry": {"type": "Point", "coordinates": [-80.67634, 32.921745]}, "type": "Feature", "properties": {"collection_times": [{"days": "Mon-Fri", "time": "11:00am"}, {"days": "Sat-Sun", "time": "Closed"}], "id": "2948800018", "name": "USPS COLLECTION BOX - BLUE BOX", "address": {"city": "WALTERBORO", "state": "SC", "street": "221 ROBERTSON BLVD", "postcode": "29488"}}},
{"geometry": {"type": "Point", "coordinates": [-80.6714381498, 32.9032003683]}, "type": "Feature", "properties": {"collection_times": [{"days": "Mon-Fri", "time": "4:45pm"}, {"days": "Sat", "time": "2:00pm"}, {"days": "Sun", "time": "Closed"}], "id": "2948800022", "name": "USPS COLLECTION BOX - PO LOBBY", "address": {"city": "WALTERBORO", "state": "SC", "street": "333 W WASHINGTON ST", "postcode": "29488"}}},
{"geometry": {"type": "Point", "coordinates": [-80.6714381498, 32.9032003683]}, "type": "Feature", "properties": {"collection_times": [{"days": "Mon-Fri", "time": "4:45pm"}, {"days": "Sat", "time": "2:00pm"}, {"days": "Sun", "time": "Closed"}], "id": "2948800023", "name": "USPS COLLECTION BOX - PO LOBBY", "address": {"city": "WALTERBORO", "state": "SC", "street": "333 W WASHINGTON ST", "postcode": "29488"}}},
{"geometry": {"type": "Point", "coordinates": [-80.6804938841, 32.9226858383]}, "type": "Feature", "properties": {"collection_times": [{"days": "Mon-Fri", "time": "12:45pm"}, {"days": "Sat-Sun", "time": "Closed"}], "id": "2948800024", "name": "USPS COLLECTION BOX - BLUE BOX", "address": {"city": "WALTERBORO", "state": "SC", "street": "1033 BELLS HWY", "postcode": "29488"}}},
{"geometry": {"type": "Point", "coordinates": [-80.8405653024, 33.0355536207]}, "type": "Feature", "properties": {"collection_times": [{"days": "Mon-Fri", "time": "3:45pm"}, {"days": "Sat", "time": "9:45am"}, {"days": "Sun", "time": "Closed"}], "id": "2949300001", "name": "USPS COLLECTION BOX - BLUE BOX", "address": {"city": "WILLIAMS", "state": "SC", "street": "1718 GEORGE WARREN DR", "postcode": "29493"}}}
]}
