{"type": "FeatureCollection", "features": [
{"geometry": {"type": "Point", "coordinates": [-79.7716654289, 34.2214512562]}, "type": "Feature", "properties": {"collection_times": [{"days": "Mon-Sat", "time": "11:45am"}, {"days": "Sun", "time": "Closed"}], "id": "2950100004", "name": "USPS COLLECTION BOX - BLUE BOX", "address": {"city": "FLORENCE", "state": "SC", "street": "625 E ASHBY RD", "postcode": "29501"}}},
{"geometry": {"type": "Point", "coordinates": [-79.7680210704, 34.1917865831]}, "type": "Feature", "properties": {"collection_times": [{"days": "Mon-Fri", "time": "1:45pm"}, {"days": "Sat-Sun", "time": "Closed"}], "id": "2950100011", "name": "USPS COLLECTION BOX - BLUE BOX", "address": {"city": "FLORENCE", "state": "SC", "street": "204 W PINE ST", "postcode": "29501"}}},
{"geometry": {"type": "Point", "coordinates": [-79.7726697434, 34.1970709652]}, "type": "Feature", "properties": {"collection_times": [{"days": "Mon-Sat", "time": "11:45am"}, {"days": "Sun", "time": "Closed"}], "id": "2950100017", "name": "USPS COLLECTION BOX - PO LOBBY", "address": {"city": "FLORENCE", "state": "SC", "street": "401 W EVANS ST", "postcode": "29501"}}},
{"geometry": {"type": "Point", "coordinates": [-79.7786947874, 34.178233633]}, "type": "Feature", "properties": {"collection_times": [{"days": "Mon-Fri", "time": "12:45pm"}, {"days": "Sat-Sun", "time": "Closed"}], "id": "2950100019", "name": "USPS COLLECTION BOX - BLUE BOX", "address": {"city": "FLORENCE", "state": "SC", "street": "951 PARK AVE", "postcode": "29501"}}},
{"geometry": {"type": "Point", "coordinates": [-79.6433287396, 34.1960576545]}, "type": "Feature", "properties": {"collection_times": [{"days": "Mon-Fri", "time": "9:45am"}, {"days": "Sat-Sun", "time": "Closed"}], "id": "2950100026", "name": "USPS COLLECTION BOX - BLUE BOX", "address": {"city": "FLORENCE", "state": "SC", "street": "5130 E PALMETTO ST", "postcode": "29501"}}},
{"geometry": {"type": "Point", "coordinates": [-79.8153972492, 34.1956532349]}, "type": "Feature", "properties": {"collection_times": [{"days": "Mon-Sat", "time": "9:45am"}, {"days": "Sun", "time": "Closed"}], "id": "2950100029", "name": "USPS COLLECTION BOX - BLUE BOX", "address": {"city": "FLORENCE", "state": "SC", "street": "4711 PATRIOT LN", "postcode": "29501"}}},
{"geometry": {"type": "Point", "coordinates": [-79.7351680252, 34.2598588565]}, "type": "Feature", "properties": {"collection_times": [{"days": "Mon-Sat", "time": "11:15am"}, {"days": "Sun", "time": "Closed"}], "id": "2950100030", "name": "USPS COLLECTION BOX - BLUE BOX", "address": {"city": "FLORENCE", "state": "SC", "street": "3001 T V RD", "postcode": "29501"}}},
{"geometry": {"type": "Point", "coordinates": [-79.7670181992, 34.1790733968]}, "type": "Feature", "properties": {"collection_times": [{"days": "Mon-Fri", "time": "1:00pm"}, {"days": "Sat", "time": "1:15pm"}, {"days": "Sun", "time": "Closed"}], "id": "2950100033", "name": "USPS COLLECTION BOX - BLUE BOX", "address": {"city": "FLORENCE", "state": "SC", "street": "927 S IRBY ST", "postcode": "29501"}}},
{"geometry": {"type": "Point", "coordinates": [-79.7407777489, 34.2513720846]}, "type": "Feature", "properties": {"collection_times": [{"days": "Mon-Fri", "time": "2:00pm"}, {"days": "Sat-Sun", "time": "Closed"}], "id": "2950100035", "name": "USPS COLLECTION BOX - BLUE BOX", "address": {"city": "FLORENCE", "state": "SC", "street": "2685 S IRBY ST", "postcode": "29501"}}},
{"geometry": {"type": "Point", "coordinates": [-79.8153972492, 34.1956532349]}, "type": "Feature", "properties": {"collection_times": [{"days": "Mon-Sat", "time": "1:30pm"}, {"days": "Sun", "time": "Closed"}], "id": "2950100039", "name": "USPS COLLECTION BOX - BLUE BOX", "address": {"city": "FLORENCE", "state": "SC", "street": "1307 2ND LOOP RD", "postcode": "29501"}}},
{"geometry": {"type": "Point", "coordinates": [-79.7985567294, 34.1699960185]}, "type": "Feature", "properties": {"collection_times": [{"days": "Mon-Sat", "time": "1:30pm"}, {"days": "Sun", "time": "Closed"}], "id": "2950100041", "name": "USPS COLLECTION BOX - BLUE BOX", "address": {"city": "FLORENCE", "state": "SC", "street": "1800 2ND LOOP RD", "postcode": "29501"}}},
{"geometry": {"type": "Point", "coordinates": [-79.7782669813, 34.1675027315]}, "type": "Feature", "properties": {"collection_times": [{"days": "Mon-Fri", "time": "1:30pm"}, {"days": "Sat", "time": "1:45pm"}, {"days": "Sun", "time": "Closed"}], "id": "2950100042", "name": "USPS COLLECTION BOX - BLUE BOX", "address": {"city": "FLORENCE", "state": "SC", "street": "804 2ND LOOP RD", "postcode": "29501"}}},
{"geometry": {"type": "Point", "coordinates": [-79.767793287, 34.1837149955]}, "type": "Feature", "properties": {"collection_times": [{"days": "Mon-Fri", "time": "1:00pm"}, {"days": "Sat", "time": "1:15pm"}, {"days": "Sun", "time": "Closed"}], "id": "2950100049", "name": "USPS COLLECTION BOX - BLUE BOX", "address": {"city": "FLORENCE", "state": "SC", "street": "221 CHEROKEE RD", "postcode": "29501"}}},
{"geometry": {"type": "Point", "coordinates": [-79.8026644546, 34.1955292665]}, "type": "Feature", "properties": {"collection_times": [{"days": "Mon-Sat", "time": "7:00pm"}, {"days": "Sun", "time": "Closed"}], "id": "2950100055", "name": "USPS COLLECTION BOX - PO LOBBY", "address": {"city": "FLORENCE", "state": "SC", "street": "1901 W EVANS ST", "postcode": "29501"}}},
{"geometry": {"type": "Point", "coordinates": [-79.8026644546, 34.1955292665]}, "type": "Feature", "properties": {"collection_times": [{"days": "Mon-Sat", "time": "7:00pm"}, {"days": "Sun", "time": "Closed"}], "id": "2950100056", "name": "USPS COLLECTION BOX - PO LOBBY", "address": {"city": "FLORENCE", "state": "SC", "street": "1901 W EVANS ST", "postcode": "29501"}}},
{"geometry": {"type": "Point", "coordinates": [-79.8026644546, 34.1955292665]}, "type": "Feature", "properties": {"collection_times": [{"days": "Mon-Sat", "time": "7:00pm"}, {"days": "Sun", "time": "Closed"}], "id": "2950100057", "name": "USPS COLLECTION BOX - PO LOBBY", "address": {"city": "FLORENCE", "state": "SC", "street": "1901 W EVANS ST", "postcode": "29501"}}},
{"geometry": {"type": "Point", "coordinates": [-79.8133059021, 34.1909646579]}, "type": "Feature", "properties": {"collection_times": [{"days": "Mon-Fri", "time": "11:45am"}, {"days": "Sat-Sun", "time": "Closed"}], "id": "2950100063", "name": "USPS COLLECTION BOX - BLUE BOX", "address": {"city": "FLORENCE", "state": "SC", "street": "201 DOZIER BLVD", "postcode": "29501"}}},
{"geometry": {"type": "Point", "coordinates": [-79.7726697434, 34.1970709652]}, "type": "Feature", "properties": {"collection_times": [{"days": "Mon-Sat", "time": "11:45am"}, {"days": "Sun", "time": "Closed"}], "id": "2950100065", "name": "USPS COLLECTION BOX - PO LOBBY", "address": {"city": "FLORENCE", "state": "SC", "street": "401 W EVANS ST", "postcode": "29501"}}},
{"geometry": {"type": "Point", "coordinates": [-79.7726697434, 34.1970709652]}, "type": "Feature", "properties": {"collection_times": [{"days": "Mon-Sat", "time": "11:45am"}, {"days": "Sun", "time": "Closed"}], "id": "2950100066", "name": "USPS COLLECTION BOX - PO LOBBY", "address": {"city": "FLORENCE", "state": "SC", "street": "401 W EVANS ST", "postcode": "29501"}}},
{"geometry": {"type": "Point", "coordinates": [-79.7726697434, 34.1970709652]}, "type": "Feature", "properties": {"collection_times": [{"days": "Mon-Sat", "time": "11:45am"}, {"days": "Sun", "time": "Closed"}], "id": "2950100069", "name": "USPS COLLECTION BOX - BLUE BOX", "address": {"city": "FLORENCE", "state": "SC", "street": "401 W EVANS ST", "postcode": "29501"}}},
{"geometry": {"type": "Point", "coordinates": [-79.805571848, 34.1889751389]}, "type": "Feature", "properties": {"collection_times": [{"days": "Mon-Fri", "time": "1:45pm"}, {"days": "Sat", "time": "3:00pm"}, {"days": "Sun", "time": "Closed"}], "id": "2950100083", "name": "USPS COLLECTION BOX - BLUE BOX", "address": {"city": "FLORENCE", "state": "SC", "street": "1930 W PALMETTO ST", "postcode": "29501"}}},
{"geometry": {"type": "Point", "coordinates": [-79.8062577761, 34.1888275555]}, "type": "Feature", "properties": {"collection_times": [{"days": "Mon-Fri", "time": "1:45pm"}, {"days": "Sat", "time": "3:00pm"}, {"days": "Sun", "time": "Closed"}], "id": "2950100085", "name": "USPS COLLECTION BOX - BLUE BOX", "address": {"city": "FLORENCE", "state": "SC", "street": "1945 W PALMETTO ST", "postcode": "29501"}}},
{"geometry": {"type": "Point", "coordinates": [-79.7747631415, 34.194786119]}, "type": "Feature", "properties": {"collection_times": [{"days": "Mon-Fri", "time": "1:30pm"}, {"days": "Sat-Sun", "time": "Closed"}], "id": "2950100099", "name": "USPS COLLECTION BOX - BLUE BOX", "address": {"city": "FLORENCE", "state": "SC", "street": "221 WARLEY ST", "postcode": "29501"}}},
{"geometry": {"type": "Point", "coordinates": [-79.8257342281, 34.1763671899]}, "type": "Feature", "properties": {"collection_times": [{"days": "Mon-Sat", "time": "12:45pm"}, {"days": "Sun", "time": "Closed"}], "id": "2950100105", "name": "USPS COLLECTION BOX - BLUE BOX", "address": {"city": "FLORENCE", "state": "SC", "street": "838 S PARKER DR", "postcode": "29501"}}},
{"geometry": {"type": "Point", "coordinates": [-79.7746879978, 34.2098386321]}, "type": "Feature", "properties": {"collection_times": [{"days": "Mon-Fri", "time": "2:45pm"}, {"days": "Sat-Sun", "time": "Closed"}], "id": "2950100106", "name": "USPS COLLECTION BOX - BLUE BOX", "address": {"city": "FLORENCE", "state": "SC", "street": "619 W LUCAS ST", "postcode": "29501"}}},
{"geometry": {"type": "Point", "coordinates": [-79.7678442082, 34.1973157997]}, "type": "Feature", "properties": {"collection_times": [{"days": "Mon-Fri", "time": "2:00pm"}, {"days": "Sat-Sun", "time": "Closed"}], "id": "2950100110", "name": "USPS COLLECTION BOX - BLUE BOX", "address": {"city": "FLORENCE", "state": "SC", "street": "181 E EVANS ST", "postcode": "29501"}}},
{"geometry": {"type": "Point", "coordinates": [-79.7716654289, 34.2214512562]}, "type": "Feature", "properties": {"collection_times": [{"days": "Mon-Sat", "time": "11:45am"}, {"days": "Sun", "time": "Closed"}], "id": "2950100111", "name": "USPS COLLECTION BOX - PO LOBBY", "address": {"city": "FLORENCE", "state": "SC", "street": "625 E ASHBY RD", "postcode": "29501"}}},
{"geometry": {"type": "Point", "coordinates": [-79.8403026956, 34.1711378785]}, "type": "Feature", "properties": {"collection_times": [{"days": "Mon-Fri", "time": "1:45pm"}, {"days": "Sat-Sun", "time": "Closed"}], "id": "2950100126", "name": "USPS COLLECTION BOX - BLUE BOX", "address": {"city": "FLORENCE", "state": "SC", "street": "3026 E PALMETTO ST", "postcode": "29501"}}},
{"geometry": {"type": "Point", "coordinates": [-79.8258408622, 34.1785838498]}, "type": "Feature", "properties": {"collection_times": [{"days": "Mon-Fri", "time": "1:45pm"}, {"days": "Sat-Sun", "time": "Closed"}], "id": "2950100130", "name": "USPS COLLECTION BOX - BLUE BOX", "address": {"city": "FLORENCE", "state": "SC", "street": "2640 W PALMETTO ST", "postcode": "29501"}}},
{"geometry": {"type": "Point", "coordinates": [-79.8440135795, 34.1693723305]}, "type": "Feature", "properties": {"collection_times": [{"days": "Mon-Fri", "time": "1:30pm"}, {"days": "Sat-Sun", "time": "Closed"}], "id": "2950100134", "name": "USPS COLLECTION BOX - BLUE BOX", "address": {"city": "FLORENCE", "state": "SC", "street": "3209 W PALMETTO ST", "postcode": "29501"}}},
{"geometry": {"type": "Point", "coordinates": [-79.8275888208, 34.1883920559]}, "type": "Feature", "properties": {"collection_times": [{"days": "Mon-Fri", "time": "2:15pm"}, {"days": "Sat", "time": "2:45pm"}, {"days": "Sun", "time": "Closed"}], "id": "2950100135", "name": "USPS COLLECTION BOX - BLUE BOX", "address": {"city": "FLORENCE", "state": "SC", "street": "2600 DAVID H MCLEOD BLVD", "postcode": "29501"}}},
{"geometry": {"type": "Point", "coordinates": [-79.8239991347, 34.2086108184]}, "type": "Feature", "properties": {"collection_times": [{"days": "Mon-Sat", "time": "9:45am"}, {"days": "Sun", "time": "Closed"}], "id": "2950100145", "name": "USPS COLLECTION BOX - BLUE BOX", "address": {"city": "FLORENCE", "state": "SC", "street": "1406 WILLOW TRACE DR", "postcode": "29501"}}},
{"geometry": {"type": "Point", "coordinates": [-79.769057606, 34.19363414]}, "type": "Feature", "properties": {"collection_times": [{"days": "Mon-Fri", "time": "1:15pm"}, {"days": "Sat-Sun", "time": "Closed"}], "id": "2950100146", "name": "USPS COLLECTION BOX - BLUE BOX", "address": {"city": "FLORENCE", "state": "SC", "street": "1590 FREEDOM BLVD", "postcode": "29501"}}},
{"geometry": {"type": "Point", "coordinates": [-79.769057606, 34.19363414]}, "type": "Feature", "properties": {"collection_times": [{"days": "Mon-Fri", "time": "1:15pm"}, {"days": "Sat-Sun", "time": "Closed"}], "id": "2950100147", "name": "USPS COLLECTION BOX - BLUE BOX", "address": {"city": "FLORENCE", "state": "SC", "street": "1590 FREEDOM BLVD", "postcode": "29501"}}},
{"geometry": {"type": "Point", "coordinates": [-79.769057606, 34.19363414]}, "type": "Feature", "properties": {"collection_times": [{"days": "Mon-Fri", "time": "1:00pm"}, {"days": "Sat", "time": "1:30pm"}, {"days": "Sun", "time": "Closed"}], "id": "2950100148", "name": "USPS COLLECTION BOX - BLUE BOX", "address": {"city": "FLORENCE", "state": "SC", "street": "500 PAMPLICO HWY", "postcode": "29501"}}},
{"geometry": {"type": "Point", "coordinates": [-79.8026644546, 34.1955292665]}, "type": "Feature", "properties": {"collection_times": [{"days": "Mon-Sat", "time": "7:00pm"}, {"days": "Sun", "time": "Closed"}], "id": "2950100150", "name": "USPS COLLECTION BOX - APC", "address": {"city": "FLORENCE", "state": "SC", "street": "1901 W EVANS ST", "postcode": "29501"}}},
{"geometry": {"type": "Point", "coordinates": [-79.7682275498, 34.1983824939]}, "type": "Feature", "properties": {"collection_times": [{"days": "Mon-Fri", "time": "2:15pm"}, {"days": "Sat-Sun", "time": "Closed"}], "id": "2950100152", "name": "USPS COLLECTION BOX - BLUE BOX", "address": {"city": "FLORENCE", "state": "SC", "street": "180 N IRBY ST", "postcode": "29501"}}},
{"geometry": {"type": "Point", "coordinates": [-79.7716654289, 34.2214512562]}, "type": "Feature", "properties": {"collection_times": [{"days": "Mon-Sat", "time": "11:45am"}, {"days": "Sun", "time": "Closed"}], "id": "2950100155", "name": "USPS COLLECTION BOX - PO LOBBY", "address": {"city": "FLORENCE", "state": "SC", "street": "625 E ASHBY RD", "postcode": "29501"}}},
{"geometry": {"type": "Point", "coordinates": [-79.7715348941, 34.1669803154]}, "type": "Feature", "properties": {"collection_times": [{"days": "Mon-Fri", "time": "5:00pm"}, {"days": "Sat", "time": "1:30pm"}, {"days": "Sun", "time": "Closed"}], "id": "2950500000", "name": "USPS COLLECTION BOX - BLUE BOX", "address": {"city": "FLORENCE", "state": "SC", "street": "450 2ND LOOP RD", "postcode": "29505"}}},
{"geometry": {"type": "Point", "coordinates": [-79.7715348941, 34.1669803154]}, "type": "Feature", "properties": {"collection_times": [{"days": "Mon-Fri", "time": "4:30pm"}, {"days": "Sat", "time": "1:30pm"}, {"days": "Sun", "time": "Closed"}], "id": "2950500001", "name": "USPS COLLECTION BOX - PO LOBBY", "address": {"city": "FLORENCE", "state": "SC", "street": "450 2ND LOOP RD", "postcode": "29505"}}},
{"geometry": {"type": "Point", "coordinates": [-79.7715348941, 34.1669803154]}, "type": "Feature", "properties": {"collection_times": [{"days": "Mon-Fri", "time": "4:30pm"}, {"days": "Sat", "time": "1:30pm"}, {"days": "Sun", "time": "Closed"}], "id": "2950500002", "name": "USPS COLLECTION BOX - PO LOBBY", "address": {"city": "FLORENCE", "state": "SC", "street": "450 2ND LOOP RD", "postcode": "29505"}}},
{"geometry": {"type": "Point", "coordinates": [-79.7715348941, 34.1669803154]}, "type": "Feature", "properties": {"collection_times": [{"days": "Mon-Fri", "time": "4:30pm"}, {"days": "Sat", "time": "1:30pm"}, {"days": "Sun", "time": "Closed"}], "id": "2950500003", "name": "USPS COLLECTION BOX - PO LOBBY", "address": {"city": "FLORENCE", "state": "SC", "street": "450 2ND LOOP RD", "postcode": "29505"}}},
{"geometry": {"type": "Point", "coordinates": [-79.766771576, 34.1590842212]}, "type": "Feature", "properties": {"collection_times": [{"days": "Mon-Fri", "time": "2:00pm"}, {"days": "Sat", "time": "2:30pm"}, {"days": "Sun", "time": "Closed"}], "id": "2950500005", "name": "USPS COLLECTION BOX - BLUE BOX", "address": {"city": "FLORENCE", "state": "SC", "street": "2014 S IRBY ST", "postcode": "29505"}}},
{"geometry": {"type": "Point", "coordinates": [-79.5586792987, 33.4519863142]}, "type": "Feature", "properties": {"collection_times": [{"days": "Mon-Fri", "time": "4:00pm"}, {"days": "Sat", "time": "10:30am"}, {"days": "Sun", "time": "Closed"}], "id": "2951000001", "name": "USPS COLLECTION BOX - BLUE BOX", "address": {"city": "ANDREWS", "state": "SC", "street": "101 E OAKLAND ST", "postcode": "29510"}}},
{"geometry": {"type": "Point", "coordinates": [-79.5607222992, 33.4520327647]}, "type": "Feature", "properties": {"collection_times": [{"days": "Mon-Fri", "time": "4:15pm"}, {"days": "Sat", "time": "10:45am"}, {"days": "Sun", "time": "Closed"}], "id": "2951000005", "name": "USPS COLLECTION BOX - PO LOBBY", "address": {"city": "ANDREWS", "state": "SC", "street": "102 N MORGAN AVE", "postcode": "29510"}}},
{"geometry": {"type": "Point", "coordinates": [-79.2014285655, 33.9923266575]}, "type": "Feature", "properties": {"collection_times": [{"days": "Mon-Fri", "time": "4:00pm"}, {"days": "Sat", "time": "9:45am"}, {"days": "Sun", "time": "Closed"}], "id": "2951100003", "name": "USPS COLLECTION BOX - BLUE BOX", "address": {"city": "AYNOR", "state": "SC", "street": "2945 HIGHWAY 501 E", "postcode": "29511"}}},
{"geometry": {"type": "Point", "coordinates": [-79.2014285655, 33.9923266575]}, "type": "Feature", "properties": {"collection_times": [{"days": "Mon-Fri", "time": "4:00pm"}, {"days": "Sat", "time": "9:45am"}, {"days": "Sun", "time": "Closed"}], "id": "2951100004", "name": "USPS COLLECTION BOX - PO LOBBY", "address": {"city": "AYNOR", "state": "SC", "street": "2945 HIGHWAY 501 E", "postcode": "29511"}}},
{"geometry": {"type": "Point", "coordinates": [-79.2014914551, 33.999311292]}, "type": "Feature", "properties": {"collection_times": [{"days": "Mon-Fri", "time": "12:00pm"}, {"days": "Sat-Sun", "time": "Closed"}], "id": "2951100006", "name": "USPS COLLECTION BOX - BLUE BOX", "address": {"city": "AYNOR", "state": "SC", "street": "617 8TH AVE", "postcode": "29511"}}},
{"geometry": {"type": "Point", "coordinates": [-79.2014285655, 33.9923266575]}, "type": "Feature", "properties": {"collection_times": [{"days": "Mon-Fri", "time": "4:00pm"}, {"days": "Sat", "time": "9:45am"}, {"days": "Sun", "time": "Closed"}], "id": "2951100007", "name": "USPS COLLECTION BOX - PO LOBBY", "address": {"city": "AYNOR", "state": "SC", "street": "2945 HIGHWAY 501 E", "postcode": "29511"}}},
{"geometry": {"type": "Point", "coordinates": [-79.6923380035, 34.6349636599]}, "type": "Feature", "properties": {"collection_times": [{"days": "Mon-Fri", "time": "5:00pm"}, {"days": "Sat", "time": "12:00pm"}, {"days": "Sun", "time": "Closed"}], "id": "2951200016", "name": "USPS COLLECTION BOX - PO LOBBY", "address": {"city": "BENNETTSVILLE", "state": "SC", "street": "208 W MAIN ST", "postcode": "29512"}}},
{"geometry": {"type": "Point", "coordinates": [-79.6923380035, 34.6349636599]}, "type": "Feature", "properties": {"collection_times": [{"days": "Mon-Fri", "time": "5:00pm"}, {"days": "Sat", "time": "12:00pm"}, {"days": "Sun", "time": "Closed"}], "id": "2951200017", "name": "USPS COLLECTION BOX - PO LOBBY", "address": {"city": "BENNETTSVILLE", "state": "SC", "street": "208 W MAIN ST", "postcode": "29512"}}},
{"geometry": {"type": "Point", "coordinates": [-79.6923380035, 34.6349636599]}, "type": "Feature", "properties": {"collection_times": [{"days": "Mon-Fri", "time": "5:00pm"}, {"days": "Sat", "time": "12:00pm"}, {"days": "Sun", "time": "Closed"}], "id": "2951200018", "name": "USPS COLLECTION BOX - BLUE BOX", "address": {"city": "BENNETTSVILLE", "state": "SC", "street": "208 W MAIN ST", "postcode": "29512"}}},
{"geometry": {"type": "Point", "coordinates": [-79.6923380035, 34.6349636599]}, "type": "Feature", "properties": {"collection_times": [{"days": "Mon-Fri", "time": "5:00pm"}, {"days": "Sat", "time": "12:00pm"}, {"days": "Sun", "time": "Closed"}], "id": "2951200019", "name": "USPS COLLECTION BOX - BLUE BOX", "address": {"city": "BENNETTSVILLE", "state": "SC", "street": "208 W MAIN ST", "postcode": "29512"}}},
{"geometry": {"type": "Point", "coordinates": [-79.6923380035, 34.6349636599]}, "type": "Feature", "properties": {"collection_times": [{"days": "Mon-Fri", "time": "5:00pm"}, {"days": "Sat", "time": "12:00pm"}, {"days": "Sun", "time": "Closed"}], "id": "2951200028", "name": "USPS COLLECTION BOX - BLUE BOX", "address": {"city": "BENNETTSVILLE", "state": "SC", "street": "208 W MAIN ST", "postcode": "29512"}}},
{"geometry": {"type": "Point", "coordinates": [-79.6579170861, 34.5101042502]}, "type": "Feature", "properties": {"collection_times": [{"days": "Mon-Fri", "time": "3:45pm"}, {"days": "Sat", "time": "9:45am"}, {"days": "Sun", "time": "Closed"}], "id": "2951600002", "name": "USPS COLLECTION BOX - PO LOBBY", "address": {"city": "BLENHEIM", "state": "SC", "street": "105 W HIGH ST", "postcode": "29516"}}},
{"geometry": {"type": "Point", "coordinates": [-79.6579170861, 34.5101042502]}, "type": "Feature", "properties": {"collection_times": [{"days": "Mon-Fri", "time": "3:45pm"}, {"days": "Sat", "time": "9:45am"}, {"days": "Sun", "time": "Closed"}], "id": "2951600003", "name": "USPS COLLECTION BOX - BLUE BOX", "address": {"city": "BLENHEIM", "state": "SC", "street": "105 W HIGH ST", "postcode": "29516"}}},
{"geometry": {"type": "Point", "coordinates": [-79.7867106889, 33.7973792892]}, "type": "Feature", "properties": {"collection_times": [{"days": "Mon-Fri", "time": "3:45pm"}, {"days": "Sat", "time": "10:00am"}, {"days": "Sun", "time": "Closed"}], "id": "2951800001", "name": "USPS COLLECTION BOX - PO LOBBY", "address": {"city": "CADES", "state": "SC", "street": "3116 N WILLIAMSBURG COUNTY HWY", "postcode": "29518"}}},
{"geometry": {"type": "Point", "coordinates": [-79.7867106889, 33.7973792892]}, "type": "Feature", "properties": {"collection_times": [{"days": "Mon-Fri", "time": "3:45pm"}, {"days": "Sat", "time": "10:00am"}, {"days": "Sun", "time": "Closed"}], "id": "2951800002", "name": "USPS COLLECTION BOX - BLUE BOX", "address": {"city": "CADES", "state": "SC", "street": "3116 N WILLIAMSBURG COUNTY HWY", "postcode": "29518"}}},
{"geometry": {"type": "Point", "coordinates": [-79.3523127184, 34.0285661]}, "type": "Feature", "properties": {"collection_times": [{"days": "Mon-Fri", "time": "3:45pm"}, {"days": "Sat", "time": "9:45am"}, {"days": "Sun", "time": "Closed"}], "id": "2951900001", "name": "USPS COLLECTION BOX - BLUE BOX", "address": {"city": "CENTENARY", "state": "SC", "street": "4811 S HIGHWAY 41A", "postcode": "29519"}}},
{"geometry": {"type": "Point", "coordinates": [-79.885455612, 34.6964367325]}, "type": "Feature", "properties": {"collection_times": [{"days": "Mon-Fri", "time": "4:15pm"}, {"days": "Sat", "time": "10:15am"}, {"days": "Sun", "time": "Closed"}], "id": "2952000006", "name": "USPS COLLECTION BOX - BLUE BOX", "address": {"city": "CHERAW", "state": "SC", "street": "200 3RD ST", "postcode": "29520"}}},
{"geometry": {"type": "Point", "coordinates": [-79.8853382408, 34.6964887902]}, "type": "Feature", "properties": {"collection_times": [{"days": "Mon-Fri", "time": "4:15pm"}, {"days": "Sat", "time": "10:15am"}, {"days": "Sun", "time": "Closed"}], "id": "2952000007", "name": "USPS COLLECTION BOX - BLUE BOX", "address": {"city": "CHERAW", "state": "SC", "street": "201 3RD ST", "postcode": "29520"}}},
{"geometry": {"type": "Point", "coordinates": [-79.8853382408, 34.6964887902]}, "type": "Feature", "properties": {"collection_times": [{"days": "Mon-Fri", "time": "4:15pm"}, {"days": "Sat", "time": "10:15am"}, {"days": "Sun", "time": "Closed"}], "id": "2952000008", "name": "USPS COLLECTION BOX - BLUE BOX", "address": {"city": "CHERAW", "state": "SC", "street": "201 3RD ST", "postcode": "29520"}}},
{"geometry": {"type": "Point", "coordinates": [-79.8955605954, 34.691107847]}, "type": "Feature", "properties": {"collection_times": [{"days": "Mon-Fri", "time": "4:00pm"}, {"days": "Sat", "time": "10:00am"}, {"days": "Sun", "time": "Closed"}], "id": "2952000030", "name": "USPS COLLECTION BOX - BLUE BOX", "address": {"city": "CHERAW", "state": "SC", "street": "811 MARKET ST", "postcode": "29520"}}},
{"geometry": {"type": "Point", "coordinates": [-79.8842018638, 34.697041518]}, "type": "Feature", "properties": {"collection_times": [{"days": "Mon-Fri", "time": "4:15pm"}, {"days": "Sat", "time": "10:15am"}, {"days": "Sun", "time": "Closed"}], "id": "2952000039", "name": "USPS COLLECTION BOX - PO LOBBY", "address": {"city": "CHERAW", "state": "SC", "street": "248 MARKET ST", "postcode": "29520"}}},
{"geometry": {"type": "Point", "coordinates": [-79.8842018638, 34.697041518]}, "type": "Feature", "properties": {"collection_times": [{"days": "Mon-Fri", "time": "4:15pm"}, {"days": "Sat", "time": "10:15am"}, {"days": "Sun", "time": "Closed"}], "id": "2952000040", "name": "USPS COLLECTION BOX - PO LOBBY", "address": {"city": "CHERAW", "state": "SC", "street": "248 MARKET ST", "postcode": "29520"}}},
{"geometry": {"type": "Point", "coordinates": [-79.9208686061, 34.6960707449]}, "type": "Feature", "properties": {"collection_times": [{"days": "Mon-Fri", "time": "4:00pm"}, {"days": "Sat", "time": "10:00am"}, {"days": "Sun", "time": "Closed"}], "id": "2952000042", "name": "USPS COLLECTION BOX - BLUE BOX", "address": {"city": "CHERAW", "state": "SC", "street": "801 CHESTERFIELD HWY", "postcode": "29520"}}},
{"geometry": {"type": "Point", "coordinates": [-79.5460870736, 34.5796649834]}, "type": "Feature", "properties": {"collection_times": [{"days": "Mon-Fri", "time": "3:45pm"}, {"days": "Sat", "time": "9:45am"}, {"days": "Sun", "time": "Closed"}], "id": "2952500001", "name": "USPS COLLECTION BOX - BLUE BOX", "address": {"city": "CLIO", "state": "SC", "street": "117 RED BLUFF ST", "postcode": "29525"}}},
{"geometry": {"type": "Point", "coordinates": [-79.5460870736, 34.5796649834]}, "type": "Feature", "properties": {"collection_times": [{"days": "Mon-Fri", "time": "3:45pm"}, {"days": "Sat", "time": "9:45am"}, {"days": "Sun", "time": "Closed"}], "id": "2952500002", "name": "USPS COLLECTION BOX - PO LOBBY", "address": {"city": "CLIO", "state": "SC", "street": "117 RED BLUFF ST", "postcode": "29525"}}},
{"geometry": {"type": "Point", "coordinates": [-78.9975710505, 33.78782374]}, "type": "Feature", "properties": {"collection_times": [{"days": "Mon-Fri", "time": "1:15pm"}, {"days": "Sat-Sun", "time": "Closed"}], "id": "2952600004", "name": "USPS COLLECTION BOX - BLUE BOX", "address": {"city": "CONWAY", "state": "SC", "street": "119 WACCAMAW MEDICAL PARK DR", "postcode": "29526"}}},
{"geometry": {"type": "Point", "coordinates": [-79.0472390921, 33.834939371]}, "type": "Feature", "properties": {"collection_times": [{"days": "Mon-Fri", "time": "1:30pm"}, {"days": "Sat", "time": "1:00pm"}, {"days": "Sun", "time": "Closed"}], "id": "2952600006", "name": "USPS COLLECTION BOX - BLUE BOX", "address": {"city": "CONWAY", "state": "SC", "street": "302 LAUREL ST", "postcode": "29526"}}},
{"geometry": {"type": "Point", "coordinates": [-79.054526847, 33.8328612963]}, "type": "Feature", "properties": {"collection_times": [{"days": "Mon-Fri", "time": "1:30pm"}, {"days": "Sat", "time": "1:00pm"}, {"days": "Sun", "time": "Closed"}], "id": "2952600007", "name": "USPS COLLECTION BOX - BLUE BOX", "address": {"city": "CONWAY", "state": "SC", "street": "1514 4TH AVE", "postcode": "29526"}}},
{"geometry": {"type": "Point", "coordinates": [-79.0557930051, 33.8585153175]}, "type": "Feature", "properties": {"collection_times": [{"days": "Mon-Fri", "time": "1:30pm"}, {"days": "Sat", "time": "1:00pm"}, {"days": "Sun", "time": "Closed"}], "id": "2952600012", "name": "USPS COLLECTION BOX - BLUE BOX", "address": {"city": "CONWAY", "state": "SC", "street": "2000 MAIN ST", "postcode": "29526"}}},
{"geometry": {"type": "Point", "coordinates": [-79.0790007634, 33.8543604313]}, "type": "Feature", "properties": {"collection_times": [{"days": "Mon-Sat", "time": "12:45pm"}, {"days": "Sun", "time": "Closed"}], "id": "2952600023", "name": "USPS COLLECTION BOX - BLUE BOX", "address": {"city": "CONWAY", "state": "SC", "street": "2300 CHURCH ST", "postcode": "29526"}}},
{"geometry": {"type": "Point", "coordinates": [-79.0907132, 33.8605932983]}, "type": "Feature", "properties": {"collection_times": [{"days": "Mon-Sat", "time": "1:00pm"}, {"days": "Sun", "time": "Closed"}], "id": "2952600026", "name": "USPS COLLECTION BOX - BLUE BOX", "address": {"city": "CONWAY", "state": "SC", "street": "2709 CHURCH ST", "postcode": "29526"}}},
{"geometry": {"type": "Point", "coordinates": [-79.0588662485, 33.8386166297]}, "type": "Feature", "properties": {"collection_times": [{"days": "Mon-Fri", "time": "1:45pm"}, {"days": "Sat", "time": "1:15pm"}, {"days": "Sun", "time": "Closed"}], "id": "2952600028", "name": "USPS COLLECTION BOX - BLUE BOX", "address": {"city": "CONWAY", "state": "SC", "street": "908 BELL ST", "postcode": "29526"}}},
{"geometry": {"type": "Point", "coordinates": [-79.0474655145, 33.8345051425]}, "type": "Feature", "properties": {"collection_times": [{"days": "Mon-Fri", "time": "1:30pm"}, {"days": "Sat", "time": "1:00pm"}, {"days": "Sun", "time": "Closed"}], "id": "2952600030", "name": "USPS COLLECTION BOX - BLUE BOX", "address": {"city": "CONWAY", "state": "SC", "street": "1129 3RD AVE", "postcode": "29526"}}},
{"geometry": {"type": "Point", "coordinates": [-79.0485534744, 33.8770448137]}, "type": "Feature", "properties": {"collection_times": [{"days": "Mon-Fri", "time": "4:45pm"}, {"days": "Sat", "time": "4:00pm"}, {"days": "Sun", "time": "Closed"}], "id": "2952600033", "name": "USPS COLLECTION BOX - BLUE BOX", "address": {"city": "CONWAY", "state": "SC", "street": "2570 MAIN ST", "postcode": "29526"}}},
{"geometry": {"type": "Point", "coordinates": [-79.0485534744, 33.8770448137]}, "type": "Feature", "properties": {"collection_times": [{"days": "Mon-Fri", "time": "4:45pm"}, {"days": "Sat", "time": "4:00pm"}, {"days": "Sun", "time": "Closed"}], "id": "2952600035", "name": "USPS COLLECTION BOX - PO LOBBY", "address": {"city": "CONWAY", "state": "SC", "street": "2570 MAIN ST", "postcode": "29526"}}},
{"geometry": {"type": "Point", "coordinates": [-79.0485534744, 33.8770448137]}, "type": "Feature", "properties": {"collection_times": [{"days": "Mon-Fri", "time": "4:45pm"}, {"days": "Sat", "time": "4:00pm"}, {"days": "Sun", "time": "Closed"}], "id": "2952600036", "name": "USPS COLLECTION BOX - PO LOBBY", "address": {"city": "CONWAY", "state": "SC", "street": "2570 MAIN ST", "postcode": "29526"}}},
{"geometry": {"type": "Point", "coordinates": [-79.0485534744, 33.8770448137]}, "type": "Feature", "properties": {"collection_times": [{"days": "Mon-Fri", "time": "4:45pm"}, {"days": "Sat", "time": "4:00pm"}, {"days": "Sun", "time": "Closed"}], "id": "2952600037", "name": "USPS COLLECTION BOX - PO LOBBY", "address": {"city": "CONWAY", "state": "SC", "street": "2570 MAIN ST", "postcode": "29526"}}},
{"geometry": {"type": "Point", "coordinates": [-79.062764383, 33.8455728157]}, "type": "Feature", "properties": {"collection_times": [{"days": "Mon-Sat", "time": "12:45pm"}, {"days": "Sun", "time": "Closed"}], "id": "2952600039", "name": "USPS COLLECTION BOX - BLUE BOX", "address": {"city": "CONWAY", "state": "SC", "street": "1606 CHURCH ST", "postcode": "29526"}}},
{"geometry": {"type": "Point", "coordinates": [-79.0199866232, 33.7662969618]}, "type": "Feature", "properties": {"collection_times": [{"days": "Mon-Sat", "time": "1:15pm"}, {"days": "Sun", "time": "Closed"}], "id": "2952600043", "name": "USPS COLLECTION BOX - BLUE BOX", "address": {"city": "CONWAY", "state": "SC", "street": "1901 HIGHWAY 544", "postcode": "29526"}}},
{"geometry": {"type": "Point", "coordinates": [-79.7516268952, 34.0176326862]}, "type": "Feature", "properties": {"collection_times": [{"days": "Mon-Fri", "time": "3:45pm"}, {"days": "Sat", "time": "9:45am"}, {"days": "Sun", "time": "Closed"}], "id": "2953000001", "name": "USPS COLLECTION BOX - PO LOBBY", "address": {"city": "COWARD", "state": "SC", "street": "3701 US HIGHWAY 52", "postcode": "29530"}}},
{"geometry": {"type": "Point", "coordinates": [-79.7516268952, 34.0176326862]}, "type": "Feature", "properties": {"collection_times": [{"days": "Mon-Fri", "time": "3:45pm"}, {"days": "Sat", "time": "9:45am"}, {"days": "Sun", "time": "Closed"}], "id": "2953000002", "name": "USPS COLLECTION BOX - BLUE BOX", "address": {"city": "COWARD", "state": "SC", "street": "3701 US HIGHWAY 52", "postcode": "29530"}}},
{"geometry": {"type": "Point", "coordinates": [-79.7516268952, 34.0176326862]}, "type": "Feature", "properties": {"collection_times": [{"days": "Mon-Fri", "time": "3:45pm"}, {"days": "Sat", "time": "9:45am"}, {"days": "Sun", "time": "Closed"}], "id": "2953000004", "name": "USPS COLLECTION BOX - PO LOBBY", "address": {"city": "COWARD", "state": "SC", "street": "3701 US HIGHWAY 52", "postcode": "29530"}}},
{"geometry": {"type": "Point", "coordinates": [-79.8760535262, 34.2999962177]}, "type": "Feature", "properties": {"collection_times": [{"days": "Mon-Sat", "time": "1:15pm"}, {"days": "Sun", "time": "Closed"}], "id": "2953200003", "name": "USPS COLLECTION BOX - BLUE BOX", "address": {"city": "DARLINGTON", "state": "SC", "street": "413 PEARL ST", "postcode": "29532"}}},
{"geometry": {"type": "Point", "coordinates": [-79.8670348566, 34.3053427489]}, "type": "Feature", "properties": {"collection_times": [{"days": "Mon-Sat", "time": "1:45pm"}, {"days": "Sun", "time": "Closed"}], "id": "2953200004", "name": "USPS COLLECTION BOX - BLUE BOX", "address": {"city": "DARLINGTON", "state": "SC", "street": "264 CASHUA ST", "postcode": "29532"}}},
{"geometry": {"type": "Point", "coordinates": [-79.8729000315, 34.3018508844]}, "type": "Feature", "properties": {"collection_times": [{"days": "Mon-Sat", "time": "1:30pm"}, {"days": "Sun", "time": "Closed"}], "id": "2953200007", "name": "USPS COLLECTION BOX - BLUE BOX", "address": {"city": "DARLINGTON", "state": "SC", "street": "105 DARGAN ST SE", "postcode": "29532"}}},
{"geometry": {"type": "Point", "coordinates": [-79.8678743353, 34.3019953063]}, "type": "Feature", "properties": {"collection_times": [{"days": "Mon-Sat", "time": "1:30pm"}, {"days": "Sun", "time": "Closed"}], "id": "2953200011", "name": "USPS COLLECTION BOX - BLUE BOX", "address": {"city": "DARLINGTON", "state": "SC", "street": "300 RUSSELL ST", "postcode": "29532"}}},
{"geometry": {"type": "Point", "coordinates": [-79.87919931, 34.2864811838]}, "type": "Feature", "properties": {"collection_times": [{"days": "Mon-Sat", "time": "1:30pm"}, {"days": "Sun", "time": "Closed"}], "id": "2953200016", "name": "USPS COLLECTION BOX - EXPRESS", "address": {"city": "DARLINGTON", "state": "SC", "street": "52 PUBLIC SQ", "postcode": "29532"}}},
{"geometry": {"type": "Point", "coordinates": [-79.8713355917, 34.3036523089]}, "type": "Feature", "properties": {"collection_times": [{"days": "Mon-Sat", "time": "1:30pm"}, {"days": "Sun", "time": "Closed"}], "id": "2953200017", "name": "USPS COLLECTION BOX - BLUE BOX", "address": {"city": "DARLINGTON", "state": "SC", "street": "52 PUBLIC SQ", "postcode": "29532"}}},
{"geometry": {"type": "Point", "coordinates": [-79.8641294121, 34.2933732822]}, "type": "Feature", "properties": {"collection_times": [{"days": "Mon-Sat", "time": "1:30pm"}, {"days": "Sun", "time": "Closed"}], "id": "2953200020", "name": "USPS COLLECTION BOX - BLUE BOX", "address": {"city": "DARLINGTON", "state": "SC", "street": "805 S MAIN ST", "postcode": "29532"}}},
{"geometry": {"type": "Point", "coordinates": [-79.8616909242, 34.2893075517]}, "type": "Feature", "properties": {"collection_times": [{"days": "Mon-Sat", "time": "1:30pm"}, {"days": "Sun", "time": "Closed"}], "id": "2953200024", "name": "USPS COLLECTION BOX - BLUE BOX", "address": {"city": "DARLINGTON", "state": "SC", "street": "1104 S MAIN ST", "postcode": "29532"}}},
{"geometry": {"type": "Point", "coordinates": [-79.8808808524, 34.3193781509]}, "type": "Feature", "properties": {"collection_times": [{"days": "Mon-Fri", "time": "5:00pm"}, {"days": "Sat", "time": "3:30pm"}, {"days": "Sun", "time": "Closed"}], "id": "2953200025", "name": "USPS COLLECTION BOX - PO LOBBY", "address": {"city": "DARLINGTON", "state": "SC", "street": "115 E SMITH AVE", "postcode": "29532"}}},
{"geometry": {"type": "Point", "coordinates": [-79.8808808524, 34.3193781509]}, "type": "Feature", "properties": {"collection_times": [{"days": "Mon-Fri", "time": "5:00pm"}, {"days": "Sat", "time": "3:30pm"}, {"days": "Sun", "time": "Closed"}], "id": "2953200027", "name": "USPS COLLECTION BOX - PO LOBBY", "address": {"city": "DARLINGTON", "state": "SC", "street": "115 E SMITH AVE", "postcode": "29532"}}},
{"geometry": {"type": "Point", "coordinates": [-79.8808808524, 34.3193781509]}, "type": "Feature", "properties": {"collection_times": [{"days": "Mon-Fri", "time": "5:00pm"}, {"days": "Sat", "time": "3:30pm"}, {"days": "Sun", "time": "Closed"}], "id": "2953200029", "name": "USPS COLLECTION BOX - BLUE BOX", "address": {"city": "DARLINGTON", "state": "SC", "street": "115 E SMITH AVE", "postcode": "29532"}}},
{"geometry": {"type": "Point", "coordinates": [-79.3735337724, 34.4179618668]}, "type": "Feature", "properties": {"collection_times": [{"days": "Mon-Fri", "time": "4:15pm"}, {"days": "Sat", "time": "12:15pm"}, {"days": "Sun", "time": "Closed"}], "id": "2953600001", "name": "USPS COLLECTION BOX - PO LOBBY", "address": {"city": "DILLON", "state": "SC", "street": "300 W MAIN ST", "postcode": "29536"}}},
{"geometry": {"type": "Point", "coordinates": [-79.3735337724, 34.4179618668]}, "type": "Feature", "properties": {"collection_times": [{"days": "Mon-Fri", "time": "4:15pm"}, {"days": "Sat", "time": "12:15pm"}, {"days": "Sun", "time": "Closed"}], "id": "2953600002", "name": "USPS COLLECTION BOX - PO LOBBY", "address": {"city": "DILLON", "state": "SC", "street": "300 W MAIN ST", "postcode": "29536"}}},
{"geometry": {"type": "Point", "coordinates": [-79.3643422824, 34.4254476066]}, "type": "Feature", "properties": {"collection_times": [{"days": "Mon-Sat", "time": "12:00pm"}, {"days": "Sun", "time": "Closed"}], "id": "2953600007", "name": "USPS COLLECTION BOX - BLUE BOX", "address": {"city": "DILLON", "state": "SC", "street": "1000 HIGHWAY 301 N", "postcode": "29536"}}},
{"geometry": {"type": "Point", "coordinates": [-79.3752668431, 34.4175960512]}, "type": "Feature", "properties": {"collection_times": [{"days": "Mon-Sat", "time": "12:00pm"}, {"days": "Sun", "time": "Closed"}], "id": "2953600009", "name": "USPS COLLECTION BOX - BLUE BOX", "address": {"city": "DILLON", "state": "SC", "street": "400 W HAMPTON ST", "postcode": "29536"}}},
{"geometry": {"type": "Point", "coordinates": [-79.3652615582, 34.4184747347]}, "type": "Feature", "properties": {"collection_times": [{"days": "Mon-Sat", "time": "12:00pm"}, {"days": "Sun", "time": "Closed"}], "id": "2953600010", "name": "USPS COLLECTION BOX - BLUE BOX", "address": {"city": "DILLON", "state": "SC", "street": "500 N 8TH AVE", "postcode": "29536"}}},
{"geometry": {"type": "Point", "coordinates": [-79.366109351, 34.4212079971]}, "type": "Feature", "properties": {"collection_times": [{"days": "Mon-Sat", "time": "12:15pm"}, {"days": "Sun", "time": "Closed"}], "id": "2953600011", "name": "USPS COLLECTION BOX - BLUE BOX", "address": {"city": "DILLON", "state": "SC", "street": "301 E JACKSON ST", "postcode": "29536"}}},
{"geometry": {"type": "Point", "coordinates": [-79.3678845388, 34.4150058916]}, "type": "Feature", "properties": {"collection_times": [{"days": "Mon-Sat", "time": "12:00pm"}, {"days": "Sun", "time": "Closed"}], "id": "2953600012", "name": "USPS COLLECTION BOX - BLUE BOX", "address": {"city": "DILLON", "state": "SC", "street": "504 E MAIN ST", "postcode": "29536"}}},
{"geometry": {"type": "Point", "coordinates": [-79.3735337724, 34.4179618668]}, "type": "Feature", "properties": {"collection_times": [{"days": "Mon-Fri", "time": "4:15pm"}, {"days": "Sat", "time": "12:15pm"}, {"days": "Sun", "time": "Closed"}], "id": "2953600014", "name": "USPS COLLECTION BOX - BLUE BOX", "address": {"city": "DILLON", "state": "SC", "street": "300 W MAIN ST", "postcode": "29536"}}},
{"geometry": {"type": "Point", "coordinates": [-79.3735337724, 34.4179618668]}, "type": "Feature", "properties": {"collection_times": [{"days": "Mon-Fri", "time": "4:15pm"}, {"days": "Sat", "time": "12:15pm"}, {"days": "Sun", "time": "Closed"}], "id": "2953600015", "name": "USPS COLLECTION BOX - BLUE BOX", "address": {"city": "DILLON", "state": "SC", "street": "300 W MAIN ST", "postcode": "29536"}}},
{"geometry": {"type": "Point", "coordinates": [-79.3679496971, 34.4338029287]}, "type": "Feature", "properties": {"collection_times": [{"days": "Mon-Sat", "time": "12:15pm"}, {"days": "Sun", "time": "Closed"}], "id": "2953600020", "name": "USPS COLLECTION BOX - BLUE BOX", "address": {"city": "DILLON", "state": "SC", "street": "413 RADFORD BLVD", "postcode": "29536"}}},
{"geometry": {"type": "Point", "coordinates": [-79.7618131932, 34.0690401882]}, "type": "Feature", "properties": {"collection_times": [{"days": "Mon-Fri", "time": "3:45pm"}, {"days": "Sat", "time": "10:45am"}, {"days": "Sun", "time": "Closed"}], "id": "2954100001", "name": "USPS COLLECTION BOX - BLUE BOX", "address": {"city": "EFFINGHAM", "state": "SC", "street": "5913 S IRBY ST", "postcode": "29541"}}},
{"geometry": {"type": "Point", "coordinates": [-79.7618131932, 34.0690401882]}, "type": "Feature", "properties": {"collection_times": [{"days": "Mon-Fri", "time": "3:45pm"}, {"days": "Sat", "time": "10:45am"}, {"days": "Sun", "time": "Closed"}], "id": "2954100002", "name": "USPS COLLECTION BOX - PO LOBBY", "address": {"city": "EFFINGHAM", "state": "SC", "street": "5913 S IRBY ST", "postcode": "29541"}}},
{"geometry": {"type": "Point", "coordinates": [-79.7618131932, 34.0690401882]}, "type": "Feature", "properties": {"collection_times": [{"days": "Mon-Fri", "time": "3:45pm"}, {"days": "Sat", "time": "10:45am"}, {"days": "Sun", "time": "Closed"}], "id": "2954100003", "name": "USPS COLLECTION BOX - PO LOBBY", "address": {"city": "EFFINGHAM", "state": "SC", "street": "5913 S IRBY ST", "postcode": "29541"}}},
{"geometry": {"type": "Point", "coordinates": [-79.2780635146, 34.2918397761]}, "type": "Feature", "properties": {"collection_times": [{"days": "Mon-Fri", "time": "3:45pm"}, {"days": "Sat", "time": "9:45am"}, {"days": "Sun", "time": "Closed"}], "id": "2954300001", "name": "USPS COLLECTION BOX - BLUE BOX", "address": {"city": "FORK", "state": "SC", "street": "4114 HIGHWAY 57 S", "postcode": "29543"}}},
{"geometry": {"type": "Point", "coordinates": [-79.2780635146, 34.2918397761]}, "type": "Feature", "properties": {"collection_times": [{"days": "Mon-Fri", "time": "3:45pm"}, {"days": "Sat", "time": "9:45am"}, {"days": "Sun", "time": "Closed"}], "id": "2954300002", "name": "USPS COLLECTION BOX - PO LOBBY", "address": {"city": "FORK", "state": "SC", "street": "4114 HIGHWAY 57 S", "postcode": "29543"}}},
{"geometry": {"type": "Point", "coordinates": [-78.9864921254, 34.1287418659]}, "type": "Feature", "properties": {"collection_times": [{"days": "Mon-Fri", "time": "3:45pm"}, {"days": "Sat", "time": "9:45am"}, {"days": "Sun", "time": "Closed"}], "id": "2954500001", "name": "USPS COLLECTION BOX - BLUE BOX", "address": {"city": "GREEN SEA", "state": "SC", "street": "3720 MITCHELL SEA RD", "postcode": "29545"}}},
{"geometry": {"type": "Point", "coordinates": [-78.9864921254, 34.1287418659]}, "type": "Feature", "properties": {"collection_times": [{"days": "Mon-Fri", "time": "3:45pm"}, {"days": "Sat", "time": "9:45am"}, {"days": "Sun", "time": "Closed"}], "id": "2954500002", "name": "USPS COLLECTION BOX - PO LOBBY", "address": {"city": "GREEN SEA", "state": "SC", "street": "3720 MITCHELL SEA RD", "postcode": "29545"}}},
{"geometry": {"type": "Point", "coordinates": [-79.3411190797, 33.9185402999]}, "type": "Feature", "properties": {"collection_times": [{"days": "Mon-Fri", "time": "3:45pm"}, {"days": "Sat", "time": "9:45am"}, {"days": "Sun", "time": "Closed"}], "id": "2954600001", "name": "USPS COLLECTION BOX - BLUE BOX", "address": {"city": "GRESHAM", "state": "SC", "street": "7027 HIGHWAY 908", "postcode": "29546"}}},
{"geometry": {"type": "Point", "coordinates": [-79.3411190797, 33.9185402999]}, "type": "Feature", "properties": {"collection_times": [{"days": "Mon-Fri", "time": "3:45pm"}, {"days": "Sat", "time": "9:45am"}, {"days": "Sun", "time": "Closed"}], "id": "2954600002", "name": "USPS COLLECTION BOX - PO LOBBY", "address": {"city": "GRESHAM", "state": "SC", "street": "7027 HIGHWAY 908", "postcode": "29546"}}},
{"geometry": {"type": "Point", "coordinates": [-79.3323369736, 34.4653949649]}, "type": "Feature", "properties": {"collection_times": [{"days": "Mon-Fri", "time": "3:45pm"}, {"days": "Sat", "time": "9:45am"}, {"days": "Sun", "time": "Closed"}], "id": "2954700001", "name": "USPS COLLECTION BOX - BLUE BOX", "address": {"city": "HAMER", "state": "SC", "street": "2809 HIGHWAY 301 N", "postcode": "29547"}}},
{"geometry": {"type": "Point", "coordinates": [-79.3323369736, 34.4653949649]}, "type": "Feature", "properties": {"collection_times": [{"days": "Mon-Fri", "time": "3:45pm"}, {"days": "Sat", "time": "9:45am"}, {"days": "Sun", "time": "Closed"}], "id": "2954700002", "name": "USPS COLLECTION BOX - PO LOBBY", "address": {"city": "HAMER", "state": "SC", "street": "2809 HIGHWAY 301 N", "postcode": "29547"}}},
{"geometry": {"type": "Point", "coordinates": [-79.3340016412, 34.4864879511]}, "type": "Feature", "properties": {"collection_times": [{"days": "Mon-Sat", "time": "10:00am"}, {"days": "Sun", "time": "Closed"}], "id": "2954700003", "name": "USPS COLLECTION BOX - BLUE BOX", "address": {"city": "HAMER", "state": "SC", "street": "3346 HIGHWAY 301 N", "postcode": "29547"}}},
{"geometry": {"type": "Point", "coordinates": [-80.0808162552, 34.3894925742]}, "type": "Feature", "properties": {"collection_times": [{"days": "Mon-Fri", "time": "4:45pm"}, {"days": "Sat", "time": "11:45am"}, {"days": "Sun", "time": "Closed"}], "id": "2955000001", "name": "USPS COLLECTION BOX - EXPRESS", "address": {"city": "HARTSVILLE", "state": "SC", "street": "500 S 4TH ST", "postcode": "29550"}}},
{"geometry": {"type": "Point", "coordinates": [-80.0676568436, 34.3694072947]}, "type": "Feature", "properties": {"collection_times": [{"days": "Mon-Fri", "time": "5:00pm"}, {"days": "Sat", "time": "11:45am"}, {"days": "Sun", "time": "Closed"}], "id": "2955000002", "name": "USPS COLLECTION BOX - BLUE BOX", "address": {"city": "HARTSVILLE", "state": "SC", "street": "500 S 4TH ST", "postcode": "29550"}}},
{"geometry": {"type": "Point", "coordinates": [-80.0732343089, 34.3741386274]}, "type": "Feature", "properties": {"collection_times": [{"days": "Mon-Fri", "time": "2:00pm"}, {"days": "Sat", "time": "11:45am"}, {"days": "Sun", "time": "Closed"}], "id": "2955000004", "name": "USPS COLLECTION BOX - BLUE BOX", "address": {"city": "HARTSVILLE", "state": "SC", "street": "110 S 5TH ST", "postcode": "29550"}}},
{"geometry": {"type": "Point", "coordinates": [-80.0764106976, 34.3889887254]}, "type": "Feature", "properties": {"collection_times": [{"days": "Mon-Fri", "time": "2:00pm"}, {"days": "Sat", "time": "11:45am"}, {"days": "Sun", "time": "Closed"}], "id": "2955000012", "name": "USPS COLLECTION BOX - BLUE BOX", "address": {"city": "HARTSVILLE", "state": "SC", "street": "1042 N 5TH ST", "postcode": "29550"}}},
{"geometry": {"type": "Point", "coordinates": [-80.0676568436, 34.3694072947]}, "type": "Feature", "properties": {"collection_times": [{"days": "Mon-Fri", "time": "4:45pm"}, {"days": "Sat", "time": "11:45am"}, {"days": "Sun", "time": "Closed"}], "id": "2955000017", "name": "USPS COLLECTION BOX - PO LOBBY", "address": {"city": "HARTSVILLE", "state": "SC", "street": "500 S 4TH ST", "postcode": "29550"}}},
{"geometry": {"type": "Point", "coordinates": [-80.1044263845, 34.3480593912]}, "type": "Feature", "properties": {"collection_times": [{"days": "Mon-Fri", "time": "2:00pm"}, {"days": "Sat", "time": "11:45am"}, {"days": "Sun", "time": "Closed"}], "id": "2955000021", "name": "USPS COLLECTION BOX - BLUE BOX", "address": {"city": "HARTSVILLE", "state": "SC", "street": "1304 W BOBO NEWSOM HWY", "postcode": "29550"}}},
{"geometry": {"type": "Point", "coordinates": [-80.107270134, 34.3495578671]}, "type": "Feature", "properties": {"collection_times": [{"days": "Mon-Fri", "time": "2:00pm"}, {"days": "Sat", "time": "11:45am"}, {"days": "Sun", "time": "Closed"}], "id": "2955000022", "name": "USPS COLLECTION BOX - BLUE BOX", "address": {"city": "HARTSVILLE", "state": "SC", "street": "701 MEDICAL PARK DR", "postcode": "29550"}}},
{"geometry": {"type": "Point", "coordinates": [-79.4442274499, 33.7532682286]}, "type": "Feature", "properties": {"collection_times": [{"days": "Mon-Fri", "time": "4:15pm"}, {"days": "Sat", "time": "9:45am"}, {"days": "Sun", "time": "Closed"}], "id": "2955400001", "name": "USPS COLLECTION BOX - BLUE BOX", "address": {"city": "HEMINGWAY", "state": "SC", "street": "301 E BROAD ST", "postcode": "29554"}}},
{"geometry": {"type": "Point", "coordinates": [-79.4442274499, 33.7532682286]}, "type": "Feature", "properties": {"collection_times": [{"days": "Mon-Fri", "time": "4:15pm"}, {"days": "Sat", "time": "9:45am"}, {"days": "Sun", "time": "Closed"}], "id": "2955400004", "name": "USPS COLLECTION BOX - PO LOBBY", "address": {"city": "HEMINGWAY", "state": "SC", "street": "301 E BROAD ST", "postcode": "29554"}}},
{"geometry": {"type": "Point", "coordinates": [-79.4442274499, 33.7532682286]}, "type": "Feature", "properties": {"collection_times": [{"days": "Mon-Fri", "time": "4:15pm"}, {"days": "Sat", "time": "9:45am"}, {"days": "Sun", "time": "Closed"}], "id": "2955400005", "name": "USPS COLLECTION BOX - PO LOBBY", "address": {"city": "HEMINGWAY", "state": "SC", "street": "301 E BROAD ST", "postcode": "29554"}}},
{"geometry": {"type": "Point", "coordinates": [-79.4448033102, 33.8252725783]}, "type": "Feature", "properties": {"collection_times": [{"days": "Mon-Fri", "time": "3:45pm"}, {"days": "Sat", "time": "10:45am"}, {"days": "Sun", "time": "Closed"}], "id": "2955500001", "name": "USPS COLLECTION BOX - PO LOBBY", "address": {"city": "JOHNSONVILLE", "state": "SC", "street": "417 N GEORGETOWN HWY", "postcode": "29555"}}},
{"geometry": {"type": "Point", "coordinates": [-79.4448033102, 33.8252725783]}, "type": "Feature", "properties": {"collection_times": [{"days": "Mon-Fri", "time": "3:45pm"}, {"days": "Sat", "time": "10:45am"}, {"days": "Sun", "time": "Closed"}], "id": "2955500002", "name": "USPS COLLECTION BOX - PO LOBBY", "address": {"city": "JOHNSONVILLE", "state": "SC", "street": "417 N GEORGETOWN HWY", "postcode": "29555"}}},
{"geometry": {"type": "Point", "coordinates": [-79.4448033102, 33.8252725783]}, "type": "Feature", "properties": {"collection_times": [{"days": "Mon-Fri", "time": "3:45pm"}, {"days": "Sat", "time": "10:45am"}, {"days": "Sun", "time": "Closed"}], "id": "2955500003", "name": "USPS COLLECTION BOX - BLUE BOX", "address": {"city": "JOHNSONVILLE", "state": "SC", "street": "417 N GEORGETOWN HWY", "postcode": "29555"}}},
{"geometry": {"type": "Point", "coordinates": [-79.8310727087, 33.6650027164]}, "type": "Feature", "properties": {"collection_times": [{"days": "Mon-Fri", "time": "4:15pm"}, {"days": "Sat", "time": "11:15am"}, {"days": "Sun", "time": "Closed"}], "id": "2955600001", "name": "USPS COLLECTION BOX - BLUE BOX", "address": {"city": "KINGSTREE", "state": "SC", "street": "129 W MILL ST", "postcode": "29556"}}},
{"geometry": {"type": "Point", "coordinates": [-79.8310727087, 33.6650027164]}, "type": "Feature", "properties": {"collection_times": [{"days": "Mon-Fri", "time": "4:15pm"}, {"days": "Sat", "time": "11:15am"}, {"days": "Sun", "time": "Closed"}], "id": "2955600004", "name": "USPS COLLECTION BOX - BLUE BOX", "address": {"city": "KINGSTREE", "state": "SC", "street": "129 W MILL ST", "postcode": "29556"}}},
{"geometry": {"type": "Point", "coordinates": [-79.8227830328, 33.6846409321]}, "type": "Feature", "properties": {"collection_times": [{"days": "Mon-Fri", "time": "3:15pm"}, {"days": "Sat", "time": "10:45am"}, {"days": "Sun", "time": "Closed"}], "id": "2955600005", "name": "USPS COLLECTION BOX - BLUE BOX", "address": {"city": "KINGSTREE", "state": "SC", "street": "1673 N LONGSTREET ST", "postcode": "29556"}}},
{"geometry": {"type": "Point", "coordinates": [-79.8208975649, 33.6604073315]}, "type": "Feature", "properties": {"collection_times": [{"days": "Mon-Fri", "time": "3:15pm"}, {"days": "Sat", "time": "10:00am"}, {"days": "Sun", "time": "Closed"}], "id": "2955600007", "name": "USPS COLLECTION BOX - BLUE BOX", "address": {"city": "KINGSTREE", "state": "SC", "street": "500 NELSON BLVD", "postcode": "29556"}}},
{"geometry": {"type": "Point", "coordinates": [-79.8156529644, 33.6675200214]}, "type": "Feature", "properties": {"collection_times": [{"days": "Mon-Fri", "time": "3:15pm"}, {"days": "Sat", "time": "11:00am"}, {"days": "Sun", "time": "Closed"}], "id": "2955600008", "name": "USPS COLLECTION BOX - BLUE BOX", "address": {"city": "KINGSTREE", "state": "SC", "street": "522 E MAIN ST", "postcode": "29556"}}},
{"geometry": {"type": "Point", "coordinates": [-79.8310727087, 33.6650027164]}, "type": "Feature", "properties": {"collection_times": [{"days": "Mon-Fri", "time": "4:15pm"}, {"days": "Sat", "time": "11:15am"}, {"days": "Sun", "time": "Closed"}], "id": "2955600014", "name": "USPS COLLECTION BOX - PO LOBBY", "address": {"city": "KINGSTREE", "state": "SC", "street": "129 W MILL ST", "postcode": "29556"}}},
{"geometry": {"type": "Point", "coordinates": [-79.7572242085, 33.8750179416]}, "type": "Feature", "properties": {"collection_times": [{"days": "Mon-Fri", "time": "4:15pm"}, {"days": "Sat", "time": "10:45am"}, {"days": "Sun", "time": "Closed"}], "id": "2956000001", "name": "USPS COLLECTION BOX - PO LOBBY", "address": {"city": "LAKE CITY", "state": "SC", "street": "226 W MAIN ST", "postcode": "29560"}}},
{"geometry": {"type": "Point", "coordinates": [-79.7572242085, 33.8750179416]}, "type": "Feature", "properties": {"collection_times": [{"days": "Mon-Fri", "time": "4:15pm"}, {"days": "Sat", "time": "10:45am"}, {"days": "Sun", "time": "Closed"}], "id": "2956000002", "name": "USPS COLLECTION BOX - BLUE BOX", "address": {"city": "LAKE CITY", "state": "SC", "street": "226 W MAIN ST", "postcode": "29560"}}},
{"geometry": {"type": "Point", "coordinates": [-79.7572242085, 33.8750179416]}, "type": "Feature", "properties": {"collection_times": [{"days": "Mon-Fri", "time": "4:15pm"}, {"days": "Sat", "time": "10:45am"}, {"days": "Sun", "time": "Closed"}], "id": "2956000003", "name": "USPS COLLECTION BOX - BLUE BOX", "address": {"city": "LAKE CITY", "state": "SC", "street": "226 W MAIN ST", "postcode": "29560"}}},
{"geometry": {"type": "Point", "coordinates": [-79.759262266, 33.880032695]}, "type": "Feature", "properties": {"collection_times": [{"days": "Mon-Fri", "time": "11:30am"}, {"days": "Sat", "time": "10:30am"}, {"days": "Sun", "time": "Closed"}], "id": "2956000004", "name": "USPS COLLECTION BOX - BLUE BOX", "address": {"city": "LAKE CITY", "state": "SC", "street": "258 N RON MCNAIR BLVD", "postcode": "29560"}}},
{"geometry": {"type": "Point", "coordinates": [-79.7625480156, 33.866467186]}, "type": "Feature", "properties": {"collection_times": [{"days": "Mon-Fri", "time": "11:30am"}, {"days": "Sat", "time": "10:30am"}, {"days": "Sun", "time": "Closed"}], "id": "2956000005", "name": "USPS COLLECTION BOX - BLUE BOX", "address": {"city": "LAKE CITY", "state": "SC", "street": "345 S RON MCNAIR BLVD", "postcode": "29560"}}},
{"geometry": {"type": "Point", "coordinates": [-79.7591531097, 33.8777076316]}, "type": "Feature", "properties": {"collection_times": [{"days": "Mon-Fri", "time": "11:30am"}, {"days": "Sat", "time": "10:30am"}, {"days": "Sun", "time": "Closed"}], "id": "2956000008", "name": "USPS COLLECTION BOX - BLUE BOX", "address": {"city": "LAKE CITY", "state": "SC", "street": "202 KELLEY ST", "postcode": "29560"}}},
{"geometry": {"type": "Point", "coordinates": [-79.7590057395, 33.8799767279]}, "type": "Feature", "properties": {"collection_times": [{"days": "Mon-Fri", "time": "11:30am"}, {"days": "Sat", "time": "10:30am"}, {"days": "Sun", "time": "Closed"}], "id": "2956000010", "name": "USPS COLLECTION BOX - BLUE BOX", "address": {"city": "LAKE CITY", "state": "SC", "street": "257 N RON MCNAIR BLVD", "postcode": "29560"}}},
{"geometry": {"type": "Point", "coordinates": [-79.7544300951, 33.8726987672]}, "type": "Feature", "properties": {"collection_times": [{"days": "Mon-Fri", "time": "11:30am"}, {"days": "Sat", "time": "10:30am"}, {"days": "Sun", "time": "Closed"}], "id": "2956000014", "name": "USPS COLLECTION BOX - BLUE BOX", "address": {"city": "LAKE CITY", "state": "SC", "street": "101 E MAIN ST", "postcode": "29560"}}},
{"geometry": {"type": "Point", "coordinates": [-79.7572242085, 33.8750179416]}, "type": "Feature", "properties": {"collection_times": [{"days": "Mon-Fri", "time": "4:15pm"}, {"days": "Sat", "time": "10:45am"}, {"days": "Sun", "time": "Closed"}], "id": "2956000016", "name": "USPS COLLECTION BOX - PO LOBBY", "address": {"city": "LAKE CITY", "state": "SC", "street": "226 W MAIN ST", "postcode": "29560"}}},
{"geometry": {"type": "Point", "coordinates": [-79.1704525188, 34.3433225148]}, "type": "Feature", "properties": {"collection_times": [{"days": "Mon-Fri", "time": "3:45pm"}, {"days": "Sat", "time": "9:45am"}, {"days": "Sun", "time": "Closed"}], "id": "2956300001", "name": "USPS COLLECTION BOX - BLUE BOX", "address": {"city": "LAKE VIEW", "state": "SC", "street": "211 RICHARD TEMPLE BLVD", "postcode": "29563"}}},
{"geometry": {"type": "Point", "coordinates": [-79.1704525188, 34.3433225148]}, "type": "Feature", "properties": {"collection_times": [{"days": "Mon-Fri", "time": "3:45pm"}, {"days": "Sat", "time": "9:45am"}, {"days": "Sun", "time": "Closed"}], "id": "2956300002", "name": "USPS COLLECTION BOX - PO LOBBY", "address": {"city": "LAKE VIEW", "state": "SC", "street": "211 RICHARD TEMPLE BLVD", "postcode": "29563"}}},
{"geometry": {"type": "Point", "coordinates": [-79.8786986575, 33.5226675251]}, "type": "Feature", "properties": {"collection_times": [{"days": "Mon-Fri", "time": "3:45pm"}, {"days": "Sat", "time": "9:45am"}, {"days": "Sun", "time": "Closed"}], "id": "2956400001", "name": "USPS COLLECTION BOX - BLUE BOX", "address": {"city": "LANE", "state": "SC", "street": "341 S LANE RD", "postcode": "29564"}}},
{"geometry": {"type": "Point", "coordinates": [-79.8786986575, 33.5226675251]}, "type": "Feature", "properties": {"collection_times": [{"days": "Mon-Fri", "time": "3:45pm"}, {"days": "Sat", "time": "9:45am"}, {"days": "Sun", "time": "Closed"}], "id": "2956400002", "name": "USPS COLLECTION BOX - PO LOBBY", "address": {"city": "LANE", "state": "SC", "street": "341 S LANE RD", "postcode": "29564"}}},
{"geometry": {"type": "Point", "coordinates": [-79.4325757956, 34.3378663576]}, "type": "Feature", "properties": {"collection_times": [{"days": "Mon-Fri", "time": "3:45pm"}, {"days": "Sat", "time": "10:45am"}, {"days": "Sun", "time": "Closed"}], "id": "2956500001", "name": "USPS COLLECTION BOX - BLUE BOX", "address": {"city": "LATTA", "state": "SC", "street": "115 W MAIN ST", "postcode": "29565"}}},
{"geometry": {"type": "Point", "coordinates": [-79.4320373268, 34.3361898039]}, "type": "Feature", "properties": {"collection_times": [{"days": "Mon-Fri", "time": "3:45pm"}, {"days": "Sat-Sun", "time": "Closed"}], "id": "2956500003", "name": "USPS COLLECTION BOX - BLUE BOX", "address": {"city": "LATTA", "state": "SC", "street": "101 E LEITNER ST", "postcode": "29565"}}},
{"geometry": {"type": "Point", "coordinates": [-79.4325757956, 34.3378663576]}, "type": "Feature", "properties": {"collection_times": [{"days": "Mon-Fri", "time": "3:45pm"}, {"days": "Sat", "time": "10:45am"}, {"days": "Sun", "time": "Closed"}], "id": "2956500006", "name": "USPS COLLECTION BOX - PO LOBBY", "address": {"city": "LATTA", "state": "SC", "street": "115 W MAIN ST", "postcode": "29565"}}},
{"geometry": {"type": "Point", "coordinates": [-79.4325757956, 34.3378663576]}, "type": "Feature", "properties": {"collection_times": [{"days": "Mon-Fri", "time": "3:45pm"}, {"days": "Sat", "time": "10:45am"}, {"days": "Sun", "time": "Closed"}], "id": "2956500007", "name": "USPS COLLECTION BOX - PO LOBBY", "address": {"city": "LATTA", "state": "SC", "street": "115 W MAIN ST", "postcode": "29565"}}},
{"geometry": {"type": "Point", "coordinates": [-78.6267587919, 33.8705188322]}, "type": "Feature", "properties": {"collection_times": [{"days": "Mon-Fri", "time": "4:15pm"}, {"days": "Sat", "time": "10:00am"}, {"days": "Sun", "time": "Closed"}], "id": "2956600003", "name": "USPS COLLECTION BOX - BLUE BOX", "address": {"city": "LITTLE RIVER", "state": "SC", "street": "4299 HORSESHOE RD N", "postcode": "29566"}}},
{"geometry": {"type": "Point", "coordinates": [-78.6267587919, 33.8705188322]}, "type": "Feature", "properties": {"collection_times": [{"days": "Mon-Fri", "time": "4:15pm"}, {"days": "Sat", "time": "10:00am"}, {"days": "Sun", "time": "Closed"}], "id": "2956600004", "name": "USPS COLLECTION BOX - PO LOBBY", "address": {"city": "LITTLE RIVER", "state": "SC", "street": "4299 HORSESHOE RD N", "postcode": "29566"}}},
{"geometry": {"type": "Point", "coordinates": [-78.6267587919, 33.8705188322]}, "type": "Feature", "properties": {"collection_times": [{"days": "Mon-Fri", "time": "4:15pm"}, {"days": "Sat", "time": "10:00am"}, {"days": "Sun", "time": "Closed"}], "id": "2956600005", "name": "USPS COLLECTION BOX - PO LOBBY", "address": {"city": "LITTLE RIVER", "state": "SC", "street": "4299 HORSESHOE RD N", "postcode": "29566"}}},
{"geometry": {"type": "Point", "coordinates": [-79.409692542, 34.5377726069]}, "type": "Feature", "properties": {"collection_times": [{"days": "Mon-Fri", "time": "3:45pm"}, {"days": "Sat", "time": "9:45am"}, {"days": "Sun", "time": "Closed"}], "id": "2956700001", "name": "USPS COLLECTION BOX - PO LOBBY", "address": {"city": "LITTLE ROCK", "state": "SC", "street": "1403 HARLLEES BRIDGE RD", "postcode": "29567"}}},
{"geometry": {"type": "Point", "coordinates": [-79.409692542, 34.5377726069]}, "type": "Feature", "properties": {"collection_times": [{"days": "Mon-Fri", "time": "3:45pm"}, {"days": "Sat", "time": "9:45am"}, {"days": "Sun", "time": "Closed"}], "id": "2956700002", "name": "USPS COLLECTION BOX - BLUE BOX", "address": {"city": "LITTLE ROCK", "state": "SC", "street": "1403 HARLLEES BRIDGE RD", "postcode": "29567"}}},
{"geometry": {"type": "Point", "coordinates": [-78.7317768714, 33.9369114065]}, "type": "Feature", "properties": {"collection_times": [{"days": "Mon-Fri", "time": "3:45pm"}, {"days": "Sat", "time": "9:45am"}, {"days": "Sun", "time": "Closed"}], "id": "2956800006", "name": "USPS COLLECTION BOX - BLUE BOX", "address": {"city": "LONGS", "state": "SC", "street": "50 HIGHWAY 9 E", "postcode": "29568"}}},
{"geometry": {"type": "Point", "coordinates": [-78.7317768714, 33.9369114065]}, "type": "Feature", "properties": {"collection_times": [{"days": "Mon-Fri", "time": "3:45pm"}, {"days": "Sat", "time": "9:45am"}, {"days": "Sun", "time": "Closed"}], "id": "2956800007", "name": "USPS COLLECTION BOX - PO LOBBY", "address": {"city": "LONGS", "state": "SC", "street": "50 HIGHWAY 9 E", "postcode": "29568"}}},
{"geometry": {"type": "Point", "coordinates": [-78.8941461788, 34.057977938]}, "type": "Feature", "properties": {"collection_times": [{"days": "Mon-Fri", "time": "1:45pm"}, {"days": "Sat", "time": "12:00pm"}, {"days": "Sun", "time": "Closed"}], "id": "2956900001", "name": "USPS COLLECTION BOX - BLUE BOX", "address": {"city": "LORIS", "state": "SC", "street": "3701 MAIN ST", "postcode": "29569"}}},
{"geometry": {"type": "Point", "coordinates": [-78.8971464268, 34.0594241724]}, "type": "Feature", "properties": {"collection_times": [{"days": "Mon-Fri", "time": "1:45pm"}, {"days": "Sat", "time": "12:00pm"}, {"days": "Sun", "time": "Closed"}], "id": "2956900003", "name": "USPS COLLECTION BOX - BLUE BOX", "address": {"city": "LORIS", "state": "SC", "street": "3107 MAIN ST", "postcode": "29569"}}},
{"geometry": {"type": "Point", "coordinates": [-78.8901167741, 34.0562778292]}, "type": "Feature", "properties": {"collection_times": [{"days": "Mon-Fri", "time": "1:45pm"}, {"days": "Sat", "time": "12:00pm"}, {"days": "Sun", "time": "Closed"}], "id": "2956900005", "name": "USPS COLLECTION BOX - BLUE BOX", "address": {"city": "LORIS", "state": "SC", "street": "4112 MAIN ST", "postcode": "29569"}}},
{"geometry": {"type": "Point", "coordinates": [-78.8878656215, 34.0568055632]}, "type": "Feature", "properties": {"collection_times": [{"days": "Mon-Fri", "time": "1:45pm"}, {"days": "Sat", "time": "12:00pm"}, {"days": "Sun", "time": "Closed"}], "id": "2956900007", "name": "USPS COLLECTION BOX - BLUE BOX", "address": {"city": "LORIS", "state": "SC", "street": "4206 BROAD ST", "postcode": "29569"}}},
{"geometry": {"type": "Point", "coordinates": [-78.8980476906, 34.0573919146]}, "type": "Feature", "properties": {"collection_times": [{"days": "Mon-Fri", "time": "1:45pm"}, {"days": "Sat", "time": "12:00pm"}, {"days": "Sun", "time": "Closed"}], "id": "2956900008", "name": "USPS COLLECTION BOX - BLUE BOX", "address": {"city": "LORIS", "state": "SC", "street": "3655 MITCHELL ST", "postcode": "29569"}}},
{"geometry": {"type": "Point", "coordinates": [-78.8838731993, 34.0620467403]}, "type": "Feature", "properties": {"collection_times": [{"days": "Mon-Fri", "time": "2:00pm"}, {"days": "Sat", "time": "12:15pm"}, {"days": "Sun", "time": "Closed"}], "id": "2956900009", "name": "USPS COLLECTION BOX - BLUE BOX", "address": {"city": "LORIS", "state": "SC", "street": "5000 BROAD ST", "postcode": "29569"}}},
{"geometry": {"type": "Point", "coordinates": [-78.9716863694, 34.0045686214]}, "type": "Feature", "properties": {"collection_times": [{"days": "Mon-Fri", "time": "4:15pm"}, {"days": "Sat", "time": "2:00pm"}, {"days": "Sun", "time": "Closed"}], "id": "2956900010", "name": "USPS COLLECTION BOX - PO LOBBY", "address": {"city": "LORIS", "state": "SC", "street": "3085 BROAD ST", "postcode": "29569"}}},
{"geometry": {"type": "Point", "coordinates": [-78.9716863694, 34.0045686214]}, "type": "Feature", "properties": {"collection_times": [{"days": "Mon-Fri", "time": "4:15pm"}, {"days": "Sat", "time": "2:00pm"}, {"days": "Sun", "time": "Closed"}], "id": "2956900011", "name": "USPS COLLECTION BOX - PO LOBBY", "address": {"city": "LORIS", "state": "SC", "street": "3085 BROAD ST", "postcode": "29569"}}},
{"geometry": {"type": "Point", "coordinates": [-78.9716863694, 34.0045686214]}, "type": "Feature", "properties": {"collection_times": [{"days": "Mon-Fri", "time": "4:15pm"}, {"days": "Sat", "time": "2:00pm"}, {"days": "Sun", "time": "Closed"}], "id": "2956900012", "name": "USPS COLLECTION BOX - BLUE BOX", "address": {"city": "LORIS", "state": "SC", "street": "3085 BROAD ST", "postcode": "29569"}}},
{"geometry": {"type": "Point", "coordinates": [-78.9716863694, 34.0045686214]}, "type": "Feature", "properties": {"collection_times": [{"days": "Mon-Fri", "time": "4:15pm"}, {"days": "Sat", "time": "2:00pm"}, {"days": "Sun", "time": "Closed"}], "id": "2956900013", "name": "USPS COLLECTION BOX - BLUE BOX", "address": {"city": "LORIS", "state": "SC", "street": "3085 BROAD ST", "postcode": "29569"}}},
{"geometry": {"type": "Point", "coordinates": [-79.5466146469, 34.6675262753]}, "type": "Feature", "properties": {"collection_times": [{"days": "Mon-Fri", "time": "3:45pm"}, {"days": "Sat", "time": "9:45am"}, {"days": "Sun", "time": "Closed"}], "id": "2957000005", "name": "USPS COLLECTION BOX - BLUE BOX", "address": {"city": "MCCOLL", "state": "SC", "street": "201 N MAIN ST", "postcode": "29570"}}},
{"geometry": {"type": "Point", "coordinates": [-79.5466146469, 34.6675262753]}, "type": "Feature", "properties": {"collection_times": [{"days": "Mon-Fri", "time": "3:45pm"}, {"days": "Sat", "time": "9:45am"}, {"days": "Sun", "time": "Closed"}], "id": "2957000010", "name": "USPS COLLECTION BOX - PO LOBBY", "address": {"city": "MCCOLL", "state": "SC", "street": "201 N MAIN ST", "postcode": "29570"}}},
{"geometry": {"type": "Point", "coordinates": [-79.394348836, 34.1664330727]}, "type": "Feature", "properties": {"collection_times": [{"days": "Mon-Fri", "time": "3:15pm"}, {"days": "Sat-Sun", "time": "Closed"}], "id": "2957100004", "name": "USPS COLLECTION BOX - BLUE BOX", "address": {"city": "MARION", "state": "SC", "street": "1205 N MAIN ST", "postcode": "29571"}}},
{"geometry": {"type": "Point", "coordinates": [-79.4002460788, 34.1806960774]}, "type": "Feature", "properties": {"collection_times": [{"days": "Mon-Fri", "time": "3:15pm"}, {"days": "Sat-Sun", "time": "Closed"}], "id": "2957100005", "name": "USPS COLLECTION BOX - BLUE BOX", "address": {"city": "MARION", "state": "SC", "street": "301 N MAIN ST", "postcode": "29571"}}},
{"geometry": {"type": "Point", "coordinates": [-79.4207704027, 34.140940249]}, "type": "Feature", "properties": {"collection_times": [{"days": "Mon-Fri", "time": "3:15pm"}, {"days": "Sat-Sun", "time": "Closed"}], "id": "2957100010", "name": "USPS COLLECTION BOX - BLUE BOX", "address": {"city": "MARION", "state": "SC", "street": "34393 S FRONTAGE ST", "postcode": "29571"}}},
{"geometry": {"type": "Point", "coordinates": [-79.385896181, 34.177818829]}, "type": "Feature", "properties": {"collection_times": [{"days": "Mon-Fri", "time": "3:00pm"}, {"days": "Sat-Sun", "time": "Closed"}], "id": "2957100015", "name": "USPS COLLECTION BOX - BLUE BOX", "address": {"city": "MARION", "state": "SC", "street": "1806 E HIGHWAY 76", "postcode": "29571"}}},
{"geometry": {"type": "Point", "coordinates": [-79.4004041002, 34.1772532956]}, "type": "Feature", "properties": {"collection_times": [{"days": "Mon-Fri", "time": "4:45pm"}, {"days": "Sat", "time": "3:00pm"}, {"days": "Sun", "time": "Closed"}], "id": "2957100016", "name": "USPS COLLECTION BOX - BLUE BOX", "address": {"city": "MARION", "state": "SC", "street": "201 S MAIN ST", "postcode": "29571"}}},
{"geometry": {"type": "Point", "coordinates": [-79.4004041002, 34.1772532956]}, "type": "Feature", "properties": {"collection_times": [{"days": "Mon-Fri", "time": "4:45pm"}, {"days": "Sat", "time": "3:00pm"}, {"days": "Sun", "time": "Closed"}], "id": "2957100018", "name": "USPS COLLECTION BOX - BLUE BOX", "address": {"city": "MARION", "state": "SC", "street": "201 S MAIN ST", "postcode": "29571"}}},
{"geometry": {"type": "Point", "coordinates": [-78.8328479376, 33.7444783578]}, "type": "Feature", "properties": {"collection_times": [{"days": "Mon-Fri", "time": "3:45pm"}, {"days": "Sat", "time": "11:00am"}, {"days": "Sun", "time": "Closed"}], "id": "2957200000", "name": "USPS COLLECTION BOX - BLUE BOX", "address": {"city": "MYRTLE BEACH", "state": "SC", "street": "820 67TH AVE N", "postcode": "29572"}}},
{"geometry": {"type": "Point", "coordinates": [-78.8328479376, 33.7444783578]}, "type": "Feature", "properties": {"collection_times": [{"days": "Mon-Fri", "time": "3:45pm"}, {"days": "Sat", "time": "11:00am"}, {"days": "Sun", "time": "Closed"}], "id": "2957200001", "name": "USPS COLLECTION BOX - PO LOBBY", "address": {"city": "MYRTLE BEACH", "state": "SC", "street": "820 67TH AVE N", "postcode": "29572"}}},
{"geometry": {"type": "Point", "coordinates": [-78.8328479376, 33.7444783578]}, "type": "Feature", "properties": {"collection_times": [{"days": "Mon-Fri", "time": "3:45pm"}, {"days": "Sat", "time": "11:00am"}, {"days": "Sun", "time": "Closed"}], "id": "2957200002", "name": "USPS COLLECTION BOX - PO LOBBY", "address": {"city": "MYRTLE BEACH", "state": "SC", "street": "820 67TH AVE N", "postcode": "29572"}}},
{"geometry": {"type": "Point", "coordinates": [-78.7874199846, 33.7696015038]}, "type": "Feature", "properties": {"collection_times": [{"days": "Mon-Sat", "time": "11:00am"}, {"days": "Sun", "time": "Closed"}], "id": "2957200005", "name": "USPS COLLECTION BOX - BLUE BOX", "address": {"city": "MYRTLE BEACH", "state": "SC", "street": "9760 KINGS RD", "postcode": "29572"}}},
{"geometry": {"type": "Point", "coordinates": [-78.7722868036, 33.7866601139]}, "type": "Feature", "properties": {"collection_times": [{"days": "Mon-Sat", "time": "11:00am"}, {"days": "Sun", "time": "Closed"}], "id": "2957200006", "name": "USPS COLLECTION BOX - BLUE BOX", "address": {"city": "MYRTLE BEACH", "state": "SC", "street": "10820 KINGS RD", "postcode": "29572"}}},
{"geometry": {"type": "Point", "coordinates": [-78.8167849293, 33.748742737]}, "type": "Feature", "properties": {"collection_times": [{"days": "Mon-Sat", "time": "11:00am"}, {"days": "Sun", "time": "Closed"}], "id": "2957200007", "name": "USPS COLLECTION BOX - BLUE BOX", "address": {"city": "MYRTLE BEACH", "state": "SC", "street": "7833 N KINGS HWY", "postcode": "29572"}}},
{"geometry": {"type": "Point", "coordinates": [-78.8166131986, 33.7589180871]}, "type": "Feature", "properties": {"collection_times": [{"days": "Mon-Sat", "time": "11:00am"}, {"days": "Sun", "time": "Closed"}], "id": "2957200008", "name": "USPS COLLECTION BOX - BLUE BOX", "address": {"city": "MYRTLE BEACH", "state": "SC", "street": "909 MEDICAL CIR", "postcode": "29572"}}},
{"geometry": {"type": "Point", "coordinates": [-78.8165186424, 33.7570577046]}, "type": "Feature", "properties": {"collection_times": [{"days": "Mon-Sat", "time": "11:00am"}, {"days": "Sun", "time": "Closed"}], "id": "2957200009", "name": "USPS COLLECTION BOX - BLUE BOX", "address": {"city": "MYRTLE BEACH", "state": "SC", "street": "809 82ND AVE N", "postcode": "29572"}}},
{"geometry": {"type": "Point", "coordinates": [-78.7859521705, 33.7832424294]}, "type": "Feature", "properties": {"collection_times": [{"days": "Mon-Sat", "time": "11:00am"}, {"days": "Sun", "time": "Closed"}], "id": "2957200010", "name": "USPS COLLECTION BOX - BLUE BOX", "address": {"city": "MYRTLE BEACH", "state": "SC", "street": "9650 N KINGS HWY", "postcode": "29572"}}},
{"geometry": {"type": "Point", "coordinates": [-78.832618338, 33.7354907629]}, "type": "Feature", "properties": {"collection_times": [{"days": "Mon-Sat", "time": "11:00am"}, {"days": "Sun", "time": "Closed"}], "id": "2957200011", "name": "USPS COLLECTION BOX - BLUE BOX", "address": {"city": "MYRTLE BEACH", "state": "SC", "street": "6105 N KINGS HWY", "postcode": "29572"}}},
{"geometry": {"type": "Point", "coordinates": [-79.255010772, 34.2080851763]}, "type": "Feature", "properties": {"collection_times": [{"days": "Mon-Fri", "time": "5:00pm"}, {"days": "Sat", "time": "3:30pm"}, {"days": "Sun", "time": "Closed"}], "id": "2957400001", "name": "USPS COLLECTION BOX - BLUE BOX", "address": {"city": "MULLINS", "state": "SC", "street": "320 N MAIN ST", "postcode": "29574"}}},
{"geometry": {"type": "Point", "coordinates": [-79.2538232263, 34.2027277192]}, "type": "Feature", "properties": {"collection_times": [{"days": "Mon-Fri", "time": "4:30pm"}, {"days": "Sat", "time": "3:15pm"}, {"days": "Sun", "time": "Closed"}], "id": "2957400005", "name": "USPS COLLECTION BOX - BLUE BOX", "address": {"city": "MULLINS", "state": "SC", "street": "300 S MAIN ST", "postcode": "29574"}}},
{"geometry": {"type": "Point", "coordinates": [-79.2542115866, 34.2041113678]}, "type": "Feature", "properties": {"collection_times": [{"days": "Mon-Fri", "time": "4:30pm"}, {"days": "Sat", "time": "3:15pm"}, {"days": "Sun", "time": "Closed"}], "id": "2957400008", "name": "USPS COLLECTION BOX - BLUE BOX", "address": {"city": "MULLINS", "state": "SC", "street": "100 W LAUREL ST", "postcode": "29574"}}},
{"geometry": {"type": "Point", "coordinates": [-79.2560544801, 34.1997385228]}, "type": "Feature", "properties": {"collection_times": [{"days": "Mon-Fri", "time": "4:30pm"}, {"days": "Sat", "time": "3:15pm"}, {"days": "Sun", "time": "Closed"}], "id": "2957400012", "name": "USPS COLLECTION BOX - BLUE BOX", "address": {"city": "MULLINS", "state": "SC", "street": "221 W MCINTYRE ST", "postcode": "29574"}}},
{"geometry": {"type": "Point", "coordinates": [-79.2519658075, 34.2030598666]}, "type": "Feature", "properties": {"collection_times": [{"days": "Mon-Fri", "time": "4:45pm"}, {"days": "Sat", "time": "3:30pm"}, {"days": "Sun", "time": "Closed"}], "id": "2957400014", "name": "USPS COLLECTION BOX - BLUE BOX", "address": {"city": "MULLINS", "state": "SC", "street": "300 S PARK ST", "postcode": "29574"}}},
{"geometry": {"type": "Point", "coordinates": [-79.2523599355, 34.1969312155]}, "type": "Feature", "properties": {"collection_times": [{"days": "Mon-Fri", "time": "4:45pm"}, {"days": "Sat", "time": "3:15pm"}, {"days": "Sun", "time": "Closed"}], "id": "2957400018", "name": "USPS COLLECTION BOX - BLUE BOX", "address": {"city": "MULLINS", "state": "SC", "street": "700 S MAIN ST", "postcode": "29574"}}},
{"geometry": {"type": "Point", "coordinates": [-79.255010772, 34.2080851763]}, "type": "Feature", "properties": {"collection_times": [{"days": "Mon-Fri", "time": "5:00pm"}, {"days": "Sat", "time": "3:30pm"}, {"days": "Sun", "time": "Closed"}], "id": "2957400022", "name": "USPS COLLECTION BOX - PO LOBBY", "address": {"city": "MULLINS", "state": "SC", "street": "320 N MAIN ST", "postcode": "29574"}}},
{"geometry": {"type": "Point", "coordinates": [-79.255010772, 34.2080851763]}, "type": "Feature", "properties": {"collection_times": [{"days": "Mon-Fri", "time": "5:00pm"}, {"days": "Sat", "time": "3:30pm"}, {"days": "Sun", "time": "Closed"}], "id": "2957400023", "name": "USPS COLLECTION BOX - PO LOBBY", "address": {"city": "MULLINS", "state": "SC", "street": "320 N MAIN ST", "postcode": "29574"}}},
{"geometry": {"type": "Point", "coordinates": [-79.3229186271, 34.1890488836]}, "type": "Feature", "properties": {"collection_times": [{"days": "Mon-Fri", "time": "4:15pm"}, {"days": "Sat", "time": "3:00pm"}, {"days": "Sun", "time": "Closed"}], "id": "2957400024", "name": "USPS COLLECTION BOX - BLUE BOX", "address": {"city": "MULLINS", "state": "SC", "street": "2845 E HIGHWAY 76", "postcode": "29574"}}},
{"geometry": {"type": "Point", "coordinates": [-79.326581117, 34.188688708]}, "type": "Feature", "properties": {"collection_times": [{"days": "Mon-Fri", "time": "4:15pm"}, {"days": "Sat", "time": "3:00pm"}, {"days": "Sun", "time": "Closed"}], "id": "2957400025", "name": "USPS COLLECTION BOX - BLUE BOX", "address": {"city": "MULLINS", "state": "SC", "street": "2715 E HIGHWAY 76", "postcode": "29574"}}},
{"geometry": {"type": "Point", "coordinates": [-79.2531030481, 34.1998218059]}, "type": "Feature", "properties": {"collection_times": [{"days": "Mon-Fri", "time": "4:45pm"}, {"days": "Sat", "time": "3:15pm"}, {"days": "Sun", "time": "Closed"}], "id": "2957400026", "name": "USPS COLLECTION BOX - BLUE BOX", "address": {"city": "MULLINS", "state": "SC", "street": "518 S MAIN ST", "postcode": "29574"}}},
{"geometry": {"type": "Point", "coordinates": [-79.2627620599, 34.1710040599]}, "type": "Feature", "properties": {"collection_times": [{"days": "Mon-Fri", "time": "4:15pm"}, {"days": "Sat", "time": "3:00pm"}, {"days": "Sun", "time": "Closed"}], "id": "2957400027", "name": "USPS COLLECTION BOX - BLUE BOX", "address": {"city": "MULLINS", "state": "SC", "street": "137 AIRPORT CT", "postcode": "29574"}}},
{"geometry": {"type": "Point", "coordinates": [-78.9785318261, 33.6152355399]}, "type": "Feature", "properties": {"collection_times": [{"days": "Mon-Fri", "time": "4:15pm"}, {"days": "Sat", "time": "2:00pm"}, {"days": "Sun", "time": "Closed"}], "id": "2957500001", "name": "USPS COLLECTION BOX - BLUE BOX", "address": {"city": "MYRTLE BEACH", "state": "SC", "street": "420 HWY 17 N BUS", "postcode": "29575"}}},
{"geometry": {"type": "Point", "coordinates": [-78.9785318261, 33.6152355399]}, "type": "Feature", "properties": {"collection_times": [{"days": "Mon-Fri", "time": "4:15pm"}, {"days": "Sat", "time": "2:00pm"}, {"days": "Sun", "time": "Closed"}], "id": "2957500002", "name": "USPS COLLECTION BOX - PO LOBBY", "address": {"city": "MYRTLE BEACH", "state": "SC", "street": "420 HWY 17 N BUS", "postcode": "29575"}}},
{"geometry": {"type": "Point", "coordinates": [-78.9785318261, 33.6152355399]}, "type": "Feature", "properties": {"collection_times": [{"days": "Mon-Fri", "time": "4:15pm"}, {"days": "Sat", "time": "2:00pm"}, {"days": "Sun", "time": "Closed"}], "id": "2957500003", "name": "USPS COLLECTION BOX - PO LOBBY", "address": {"city": "MYRTLE BEACH", "state": "SC", "street": "420 HWY 17 N BUS", "postcode": "29575"}}},
{"geometry": {"type": "Point", "coordinates": [-78.9603008732, 33.6310617871]}, "type": "Feature", "properties": {"collection_times": [{"days": "Mon-Sat", "time": "11:00am"}, {"days": "Sun", "time": "Closed"}], "id": "2957500004", "name": "USPS COLLECTION BOX - BLUE BOX", "address": {"city": "MYRTLE BEACH", "state": "SC", "street": "6001 S KINGS HWY", "postcode": "29575"}}},
{"geometry": {"type": "Point", "coordinates": [-78.9776367388, 33.6181237478]}, "type": "Feature", "properties": {"collection_times": [{"days": "Mon-Fri", "time": "4:15pm"}, {"days": "Sat", "time": "2:00pm"}, {"days": "Sun", "time": "Closed"}], "id": "2957500005", "name": "USPS COLLECTION BOX - APC", "address": {"city": "MYRTLE BEACH", "state": "SC", "street": "420 HIGHWAY 17 N", "postcode": "29575"}}},
{"geometry": {"type": "Point", "coordinates": [-79.0421949011, 33.5551481489]}, "type": "Feature", "properties": {"collection_times": [{"days": "Mon-Fri", "time": "4:45pm"}, {"days": "Sat", "time": "2:15pm"}, {"days": "Sun", "time": "Closed"}], "id": "2957600001", "name": "USPS COLLECTION BOX - BLUE BOX", "address": {"city": "MURRELLS INLET", "state": "SC", "street": "654 BELLAMY AVE", "postcode": "29576"}}},
{"geometry": {"type": "Point", "coordinates": [-79.0140037765, 33.584677524]}, "type": "Feature", "properties": {"collection_times": [{"days": "Mon-Sat", "time": "10:30am"}, {"days": "Sun", "time": "Closed"}], "id": "2957600006", "name": "USPS COLLECTION BOX - BLUE BOX", "address": {"city": "MURRELLS INLET", "state": "SC", "street": "2939 S HIGHWAY 17", "postcode": "29576"}}},
{"geometry": {"type": "Point", "coordinates": [-79.0421949011, 33.5551481489]}, "type": "Feature", "properties": {"collection_times": [{"days": "Mon-Fri", "time": "4:45pm"}, {"days": "Sat", "time": "2:15pm"}, {"days": "Sun", "time": "Closed"}], "id": "2957600009", "name": "USPS COLLECTION BOX - BLUE BOX", "address": {"city": "MURRELLS INLET", "state": "SC", "street": "654 BELLAMY AVE", "postcode": "29576"}}},
{"geometry": {"type": "Point", "coordinates": [-79.0421949011, 33.5551481489]}, "type": "Feature", "properties": {"collection_times": [{"days": "Mon-Fri", "time": "4:45pm"}, {"days": "Sat", "time": "2:15pm"}, {"days": "Sun", "time": "Closed"}], "id": "2957600010", "name": "USPS COLLECTION BOX - PO LOBBY", "address": {"city": "MURRELLS INLET", "state": "SC", "street": "654 BELLAMY AVE", "postcode": "29576"}}},
{"geometry": {"type": "Point", "coordinates": [-79.0421949011, 33.5551481489]}, "type": "Feature", "properties": {"collection_times": [{"days": "Mon-Fri", "time": "4:45pm"}, {"days": "Sat", "time": "2:15pm"}, {"days": "Sun", "time": "Closed"}], "id": "2957600011", "name": "USPS COLLECTION BOX - PO LOBBY", "address": {"city": "MURRELLS INLET", "state": "SC", "street": "654 BELLAMY AVE", "postcode": "29576"}}},
{"geometry": {"type": "Point", "coordinates": [-79.0136296441, 33.5917382462]}, "type": "Feature", "properties": {"collection_times": [{"days": "Mon-Sat", "time": "10:30am"}, {"days": "Sun", "time": "Closed"}], "id": "2957600014", "name": "USPS COLLECTION BOX - BLUE BOX", "address": {"city": "MURRELLS INLET", "state": "SC", "street": "901 GARDEN CITY CONNECTOR", "postcode": "29576"}}},
{"geometry": {"type": "Point", "coordinates": [-78.8616930109, 33.732297458]}, "type": "Feature", "properties": {"collection_times": [{"days": "Mon-Sat", "time": "11:00am"}, {"days": "Sun", "time": "Closed"}], "id": "2957700014", "name": "USPS COLLECTION BOX - BLUE BOX", "address": {"city": "MYRTLE BEACH", "state": "SC", "street": "4707 OLEANDER DR", "postcode": "29577"}}},
{"geometry": {"type": "Point", "coordinates": [-78.8771533184, 33.6982218189]}, "type": "Feature", "properties": {"collection_times": [{"days": "Mon-Sat", "time": "11:00am"}, {"days": "Sun", "time": "Closed"}], "id": "2957700018", "name": "USPS COLLECTION BOX - BLUE BOX", "address": {"city": "MYRTLE BEACH", "state": "SC", "street": "1501 N KINGS HWY", "postcode": "29577"}}},
{"geometry": {"type": "Point", "coordinates": [-78.8776778604, 33.7014488425]}, "type": "Feature", "properties": {"collection_times": [{"days": "Mon-Sat", "time": "11:00am"}, {"days": "Sun", "time": "Closed"}], "id": "2957700027", "name": "USPS COLLECTION BOX - BLUE BOX", "address": {"city": "MYRTLE BEACH", "state": "SC", "street": "1705 N OAK ST", "postcode": "29577"}}},
{"geometry": {"type": "Point", "coordinates": [-78.886783271, 33.689922967]}, "type": "Feature", "properties": {"collection_times": [{"days": "Mon-Fri", "time": "4:15pm"}, {"days": "Sat", "time": "11:45am"}, {"days": "Sun", "time": "Closed"}], "id": "2957700046", "name": "USPS COLLECTION BOX - PO LOBBY", "address": {"city": "MYRTLE BEACH", "state": "SC", "street": "505 N KINGS HWY", "postcode": "29577"}}},
{"geometry": {"type": "Point", "coordinates": [-78.8745824949, 33.7045723598]}, "type": "Feature", "properties": {"collection_times": [{"days": "Mon-Sat", "time": "11:00am"}, {"days": "Sun", "time": "Closed"}], "id": "2957700054", "name": "USPS COLLECTION BOX - BLUE BOX", "address": {"city": "MYRTLE BEACH", "state": "SC", "street": "710 21ST AVE N", "postcode": "29577"}}},
{"geometry": {"type": "Point", "coordinates": [-78.8901796554, 33.7157331663]}, "type": "Feature", "properties": {"collection_times": [{"days": "Mon-Sat", "time": "11:00am"}, {"days": "Sun", "time": "Closed"}], "id": "2957700061", "name": "USPS COLLECTION BOX - BLUE BOX", "address": {"city": "MYRTLE BEACH", "state": "SC", "street": "1353 21ST AVE N", "postcode": "29577"}}},
{"geometry": {"type": "Point", "coordinates": [-78.860576268, 33.7304944874]}, "type": "Feature", "properties": {"collection_times": [{"days": "Mon-Sat", "time": "11:00am"}, {"days": "Sun", "time": "Closed"}], "id": "2957700064", "name": "USPS COLLECTION BOX - BLUE BOX", "address": {"city": "MYRTLE BEACH", "state": "SC", "street": "1300 PROFESSIONAL DR", "postcode": "29577"}}},
{"geometry": {"type": "Point", "coordinates": [-78.886783271, 33.689922967]}, "type": "Feature", "properties": {"collection_times": [{"days": "Mon-Fri", "time": "4:15pm"}, {"days": "Sat", "time": "11:45am"}, {"days": "Sun", "time": "Closed"}], "id": "2957700070", "name": "USPS COLLECTION BOX - BLUE BOX", "address": {"city": "MYRTLE BEACH", "state": "SC", "street": "505 N KINGS HWY", "postcode": "29577"}}},
{"geometry": {"type": "Point", "coordinates": [-78.8717315747, 33.7070938609]}, "type": "Feature", "properties": {"collection_times": [{"days": "Mon-Sat", "time": "11:00am"}, {"days": "Sun", "time": "Closed"}], "id": "2957700077", "name": "USPS COLLECTION BOX - BLUE BOX", "address": {"city": "MYRTLE BEACH", "state": "SC", "street": "2411 N OAK ST", "postcode": "29577"}}},
{"geometry": {"type": "Point", "coordinates": [-78.886783271, 33.689922967]}, "type": "Feature", "properties": {"collection_times": [{"days": "Mon-Fri", "time": "4:15pm"}, {"days": "Sat", "time": "11:45am"}, {"days": "Sun", "time": "Closed"}], "id": "2957700079", "name": "USPS COLLECTION BOX - APC", "address": {"city": "MYRTLE BEACH", "state": "SC", "street": "505 N KINGS HWY", "postcode": "29577"}}},
{"geometry": {"type": "Point", "coordinates": [-78.9616121286, 33.7620226987]}, "type": "Feature", "properties": {"collection_times": [{"days": "Mon-Fri", "time": "3:45pm"}, {"days": "Sat", "time": "2:30pm"}, {"days": "Sun", "time": "Closed"}], "id": "2957900000", "name": "USPS COLLECTION BOX - BLUE BOX", "address": {"city": "MYRTLE BEACH", "state": "SC", "street": "4025 POSTAL WAY", "postcode": "29579"}}},
{"geometry": {"type": "Point", "coordinates": [-78.9616121286, 33.7620226987]}, "type": "Feature", "properties": {"collection_times": [{"days": "Mon-Fri", "time": "3:45pm"}, {"days": "Sat", "time": "2:30pm"}, {"days": "Sun", "time": "Closed"}], "id": "2957900001", "name": "USPS COLLECTION BOX - PO LOBBY", "address": {"city": "MYRTLE BEACH", "state": "SC", "street": "4025 POSTAL WAY", "postcode": "29579"}}},
{"geometry": {"type": "Point", "coordinates": [-79.5141153263, 33.6579687621]}, "type": "Feature", "properties": {"collection_times": [{"days": "Mon-Fri", "time": "3:45pm"}, {"days": "Sat", "time": "9:45am"}, {"days": "Sun", "time": "Closed"}], "id": "2958000001", "name": "USPS COLLECTION BOX - BLUE BOX", "address": {"city": "NESMITH", "state": "SC", "street": "11 MINGO CHANDLER RD", "postcode": "29580"}}},
{"geometry": {"type": "Point", "coordinates": [-79.1464586025, 34.232248274]}, "type": "Feature", "properties": {"collection_times": [{"days": "Mon-Fri", "time": "3:45pm"}, {"days": "Sat", "time": "9:45am"}, {"days": "Sun", "time": "Closed"}], "id": "2958100001", "name": "USPS COLLECTION BOX - BLUE BOX", "address": {"city": "NICHOLS", "state": "SC", "street": "206 S NICHOLS ST", "postcode": "29581"}}},
{"geometry": {"type": "Point", "coordinates": [-79.1464586025, 34.232248274]}, "type": "Feature", "properties": {"collection_times": [{"days": "Mon-Fri", "time": "3:45pm"}, {"days": "Sat", "time": "9:45am"}, {"days": "Sun", "time": "Closed"}], "id": "2958100002", "name": "USPS COLLECTION BOX - PO LOBBY", "address": {"city": "NICHOLS", "state": "SC", "street": "206 S NICHOLS ST", "postcode": "29581"}}},
{"geometry": {"type": "Point", "coordinates": [-78.6436628113, 33.8293978864]}, "type": "Feature", "properties": {"collection_times": [{"days": "Mon-Fri", "time": "11:30am"}, {"days": "Sat", "time": "11:15am"}, {"days": "Sun", "time": "Closed"}], "id": "2958200002", "name": "USPS COLLECTION BOX - BLUE BOX", "address": {"city": "ATLANTIC BEACH", "state": "SC", "street": "303 SEA MOUNTAIN HWY", "postcode": "29582"}}},
{"geometry": {"type": "Point", "coordinates": [-78.7392019664, 33.7987702778]}, "type": "Feature", "properties": {"collection_times": [{"days": "Mon-Fri", "time": "11:30am"}, {"days": "Sat", "time": "11:00am"}, {"days": "Sun", "time": "Closed"}], "id": "2958200003", "name": "USPS COLLECTION BOX - BLUE BOX", "address": {"city": "ATLANTIC BEACH", "state": "SC", "street": "4800 HIGHWAY 17 S", "postcode": "29582"}}},
{"geometry": {"type": "Point", "coordinates": [-78.7217765932, 33.8045917803]}, "type": "Feature", "properties": {"collection_times": [{"days": "Mon-Sat", "time": "10:30am"}, {"days": "Sun", "time": "Closed"}], "id": "2958200005", "name": "USPS COLLECTION BOX - BLUE BOX", "address": {"city": "ATLANTIC BEACH", "state": "SC", "street": "3316 HIGHWAY 17 S", "postcode": "29582"}}},
{"geometry": {"type": "Point", "coordinates": [-78.7174103726, 33.8042664747]}, "type": "Feature", "properties": {"collection_times": [{"days": "Mon-Sat", "time": "11:30am"}, {"days": "Sun", "time": "Closed"}], "id": "2958200006", "name": "USPS COLLECTION BOX - BLUE BOX", "address": {"city": "ATLANTIC BEACH", "state": "SC", "street": "800 30TH AVE S", "postcode": "29582"}}},
{"geometry": {"type": "Point", "coordinates": [-78.6826036627, 33.8218774912]}, "type": "Feature", "properties": {"collection_times": [{"days": "Mon-Fri", "time": "5:00pm"}, {"days": "Sat", "time": "4:15pm"}, {"days": "Sun", "time": "Closed"}], "id": "2958200009", "name": "USPS COLLECTION BOX - BLUE BOX", "address": {"city": "ATLANTIC BEACH", "state": "SC", "street": "621 6TH AVE S", "postcode": "29582"}}},
{"geometry": {"type": "Point", "coordinates": [-78.6826036627, 33.8218774912]}, "type": "Feature", "properties": {"collection_times": [{"days": "Mon-Fri", "time": "5:00pm"}, {"days": "Sat", "time": "4:15pm"}, {"days": "Sun", "time": "Closed"}], "id": "2958200010", "name": "USPS COLLECTION BOX - BLUE BOX", "address": {"city": "ATLANTIC BEACH", "state": "SC", "street": "621 6TH AVE S", "postcode": "29582"}}},
{"geometry": {"type": "Point", "coordinates": [-78.6727380901, 33.8197487952]}, "type": "Feature", "properties": {"collection_times": [{"days": "Mon-Fri", "time": "12:00pm"}, {"days": "Sat", "time": "11:30am"}, {"days": "Sun", "time": "Closed"}], "id": "2958200012", "name": "USPS COLLECTION BOX - BLUE BOX", "address": {"city": "ATLANTIC BEACH", "state": "SC", "street": "250 MAIN ST", "postcode": "29582"}}},
{"geometry": {"type": "Point", "coordinates": [-78.7033180546, 33.8116639655]}, "type": "Feature", "properties": {"collection_times": [{"days": "Mon-Fri", "time": "12:00pm"}, {"days": "Sat", "time": "11:30am"}, {"days": "Sun", "time": "Closed"}], "id": "2958200013", "name": "USPS COLLECTION BOX - BLUE BOX", "address": {"city": "ATLANTIC BEACH", "state": "SC", "street": "800 17TH AVE S", "postcode": "29582"}}},
{"geometry": {"type": "Point", "coordinates": [-78.6826036627, 33.8218774912]}, "type": "Feature", "properties": {"collection_times": [{"days": "Mon-Fri", "time": "4:45pm"}, {"days": "Sat", "time": "4:15pm"}, {"days": "Sun", "time": "Closed"}], "id": "2958200014", "name": "USPS COLLECTION BOX - PO LOBBY", "address": {"city": "ATLANTIC BEACH", "state": "SC", "street": "621 6TH AVE S", "postcode": "29582"}}},
{"geometry": {"type": "Point", "coordinates": [-78.6826036627, 33.8218774912]}, "type": "Feature", "properties": {"collection_times": [{"days": "Mon-Fri", "time": "4:45pm"}, {"days": "Sat", "time": "4:15pm"}, {"days": "Sun", "time": "Closed"}], "id": "2958200015", "name": "USPS COLLECTION BOX - PO LOBBY", "address": {"city": "ATLANTIC BEACH", "state": "SC", "street": "621 6TH AVE S", "postcode": "29582"}}},
{"geometry": {"type": "Point", "coordinates": [-78.6826036627, 33.8218774912]}, "type": "Feature", "properties": {"collection_times": [{"days": "Mon-Fri", "time": "4:45pm"}, {"days": "Sat", "time": "4:15pm"}, {"days": "Sun", "time": "Closed"}], "id": "2958200016", "name": "USPS COLLECTION BOX - PO LOBBY", "address": {"city": "ATLANTIC BEACH", "state": "SC", "street": "621 6TH AVE S", "postcode": "29582"}}},
{"geometry": {"type": "Point", "coordinates": [-78.7228412245, 33.7972234767]}, "type": "Feature", "properties": {"collection_times": [{"days": "Mon-Fri", "time": "11:45am"}, {"days": "Sat", "time": "11:15am"}, {"days": "Sun", "time": "Closed"}], "id": "2958200017", "name": "USPS COLLECTION BOX - BLUE BOX", "address": {"city": "ATLANTIC BEACH", "state": "SC", "street": "3806 S OCEAN BLVD", "postcode": "29582"}}},
{"geometry": {"type": "Point", "coordinates": [-78.6436628113, 33.8293978864]}, "type": "Feature", "properties": {"collection_times": [{"days": "Mon-Fri", "time": "11:30am"}, {"days": "Sat", "time": "11:15am"}, {"days": "Sun", "time": "Closed"}], "id": "2958200022", "name": "USPS COLLECTION BOX - PO LOBBY", "address": {"city": "ATLANTIC BEACH", "state": "SC", "street": "303 SEA MOUNTAIN HWY", "postcode": "29582"}}},
{"geometry": {"type": "Point", "coordinates": [-78.6788525557, 33.8271718719]}, "type": "Feature", "properties": {"collection_times": [{"days": "Mon-Sat", "time": "11:30am"}, {"days": "Sun", "time": "Closed"}], "id": "2958200023", "name": "USPS COLLECTION BOX - BLUE BOX", "address": {"city": "ATLANTIC BEACH", "state": "SC", "street": "773 MAIN ST", "postcode": "29582"}}},
{"geometry": {"type": "Point", "coordinates": [-78.6848197131, 33.8273717583]}, "type": "Feature", "properties": {"collection_times": [{"days": "Mon-Fri", "time": "10:45am"}, {"days": "Sat-Sun", "time": "Closed"}], "id": "2958200024", "name": "USPS COLLECTION BOX - BLUE BOX", "address": {"city": "ATLANTIC BEACH", "state": "SC", "street": "1015 2ND AVE S", "postcode": "29582"}}},
{"geometry": {"type": "Point", "coordinates": [-78.6604486695, 33.8345579066]}, "type": "Feature", "properties": {"collection_times": [{"days": "Mon-Sat", "time": "10:00am"}, {"days": "Sun", "time": "Closed"}], "id": "2958200028", "name": "USPS COLLECTION BOX - BLUE BOX", "address": {"city": "ATLANTIC BEACH", "state": "SC", "street": "4801 VILLAGE CROSSING BLVD", "postcode": "29582"}}},
{"geometry": {"type": "Point", "coordinates": [-79.568812187, 33.9973837934]}, "type": "Feature", "properties": {"collection_times": [{"days": "Mon-Fri", "time": "3:45pm"}, {"days": "Sat", "time": "9:45am"}, {"days": "Sun", "time": "Closed"}], "id": "2958300001", "name": "USPS COLLECTION BOX - BLUE BOX", "address": {"city": "PAMPLICO", "state": "SC", "street": "132 S TRADE ST", "postcode": "29583"}}},
{"geometry": {"type": "Point", "coordinates": [-79.568812187, 33.9973837934]}, "type": "Feature", "properties": {"collection_times": [{"days": "Mon-Fri", "time": "3:45pm"}, {"days": "Sat", "time": "9:45am"}, {"days": "Sun", "time": "Closed"}], "id": "2958300004", "name": "USPS COLLECTION BOX - PO LOBBY", "address": {"city": "PAMPLICO", "state": "SC", "street": "132 S TRADE ST", "postcode": "29583"}}},
{"geometry": {"type": "Point", "coordinates": [-80.0772213852, 34.6014195131]}, "type": "Feature", "properties": {"collection_times": [{"days": "Mon-Fri", "time": "3:45pm"}, {"days": "Sat", "time": "9:45am"}, {"days": "Sun", "time": "Closed"}], "id": "2958400001", "name": "USPS COLLECTION BOX - PO LOBBY", "address": {"city": "PATRICK", "state": "SC", "street": "215 S MAIN ST", "postcode": "29584"}}},
{"geometry": {"type": "Point", "coordinates": [-80.0772213852, 34.6014195131]}, "type": "Feature", "properties": {"collection_times": [{"days": "Mon-Fri", "time": "3:45pm"}, {"days": "Sat", "time": "9:45am"}, {"days": "Sun", "time": "Closed"}], "id": "2958400002", "name": "USPS COLLECTION BOX - BLUE BOX", "address": {"city": "PATRICK", "state": "SC", "street": "215 S MAIN ST", "postcode": "29584"}}},
{"geometry": {"type": "Point", "coordinates": [-79.129424228, 33.4613460995]}, "type": "Feature", "properties": {"collection_times": [{"days": "Mon-Sat", "time": "10:00am"}, {"days": "Sun", "time": "Closed"}], "id": "2958500001", "name": "USPS COLLECTION BOX - BLUE BOX", "address": {"city": "PAWLEYS ISLAND", "state": "SC", "street": "14427 LANDING RD", "postcode": "29585"}}},
{"geometry": {"type": "Point", "coordinates": [-79.1229922497, 33.4447998025]}, "type": "Feature", "properties": {"collection_times": [{"days": "Mon-Fri", "time": "4:15pm"}, {"days": "Sat", "time": "11:15am"}, {"days": "Sun", "time": "Closed"}], "id": "2958500002", "name": "USPS COLLECTION BOX - BLUE BOX", "address": {"city": "PAWLEYS ISLAND", "state": "SC", "street": "10993 OCEAN HWY", "postcode": "29585"}}},
{"geometry": {"type": "Point", "coordinates": [-79.1712367262, 33.4217137966]}, "type": "Feature", "properties": {"collection_times": [{"days": "Mon-Sat", "time": "10:00am"}, {"days": "Sun", "time": "Closed"}], "id": "2958500006", "name": "USPS COLLECTION BOX - BLUE BOX", "address": {"city": "PAWLEYS ISLAND", "state": "SC", "street": "1 PLANTATION WAY", "postcode": "29585"}}},
{"geometry": {"type": "Point", "coordinates": [-79.1229922497, 33.4447998025]}, "type": "Feature", "properties": {"collection_times": [{"days": "Mon-Fri", "time": "4:15pm"}, {"days": "Sat", "time": "11:15am"}, {"days": "Sun", "time": "Closed"}], "id": "2958500007", "name": "USPS COLLECTION BOX - PO LOBBY", "address": {"city": "PAWLEYS ISLAND", "state": "SC", "street": "10993 OCEAN HWY", "postcode": "29585"}}},
{"geometry": {"type": "Point", "coordinates": [-79.1229922497, 33.4447998025]}, "type": "Feature", "properties": {"collection_times": [{"days": "Mon-Fri", "time": "4:15pm"}, {"days": "Sat", "time": "11:15am"}, {"days": "Sun", "time": "Closed"}], "id": "2958500008", "name": "USPS COLLECTION BOX - BLUE BOX", "address": {"city": "PAWLEYS ISLAND", "state": "SC", "street": "10993 OCEAN HWY", "postcode": "29585"}}},
{"geometry": {"type": "Point", "coordinates": [-79.1229922497, 33.4447998025]}, "type": "Feature", "properties": {"collection_times": [{"days": "Mon-Fri", "time": "4:15pm"}, {"days": "Sat", "time": "11:15am"}, {"days": "Sun", "time": "Closed"}], "id": "2958500009", "name": "USPS COLLECTION BOX - PO LOBBY", "address": {"city": "PAWLEYS ISLAND", "state": "SC", "street": "10993 OCEAN HWY", "postcode": "29585"}}},
{"geometry": {"type": "Point", "coordinates": [-79.1229922497, 33.4447998025]}, "type": "Feature", "properties": {"collection_times": [{"days": "Mon-Fri", "time": "4:15pm"}, {"days": "Sat", "time": "11:15am"}, {"days": "Sun", "time": "Closed"}], "id": "2958500014", "name": "USPS COLLECTION BOX - PO LOBBY", "address": {"city": "PAWLEYS ISLAND", "state": "SC", "street": "10993 OCEAN HWY", "postcode": "29585"}}},
{"geometry": {"type": "Point", "coordinates": [-79.0182881523, 33.6546008739]}, "type": "Feature", "properties": {"collection_times": [{"days": "Mon-Sat", "time": "2:15pm"}, {"days": "Sun", "time": "Closed"}], "id": "2958800000", "name": "USPS COLLECTION BOX - BLUE BOX", "address": {"city": "MYRTLE BEACH", "state": "SC", "street": "7140 HIGHWAY 707", "postcode": "29588"}}},
{"geometry": {"type": "Point", "coordinates": [-79.0182881523, 33.6546008739]}, "type": "Feature", "properties": {"collection_times": [{"days": "Mon-Fri", "time": "4:00pm"}, {"days": "Sat", "time": "3:00pm"}, {"days": "Sun", "time": "Closed"}], "id": "2958800001", "name": "USPS COLLECTION BOX - PO LOBBY", "address": {"city": "MYRTLE BEACH", "state": "SC", "street": "7140 HIGHWAY 707", "postcode": "29588"}}},
{"geometry": {"type": "Point", "coordinates": [-79.0182881523, 33.6546008739]}, "type": "Feature", "properties": {"collection_times": [{"days": "Mon-Fri", "time": "4:00pm"}, {"days": "Sat", "time": "3:00pm"}, {"days": "Sun", "time": "Closed"}], "id": "2958800004", "name": "USPS COLLECTION BOX - APC", "address": {"city": "MYRTLE BEACH", "state": "SC", "street": "7140 HIGHWAY 707", "postcode": "29588"}}},
{"geometry": {"type": "Point", "coordinates": [-79.3165330895, 34.0955788459]}, "type": "Feature", "properties": {"collection_times": [{"days": "Mon-Fri", "time": "3:45pm"}, {"days": "Sat", "time": "9:45am"}, {"days": "Sun", "time": "Closed"}], "id": "2958900001", "name": "USPS COLLECTION BOX - BLUE BOX", "address": {"city": "RAINS", "state": "SC", "street": "2677 TROY ATKINSON RD", "postcode": "29589"}}},
{"geometry": {"type": "Point", "coordinates": [-79.3165330895, 34.0955788459]}, "type": "Feature", "properties": {"collection_times": [{"days": "Mon-Fri", "time": "3:45pm"}, {"days": "Sat", "time": "9:45am"}, {"days": "Sun", "time": "Closed"}], "id": "2958900002", "name": "USPS COLLECTION BOX - PO LOBBY", "address": {"city": "RAINS", "state": "SC", "street": "2677 TROY ATKINSON RD", "postcode": "29589"}}},
{"geometry": {"type": "Point", "coordinates": [-79.8536408255, 33.5967064429]}, "type": "Feature", "properties": {"collection_times": [{"days": "Mon-Fri", "time": "3:45pm"}, {"days": "Sat", "time": "9:45am"}, {"days": "Sun", "time": "Closed"}], "id": "2959000002", "name": "USPS COLLECTION BOX - BLUE BOX", "address": {"city": "SALTERS", "state": "SC", "street": "33 DEPOT ST", "postcode": "29590"}}},
{"geometry": {"type": "Point", "coordinates": [-79.8536408255, 33.5967064429]}, "type": "Feature", "properties": {"collection_times": [{"days": "Mon-Fri", "time": "3:45pm"}, {"days": "Sat", "time": "9:45am"}, {"days": "Sun", "time": "Closed"}], "id": "2959000003", "name": "USPS COLLECTION BOX - PO LOBBY", "address": {"city": "SALTERS", "state": "SC", "street": "33 DEPOT ST", "postcode": "29590"}}},
{"geometry": {"type": "Point", "coordinates": [-79.7470714866, 33.9400304984]}, "type": "Feature", "properties": {"collection_times": [{"days": "Mon-Fri", "time": "3:45pm"}, {"days": "Sat", "time": "10:45am"}, {"days": "Sun", "time": "Closed"}], "id": "2959100001", "name": "USPS COLLECTION BOX - BLUE BOX", "address": {"city": "SCRANTON", "state": "SC", "street": "1810 HWY 52", "postcode": "29591"}}},
{"geometry": {"type": "Point", "coordinates": [-79.7470714866, 33.9400304984]}, "type": "Feature", "properties": {"collection_times": [{"days": "Mon-Fri", "time": "3:45pm"}, {"days": "Sat", "time": "10:45am"}, {"days": "Sun", "time": "Closed"}], "id": "2959100002", "name": "USPS COLLECTION BOX - PO LOBBY", "address": {"city": "SCRANTON", "state": "SC", "street": "1810 HWY 52", "postcode": "29591"}}},
{"geometry": {"type": "Point", "coordinates": [-79.7470714866, 33.9400304984]}, "type": "Feature", "properties": {"collection_times": [{"days": "Mon-Fri", "time": "3:45pm"}, {"days": "Sat", "time": "10:45am"}, {"days": "Sun", "time": "Closed"}], "id": "2959100004", "name": "USPS COLLECTION BOX - PO LOBBY", "address": {"city": "SCRANTON", "state": "SC", "street": "1810 HWY 52", "postcode": "29591"}}},
{"geometry": {"type": "Point", "coordinates": [-79.4809179154, 34.2977508701]}, "type": "Feature", "properties": {"collection_times": [{"days": "Mon-Fri", "time": "3:45pm"}, {"days": "Sat", "time": "9:45am"}, {"days": "Sun", "time": "Closed"}], "id": "2959200001", "name": "USPS COLLECTION BOX - BLUE BOX", "address": {"city": "SELLERS", "state": "SC", "street": "2806 HIGHWAY 301", "postcode": "29592"}}},
{"geometry": {"type": "Point", "coordinates": [-79.4809179154, 34.2977508701]}, "type": "Feature", "properties": {"collection_times": [{"days": "Mon-Fri", "time": "3:45pm"}, {"days": "Sat", "time": "9:45am"}, {"days": "Sun", "time": "Closed"}], "id": "2959200002", "name": "USPS COLLECTION BOX - PO LOBBY", "address": {"city": "SELLERS", "state": "SC", "street": "2806 HIGHWAY 301", "postcode": "29592"}}},
{"geometry": {"type": "Point", "coordinates": [-79.8630381745, 34.5012885196]}, "type": "Feature", "properties": {"collection_times": [{"days": "Mon-Fri", "time": "3:45pm"}, {"days": "Sat", "time": "9:45am"}, {"days": "Sun", "time": "Closed"}], "id": "2959300001", "name": "USPS COLLECTION BOX - BLUE BOX", "address": {"city": "SOCIETY HILL", "state": "SC", "street": "269 S MAIN ST", "postcode": "29593"}}},
{"geometry": {"type": "Point", "coordinates": [-79.8630381745, 34.5012885196]}, "type": "Feature", "properties": {"collection_times": [{"days": "Mon-Fri", "time": "3:45pm"}, {"days": "Sat", "time": "9:45am"}, {"days": "Sun", "time": "Closed"}], "id": "2959300002", "name": "USPS COLLECTION BOX - PO LOBBY", "address": {"city": "SOCIETY HILL", "state": "SC", "street": "269 S MAIN ST", "postcode": "29593"}}},
{"geometry": {"type": "Point", "coordinates": [-79.586468034, 34.6438569407]}, "type": "Feature", "properties": {"collection_times": [{"days": "Mon-Fri", "time": "3:45pm"}, {"days": "Sat", "time": "9:45am"}, {"days": "Sun", "time": "Closed"}], "id": "2959400001", "name": "USPS COLLECTION BOX - BLUE BOX", "address": {"city": "TATUM", "state": "SC", "street": "104 N STANTON ST", "postcode": "29594"}}},
{"geometry": {"type": "Point", "coordinates": [-79.586468034, 34.6438569407]}, "type": "Feature", "properties": {"collection_times": [{"days": "Mon-Fri", "time": "3:45pm"}, {"days": "Sat", "time": "9:45am"}, {"days": "Sun", "time": "Closed"}], "id": "2959400002", "name": "USPS COLLECTION BOX - PO LOBBY", "address": {"city": "TATUM", "state": "SC", "street": "104 N STANTON ST", "postcode": "29594"}}},
{"geometry": {"type": "Point", "coordinates": [-79.8620766983, 34.7163948031]}, "type": "Feature", "properties": {"collection_times": [{"days": "Mon-Fri", "time": "3:45pm"}, {"days": "Sat", "time": "2:30pm"}, {"days": "Sun", "time": "Closed"}], "id": "2959600001", "name": "USPS COLLECTION BOX - BLUE BOX", "address": {"city": "WALLACE", "state": "SC", "street": "4130 POST OFFICE DR", "postcode": "29596"}}},
{"geometry": {"type": "Point", "coordinates": [-79.8620766983, 34.7163948031]}, "type": "Feature", "properties": {"collection_times": [{"days": "Mon-Fri", "time": "3:45pm"}, {"days": "Sat-Sun", "time": "Closed"}], "id": "2959600002", "name": "USPS COLLECTION BOX - PO LOBBY", "address": {"city": "WALLACE", "state": "SC", "street": "4130 POST OFFICE DR", "postcode": "29596"}}},
{"geometry": {"type": "Point", "coordinates": [-78.6848992686, 33.8276642676]}, "type": "Feature", "properties": {"collection_times": [{"days": "Mon-Fri", "time": "4:00pm"}, {"days": "Sat", "time": "11:15am"}, {"days": "Sun", "time": "Closed"}], "id": "2959800000", "name": "USPS COLLECTION BOX - PO LOBBY", "address": {"city": "N. MYRTLE BEACH", "state": "SC", "street": "4009 HIGHWAY 17 S", "postcode": "29598"}}},
{"geometry": {"type": "Point", "coordinates": [-78.6848992686, 33.8276642676]}, "type": "Feature", "properties": {"collection_times": [{"days": "Mon-Fri", "time": "4:00pm"}, {"days": "Sat", "time": "11:15am"}, {"days": "Sun", "time": "Closed"}], "id": "2959800001", "name": "USPS COLLECTION BOX - PO LOBBY", "address": {"city": "N. MYRTLE BEACH", "state": "SC", "street": "4009 HIGHWAY 17 S", "postcode": "29598"}}}
]}
