{"type": "FeatureCollection", "features": [
{"geometry": {"type": "Point", "coordinates": [-82.3881917382, 34.8529725424]}, "type": "Feature", "properties": {"collection_times": [{"days": "Mon-Fri", "time": "2:15pm"}, {"days": "Sat-Sun", "time": "Closed"}], "id": "2960100002", "name": "USPS COLLECTION BOX - BLUE BOX", "address": {"city": "GREENVILLE", "state": "SC", "street": "4 MCGEE ST", "postcode": "29601"}}},
{"geometry": {"type": "Point", "coordinates": [-82.4006411983, 34.8470944193]}, "type": "Feature", "properties": {"collection_times": [{"days": "Mon-Fri", "time": "2:00pm"}, {"days": "Sat-Sun", "time": "Closed"}], "id": "2960100020", "name": "USPS COLLECTION BOX - BLUE BOX", "address": {"city": "GREENVILLE", "state": "SC", "street": "305 S MAIN ST", "postcode": "29601"}}},
{"geometry": {"type": "Point", "coordinates": [-82.3993020888, 34.8446634386]}, "type": "Feature", "properties": {"collection_times": [{"days": "Mon-Fri", "time": "2:00pm"}, {"days": "Sat-Sun", "time": "Closed"}], "id": "2960100022", "name": "USPS COLLECTION BOX - BLUE BOX", "address": {"city": "GREENVILLE", "state": "SC", "street": "101 E CAMPERDOWN WAY", "postcode": "29601"}}},
{"geometry": {"type": "Point", "coordinates": [-82.3966759199, 34.8392644139]}, "type": "Feature", "properties": {"collection_times": [{"days": "Mon-Fri", "time": "3:00pm"}, {"days": "Sat-Sun", "time": "Closed"}], "id": "2960100025", "name": "USPS COLLECTION BOX - BLUE BOX", "address": {"city": "GREENVILLE", "state": "SC", "street": "103 CLEVELAND ST", "postcode": "29601"}}},
{"geometry": {"type": "Point", "coordinates": [-82.4204539455, 34.8388957781]}, "type": "Feature", "properties": {"collection_times": [{"days": "Mon-Fri", "time": "1:45pm"}, {"days": "Sat-Sun", "time": "Closed"}], "id": "2960100026", "name": "USPS COLLECTION BOX - BLUE BOX", "address": {"city": "GREENVILLE", "state": "SC", "street": "1 SAINT FRANCIS DR", "postcode": "29601"}}},
{"geometry": {"type": "Point", "coordinates": [-82.4019968693, 34.8400534475]}, "type": "Feature", "properties": {"collection_times": [{"days": "Mon-Fri", "time": "3:00pm"}, {"days": "Sat-Sun", "time": "Closed"}], "id": "2960100029", "name": "USPS COLLECTION BOX - BLUE BOX", "address": {"city": "GREENVILLE", "state": "SC", "street": "300 UNIVERSITY RDG", "postcode": "29601"}}},
{"geometry": {"type": "Point", "coordinates": [-82.4017096331, 34.8469521332]}, "type": "Feature", "properties": {"collection_times": [{"days": "Mon-Fri", "time": "3:00pm"}, {"days": "Sat-Sun", "time": "Closed"}], "id": "2960100033", "name": "USPS COLLECTION BOX - BLUE BOX", "address": {"city": "GREENVILLE", "state": "SC", "street": "301 UNIVERSITY RDG", "postcode": "29601"}}},
{"geometry": {"type": "Point", "coordinates": [-82.4001065009, 34.8399552619]}, "type": "Feature", "properties": {"collection_times": [{"days": "Mon-Fri", "time": "3:00pm"}, {"days": "Sat-Sun", "time": "Closed"}], "id": "2960100036", "name": "USPS COLLECTION BOX - BLUE BOX", "address": {"city": "GREENVILLE", "state": "SC", "street": "301 UNIVERSITY RDG", "postcode": "29601"}}},
{"geometry": {"type": "Point", "coordinates": [-82.4169873253, 34.8434012214]}, "type": "Feature", "properties": {"collection_times": [{"days": "Mon-Fri", "time": "2:00pm"}, {"days": "Sat-Sun", "time": "Closed"}], "id": "2960100039", "name": "USPS COLLECTION BOX - BLUE BOX", "address": {"city": "GREENVILLE", "state": "SC", "street": "811 PENDLETON ST", "postcode": "29601"}}},
{"geometry": {"type": "Point", "coordinates": [-82.3959969014, 34.8498270545]}, "type": "Feature", "properties": {"collection_times": [{"days": "Mon-Fri", "time": "12:00pm"}, {"days": "Sat-Sun", "time": "Closed"}], "id": "2960100043", "name": "USPS COLLECTION BOX - BLUE BOX", "address": {"city": "GREENVILLE", "state": "SC", "street": "300 E WASHINGTON ST", "postcode": "29601"}}},
{"geometry": {"type": "Point", "coordinates": [-82.4083623715, 34.8544169353]}, "type": "Feature", "properties": {"collection_times": [{"days": "Mon-Fri", "time": "5:00pm"}, {"days": "Sat", "time": "2:00pm"}, {"days": "Sun", "time": "Closed"}], "id": "2960100051", "name": "USPS COLLECTION BOX - BLUE BOX", "address": {"city": "GREENVILLE", "state": "SC", "street": "600 W WASHINGTON ST", "postcode": "29601"}}},
{"geometry": {"type": "Point", "coordinates": [-82.4083623715, 34.8544169353]}, "type": "Feature", "properties": {"collection_times": [{"days": "Mon-Fri", "time": "5:00pm"}, {"days": "Sat", "time": "2:00pm"}, {"days": "Sun", "time": "Closed"}], "id": "2960100052", "name": "USPS COLLECTION BOX - BLUE BOX", "address": {"city": "GREENVILLE", "state": "SC", "street": "600 W WASHINGTON ST", "postcode": "29601"}}},
{"geometry": {"type": "Point", "coordinates": [-82.4017096331, 34.8469521332]}, "type": "Feature", "properties": {"collection_times": [{"days": "Mon-Fri", "time": "5:00pm"}, {"days": "Sat", "time": "2:00pm"}, {"days": "Sun", "time": "Closed"}], "id": "2960100053", "name": "USPS COLLECTION BOX - EXPRESS", "address": {"city": "GREENVILLE", "state": "SC", "street": "600 W WASHINGTON ST", "postcode": "29601"}}},
{"geometry": {"type": "Point", "coordinates": [-82.3901637308, 34.8510738933]}, "type": "Feature", "properties": {"collection_times": [{"days": "Mon-Fri", "time": "2:15pm"}, {"days": "Sat-Sun", "time": "Closed"}], "id": "2960100060", "name": "USPS COLLECTION BOX - BLUE BOX", "address": {"city": "GREENVILLE", "state": "SC", "street": "114 WILLIAMS ST", "postcode": "29601"}}},
{"geometry": {"type": "Point", "coordinates": [-82.4077247566, 34.8407632229]}, "type": "Feature", "properties": {"collection_times": [{"days": "Mon-Fri", "time": "3:15pm"}, {"days": "Sat-Sun", "time": "Closed"}], "id": "2960100069", "name": "USPS COLLECTION BOX - BLUE BOX", "address": {"city": "GREENVILLE", "state": "SC", "street": "24 VARDRY ST", "postcode": "29601"}}},
{"geometry": {"type": "Point", "coordinates": [-82.4083623715, 34.8544169353]}, "type": "Feature", "properties": {"collection_times": [{"days": "Mon-Fri", "time": "5:00pm"}, {"days": "Sat", "time": "2:00pm"}, {"days": "Sun", "time": "Closed"}], "id": "2960100074", "name": "USPS COLLECTION BOX - PO LOBBY", "address": {"city": "GREENVILLE", "state": "SC", "street": "600 W WASHINGTON ST", "postcode": "29601"}}},
{"geometry": {"type": "Point", "coordinates": [-82.4083623715, 34.8544169353]}, "type": "Feature", "properties": {"collection_times": [{"days": "Mon-Fri", "time": "5:00pm"}, {"days": "Sat", "time": "2:00pm"}, {"days": "Sun", "time": "Closed"}], "id": "2960100076", "name": "USPS COLLECTION BOX - PO LOBBY", "address": {"city": "GREENVILLE", "state": "SC", "street": "600 W WASHINGTON ST", "postcode": "29601"}}},
{"geometry": {"type": "Point", "coordinates": [-82.3953687502, 34.8516074077]}, "type": "Feature", "properties": {"collection_times": [{"days": "Mon-Fri", "time": "3:15pm"}, {"days": "Sat-Sun", "time": "Closed"}], "id": "2960100083", "name": "USPS COLLECTION BOX - BLUE BOX", "address": {"city": "GREENVILLE", "state": "SC", "street": "305 E NORTH ST", "postcode": "29601"}}},
{"geometry": {"type": "Point", "coordinates": [-80.8937521976, 33.9038639711]}, "type": "Feature", "properties": {"collection_times": [{"days": "Mon-Fri", "time": "3:00pm"}, {"days": "Sat-Sun", "time": "Closed"}], "id": "2960100091", "name": "USPS COLLECTION BOX - BLUE BOX", "address": {"city": "GREENVILLE", "state": "SC", "street": "301 UNIVERSITY RDG", "postcode": "29601"}}},
{"geometry": {"type": "Point", "coordinates": [-82.3955686703, 34.8255633832]}, "type": "Feature", "properties": {"collection_times": [{"days": "Mon-Fri", "time": "2:30pm"}, {"days": "Sat-Sun", "time": "Closed"}], "id": "2960500041", "name": "USPS COLLECTION BOX - BLUE BOX", "address": {"city": "GREENVILLE", "state": "SC", "street": "1990 AUGUSTA ST", "postcode": "29605"}}},
{"geometry": {"type": "Point", "coordinates": [-80.8937521976, 33.9038639711]}, "type": "Feature", "properties": {"collection_times": [{"days": "Mon-Fri", "time": "1:30pm"}, {"days": "Sat-Sun", "time": "Closed"}], "id": "2960500045", "name": "USPS COLLECTION BOX - BLUE BOX", "address": {"city": "GREENVILLE", "state": "SC", "street": "3304 AUGUSTA RD", "postcode": "29605"}}},
{"geometry": {"type": "Point", "coordinates": [-82.4009570484, 34.8279139226]}, "type": "Feature", "properties": {"collection_times": [{"days": "Mon-Fri", "time": "4:30pm"}, {"days": "Sat-Sun", "time": "Closed"}], "id": "2960500052", "name": "USPS COLLECTION BOX - BLUE BOX", "address": {"city": "GREENVILLE", "state": "SC", "street": "19 CONESTEE AVE", "postcode": "29605"}}},
{"geometry": {"type": "Point", "coordinates": [-82.3902388186, 34.7948121131]}, "type": "Feature", "properties": {"collection_times": [{"days": "Mon-Fri", "time": "4:30pm"}, {"days": "Sat-Sun", "time": "Closed"}], "id": "2960500053", "name": "USPS COLLECTION BOX - BLUE BOX", "address": {"city": "GREENVILLE", "state": "SC", "street": "19 CONESTEE AVE", "postcode": "29605"}}},
{"geometry": {"type": "Point", "coordinates": [-82.3902388186, 34.7948121131]}, "type": "Feature", "properties": {"collection_times": [{"days": "Mon-Fri", "time": "3:45pm"}, {"days": "Sat-Sun", "time": "Closed"}], "id": "2960500057", "name": "USPS COLLECTION BOX - PO LOBBY", "address": {"city": "GREENVILLE", "state": "SC", "street": "19 CONESTEE AVE", "postcode": "29605"}}},
{"geometry": {"type": "Point", "coordinates": [-82.3902388186, 34.7948121131]}, "type": "Feature", "properties": {"collection_times": [{"days": "Mon-Fri", "time": "3:45pm"}, {"days": "Sat-Sun", "time": "Closed"}], "id": "2960500058", "name": "USPS COLLECTION BOX - PO LOBBY", "address": {"city": "GREENVILLE", "state": "SC", "street": "19 CONESTEE AVE", "postcode": "29605"}}},
{"geometry": {"type": "Point", "coordinates": [-82.4089609487, 34.8230673398]}, "type": "Feature", "properties": {"collection_times": [{"days": "Mon-Fri", "time": "3:00pm"}, {"days": "Sat-Sun", "time": "Closed"}], "id": "2960500059", "name": "USPS COLLECTION BOX - BLUE BOX", "address": {"city": "GREENVILLE", "state": "SC", "street": "701 GROVE RD", "postcode": "29605"}}},
{"geometry": {"type": "Point", "coordinates": [-82.3593500157, 34.8582414416]}, "type": "Feature", "properties": {"collection_times": [{"days": "Mon-Fri", "time": "2:30pm"}, {"days": "Sat-Sun", "time": "Closed"}], "id": "2960700004", "name": "USPS COLLECTION BOX - BLUE BOX", "address": {"city": "GREENVILLE", "state": "SC", "street": "211 CENTURY DR", "postcode": "29607"}}},
{"geometry": {"type": "Point", "coordinates": [-82.3536647149, 34.8563049378]}, "type": "Feature", "properties": {"collection_times": [{"days": "Mon-Fri", "time": "2:45pm"}, {"days": "Sat-Sun", "time": "Closed"}], "id": "2960700008", "name": "USPS COLLECTION BOX - BLUE BOX", "address": {"city": "GREENVILLE", "state": "SC", "street": "25 WOODS LAKE RD", "postcode": "29607"}}},
{"geometry": {"type": "Point", "coordinates": [-82.3757570983, 34.8240879121]}, "type": "Feature", "properties": {"collection_times": [{"days": "Mon-Fri", "time": "2:45pm"}, {"days": "Sat-Sun", "time": "Closed"}], "id": "2960700016", "name": "USPS COLLECTION BOX - BLUE BOX", "address": {"city": "GREENVILLE", "state": "SC", "street": "1 CLEVELAND CT", "postcode": "29607"}}},
{"geometry": {"type": "Point", "coordinates": [-82.3390823797, 34.8480017488]}, "type": "Feature", "properties": {"collection_times": [{"days": "Mon-Fri", "time": "9:45am"}, {"days": "Sat-Sun", "time": "Closed"}], "id": "2960700017", "name": "USPS COLLECTION BOX - BLUE BOX", "address": {"city": "GREENVILLE", "state": "SC", "street": "605 HAYWOOD RD", "postcode": "29607"}}},
{"geometry": {"type": "Point", "coordinates": [-82.3570134758, 34.8552637431]}, "type": "Feature", "properties": {"collection_times": [{"days": "Mon-Fri", "time": "2:45pm"}, {"days": "Sat-Sun", "time": "Closed"}], "id": "2960700031", "name": "USPS COLLECTION BOX - BLUE BOX", "address": {"city": "GREENVILLE", "state": "SC", "street": "535 N PLEASANTBURG DR", "postcode": "29607"}}},
{"geometry": {"type": "Point", "coordinates": [-82.357205311, 34.8636440152]}, "type": "Feature", "properties": {"collection_times": [{"days": "Mon-Fri", "time": "2:30pm"}, {"days": "Sat-Sun", "time": "Closed"}], "id": "2960700037", "name": "USPS COLLECTION BOX - BLUE BOX", "address": {"city": "GREENVILLE", "state": "SC", "street": "745 N PLEASANTBURG DR", "postcode": "29607"}}},
{"geometry": {"type": "Point", "coordinates": [-82.283455708, 34.810465648]}, "type": "Feature", "properties": {"collection_times": [{"days": "Mon-Fri", "time": "3:15pm"}, {"days": "Sat-Sun", "time": "Closed"}], "id": "2960700048", "name": "USPS COLLECTION BOX - BLUE BOX", "address": {"city": "GREENVILLE", "state": "SC", "street": "201 BROOKFIELD PKWY", "postcode": "29607"}}},
{"geometry": {"type": "Point", "coordinates": [-82.3380579372, 34.8201442482]}, "type": "Feature", "properties": {"collection_times": [{"days": "Mon-Fri", "time": "10:30am"}, {"days": "Sat-Sun", "time": "Closed"}], "id": "2960700052", "name": "USPS COLLECTION BOX - BLUE BOX", "address": {"city": "GREENVILLE", "state": "SC", "street": "101 VERDAE BLVD", "postcode": "29607"}}},
{"geometry": {"type": "Point", "coordinates": [-82.2956424638, 34.8252372392]}, "type": "Feature", "properties": {"collection_times": [{"days": "Mon-Fri", "time": "3:15pm"}, {"days": "Sat-Sun", "time": "Closed"}], "id": "2960700054", "name": "USPS COLLECTION BOX - BLUE BOX", "address": {"city": "GREENVILLE", "state": "SC", "street": "1270 WOODRUFF RD", "postcode": "29607"}}},
{"geometry": {"type": "Point", "coordinates": [-82.2849666613, 34.8202987886]}, "type": "Feature", "properties": {"collection_times": [{"days": "Mon-Fri", "time": "3:15pm"}, {"days": "Sat-Sun", "time": "Closed"}], "id": "2960700058", "name": "USPS COLLECTION BOX - BLUE BOX", "address": {"city": "GREENVILLE", "state": "SC", "street": "25 SMITH HINES RD", "postcode": "29607"}}},
{"geometry": {"type": "Point", "coordinates": [-82.2967682108, 34.8256477983]}, "type": "Feature", "properties": {"collection_times": [{"days": "Mon-Fri", "time": "3:15pm"}, {"days": "Sat-Sun", "time": "Closed"}], "id": "2960700060", "name": "USPS COLLECTION BOX - BLUE BOX", "address": {"city": "GREENVILLE", "state": "SC", "street": "1200 WOODRUFF RD", "postcode": "29607"}}},
{"geometry": {"type": "Point", "coordinates": [-82.2967682108, 34.8256477983]}, "type": "Feature", "properties": {"collection_times": [{"days": "Mon-Fri", "time": "3:15pm"}, {"days": "Sat-Sun", "time": "Closed"}], "id": "2960700062", "name": "USPS COLLECTION BOX - BLUE BOX", "address": {"city": "GREENVILLE", "state": "SC", "street": "1200 WOODRUFF RD", "postcode": "29607"}}},
{"geometry": {"type": "Point", "coordinates": [-82.3356698945, 34.8259223066]}, "type": "Feature", "properties": {"collection_times": [{"days": "Mon-Fri", "time": "5:00pm"}, {"days": "Sat", "time": "1:00pm"}, {"days": "Sun", "time": "Closed"}], "id": "2960700066", "name": "USPS COLLECTION BOX - EXPRESS", "address": {"city": "GREENVILLE", "state": "SC", "street": "1521 LAURENS RD", "postcode": "29607"}}},
{"geometry": {"type": "Point", "coordinates": [-82.3612652262, 34.8425790649]}, "type": "Feature", "properties": {"collection_times": [{"days": "Mon-Fri", "time": "5:00pm"}, {"days": "Sat", "time": "1:00pm"}, {"days": "Sun", "time": "Closed"}], "id": "2960700067", "name": "USPS COLLECTION BOX - BLUE BOX", "address": {"city": "GREENVILLE", "state": "SC", "street": "1521 LAURENS RD", "postcode": "29607"}}},
{"geometry": {"type": "Point", "coordinates": [-82.3612652262, 34.8425790649]}, "type": "Feature", "properties": {"collection_times": [{"days": "Mon-Fri", "time": "5:00pm"}, {"days": "Sat", "time": "1:00pm"}, {"days": "Sun", "time": "Closed"}], "id": "2960700068", "name": "USPS COLLECTION BOX - BLUE BOX", "address": {"city": "GREENVILLE", "state": "SC", "street": "1521 LAURENS RD", "postcode": "29607"}}},
{"geometry": {"type": "Point", "coordinates": [-82.3612652262, 34.8425790649]}, "type": "Feature", "properties": {"collection_times": [{"days": "Mon-Fri", "time": "5:00pm"}, {"days": "Sat", "time": "1:00pm"}, {"days": "Sun", "time": "Closed"}], "id": "2960700069", "name": "USPS COLLECTION BOX - BLUE BOX", "address": {"city": "GREENVILLE", "state": "SC", "street": "1521 LAURENS RD", "postcode": "29607"}}},
{"geometry": {"type": "Point", "coordinates": [-82.3612652262, 34.8425790649]}, "type": "Feature", "properties": {"collection_times": [{"days": "Mon-Fri", "time": "5:00pm"}, {"days": "Sat", "time": "1:00pm"}, {"days": "Sun", "time": "Closed"}], "id": "2960700070", "name": "USPS COLLECTION BOX - PO LOBBY", "address": {"city": "GREENVILLE", "state": "SC", "street": "1521 LAURENS RD", "postcode": "29607"}}},
{"geometry": {"type": "Point", "coordinates": [-82.3612652262, 34.8425790649]}, "type": "Feature", "properties": {"collection_times": [{"days": "Mon-Fri", "time": "5:00pm"}, {"days": "Sat", "time": "1:00pm"}, {"days": "Sun", "time": "Closed"}], "id": "2960700071", "name": "USPS COLLECTION BOX - PO LOBBY", "address": {"city": "GREENVILLE", "state": "SC", "street": "1521 LAURENS RD", "postcode": "29607"}}},
{"geometry": {"type": "Point", "coordinates": [-82.3678649543, 34.8125697619]}, "type": "Feature", "properties": {"collection_times": [{"days": "Mon-Fri", "time": "2:45pm"}, {"days": "Sat-Sun", "time": "Closed"}], "id": "2960700078", "name": "USPS COLLECTION BOX - BLUE BOX", "address": {"city": "GREENVILLE", "state": "SC", "street": "880 S PLEASANTBURG DR", "postcode": "29607"}}},
{"geometry": {"type": "Point", "coordinates": [-82.3320043584, 34.8120068469]}, "type": "Feature", "properties": {"collection_times": [{"days": "Mon-Fri", "time": "2:45pm"}, {"days": "Sat-Sun", "time": "Closed"}], "id": "2960700096", "name": "USPS COLLECTION BOX - BLUE BOX", "address": {"city": "GREENVILLE", "state": "SC", "street": "100 COMMERCIAL/INDUSTRIAL DR", "postcode": "29607"}}},
{"geometry": {"type": "Point", "coordinates": [-82.3532518622, 34.8523432082]}, "type": "Feature", "properties": {"collection_times": [{"days": "Mon-Fri", "time": "9:30am"}, {"days": "Sat-Sun", "time": "Closed"}], "id": "2960700102", "name": "USPS COLLECTION BOX - BLUE BOX", "address": {"city": "GREENVILLE", "state": "SC", "street": "1 EXPOSITION DR", "postcode": "29607"}}},
{"geometry": {"type": "Point", "coordinates": [-82.3815494236, 34.8669704958]}, "type": "Feature", "properties": {"collection_times": [{"days": "Mon-Fri", "time": "2:15pm"}, {"days": "Sat-Sun", "time": "Closed"}], "id": "2960900001", "name": "USPS COLLECTION BOX - BLUE BOX", "address": {"city": "GREENVILLE", "state": "SC", "street": "1 CHICK SPRINGS RD", "postcode": "29609"}}},
{"geometry": {"type": "Point", "coordinates": [-82.385602241, 34.8619961534]}, "type": "Feature", "properties": {"collection_times": [{"days": "Mon-Fri", "time": "2:30pm"}, {"days": "Sat-Sun", "time": "Closed"}], "id": "2960900013", "name": "USPS COLLECTION BOX - BLUE BOX", "address": {"city": "GREENVILLE", "state": "SC", "street": "201 WADE HAMPTON BLVD", "postcode": "29609"}}},
{"geometry": {"type": "Point", "coordinates": [-82.3649714367, 34.8758616154]}, "type": "Feature", "properties": {"collection_times": [{"days": "Mon-Fri", "time": "4:00pm"}, {"days": "Sat-Sun", "time": "Closed"}], "id": "2960900016", "name": "USPS COLLECTION BOX - BLUE BOX", "address": {"city": "GREENVILLE", "state": "SC", "street": "1700 WADE HAMPTON BLVD", "postcode": "29609"}}},
{"geometry": {"type": "Point", "coordinates": [-82.3663266957, 34.8962678043]}, "type": "Feature", "properties": {"collection_times": [{"days": "Mon-Fri", "time": "12:15pm"}, {"days": "Sat-Sun", "time": "Closed"}], "id": "2960900018", "name": "USPS COLLECTION BOX - BLUE BOX", "address": {"city": "GREENVILLE", "state": "SC", "street": "1501 RUTHERFORD RD", "postcode": "29609"}}},
{"geometry": {"type": "Point", "coordinates": [-82.3781531484, 34.8836123625]}, "type": "Feature", "properties": {"collection_times": [{"days": "Mon-Fri", "time": "12:30pm"}, {"days": "Sat-Sun", "time": "Closed"}], "id": "2960900020", "name": "USPS COLLECTION BOX - BLUE BOX", "address": {"city": "GREENVILLE", "state": "SC", "street": "1122 RUTHERFORD RD", "postcode": "29609"}}},
{"geometry": {"type": "Point", "coordinates": [-82.3725683991, 34.8710469724]}, "type": "Feature", "properties": {"collection_times": [{"days": "Mon-Fri", "time": "12:00pm"}, {"days": "Sat-Sun", "time": "Closed"}], "id": "2960900038", "name": "USPS COLLECTION BOX - BLUE BOX", "address": {"city": "GREENVILLE", "state": "SC", "street": "1430 WADE HAMPTON BLVD", "postcode": "29609"}}},
{"geometry": {"type": "Point", "coordinates": [-82.3841798635, 34.8889823952]}, "type": "Feature", "properties": {"collection_times": [{"days": "Mon-Fri", "time": "4:30pm"}, {"days": "Sat", "time": "1:45pm"}, {"days": "Sun", "time": "Closed"}], "id": "2960900040", "name": "USPS COLLECTION BOX - BLUE BOX", "address": {"city": "GREENVILLE", "state": "SC", "street": "2431 N PLEASANTBURG DR", "postcode": "29609"}}},
{"geometry": {"type": "Point", "coordinates": [-82.3841798635, 34.8889823952]}, "type": "Feature", "properties": {"collection_times": [{"days": "Mon-Fri", "time": "4:30pm"}, {"days": "Sat", "time": "1:45pm"}, {"days": "Sun", "time": "Closed"}], "id": "2960900041", "name": "USPS COLLECTION BOX - BLUE BOX", "address": {"city": "GREENVILLE", "state": "SC", "street": "2431 N PLEASANTBURG DR", "postcode": "29609"}}},
{"geometry": {"type": "Point", "coordinates": [-82.383480405, 34.889274617]}, "type": "Feature", "properties": {"collection_times": [{"days": "Mon-Fri", "time": "4:30pm"}, {"days": "Sat", "time": "1:45pm"}, {"days": "Sun", "time": "Closed"}], "id": "2960900044", "name": "USPS COLLECTION BOX - PO LOBBY", "address": {"city": "GREENVILLE", "state": "SC", "street": "2431 N PLEASANTBURG DR", "postcode": "29609"}}},
{"geometry": {"type": "Point", "coordinates": [-82.383480405, 34.889274617]}, "type": "Feature", "properties": {"collection_times": [{"days": "Mon-Fri", "time": "4:30pm"}, {"days": "Sat", "time": "1:45pm"}, {"days": "Sun", "time": "Closed"}], "id": "2960900045", "name": "USPS COLLECTION BOX - PO LOBBY", "address": {"city": "GREENVILLE", "state": "SC", "street": "2431 N PLEASANTBURG DR", "postcode": "29609"}}},
{"geometry": {"type": "Point", "coordinates": [-82.4403999247, 34.8163418177]}, "type": "Feature", "properties": {"collection_times": [{"days": "Mon-Fri", "time": "1:45pm"}, {"days": "Sat-Sun", "time": "Closed"}], "id": "2961100018", "name": "USPS COLLECTION BOX - BLUE BOX", "address": {"city": "GREENVILLE", "state": "SC", "street": "2600 ANDERSON RD", "postcode": "29611"}}},
{"geometry": {"type": "Point", "coordinates": [-82.4685872073, 34.8815471966]}, "type": "Feature", "properties": {"collection_times": [{"days": "Mon-Fri", "time": "5:00pm"}, {"days": "Sat", "time": "1:00pm"}, {"days": "Sun", "time": "Closed"}], "id": "2961100021", "name": "USPS COLLECTION BOX - BLUE BOX", "address": {"city": "GREENVILLE", "state": "SC", "street": "7500 WHITE HORSE RD", "postcode": "29611"}}},
{"geometry": {"type": "Point", "coordinates": [-82.4685872073, 34.8815471966]}, "type": "Feature", "properties": {"collection_times": [{"days": "Mon-Fri", "time": "5:00pm"}, {"days": "Sat", "time": "1:00pm"}, {"days": "Sun", "time": "Closed"}], "id": "2961100022", "name": "USPS COLLECTION BOX - BLUE BOX", "address": {"city": "GREENVILLE", "state": "SC", "street": "7500 WHITE HORSE RD", "postcode": "29611"}}},
{"geometry": {"type": "Point", "coordinates": [-82.4685872073, 34.8815471966]}, "type": "Feature", "properties": {"collection_times": [{"days": "Mon-Fri", "time": "5:00pm"}, {"days": "Sat", "time": "1:00pm"}, {"days": "Sun", "time": "Closed"}], "id": "2961100023", "name": "USPS COLLECTION BOX - BLUE BOX", "address": {"city": "GREENVILLE", "state": "SC", "street": "7500 WHITE HORSE RD", "postcode": "29611"}}},
{"geometry": {"type": "Point", "coordinates": [-82.4685872073, 34.8815471966]}, "type": "Feature", "properties": {"collection_times": [{"days": "Mon-Fri", "time": "5:00pm"}, {"days": "Sat", "time": "1:00pm"}, {"days": "Sun", "time": "Closed"}], "id": "2961100036", "name": "USPS COLLECTION BOX - PO LOBBY", "address": {"city": "GREENVILLE", "state": "SC", "street": "7500 WHITE HORSE RD", "postcode": "29611"}}},
{"geometry": {"type": "Point", "coordinates": [-82.4685872073, 34.8815471966]}, "type": "Feature", "properties": {"collection_times": [{"days": "Mon-Fri", "time": "5:00pm"}, {"days": "Sat", "time": "1:00pm"}, {"days": "Sun", "time": "Closed"}], "id": "2961100037", "name": "USPS COLLECTION BOX - PO LOBBY", "address": {"city": "GREENVILLE", "state": "SC", "street": "7500 WHITE HORSE RD", "postcode": "29611"}}},
{"geometry": {"type": "Point", "coordinates": [-82.4281710194, 34.8470648453]}, "type": "Feature", "properties": {"collection_times": [{"days": "Mon-Fri", "time": "2:00pm"}, {"days": "Sat-Sun", "time": "Closed"}], "id": "2961100043", "name": "USPS COLLECTION BOX - BLUE BOX", "address": {"city": "GREENVILLE", "state": "SC", "street": "1227 PENDLETON ST", "postcode": "29611"}}},
{"geometry": {"type": "Point", "coordinates": [-82.3542480029, 34.8845495635]}, "type": "Feature", "properties": {"collection_times": [{"days": "Mon-Fri", "time": "11:45am"}, {"days": "Sat-Sun", "time": "Closed"}], "id": "2961500002", "name": "USPS COLLECTION BOX - BLUE BOX", "address": {"city": "GREENVILLE", "state": "SC", "street": "2100 WADE HAMPTON BLVD", "postcode": "29615"}}},
{"geometry": {"type": "Point", "coordinates": [-82.2484046725, 34.8546315697]}, "type": "Feature", "properties": {"collection_times": [{"days": "Mon-Fri", "time": "3:00pm"}, {"days": "Sat-Sun", "time": "Closed"}], "id": "2961500005", "name": "USPS COLLECTION BOX - BLUE BOX", "address": {"city": "GREENVILLE", "state": "SC", "street": "4 COMMERCE CTR", "postcode": "29615"}}},
{"geometry": {"type": "Point", "coordinates": [-82.3319835227, 34.856211286]}, "type": "Feature", "properties": {"collection_times": [{"days": "Mon-Fri", "time": "5:00pm"}, {"days": "Sat", "time": "1:45pm"}, {"days": "Sun", "time": "Closed"}], "id": "2961500016", "name": "USPS COLLECTION BOX - BLUE BOX", "address": {"city": "GREENVILLE", "state": "SC", "street": "100 ORCHARD PARK DR", "postcode": "29615"}}},
{"geometry": {"type": "Point", "coordinates": [-82.3319835227, 34.856211286]}, "type": "Feature", "properties": {"collection_times": [{"days": "Mon-Fri", "time": "5:00pm"}, {"days": "Sat", "time": "1:45pm"}, {"days": "Sun", "time": "Closed"}], "id": "2961500017", "name": "USPS COLLECTION BOX - BLUE BOX", "address": {"city": "GREENVILLE", "state": "SC", "street": "100 ORCHARD PARK DR", "postcode": "29615"}}},
{"geometry": {"type": "Point", "coordinates": [-82.3319835227, 34.856211286]}, "type": "Feature", "properties": {"collection_times": [{"days": "Mon-Fri", "time": "5:00pm"}, {"days": "Sat", "time": "1:45pm"}, {"days": "Sun", "time": "Closed"}], "id": "2961500019", "name": "USPS COLLECTION BOX - PO LOBBY", "address": {"city": "GREENVILLE", "state": "SC", "street": "100 ORCHARD PARK DR", "postcode": "29615"}}},
{"geometry": {"type": "Point", "coordinates": [-82.3319835227, 34.856211286]}, "type": "Feature", "properties": {"collection_times": [{"days": "Mon-Fri", "time": "5:00pm"}, {"days": "Sat", "time": "1:45pm"}, {"days": "Sun", "time": "Closed"}], "id": "2961500020", "name": "USPS COLLECTION BOX - PO LOBBY", "address": {"city": "GREENVILLE", "state": "SC", "street": "100 ORCHARD PARK DR", "postcode": "29615"}}},
{"geometry": {"type": "Point", "coordinates": [-82.3417048084, 34.8627974072]}, "type": "Feature", "properties": {"collection_times": [{"days": "Mon-Fri", "time": "11:30am"}, {"days": "Sat-Sun", "time": "Closed"}], "id": "2961500021", "name": "USPS COLLECTION BOX - BLUE BOX", "address": {"city": "GREENVILLE", "state": "SC", "street": "330A PELHAM RD", "postcode": "29615"}}},
{"geometry": {"type": "Point", "coordinates": [-82.3552203059, 34.8597355188]}, "type": "Feature", "properties": {"collection_times": [{"days": "Mon-Fri", "time": "2:30pm"}, {"days": "Sat-Sun", "time": "Closed"}], "id": "2961500024", "name": "USPS COLLECTION BOX - BLUE BOX", "address": {"city": "GREENVILLE", "state": "SC", "street": "33 VILLA RD", "postcode": "29615"}}},
{"geometry": {"type": "Point", "coordinates": [-82.3044216001, 34.8357364102]}, "type": "Feature", "properties": {"collection_times": [{"days": "Mon-Fri", "time": "3:00pm"}, {"days": "Sat-Sun", "time": "Closed"}], "id": "2961500034", "name": "USPS COLLECTION BOX - BLUE BOX", "address": {"city": "GREENVILLE", "state": "SC", "street": "150 EXECUTIVE CENTER DR", "postcode": "29615"}}},
{"geometry": {"type": "Point", "coordinates": [-82.3190868243, 34.845633465]}, "type": "Feature", "properties": {"collection_times": [{"days": "Mon-Fri", "time": "3:00pm"}, {"days": "Sat-Sun", "time": "Closed"}], "id": "2961500044", "name": "USPS COLLECTION BOX - BLUE BOX", "address": {"city": "GREENVILLE", "state": "SC", "street": "1 MARCUS DR", "postcode": "29615"}}},
{"geometry": {"type": "Point", "coordinates": [-82.2735128208, 34.8609924077]}, "type": "Feature", "properties": {"collection_times": [{"days": "Mon-Fri", "time": "2:45pm"}, {"days": "Sat-Sun", "time": "Closed"}], "id": "2961500046", "name": "USPS COLLECTION BOX - BLUE BOX", "address": {"city": "GREENVILLE", "state": "SC", "street": "3620 PELHAM RD", "postcode": "29615"}}},
{"geometry": {"type": "Point", "coordinates": [-82.3202224649, 34.850533281]}, "type": "Feature", "properties": {"collection_times": [{"days": "Mon-Fri", "time": "3:00pm"}, {"days": "Sat-Sun", "time": "Closed"}], "id": "2961500069", "name": "USPS COLLECTION BOX - BLUE BOX", "address": {"city": "GREENVILLE", "state": "SC", "street": "50 INTERNATIONAL DR", "postcode": "29615"}}},
{"geometry": {"type": "Point", "coordinates": [-82.3567425108, 34.8690114168]}, "type": "Feature", "properties": {"collection_times": [{"days": "Mon-Fri", "time": "2:15pm"}, {"days": "Sat-Sun", "time": "Closed"}], "id": "2961500078", "name": "USPS COLLECTION BOX - BLUE BOX", "address": {"city": "GREENVILLE", "state": "SC", "street": "2435 E NORTH ST", "postcode": "29615"}}},
{"geometry": {"type": "Point", "coordinates": [-82.2756495175, 34.8250513121]}, "type": "Feature", "properties": {"collection_times": [{"days": "Mon-Fri", "time": "3:30pm"}, {"days": "Sat-Sun", "time": "Closed"}], "id": "2961500083", "name": "USPS COLLECTION BOX - BLUE BOX", "address": {"city": "GREENVILLE", "state": "SC", "street": "350 FEASTER RD", "postcode": "29615"}}},
{"geometry": {"type": "Point", "coordinates": [-82.3267019888, 34.8685341994]}, "type": "Feature", "properties": {"collection_times": [{"days": "Mon-Fri", "time": "11:30am"}, {"days": "Sat-Sun", "time": "Closed"}], "id": "2961500085", "name": "USPS COLLECTION BOX - BLUE BOX", "address": {"city": "GREENVILLE", "state": "SC", "street": "1 LOCH LOMAND DR.", "postcode": "29615"}}},
{"geometry": {"type": "Point", "coordinates": [-82.3297833824, 34.8759664147]}, "type": "Feature", "properties": {"collection_times": [{"days": "Mon-Fri", "time": "11:15am"}, {"days": "Sat-Sun", "time": "Closed"}], "id": "2961500087", "name": "USPS COLLECTION BOX - BLUE BOX", "address": {"city": "GREENVILLE", "state": "SC", "street": "530 HOWELL RD", "postcode": "29615"}}},
{"geometry": {"type": "Point", "coordinates": [-82.3105553243, 34.8443215635]}, "type": "Feature", "properties": {"collection_times": [{"days": "Mon-Fri", "time": "3:00pm"}, {"days": "Sat-Sun", "time": "Closed"}], "id": "2961500088", "name": "USPS COLLECTION BOX - BLUE BOX", "address": {"city": "GREENVILLE", "state": "SC", "street": "440 ROPER MOUNTAIN RD", "postcode": "29615"}}},
{"geometry": {"type": "Point", "coordinates": [-82.275089807, 34.8615182797]}, "type": "Feature", "properties": {"collection_times": [{"days": "Mon-Fri", "time": "3:00pm"}, {"days": "Sat-Sun", "time": "Closed"}], "id": "2961500089", "name": "USPS COLLECTION BOX - BLUE BOX", "address": {"city": "GREENVILLE", "state": "SC", "street": "3535 PELHAM RD", "postcode": "29615"}}},
{"geometry": {"type": "Point", "coordinates": [-82.275089807, 34.8615182797]}, "type": "Feature", "properties": {"collection_times": [{"days": "Mon-Fri", "time": "3:00pm"}, {"days": "Sat-Sun", "time": "Closed"}], "id": "2961500090", "name": "USPS COLLECTION BOX - BLUE BOX", "address": {"city": "GREENVILLE", "state": "SC", "street": "3535 PELHAM RD", "postcode": "29615"}}},
{"geometry": {"type": "Point", "coordinates": [-82.3267019888, 34.8685341994]}, "type": "Feature", "properties": {"collection_times": [{"days": "Mon-Fri", "time": "5:00pm"}, {"days": "Sat", "time": "1:45pm"}, {"days": "Sun", "time": "Closed"}], "id": "2961500091", "name": "USPS COLLECTION BOX - APC", "address": {"city": "GREENVILLE", "state": "SC", "street": "100 ORCHARD PARK DR", "postcode": "29615"}}},
{"geometry": {"type": "Point", "coordinates": [-82.4011819889, 34.1911122721]}, "type": "Feature", "properties": {"collection_times": [{"days": "Mon-Fri", "time": "4:30pm"}, {"days": "Sat", "time": "1:15pm"}, {"days": "Sun", "time": "Closed"}], "id": "2962000001", "name": "USPS COLLECTION BOX - BLUE BOX", "address": {"city": "ABBEVILLE", "state": "SC", "street": "1503 N MAIN ST", "postcode": "29620"}}},
{"geometry": {"type": "Point", "coordinates": [-82.4011819889, 34.1911122721]}, "type": "Feature", "properties": {"collection_times": [{"days": "Mon-Fri", "time": "4:00pm"}, {"days": "Sat", "time": "1:15pm"}, {"days": "Sun", "time": "Closed"}], "id": "2962000002", "name": "USPS COLLECTION BOX - PO LOBBY", "address": {"city": "ABBEVILLE", "state": "SC", "street": "1503 N MAIN ST", "postcode": "29620"}}},
{"geometry": {"type": "Point", "coordinates": [-82.4011819889, 34.1911122721]}, "type": "Feature", "properties": {"collection_times": [{"days": "Mon-Fri", "time": "4:00pm"}, {"days": "Sat", "time": "1:15pm"}, {"days": "Sun", "time": "Closed"}], "id": "2962000003", "name": "USPS COLLECTION BOX - PO LOBBY", "address": {"city": "ABBEVILLE", "state": "SC", "street": "1503 N MAIN ST", "postcode": "29620"}}},
{"geometry": {"type": "Point", "coordinates": [-82.3794362087, 34.1778430897]}, "type": "Feature", "properties": {"collection_times": [{"days": "Mon-Sat", "time": "1:15pm"}, {"days": "Sun", "time": "Closed"}], "id": "2962000007", "name": "USPS COLLECTION BOX - BLUE BOX", "address": {"city": "ABBEVILLE", "state": "SC", "street": "104 COURT SQ", "postcode": "29620"}}},
{"geometry": {"type": "Point", "coordinates": [-82.3791581979, 34.1777310771]}, "type": "Feature", "properties": {"collection_times": [{"days": "Mon-Sat", "time": "1:00pm"}, {"days": "Sun", "time": "Closed"}], "id": "2962000009", "name": "USPS COLLECTION BOX - BLUE BOX", "address": {"city": "ABBEVILLE", "state": "SC", "street": "125 COURT SQ", "postcode": "29620"}}},
{"geometry": {"type": "Point", "coordinates": [-82.3775529881, 34.1764183073]}, "type": "Feature", "properties": {"collection_times": [{"days": "Mon-Sat", "time": "1:15pm"}, {"days": "Sun", "time": "Closed"}], "id": "2962000014", "name": "USPS COLLECTION BOX - BLUE BOX", "address": {"city": "ABBEVILLE", "state": "SC", "street": "300 S MAIN ST", "postcode": "29620"}}},
{"geometry": {"type": "Point", "coordinates": [-82.3817905381, 34.1646910775]}, "type": "Feature", "properties": {"collection_times": [{"days": "Mon-Sat", "time": "1:00pm"}, {"days": "Sun", "time": "Closed"}], "id": "2962000019", "name": "USPS COLLECTION BOX - BLUE BOX", "address": {"city": "ABBEVILLE", "state": "SC", "street": "809 W GREENWOOD ST", "postcode": "29620"}}},
{"geometry": {"type": "Point", "coordinates": [-82.6561224801, 34.5210520012]}, "type": "Feature", "properties": {"collection_times": [{"days": "Mon-Fri", "time": "5:00pm"}, {"days": "Sat", "time": "12:00pm"}, {"days": "Sun", "time": "Closed"}], "id": "2962100000", "name": "USPS COLLECTION BOX - BLUE BOX", "address": {"city": "ANDERSON", "state": "SC", "street": "1900 N MAIN ST", "postcode": "29621"}}},
{"geometry": {"type": "Point", "coordinates": [-82.6561224801, 34.5210520012]}, "type": "Feature", "properties": {"collection_times": [{"days": "Mon-Fri", "time": "5:00pm"}, {"days": "Sat", "time": "12:00pm"}, {"days": "Sun", "time": "Closed"}], "id": "2962100001", "name": "USPS COLLECTION BOX - BLUE BOX", "address": {"city": "ANDERSON", "state": "SC", "street": "1900 N MAIN ST", "postcode": "29621"}}},
{"geometry": {"type": "Point", "coordinates": [-82.6561224801, 34.5210520012]}, "type": "Feature", "properties": {"collection_times": [{"days": "Mon-Fri", "time": "5:00pm"}, {"days": "Sat", "time": "12:00pm"}, {"days": "Sun", "time": "Closed"}], "id": "2962100004", "name": "USPS COLLECTION BOX - PO LOBBY", "address": {"city": "ANDERSON", "state": "SC", "street": "1900 N MAIN ST", "postcode": "29621"}}},
{"geometry": {"type": "Point", "coordinates": [-82.6561224801, 34.5210520012]}, "type": "Feature", "properties": {"collection_times": [{"days": "Mon-Fri", "time": "5:00pm"}, {"days": "Sat", "time": "12:00pm"}, {"days": "Sun", "time": "Closed"}], "id": "2962100005", "name": "USPS COLLECTION BOX - PO LOBBY", "address": {"city": "ANDERSON", "state": "SC", "street": "1900 N MAIN ST", "postcode": "29621"}}},
{"geometry": {"type": "Point", "coordinates": [-82.6630767714, 34.5314570962]}, "type": "Feature", "properties": {"collection_times": [{"days": "Mon-Fri", "time": "4:45pm"}, {"days": "Sat", "time": "12:00pm"}, {"days": "Sun", "time": "Closed"}], "id": "2962100017", "name": "USPS COLLECTION BOX - BLUE BOX", "address": {"city": "ANDERSON", "state": "SC", "street": "2815 S MAIN ST", "postcode": "29621"}}},
{"geometry": {"type": "Point", "coordinates": [-82.6630767714, 34.5314570962]}, "type": "Feature", "properties": {"collection_times": [{"days": "Mon-Fri", "time": "4:45pm"}, {"days": "Sat", "time": "12:00pm"}, {"days": "Sun", "time": "Closed"}], "id": "2962100019", "name": "USPS COLLECTION BOX - BLUE BOX", "address": {"city": "ANDERSON", "state": "SC", "street": "2815 S MAIN ST", "postcode": "29621"}}},
{"geometry": {"type": "Point", "coordinates": [-82.6630767714, 34.5314570962]}, "type": "Feature", "properties": {"collection_times": [{"days": "Mon-Fri", "time": "4:45pm"}, {"days": "Sat-Sun", "time": "Closed"}], "id": "2962100020", "name": "USPS COLLECTION BOX - PO LOBBY", "address": {"city": "ANDERSON", "state": "SC", "street": "2815 S MAIN ST", "postcode": "29621"}}},
{"geometry": {"type": "Point", "coordinates": [-82.6503730163, 34.5037820503]}, "type": "Feature", "properties": {"collection_times": [{"days": "Mon-Fri", "time": "2:30pm"}, {"days": "Sat-Sun", "time": "Closed"}], "id": "2962100028", "name": "USPS COLLECTION BOX - BLUE BOX", "address": {"city": "ANDERSON", "state": "SC", "street": "115 N MAIN ST", "postcode": "29621"}}},
{"geometry": {"type": "Point", "coordinates": [-82.6926187283, 34.5216171854]}, "type": "Feature", "properties": {"collection_times": [{"days": "Mon-Fri", "time": "2:30pm"}, {"days": "Sat-Sun", "time": "Closed"}], "id": "2962100033", "name": "USPS COLLECTION BOX - BLUE BOX", "address": {"city": "ANDERSON", "state": "SC", "street": "1104 PEARMAN DAIRY RD", "postcode": "29621"}}},
{"geometry": {"type": "Point", "coordinates": [-82.6503417466, 34.502736535]}, "type": "Feature", "properties": {"collection_times": [{"days": "Mon-Fri", "time": "2:30pm"}, {"days": "Sat-Sun", "time": "Closed"}], "id": "2962100036", "name": "USPS COLLECTION BOX - BLUE BOX", "address": {"city": "ANDERSON", "state": "SC", "street": "117 W BENSON ST", "postcode": "29621"}}},
{"geometry": {"type": "Point", "coordinates": [-82.650588598, 34.5050607619]}, "type": "Feature", "properties": {"collection_times": [{"days": "Mon-Fri", "time": "2:30pm"}, {"days": "Sat-Sun", "time": "Closed"}], "id": "2962100041", "name": "USPS COLLECTION BOX - BLUE BOX", "address": {"city": "ANDERSON", "state": "SC", "street": "206 N MAIN ST", "postcode": "29621"}}},
{"geometry": {"type": "Point", "coordinates": [-82.6517563362, 34.5100770682]}, "type": "Feature", "properties": {"collection_times": [{"days": "Mon-Fri", "time": "2:30pm"}, {"days": "Sat-Sun", "time": "Closed"}], "id": "2962100043", "name": "USPS COLLECTION BOX - BLUE BOX", "address": {"city": "ANDERSON", "state": "SC", "street": "821 N MAIN ST", "postcode": "29621"}}},
{"geometry": {"type": "Point", "coordinates": [-82.6473851452, 34.5111648302]}, "type": "Feature", "properties": {"collection_times": [{"days": "Mon-Fri", "time": "12:15pm"}, {"days": "Sat", "time": "11:15am"}, {"days": "Sun", "time": "Closed"}], "id": "2962100049", "name": "USPS COLLECTION BOX - BLUE BOX", "address": {"city": "ANDERSON", "state": "SC", "street": "800 N FANT ST", "postcode": "29621"}}},
{"geometry": {"type": "Point", "coordinates": [-82.6375804654, 34.5120430223]}, "type": "Feature", "properties": {"collection_times": [{"days": "Mon-Fri", "time": "2:30pm"}, {"days": "Sat-Sun", "time": "Closed"}], "id": "2962100066", "name": "USPS COLLECTION BOX - BLUE BOX", "address": {"city": "ANDERSON", "state": "SC", "street": "316 BOULEVARD", "postcode": "29621"}}},
{"geometry": {"type": "Point", "coordinates": [-82.6375752947, 34.526592242]}, "type": "Feature", "properties": {"collection_times": [{"days": "Mon-Fri", "time": "12:15pm"}, {"days": "Sat-Sun", "time": "Closed"}], "id": "2962100068", "name": "USPS COLLECTION BOX - BLUE BOX", "address": {"city": "ANDERSON", "state": "SC", "street": "1520 E GREENVILLE ST", "postcode": "29621"}}},
{"geometry": {"type": "Point", "coordinates": [-82.6736801322, 34.5491262354]}, "type": "Feature", "properties": {"collection_times": [{"days": "Mon-Fri", "time": "4:30pm"}, {"days": "Sat-Sun", "time": "Closed"}], "id": "2962100077", "name": "USPS COLLECTION BOX - PO LOBBY", "address": {"city": "ANDERSON", "state": "SC", "street": "3420 N MAIN ST", "postcode": "29621"}}},
{"geometry": {"type": "Point", "coordinates": [-82.6736801322, 34.5491262354]}, "type": "Feature", "properties": {"collection_times": [{"days": "Mon-Fri", "time": "4:30pm"}, {"days": "Sat-Sun", "time": "Closed"}], "id": "2962100078", "name": "USPS COLLECTION BOX - PO LOBBY", "address": {"city": "ANDERSON", "state": "SC", "street": "3420 N MAIN ST", "postcode": "29621"}}},
{"geometry": {"type": "Point", "coordinates": [-82.6625201551, 34.5821607723]}, "type": "Feature", "properties": {"collection_times": [{"days": "Mon-Fri", "time": "2:30pm"}, {"days": "Sat-Sun", "time": "Closed"}], "id": "2962100087", "name": "USPS COLLECTION BOX - BLUE BOX", "address": {"city": "ANDERSON", "state": "SC", "street": "651 HIGHWAY 28 BYP", "postcode": "29621"}}},
{"geometry": {"type": "Point", "coordinates": [-82.6964173065, 34.5308640781]}, "type": "Feature", "properties": {"collection_times": [{"days": "Mon-Sat", "time": "3:45pm"}, {"days": "Sun", "time": "Closed"}], "id": "2962100097", "name": "USPS COLLECTION BOX - BLUE BOX", "address": {"city": "ANDERSON", "state": "SC", "street": "1490 PEARMAN DAIRY RD", "postcode": "29621"}}},
{"geometry": {"type": "Point", "coordinates": [-82.6591662335, 34.5271063852]}, "type": "Feature", "properties": {"collection_times": [{"days": "Mon-Fri", "time": "2:45pm"}, {"days": "Sat-Sun", "time": "Closed"}], "id": "2962100100", "name": "USPS COLLECTION BOX - BLUE BOX", "address": {"city": "ANDERSON", "state": "SC", "street": "2315 N MAIN ST", "postcode": "29621"}}},
{"geometry": {"type": "Point", "coordinates": [-82.6736801322, 34.5491262354]}, "type": "Feature", "properties": {"collection_times": [{"days": "Mon-Fri", "time": "4:30pm"}, {"days": "Sat", "time": "11:30am"}, {"days": "Sun", "time": "Closed"}], "id": "2962100101", "name": "USPS COLLECTION BOX - BLUE BOX", "address": {"city": "ANDERSON", "state": "SC", "street": "3420 N MAIN ST", "postcode": "29621"}}},
{"geometry": {"type": "Point", "coordinates": [-82.6736801322, 34.5491262354]}, "type": "Feature", "properties": {"collection_times": [{"days": "Mon-Fri", "time": "4:30pm"}, {"days": "Sat", "time": "11:30am"}, {"days": "Sun", "time": "Closed"}], "id": "2962100102", "name": "USPS COLLECTION BOX - BLUE BOX", "address": {"city": "ANDERSON", "state": "SC", "street": "3420 N MAIN ST", "postcode": "29621"}}},
{"geometry": {"type": "Point", "coordinates": [-82.6728648257, 34.5485568165]}, "type": "Feature", "properties": {"collection_times": [{"days": "Mon-Fri", "time": "2:30pm"}, {"days": "Sat", "time": "11:00am"}, {"days": "Sun", "time": "Closed"}], "id": "2962100106", "name": "USPS COLLECTION BOX - BLUE BOX", "address": {"city": "ANDERSON", "state": "SC", "street": "3300 N MAIN ST", "postcode": "29621"}}},
{"geometry": {"type": "Point", "coordinates": [-82.6825705565, 34.5544075626]}, "type": "Feature", "properties": {"collection_times": [{"days": "Mon-Fri", "time": "2:45pm"}, {"days": "Sat", "time": "11:15am"}, {"days": "Sun", "time": "Closed"}], "id": "2962100108", "name": "USPS COLLECTION BOX - BLUE BOX", "address": {"city": "ANDERSON", "state": "SC", "street": "3801 CLEMSON BLVD", "postcode": "29621"}}},
{"geometry": {"type": "Point", "coordinates": [-82.6311020484, 34.5477011138]}, "type": "Feature", "properties": {"collection_times": [{"days": "Mon-Fri", "time": "12:00pm"}, {"days": "Sat-Sun", "time": "Closed"}], "id": "2962100110", "name": "USPS COLLECTION BOX - BLUE BOX", "address": {"city": "ANDERSON", "state": "SC", "street": "2000 E GREENVILLE ST", "postcode": "29621"}}},
{"geometry": {"type": "Point", "coordinates": [-82.6561224801, 34.5210520012]}, "type": "Feature", "properties": {"collection_times": [{"days": "Mon-Fri", "time": "5:00pm"}, {"days": "Sat", "time": "12:00pm"}, {"days": "Sun", "time": "Closed"}], "id": "2962100111", "name": "USPS COLLECTION BOX - PO LOBBY", "address": {"city": "ANDERSON", "state": "SC", "street": "1900 N MAIN ST", "postcode": "29621"}}},
{"geometry": {"type": "Point", "coordinates": [-82.6561224801, 34.5210520012]}, "type": "Feature", "properties": {"collection_times": [{"days": "Mon-Fri", "time": "5:00pm"}, {"days": "Sat", "time": "12:00pm"}, {"days": "Sun", "time": "Closed"}], "id": "2962100112", "name": "USPS COLLECTION BOX - APC", "address": {"city": "ANDERSON", "state": "SC", "street": "1900 N MAIN ST", "postcode": "29621"}}},
{"geometry": {"type": "Point", "coordinates": [-82.7369429327, 34.5073392404]}, "type": "Feature", "properties": {"collection_times": [{"days": "Mon-Sat", "time": "1:15pm"}, {"days": "Sun", "time": "Closed"}], "id": "2962100116", "name": "USPS COLLECTION BOX - BLUE BOX", "address": {"city": "ANDERSON", "state": "SC", "street": "4111 HIGHWAY 24", "postcode": "29621"}}},
{"geometry": {"type": "Point", "coordinates": [-82.6165417654, 34.5967704961]}, "type": "Feature", "properties": {"collection_times": [{"days": "Mon-Sat", "time": "11:00am"}, {"days": "Sun", "time": "Closed"}], "id": "2962100117", "name": "USPS COLLECTION BOX - BLUE BOX", "address": {"city": "ANDERSON", "state": "SC", "street": "3750 N HIGHWAY 81", "postcode": "29621"}}},
{"geometry": {"type": "Point", "coordinates": [-82.4955996804, 34.5226489958]}, "type": "Feature", "properties": {"collection_times": [{"days": "Mon-Fri", "time": "4:45pm"}, {"days": "Sat", "time": "3:45pm"}, {"days": "Sun", "time": "Closed"}], "id": "2962700000", "name": "USPS COLLECTION BOX - BLUE BOX", "address": {"city": "BELTON", "state": "SC", "street": "103 BREAZEALE ST", "postcode": "29627"}}},
{"geometry": {"type": "Point", "coordinates": [-82.487410617, 34.5165738602]}, "type": "Feature", "properties": {"collection_times": [{"days": "Mon-Fri", "time": "12:30pm"}, {"days": "Sat-Sun", "time": "Closed"}], "id": "2962700001", "name": "USPS COLLECTION BOX - BLUE BOX", "address": {"city": "BELTON", "state": "SC", "street": "410 S MAIN ST", "postcode": "29627"}}},
{"geometry": {"type": "Point", "coordinates": [-82.4955996804, 34.5226489958]}, "type": "Feature", "properties": {"collection_times": [{"days": "Mon-Fri", "time": "4:45pm"}, {"days": "Sat", "time": "3:45pm"}, {"days": "Sun", "time": "Closed"}], "id": "2962700002", "name": "USPS COLLECTION BOX - BLUE BOX", "address": {"city": "BELTON", "state": "SC", "street": "103 BREAZEALE ST", "postcode": "29627"}}},
{"geometry": {"type": "Point", "coordinates": [-82.4954147192, 34.5246578713]}, "type": "Feature", "properties": {"collection_times": [{"days": "Mon-Fri", "time": "12:45pm"}, {"days": "Sat-Sun", "time": "Closed"}], "id": "2962700003", "name": "USPS COLLECTION BOX - BLUE BOX", "address": {"city": "BELTON", "state": "SC", "street": "220 N MAIN ST", "postcode": "29627"}}},
{"geometry": {"type": "Point", "coordinates": [-82.4929610871, 34.5159252225]}, "type": "Feature", "properties": {"collection_times": [{"days": "Mon-Fri", "time": "12:30pm"}, {"days": "Sat-Sun", "time": "Closed"}], "id": "2962700005", "name": "USPS COLLECTION BOX - BLUE BOX", "address": {"city": "BELTON", "state": "SC", "street": "200 WATKINS ST", "postcode": "29627"}}},
{"geometry": {"type": "Point", "coordinates": [-82.5057287305, 34.5182451648]}, "type": "Feature", "properties": {"collection_times": [{"days": "Mon-Fri", "time": "12:30pm"}, {"days": "Sat-Sun", "time": "Closed"}], "id": "2962700009", "name": "USPS COLLECTION BOX - BLUE BOX", "address": {"city": "BELTON", "state": "SC", "street": "200 FOREST LN", "postcode": "29627"}}},
{"geometry": {"type": "Point", "coordinates": [-82.5067586099, 34.5193111324]}, "type": "Feature", "properties": {"collection_times": [{"days": "Mon-Fri", "time": "12:30pm"}, {"days": "Sat-Sun", "time": "Closed"}], "id": "2962700011", "name": "USPS COLLECTION BOX - BLUE BOX", "address": {"city": "BELTON", "state": "SC", "street": "727 ANDERSON ST", "postcode": "29627"}}},
{"geometry": {"type": "Point", "coordinates": [-82.4925511951, 34.5185666044]}, "type": "Feature", "properties": {"collection_times": [{"days": "Mon-Fri", "time": "12:30pm"}, {"days": "Sat-Sun", "time": "Closed"}], "id": "2962700015", "name": "USPS COLLECTION BOX - BLUE BOX", "address": {"city": "BELTON", "state": "SC", "street": "307 BROWN AVE", "postcode": "29627"}}},
{"geometry": {"type": "Point", "coordinates": [-82.4955996804, 34.5226489958]}, "type": "Feature", "properties": {"collection_times": [{"days": "Mon-Fri", "time": "4:45pm"}, {"days": "Sat", "time": "3:45pm"}, {"days": "Sun", "time": "Closed"}], "id": "2962700017", "name": "USPS COLLECTION BOX - PO LOBBY", "address": {"city": "BELTON", "state": "SC", "street": "103 BREAZEALE ST", "postcode": "29627"}}},
{"geometry": {"type": "Point", "coordinates": [-82.496088894, 34.5216603448]}, "type": "Feature", "properties": {"collection_times": [{"days": "Mon-Fri", "time": "12:30pm"}, {"days": "Sat-Sun", "time": "Closed"}], "id": "2962700018", "name": "USPS COLLECTION BOX - BLUE BOX", "address": {"city": "BELTON", "state": "SC", "street": "306 ANDERSON ST", "postcode": "29627"}}},
{"geometry": {"type": "Point", "coordinates": [-82.4955996804, 34.5226489958]}, "type": "Feature", "properties": {"collection_times": [{"days": "Mon-Fri", "time": "4:45pm"}, {"days": "Sat", "time": "3:45pm"}, {"days": "Sun", "time": "Closed"}], "id": "2962700019", "name": "USPS COLLECTION BOX - PO LOBBY", "address": {"city": "BELTON", "state": "SC", "street": "103 BREAZEALE ST", "postcode": "29627"}}},
{"geometry": {"type": "Point", "coordinates": [-82.5865617147, 34.0901620145]}, "type": "Feature", "properties": {"collection_times": [{"days": "Mon-Fri", "time": "3:45pm"}, {"days": "Sat", "time": "9:45am"}, {"days": "Sun", "time": "Closed"}], "id": "2962800000", "name": "USPS COLLECTION BOX - BLUE BOX", "address": {"city": "CALHOUN FALLS", "state": "SC", "street": "200 E SAVANNAH ST", "postcode": "29628"}}},
{"geometry": {"type": "Point", "coordinates": [-82.5865617147, 34.0901620145]}, "type": "Feature", "properties": {"collection_times": [{"days": "Mon-Fri", "time": "3:45pm"}, {"days": "Sat", "time": "9:45am"}, {"days": "Sun", "time": "Closed"}], "id": "2962800001", "name": "USPS COLLECTION BOX - PO LOBBY", "address": {"city": "CALHOUN FALLS", "state": "SC", "street": "200 E SAVANNAH ST", "postcode": "29628"}}},
{"geometry": {"type": "Point", "coordinates": [-82.7916604138, 34.7111699544]}, "type": "Feature", "properties": {"collection_times": [{"days": "Mon-Fri", "time": "4:15pm"}, {"days": "Sat", "time": "10:45am"}, {"days": "Sun", "time": "Closed"}], "id": "2963000000", "name": "USPS COLLECTION BOX - BLUE BOX", "address": {"city": "CENTRAL", "state": "SC", "street": "1205 W MAIN ST", "postcode": "29630"}}},
{"geometry": {"type": "Point", "coordinates": [-82.7916604138, 34.7111699544]}, "type": "Feature", "properties": {"collection_times": [{"days": "Mon-Fri", "time": "4:15pm"}, {"days": "Sat", "time": "10:45am"}, {"days": "Sun", "time": "Closed"}], "id": "2963000001", "name": "USPS COLLECTION BOX - PO LOBBY", "address": {"city": "CENTRAL", "state": "SC", "street": "1205 W MAIN ST", "postcode": "29630"}}},
{"geometry": {"type": "Point", "coordinates": [-82.7916604138, 34.7111699544]}, "type": "Feature", "properties": {"collection_times": [{"days": "Mon-Fri", "time": "4:15pm"}, {"days": "Sat", "time": "10:45am"}, {"days": "Sun", "time": "Closed"}], "id": "2963000003", "name": "USPS COLLECTION BOX - BLUE BOX", "address": {"city": "CENTRAL", "state": "SC", "street": "1205 W MAIN ST", "postcode": "29630"}}},
{"geometry": {"type": "Point", "coordinates": [-82.7916604138, 34.7111699544]}, "type": "Feature", "properties": {"collection_times": [{"days": "Mon-Fri", "time": "4:15pm"}, {"days": "Sat", "time": "10:45am"}, {"days": "Sun", "time": "Closed"}], "id": "2963000004", "name": "USPS COLLECTION BOX - PO LOBBY", "address": {"city": "CENTRAL", "state": "SC", "street": "1205 W MAIN ST", "postcode": "29630"}}},
{"geometry": {"type": "Point", "coordinates": [-82.8345659252, 34.6893657687]}, "type": "Feature", "properties": {"collection_times": [{"days": "Mon-Fri", "time": "4:45pm"}, {"days": "Sat", "time": "2:30pm"}, {"days": "Sun", "time": "Closed"}], "id": "2963100000", "name": "USPS COLLECTION BOX - BLUE BOX", "address": {"city": "CLEMSON", "state": "SC", "street": "519 COLLEGE AVE", "postcode": "29631"}}},
{"geometry": {"type": "Point", "coordinates": [-82.8345659252, 34.6893657687]}, "type": "Feature", "properties": {"collection_times": [{"days": "Mon-Fri", "time": "4:45pm"}, {"days": "Sat", "time": "2:30pm"}, {"days": "Sun", "time": "Closed"}], "id": "2963100003", "name": "USPS COLLECTION BOX - PO LOBBY", "address": {"city": "CLEMSON", "state": "SC", "street": "519 COLLEGE AVE", "postcode": "29631"}}},
{"geometry": {"type": "Point", "coordinates": [-82.8369306382, 34.6845841964]}, "type": "Feature", "properties": {"collection_times": [{"days": "Mon-Fri", "time": "4:30pm"}, {"days": "Sat-Sun", "time": "Closed"}], "id": "2963100004", "name": "USPS COLLECTION BOX - BLUE BOX", "address": {"city": "CLEMSON", "state": "SC", "street": "382 COLLEGE AVE", "postcode": "29631"}}},
{"geometry": {"type": "Point", "coordinates": [-82.8345659252, 34.6893657687]}, "type": "Feature", "properties": {"collection_times": [{"days": "Mon-Fri", "time": "4:45pm"}, {"days": "Sat", "time": "2:30pm"}, {"days": "Sun", "time": "Closed"}], "id": "2963100006", "name": "USPS COLLECTION BOX - PO LOBBY", "address": {"city": "CLEMSON", "state": "SC", "street": "519 COLLEGE AVE", "postcode": "29631"}}},
{"geometry": {"type": "Point", "coordinates": [-82.7981454508, 34.6819268751]}, "type": "Feature", "properties": {"collection_times": [{"days": "Mon-Fri", "time": "4:15pm"}, {"days": "Sat-Sun", "time": "Closed"}], "id": "2963100007", "name": "USPS COLLECTION BOX - BLUE BOX", "address": {"city": "CLEMSON", "state": "SC", "street": "1 MCMILLIAN RD(CLEMSON UNIVER)", "postcode": "29631"}}},
{"geometry": {"type": "Point", "coordinates": [-82.7981454508, 34.6819268751]}, "type": "Feature", "properties": {"collection_times": [{"days": "Mon-Fri", "time": "4:15pm"}, {"days": "Sat-Sun", "time": "Closed"}], "id": "2963100008", "name": "USPS COLLECTION BOX - BLUE BOX", "address": {"city": "CLEMSON", "state": "SC", "street": "2 CLEMSON UNIVERSITY", "postcode": "29631"}}},
{"geometry": {"type": "Point", "coordinates": [-82.8345659252, 34.6893657687]}, "type": "Feature", "properties": {"collection_times": [{"days": "Mon-Fri", "time": "4:45pm"}, {"days": "Sat", "time": "2:30pm"}, {"days": "Sun", "time": "Closed"}], "id": "2963100009", "name": "USPS COLLECTION BOX - PO LOBBY", "address": {"city": "CLEMSON", "state": "SC", "street": "519 COLLEGE AVE", "postcode": "29631"}}},
{"geometry": {"type": "Point", "coordinates": [-82.8345659252, 34.6893657687]}, "type": "Feature", "properties": {"collection_times": [{"days": "Mon-Fri", "time": "4:45pm"}, {"days": "Sat", "time": "2:30pm"}, {"days": "Sun", "time": "Closed"}], "id": "2963100013", "name": "USPS COLLECTION BOX - PO LOBBY", "address": {"city": "CLEMSON", "state": "SC", "street": "519 COLLEGE AVE", "postcode": "29631"}}},
{"geometry": {"type": "Point", "coordinates": [-82.8403233864, 34.6918263233]}, "type": "Feature", "properties": {"collection_times": [{"days": "Mon-Fri", "time": "4:00pm"}, {"days": "Sat-Sun", "time": "Closed"}], "id": "2963100014", "name": "USPS COLLECTION BOX - BLUE BOX", "address": {"city": "CLEMSON", "state": "SC", "street": "1019 TIGER BLVD", "postcode": "29631"}}},
{"geometry": {"type": "Point", "coordinates": [-82.7981454508, 34.6819268751]}, "type": "Feature", "properties": {"collection_times": [{"days": "Mon-Fri", "time": "4:15pm"}, {"days": "Sat-Sun", "time": "Closed"}], "id": "2963100017", "name": "USPS COLLECTION BOX - BLUE BOX", "address": {"city": "CLEMSON", "state": "SC", "street": "1 CLEMSON UNIVERSITY", "postcode": "29631"}}},
{"geometry": {"type": "Point", "coordinates": [-82.5119540681, 35.0630873251]}, "type": "Feature", "properties": {"collection_times": [{"days": "Mon-Fri", "time": "3:45pm"}, {"days": "Sat", "time": "9:45am"}, {"days": "Sun", "time": "Closed"}], "id": "2963500000", "name": "USPS COLLECTION BOX - BLUE BOX", "address": {"city": "CLEVELAND", "state": "SC", "street": "4031 GEER HWY", "postcode": "29635"}}},
{"geometry": {"type": "Point", "coordinates": [-82.5119540681, 35.0630873251]}, "type": "Feature", "properties": {"collection_times": [{"days": "Mon-Fri", "time": "3:45pm"}, {"days": "Sat", "time": "9:45am"}, {"days": "Sun", "time": "Closed"}], "id": "2963500001", "name": "USPS COLLECTION BOX - PO LOBBY", "address": {"city": "CLEVELAND", "state": "SC", "street": "4031 GEER HWY", "postcode": "29635"}}},
{"geometry": {"type": "Point", "coordinates": [-82.6023880574, 35.07239279]}, "type": "Feature", "properties": {"collection_times": [{"days": "Mon-Fri", "time": "3:45pm"}, {"days": "Sat", "time": "9:45am"}, {"days": "Sun", "time": "Closed"}], "id": "2963500005", "name": "USPS COLLECTION BOX - PO LOBBY", "address": {"city": "CLEVELAND", "state": "SC", "street": "4031 GEER HWY", "postcode": "29635"}}},
{"geometry": {"type": "Point", "coordinates": [-82.6023880574, 35.07239279]}, "type": "Feature", "properties": {"collection_times": [{"days": "Mon-Fri", "time": "3:45pm"}, {"days": "Sat", "time": "9:45am"}, {"days": "Sun", "time": "Closed"}], "id": "2963500006", "name": "USPS COLLECTION BOX - PO LOBBY", "address": {"city": "CLEVELAND", "state": "SC", "street": "4031 GEER HWY", "postcode": "29635"}}},
{"geometry": {"type": "Point", "coordinates": [-82.3598901059, 34.7632227727]}, "type": "Feature", "properties": {"collection_times": [{"days": "Mon-Fri", "time": "3:45pm"}, {"days": "Sat", "time": "9:45am"}, {"days": "Sun", "time": "Closed"}], "id": "2963600000", "name": "USPS COLLECTION BOX - BLUE BOX", "address": {"city": "CONESTEE", "state": "SC", "street": "401 CONESTEE RD", "postcode": "29636"}}},
{"geometry": {"type": "Point", "coordinates": [-82.3598901059, 34.7632227727]}, "type": "Feature", "properties": {"collection_times": [{"days": "Mon-Fri", "time": "3:45pm"}, {"days": "Sat", "time": "9:45am"}, {"days": "Sun", "time": "Closed"}], "id": "2963600001", "name": "USPS COLLECTION BOX - PO LOBBY", "address": {"city": "CONESTEE", "state": "SC", "street": "401 CONESTEE RD", "postcode": "29636"}}},
{"geometry": {"type": "Point", "coordinates": [-82.3598901059, 34.7632227727]}, "type": "Feature", "properties": {"collection_times": [{"days": "Mon-Fri", "time": "3:45pm"}, {"days": "Sat", "time": "9:45am"}, {"days": "Sun", "time": "Closed"}], "id": "2963600002", "name": "USPS COLLECTION BOX - PO LOBBY", "address": {"city": "CONESTEE", "state": "SC", "street": "401 CONESTEE RD", "postcode": "29636"}}},
{"geometry": {"type": "Point", "coordinates": [-82.3486107974, 34.3748295351]}, "type": "Feature", "properties": {"collection_times": [{"days": "Mon-Fri", "time": "3:45pm"}, {"days": "Sat", "time": "9:45am"}, {"days": "Sun", "time": "Closed"}], "id": "2963800000", "name": "USPS COLLECTION BOX - BLUE BOX", "address": {"city": "DONALDS", "state": "SC", "street": "119 W MAIN ST", "postcode": "29638"}}},
{"geometry": {"type": "Point", "coordinates": [-82.3486107974, 34.3748295351]}, "type": "Feature", "properties": {"collection_times": [{"days": "Mon-Fri", "time": "3:45pm"}, {"days": "Sat", "time": "9:45am"}, {"days": "Sun", "time": "Closed"}], "id": "2963800001", "name": "USPS COLLECTION BOX - PO LOBBY", "address": {"city": "DONALDS", "state": "SC", "street": "119 W MAIN ST", "postcode": "29638"}}},
{"geometry": {"type": "Point", "coordinates": [-82.3900462456, 34.3296898458]}, "type": "Feature", "properties": {"collection_times": [{"days": "Mon-Fri", "time": "3:45pm"}, {"days": "Sat", "time": "9:45am"}, {"days": "Sun", "time": "Closed"}], "id": "2963900000", "name": "USPS COLLECTION BOX - BLUE BOX", "address": {"city": "DUE WEST", "state": "SC", "street": "5 WASHINGTON ST", "postcode": "29639"}}},
{"geometry": {"type": "Point", "coordinates": [-82.3900462456, 34.3296898458]}, "type": "Feature", "properties": {"collection_times": [{"days": "Mon-Fri", "time": "3:45pm"}, {"days": "Sat", "time": "9:45am"}, {"days": "Sun", "time": "Closed"}], "id": "2963900001", "name": "USPS COLLECTION BOX - PO LOBBY", "address": {"city": "DUE WEST", "state": "SC", "street": "5 WASHINGTON ST", "postcode": "29639"}}},
{"geometry": {"type": "Point", "coordinates": [-82.6014863373, 34.8192960666]}, "type": "Feature", "properties": {"collection_times": [{"days": "Mon-Fri", "time": "5:00pm"}, {"days": "Sat", "time": "3:15pm"}, {"days": "Sun", "time": "Closed"}], "id": "2964000001", "name": "USPS COLLECTION BOX - BLUE BOX", "address": {"city": "EASLEY", "state": "SC", "street": "810 S PENDLETON ST", "postcode": "29640"}}},
{"geometry": {"type": "Point", "coordinates": [-82.6014863373, 34.8192960666]}, "type": "Feature", "properties": {"collection_times": [{"days": "Mon-Fri", "time": "5:00pm"}, {"days": "Sat", "time": "3:15pm"}, {"days": "Sun", "time": "Closed"}], "id": "2964000002", "name": "USPS COLLECTION BOX - BLUE BOX", "address": {"city": "EASLEY", "state": "SC", "street": "810 S PENDLETON ST", "postcode": "29640"}}},
{"geometry": {"type": "Point", "coordinates": [-82.6014863373, 34.8192960666]}, "type": "Feature", "properties": {"collection_times": [{"days": "Mon-Fri", "time": "5:00pm"}, {"days": "Sat", "time": "3:15pm"}, {"days": "Sun", "time": "Closed"}], "id": "2964000003", "name": "USPS COLLECTION BOX - PO LOBBY", "address": {"city": "EASLEY", "state": "SC", "street": "810 S PENDLETON ST", "postcode": "29640"}}},
{"geometry": {"type": "Point", "coordinates": [-82.6061755867, 34.8400782897]}, "type": "Feature", "properties": {"collection_times": [{"days": "Mon-Fri", "time": "10:30am"}, {"days": "Sat", "time": "9:45am"}, {"days": "Sun", "time": "Closed"}], "id": "2964000004", "name": "USPS COLLECTION BOX - BLUE BOX", "address": {"city": "EASLEY", "state": "SC", "street": "200 FLEETWOOD DR", "postcode": "29640"}}},
{"geometry": {"type": "Point", "coordinates": [-82.5861108511, 34.8219424774]}, "type": "Feature", "properties": {"collection_times": [{"days": "Mon-Fri", "time": "10:45am"}, {"days": "Sat", "time": "9:45am"}, {"days": "Sun", "time": "Closed"}], "id": "2964000009", "name": "USPS COLLECTION BOX - BLUE BOX", "address": {"city": "EASLEY", "state": "SC", "street": "6101 CALHOUN MEMORIAL HWY", "postcode": "29640"}}},
{"geometry": {"type": "Point", "coordinates": [-82.6014863373, 34.8192960666]}, "type": "Feature", "properties": {"collection_times": [{"days": "Mon-Fri", "time": "5:00pm"}, {"days": "Sat", "time": "3:15pm"}, {"days": "Sun", "time": "Closed"}], "id": "2964000010", "name": "USPS COLLECTION BOX - PO LOBBY", "address": {"city": "EASLEY", "state": "SC", "street": "810 S PENDLETON ST", "postcode": "29640"}}},
{"geometry": {"type": "Point", "coordinates": [-82.6014863373, 34.8192960666]}, "type": "Feature", "properties": {"collection_times": [{"days": "Mon-Fri", "time": "5:00pm"}, {"days": "Sat", "time": "3:15pm"}, {"days": "Sun", "time": "Closed"}], "id": "2964000011", "name": "USPS COLLECTION BOX - BLUE BOX", "address": {"city": "EASLEY", "state": "SC", "street": "810 S PENDLETON ST", "postcode": "29640"}}},
{"geometry": {"type": "Point", "coordinates": [-82.6014863373, 34.8192960666]}, "type": "Feature", "properties": {"collection_times": [{"days": "Mon-Fri", "time": "5:00pm"}, {"days": "Sat", "time": "3:15pm"}, {"days": "Sun", "time": "Closed"}], "id": "2964000012", "name": "USPS COLLECTION BOX - APC", "address": {"city": "EASLEY", "state": "SC", "street": "810 S PENDLETON ST", "postcode": "29640"}}},
{"geometry": {"type": "Point", "coordinates": [-82.5566753352, 34.8246031195]}, "type": "Feature", "properties": {"collection_times": [{"days": "Mon-Sat", "time": "12:00pm"}, {"days": "Sun", "time": "Closed"}], "id": "2964000015", "name": "USPS COLLECTION BOX - BLUE BOX", "address": {"city": "EASLEY", "state": "SC", "street": "5251 CALHOUN MEMORIAL HWY", "postcode": "29640"}}},
{"geometry": {"type": "Point", "coordinates": [-80.8937521976, 33.9038639711]}, "type": "Feature", "properties": {"collection_times": [{"days": "Mon-Fri", "time": "3:45pm"}, {"days": "Sat", "time": "9:45am"}, {"days": "Sun", "time": "Closed"}], "id": "2964300000", "name": "USPS COLLECTION BOX - BLUE BOX", "address": {"city": "FAIR PLAY", "state": "SC", "street": "805 E FAIRPLAY BLVD", "postcode": "29643"}}},
{"geometry": {"type": "Point", "coordinates": [-80.8937521976, 33.9038639711]}, "type": "Feature", "properties": {"collection_times": [{"days": "Mon-Fri", "time": "3:45pm"}, {"days": "Sat", "time": "9:45am"}, {"days": "Sun", "time": "Closed"}], "id": "2964300001", "name": "USPS COLLECTION BOX - PO LOBBY", "address": {"city": "FAIR PLAY", "state": "SC", "street": "805 E FAIRPLAY BLVD", "postcode": "29643"}}},
{"geometry": {"type": "Point", "coordinates": [-83.052238787, 34.5278163327]}, "type": "Feature", "properties": {"collection_times": [{"days": "Mon-Sat", "time": "11:15am"}, {"days": "Sun", "time": "Closed"}], "id": "2964300002", "name": "USPS COLLECTION BOX - BLUE BOX", "address": {"city": "FAIR PLAY", "state": "SC", "street": "16096 S HIGHWAY 11", "postcode": "29643"}}},
{"geometry": {"type": "Point", "coordinates": [-82.9582393783, 34.5022310231]}, "type": "Feature", "properties": {"collection_times": [{"days": "Mon-Sat", "time": "12:00pm"}, {"days": "Sun", "time": "Closed"}], "id": "2964300004", "name": "USPS COLLECTION BOX - BLUE BOX", "address": {"city": "FAIR PLAY", "state": "SC", "street": "4101 OLD DOBBINS BRIDGE RD", "postcode": "29643"}}},
{"geometry": {"type": "Point", "coordinates": [-80.8937521976, 33.9038639711]}, "type": "Feature", "properties": {"collection_times": [{"days": "Mon-Fri", "time": "3:45pm"}, {"days": "Sat", "time": "9:45am"}, {"days": "Sun", "time": "Closed"}], "id": "2964300005", "name": "USPS COLLECTION BOX - PO LOBBY", "address": {"city": "FAIR PLAY", "state": "SC", "street": "805 E FAIRPLAY BLVD", "postcode": "29643"}}},
{"geometry": {"type": "Point", "coordinates": [-82.1994662904, 34.682067943]}, "type": "Feature", "properties": {"collection_times": [{"days": "Mon-Fri", "time": "4:15pm"}, {"days": "Sat", "time": "11:45am"}, {"days": "Sun", "time": "Closed"}], "id": "2964400000", "name": "USPS COLLECTION BOX - BLUE BOX", "address": {"city": "FOUNTAIN INN", "state": "SC", "street": "290 MCCARTER RD", "postcode": "29644"}}},
{"geometry": {"type": "Point", "coordinates": [-82.1994662904, 34.682067943]}, "type": "Feature", "properties": {"collection_times": [{"days": "Mon-Fri", "time": "4:15pm"}, {"days": "Sat", "time": "11:45am"}, {"days": "Sun", "time": "Closed"}], "id": "2964400001", "name": "USPS COLLECTION BOX - BLUE BOX", "address": {"city": "FOUNTAIN INN", "state": "SC", "street": "290 MCCARTER RD", "postcode": "29644"}}},
{"geometry": {"type": "Point", "coordinates": [-82.1994662904, 34.682067943]}, "type": "Feature", "properties": {"collection_times": [{"days": "Mon-Fri", "time": "4:15pm"}, {"days": "Sat", "time": "11:45am"}, {"days": "Sun", "time": "Closed"}], "id": "2964400002", "name": "USPS COLLECTION BOX - PO LOBBY", "address": {"city": "FOUNTAIN INN", "state": "SC", "street": "290 MCCARTER RD", "postcode": "29644"}}},
{"geometry": {"type": "Point", "coordinates": [-82.2163892468, 34.701313226]}, "type": "Feature", "properties": {"collection_times": [{"days": "Mon-Sat", "time": "11:00am"}, {"days": "Sun", "time": "Closed"}], "id": "2964400008", "name": "USPS COLLECTION BOX - BLUE BOX", "address": {"city": "FOUNTAIN INN", "state": "SC", "street": "1103 N MAIN ST", "postcode": "29644"}}},
{"geometry": {"type": "Point", "coordinates": [-82.1994662904, 34.682067943]}, "type": "Feature", "properties": {"collection_times": [{"days": "Mon-Fri", "time": "4:15pm"}, {"days": "Sat", "time": "11:45am"}, {"days": "Sun", "time": "Closed"}], "id": "2964400010", "name": "USPS COLLECTION BOX - PO LOBBY", "address": {"city": "FOUNTAIN INN", "state": "SC", "street": "290 MCCARTER RD", "postcode": "29644"}}},
{"geometry": {"type": "Point", "coordinates": [-82.1994662904, 34.682067943]}, "type": "Feature", "properties": {"collection_times": [{"days": "Mon-Fri", "time": "4:15pm"}, {"days": "Sat", "time": "11:45am"}, {"days": "Sun", "time": "Closed"}], "id": "2964400011", "name": "USPS COLLECTION BOX - PO LOBBY", "address": {"city": "FOUNTAIN INN", "state": "SC", "street": "290 MCCARTER RD", "postcode": "29644"}}},
{"geometry": {"type": "Point", "coordinates": [-82.1166813438, 34.6101113253]}, "type": "Feature", "properties": {"collection_times": [{"days": "Mon-Fri", "time": "3:45pm"}, {"days": "Sat", "time": "9:45am"}, {"days": "Sun", "time": "Closed"}], "id": "2964500000", "name": "USPS COLLECTION BOX - BLUE BOX", "address": {"city": "GRAY COURT", "state": "SC", "street": "411 W MAIN ST", "postcode": "29645"}}},
{"geometry": {"type": "Point", "coordinates": [-82.1166813438, 34.6101113253]}, "type": "Feature", "properties": {"collection_times": [{"days": "Mon-Fri", "time": "3:45pm"}, {"days": "Sat", "time": "9:45am"}, {"days": "Sun", "time": "Closed"}], "id": "2964500001", "name": "USPS COLLECTION BOX - PO LOBBY", "address": {"city": "GRAY COURT", "state": "SC", "street": "411 W MAIN ST", "postcode": "29645"}}},
{"geometry": {"type": "Point", "coordinates": [-82.1166813438, 34.6101113253]}, "type": "Feature", "properties": {"collection_times": [{"days": "Mon-Fri", "time": "3:45pm"}, {"days": "Sat", "time": "9:45am"}, {"days": "Sun", "time": "Closed"}], "id": "2964500002", "name": "USPS COLLECTION BOX - PO LOBBY", "address": {"city": "GRAY COURT", "state": "SC", "street": "411 W MAIN ST", "postcode": "29645"}}},
{"geometry": {"type": "Point", "coordinates": [-82.1586338192, 34.1896909996]}, "type": "Feature", "properties": {"collection_times": [{"days": "Mon-Fri", "time": "4:15pm"}, {"days": "Sat", "time": "11:45am"}, {"days": "Sun", "time": "Closed"}], "id": "2964600001", "name": "USPS COLLECTION BOX - PO LOBBY", "address": {"city": "GREENWOOD", "state": "SC", "street": "202 MAGNOLIA ST", "postcode": "29646"}}},
{"geometry": {"type": "Point", "coordinates": [-82.160888539, 34.1918262405]}, "type": "Feature", "properties": {"collection_times": [{"days": "Mon-Sat", "time": "1:00pm"}, {"days": "Sun", "time": "Closed"}], "id": "2964600018", "name": "USPS COLLECTION BOX - BLUE BOX", "address": {"city": "GREENWOOD", "state": "SC", "street": "120 MAIN ST", "postcode": "29646"}}},
{"geometry": {"type": "Point", "coordinates": [-82.1618018843, 34.1881871415]}, "type": "Feature", "properties": {"collection_times": [{"days": "Mon-Sat", "time": "1:15pm"}, {"days": "Sun", "time": "Closed"}], "id": "2964600028", "name": "USPS COLLECTION BOX - BLUE BOX", "address": {"city": "GREENWOOD", "state": "SC", "street": "601 MONUMENT ST", "postcode": "29646"}}},
{"geometry": {"type": "Point", "coordinates": [-82.1355613875, 34.2034488124]}, "type": "Feature", "properties": {"collection_times": [{"days": "Mon-Sat", "time": "1:45pm"}, {"days": "Sun", "time": "Closed"}], "id": "2964600031", "name": "USPS COLLECTION BOX - BLUE BOX", "address": {"city": "GREENWOOD", "state": "SC", "street": "714 BYPASS 25 NE", "postcode": "29646"}}},
{"geometry": {"type": "Point", "coordinates": [-82.1576212063, 34.1742545681]}, "type": "Feature", "properties": {"collection_times": [{"days": "Mon-Sat", "time": "1:15pm"}, {"days": "Sun", "time": "Closed"}], "id": "2964600033", "name": "USPS COLLECTION BOX - BLUE BOX", "address": {"city": "GREENWOOD", "state": "SC", "street": "305 W ALEXANDER AVE", "postcode": "29646"}}},
{"geometry": {"type": "Point", "coordinates": [-82.1786837907, 34.2109038198]}, "type": "Feature", "properties": {"collection_times": [{"days": "Mon-Sat", "time": "12:45pm"}, {"days": "Sun", "time": "Closed"}], "id": "2964600035", "name": "USPS COLLECTION BOX - BLUE BOX", "address": {"city": "GREENWOOD", "state": "SC", "street": "315 BYPASS 72 NW", "postcode": "29646"}}},
{"geometry": {"type": "Point", "coordinates": [-82.1586338192, 34.1896909996]}, "type": "Feature", "properties": {"collection_times": [{"days": "Mon-Fri", "time": "4:30pm"}, {"days": "Sat", "time": "11:45am"}, {"days": "Sun", "time": "Closed"}], "id": "2964600036", "name": "USPS COLLECTION BOX - BLUE BOX", "address": {"city": "GREENWOOD", "state": "SC", "street": "202 MAGNOLIA ST", "postcode": "29646"}}},
{"geometry": {"type": "Point", "coordinates": [-82.1586338192, 34.1896909996]}, "type": "Feature", "properties": {"collection_times": [{"days": "Mon-Fri", "time": "4:30pm"}, {"days": "Sat", "time": "11:45am"}, {"days": "Sun", "time": "Closed"}], "id": "2964600037", "name": "USPS COLLECTION BOX - BLUE BOX", "address": {"city": "GREENWOOD", "state": "SC", "street": "202 MAGNOLIA ST", "postcode": "29646"}}},
{"geometry": {"type": "Point", "coordinates": [-82.1603538415, 34.1899429698]}, "type": "Feature", "properties": {"collection_times": [{"days": "Mon-Sat", "time": "1:00pm"}, {"days": "Sun", "time": "Closed"}], "id": "2964600045", "name": "USPS COLLECTION BOX - BLUE BOX", "address": {"city": "GREENWOOD", "state": "SC", "street": "332 MAIN ST", "postcode": "29646"}}},
{"geometry": {"type": "Point", "coordinates": [-82.1442899335, 34.1655676811]}, "type": "Feature", "properties": {"collection_times": [{"days": "Mon-Fri", "time": "4:30pm"}, {"days": "Sat", "time": "1:30pm"}, {"days": "Sun", "time": "Closed"}], "id": "2964600051", "name": "USPS COLLECTION BOX - BLUE BOX", "address": {"city": "GREENWOOD", "state": "SC", "street": "320 KIRKSEY DR W", "postcode": "29646"}}},
{"geometry": {"type": "Point", "coordinates": [-82.1836794264, 34.2130993916]}, "type": "Feature", "properties": {"collection_times": [{"days": "Mon-Fri", "time": "4:30pm"}, {"days": "Sat", "time": "11:45am"}, {"days": "Sun", "time": "Closed"}], "id": "2964900000", "name": "USPS COLLECTION BOX - BLUE BOX", "address": {"city": "GREENWOOD", "state": "SC", "street": "240 N CREEK BLVD", "postcode": "29649"}}},
{"geometry": {"type": "Point", "coordinates": [-82.1836794264, 34.2130993916]}, "type": "Feature", "properties": {"collection_times": [{"days": "Mon-Fri", "time": "4:30pm"}, {"days": "Sat", "time": "11:45am"}, {"days": "Sun", "time": "Closed"}], "id": "2964900001", "name": "USPS COLLECTION BOX - BLUE BOX", "address": {"city": "GREENWOOD", "state": "SC", "street": "240 N CREEK BLVD", "postcode": "29649"}}},
{"geometry": {"type": "Point", "coordinates": [-82.1836794264, 34.2130993916]}, "type": "Feature", "properties": {"collection_times": [{"days": "Mon-Fri", "time": "4:15pm"}, {"days": "Sat", "time": "11:45am"}, {"days": "Sun", "time": "Closed"}], "id": "2964900002", "name": "USPS COLLECTION BOX - PO LOBBY", "address": {"city": "GREENWOOD", "state": "SC", "street": "240 N CREEK BLVD", "postcode": "29649"}}},
{"geometry": {"type": "Point", "coordinates": [-82.1836794264, 34.2130993916]}, "type": "Feature", "properties": {"collection_times": [{"days": "Mon-Fri", "time": "4:15pm"}, {"days": "Sat", "time": "11:45am"}, {"days": "Sun", "time": "Closed"}], "id": "2964900003", "name": "USPS COLLECTION BOX - PO LOBBY", "address": {"city": "GREENWOOD", "state": "SC", "street": "240 N CREEK BLVD", "postcode": "29649"}}},
{"geometry": {"type": "Point", "coordinates": [-82.1836794264, 34.2130993916]}, "type": "Feature", "properties": {"collection_times": [{"days": "Mon-Fri", "time": "4:15pm"}, {"days": "Sat", "time": "11:45am"}, {"days": "Sun", "time": "Closed"}], "id": "2964900004", "name": "USPS COLLECTION BOX - PO LOBBY", "address": {"city": "GREENWOOD", "state": "SC", "street": "240 N CREEK BLVD", "postcode": "29649"}}},
{"geometry": {"type": "Point", "coordinates": [-82.1836794264, 34.2130993916]}, "type": "Feature", "properties": {"collection_times": [{"days": "Mon-Fri", "time": "4:15pm"}, {"days": "Sat", "time": "11:45am"}, {"days": "Sun", "time": "Closed"}], "id": "2964900006", "name": "USPS COLLECTION BOX - APC", "address": {"city": "GREENWOOD", "state": "SC", "street": "240 N CREEK BLVD", "postcode": "29649"}}},
{"geometry": {"type": "Point", "coordinates": [-82.2160049631, 34.947798533]}, "type": "Feature", "properties": {"collection_times": [{"days": "Mon-Fri", "time": "3:00pm"}, {"days": "Sat-Sun", "time": "Closed"}], "id": "2965100010", "name": "USPS COLLECTION BOX - BLUE BOX", "address": {"city": "GREER", "state": "SC", "street": "611 E WADE HAMPTON BLVD", "postcode": "29651"}}},
{"geometry": {"type": "Point", "coordinates": [-82.2260850526, 34.9365298735]}, "type": "Feature", "properties": {"collection_times": [{"days": "Mon-Fri", "time": "3:00pm"}, {"days": "Sat-Sun", "time": "Closed"}], "id": "2965100020", "name": "USPS COLLECTION BOX - BLUE BOX", "address": {"city": "GREER", "state": "SC", "street": "300 RANDALL ST", "postcode": "29651"}}},
{"geometry": {"type": "Point", "coordinates": [-82.2267168796, 34.9384156729]}, "type": "Feature", "properties": {"collection_times": [{"days": "Mon-Fri", "time": "3:00pm"}, {"days": "Sat-Sun", "time": "Closed"}], "id": "2965100022", "name": "USPS COLLECTION BOX - BLUE BOX", "address": {"city": "GREER", "state": "SC", "street": "106 TRADE ST", "postcode": "29651"}}},
{"geometry": {"type": "Point", "coordinates": [-82.2430190384, 34.9378855197]}, "type": "Feature", "properties": {"collection_times": [{"days": "Mon-Fri", "time": "4:15pm"}, {"days": "Sat", "time": "11:45am"}, {"days": "Sun", "time": "Closed"}], "id": "2965100025", "name": "USPS COLLECTION BOX - PO LOBBY", "address": {"city": "GREER", "state": "SC", "street": "504 PENNSYLVANIA AVE", "postcode": "29651"}}},
{"geometry": {"type": "Point", "coordinates": [-82.2430190384, 34.9378855197]}, "type": "Feature", "properties": {"collection_times": [{"days": "Mon-Fri", "time": "4:15pm"}, {"days": "Sat", "time": "11:45am"}, {"days": "Sun", "time": "Closed"}], "id": "2965100026", "name": "USPS COLLECTION BOX - PO LOBBY", "address": {"city": "GREER", "state": "SC", "street": "504 PENNSYLVANIA AVE", "postcode": "29651"}}},
{"geometry": {"type": "Point", "coordinates": [-82.2430190384, 34.9378855197]}, "type": "Feature", "properties": {"collection_times": [{"days": "Mon-Fri", "time": "4:15pm"}, {"days": "Sat", "time": "11:45am"}, {"days": "Sun", "time": "Closed"}], "id": "2965100028", "name": "USPS COLLECTION BOX - BLUE BOX", "address": {"city": "GREER", "state": "SC", "street": "504 PENNSYLVANIA AVE", "postcode": "29651"}}},
{"geometry": {"type": "Point", "coordinates": [-82.2874704014, 34.8922794162]}, "type": "Feature", "properties": {"collection_times": [{"days": "Mon-Fri", "time": "3:00pm"}, {"days": "Sat-Sun", "time": "Closed"}], "id": "2965100041", "name": "USPS COLLECTION BOX - BLUE BOX", "address": {"city": "GREER", "state": "SC", "street": "2123 OLD SPARTANBURG RD", "postcode": "29651"}}},
{"geometry": {"type": "Point", "coordinates": [-82.2551620166, 34.8714977119]}, "type": "Feature", "properties": {"collection_times": [{"days": "Mon-Fri", "time": "3:00pm"}, {"days": "Sat-Sun", "time": "Closed"}], "id": "2965100042", "name": "USPS COLLECTION BOX - BLUE BOX", "address": {"city": "GREER", "state": "SC", "street": "421 THE PKWY", "postcode": "29651"}}},
{"geometry": {"type": "Point", "coordinates": [-82.2430190384, 34.9378855197]}, "type": "Feature", "properties": {"collection_times": [{"days": "Mon-Fri", "time": "4:15pm"}, {"days": "Sat", "time": "11:45am"}, {"days": "Sun", "time": "Closed"}], "id": "2965100045", "name": "USPS COLLECTION BOX - APC", "address": {"city": "GREER", "state": "SC", "street": "504 PENNSYLVANIA AVE", "postcode": "29651"}}},
{"geometry": {"type": "Point", "coordinates": [-82.2126960245, 34.8930000335]}, "type": "Feature", "properties": {"collection_times": [{"days": "Mon-Fri", "time": "11:00am"}, {"days": "Sat-Sun", "time": "Closed"}], "id": "2965100047", "name": "USPS COLLECTION BOX - BLUE BOX", "address": {"city": "GREER", "state": "SC", "street": "1900 GSP DR", "postcode": "29651"}}},
{"geometry": {"type": "Point", "coordinates": [-82.2516025642, 34.2890808459]}, "type": "Feature", "properties": {"collection_times": [{"days": "Mon-Fri", "time": "3:45pm"}, {"days": "Sat", "time": "9:45am"}, {"days": "Sun", "time": "Closed"}], "id": "2965300000", "name": "USPS COLLECTION BOX - BLUE BOX", "address": {"city": "HODGES", "state": "SC", "street": "115 ROBERTSON ST", "postcode": "29653"}}},
{"geometry": {"type": "Point", "coordinates": [-82.2516025642, 34.2890808459]}, "type": "Feature", "properties": {"collection_times": [{"days": "Mon-Fri", "time": "3:45pm"}, {"days": "Sat", "time": "9:45am"}, {"days": "Sun", "time": "Closed"}], "id": "2965300001", "name": "USPS COLLECTION BOX - PO LOBBY", "address": {"city": "HODGES", "state": "SC", "street": "115 ROBERTSON ST", "postcode": "29653"}}},
{"geometry": {"type": "Point", "coordinates": [-82.3937307432, 34.4490371018]}, "type": "Feature", "properties": {"collection_times": [{"days": "Mon-Fri", "time": "4:30pm"}, {"days": "Sat", "time": "11:00am"}, {"days": "Sun", "time": "Closed"}], "id": "2965400000", "name": "USPS COLLECTION BOX - BLUE BOX", "address": {"city": "HONEA PATH", "state": "SC", "street": "312 N SHIRLEY AVE", "postcode": "29654"}}},
{"geometry": {"type": "Point", "coordinates": [-82.3937307432, 34.4490371018]}, "type": "Feature", "properties": {"collection_times": [{"days": "Mon-Fri", "time": "4:30pm"}, {"days": "Sat", "time": "11:00am"}, {"days": "Sun", "time": "Closed"}], "id": "2965400001", "name": "USPS COLLECTION BOX - PO LOBBY", "address": {"city": "HONEA PATH", "state": "SC", "street": "312 N SHIRLEY AVE", "postcode": "29654"}}},
{"geometry": {"type": "Point", "coordinates": [-82.3937307432, 34.4490371018]}, "type": "Feature", "properties": {"collection_times": [{"days": "Mon-Fri", "time": "4:30pm"}, {"days": "Sat", "time": "11:00am"}, {"days": "Sun", "time": "Closed"}], "id": "2965400014", "name": "USPS COLLECTION BOX - PO LOBBY", "address": {"city": "HONEA PATH", "state": "SC", "street": "312 N SHIRLEY AVE", "postcode": "29654"}}},
{"geometry": {"type": "Point", "coordinates": [-82.3937307432, 34.4490371018]}, "type": "Feature", "properties": {"collection_times": [{"days": "Mon-Fri", "time": "4:30pm"}, {"days": "Sat", "time": "11:00am"}, {"days": "Sun", "time": "Closed"}], "id": "2965400015", "name": "USPS COLLECTION BOX - PO LOBBY", "address": {"city": "HONEA PATH", "state": "SC", "street": "312 N SHIRLEY AVE", "postcode": "29654"}}},
{"geometry": {"type": "Point", "coordinates": [-82.6618409037, 34.3067814609]}, "type": "Feature", "properties": {"collection_times": [{"days": "Mon-Fri", "time": "3:45pm"}, {"days": "Sat", "time": "10:45am"}, {"days": "Sun", "time": "Closed"}], "id": "2965500001", "name": "USPS COLLECTION BOX - BLUE BOX", "address": {"city": "IVA", "state": "SC", "street": "150 E GREEN ST", "postcode": "29655"}}},
{"geometry": {"type": "Point", "coordinates": [-82.6618409037, 34.3067814609]}, "type": "Feature", "properties": {"collection_times": [{"days": "Mon-Fri", "time": "3:45pm"}, {"days": "Sat", "time": "10:45am"}, {"days": "Sun", "time": "Closed"}], "id": "2965500002", "name": "USPS COLLECTION BOX - PO LOBBY", "address": {"city": "IVA", "state": "SC", "street": "150 E GREEN ST", "postcode": "29655"}}},
{"geometry": {"type": "Point", "coordinates": [-82.6618409037, 34.3067814609]}, "type": "Feature", "properties": {"collection_times": [{"days": "Mon-Fri", "time": "3:45pm"}, {"days": "Sat", "time": "10:45am"}, {"days": "Sun", "time": "Closed"}], "id": "2965500004", "name": "USPS COLLECTION BOX - PO LOBBY", "address": {"city": "IVA", "state": "SC", "street": "150 E GREEN ST", "postcode": "29655"}}},
{"geometry": {"type": "Point", "coordinates": [-82.7655782168, 34.614419696]}, "type": "Feature", "properties": {"collection_times": [{"days": "Mon-Fri", "time": "3:45pm"}, {"days": "Sat", "time": "9:45am"}, {"days": "Sun", "time": "Closed"}], "id": "2965600000", "name": "USPS COLLECTION BOX - BLUE BOX", "address": {"city": "LA FRANCE", "state": "SC", "street": "17 MAIN ST", "postcode": "29656"}}},
{"geometry": {"type": "Point", "coordinates": [-82.7655782168, 34.614419696]}, "type": "Feature", "properties": {"collection_times": [{"days": "Mon-Fri", "time": "3:45pm"}, {"days": "Sat", "time": "9:45am"}, {"days": "Sun", "time": "Closed"}], "id": "2965600001", "name": "USPS COLLECTION BOX - PO LOBBY", "address": {"city": "LA FRANCE", "state": "SC", "street": "17 MAIN ST", "postcode": "29656"}}},
{"geometry": {"type": "Point", "coordinates": [-82.6940351319, 34.7886373191]}, "type": "Feature", "properties": {"collection_times": [{"days": "Mon-Fri", "time": "4:30pm"}, {"days": "Sat", "time": "10:30am"}, {"days": "Sun", "time": "Closed"}], "id": "2965700000", "name": "USPS COLLECTION BOX - BLUE BOX", "address": {"city": "LIBERTY", "state": "SC", "street": "28 N COMMERCE ST", "postcode": "29657"}}},
{"geometry": {"type": "Point", "coordinates": [-82.6940351319, 34.7886373191]}, "type": "Feature", "properties": {"collection_times": [{"days": "Mon-Fri", "time": "4:30pm"}, {"days": "Sat", "time": "10:30am"}, {"days": "Sun", "time": "Closed"}], "id": "2965700001", "name": "USPS COLLECTION BOX - BLUE BOX", "address": {"city": "LIBERTY", "state": "SC", "street": "28 N COMMERCE ST", "postcode": "29657"}}},
{"geometry": {"type": "Point", "coordinates": [-82.6940351319, 34.7886373191]}, "type": "Feature", "properties": {"collection_times": [{"days": "Mon-Fri", "time": "4:30pm"}, {"days": "Sat", "time": "10:30am"}, {"days": "Sun", "time": "Closed"}], "id": "2965700002", "name": "USPS COLLECTION BOX - PO LOBBY", "address": {"city": "LIBERTY", "state": "SC", "street": "28 N COMMERCE ST", "postcode": "29657"}}},
{"geometry": {"type": "Point", "coordinates": [-82.6886581417, 34.7762632847]}, "type": "Feature", "properties": {"collection_times": [{"days": "Mon-Fri", "time": "4:30pm"}, {"days": "Sat", "time": "10:30am"}, {"days": "Sun", "time": "Closed"}], "id": "2965700004", "name": "USPS COLLECTION BOX - PO LOBBY", "address": {"city": "LIBERTY", "state": "SC", "street": "28 N COMMERCE ST", "postcode": "29657"}}},
{"geometry": {"type": "Point", "coordinates": [-83.2696257923, 34.7959888878]}, "type": "Feature", "properties": {"collection_times": [{"days": "Mon-Fri", "time": "3:45pm"}, {"days": "Sat", "time": "9:45am"}, {"days": "Sun", "time": "Closed"}], "id": "2965800000", "name": "USPS COLLECTION BOX - BLUE BOX", "address": {"city": "LONG CREEK", "state": "SC", "street": "13851 LONG CREEK HWY", "postcode": "29658"}}},
{"geometry": {"type": "Point", "coordinates": [-83.2696257923, 34.7959888878]}, "type": "Feature", "properties": {"collection_times": [{"days": "Mon-Fri", "time": "3:45pm"}, {"days": "Sat", "time": "9:45am"}, {"days": "Sun", "time": "Closed"}], "id": "2965800001", "name": "USPS COLLECTION BOX - PO LOBBY", "address": {"city": "LONG CREEK", "state": "SC", "street": "13851 LONG CREEK HWY", "postcode": "29658"}}},
{"geometry": {"type": "Point", "coordinates": [-82.6445530944, 34.2105869081]}, "type": "Feature", "properties": {"collection_times": [{"days": "Mon-Fri", "time": "3:45pm"}, {"days": "Sat", "time": "9:45am"}, {"days": "Sun", "time": "Closed"}], "id": "2965900000", "name": "USPS COLLECTION BOX - PO LOBBY", "address": {"city": "LOWNDESVILLE", "state": "SC", "street": "272 MAIN ST", "postcode": "29659"}}},
{"geometry": {"type": "Point", "coordinates": [-82.6445530944, 34.2105869081]}, "type": "Feature", "properties": {"collection_times": [{"days": "Mon-Fri", "time": "3:45pm"}, {"days": "Sat", "time": "9:45am"}, {"days": "Sun", "time": "Closed"}], "id": "2965900001", "name": "USPS COLLECTION BOX - BLUE BOX", "address": {"city": "LOWNDESVILLE", "state": "SC", "street": "272 MAIN ST", "postcode": "29659"}}},
{"geometry": {"type": "Point", "coordinates": [-82.6445530944, 34.2105869081]}, "type": "Feature", "properties": {"collection_times": [{"days": "Mon-Fri", "time": "3:45pm"}, {"days": "Sat", "time": "9:45am"}, {"days": "Sun", "time": "Closed"}], "id": "2965900003", "name": "USPS COLLECTION BOX - PO LOBBY", "address": {"city": "LOWNDESVILLE", "state": "SC", "street": "272 MAIN ST", "postcode": "29659"}}},
{"geometry": {"type": "Point", "coordinates": [-82.5011261412, 35.0321058799]}, "type": "Feature", "properties": {"collection_times": [{"days": "Mon-Fri", "time": "3:45pm"}, {"days": "Sat", "time": "10:45am"}, {"days": "Sun", "time": "Closed"}], "id": "2966100000", "name": "USPS COLLECTION BOX - BLUE BOX", "address": {"city": "MARIETTA", "state": "SC", "street": "3047 GEER HWY", "postcode": "29661"}}},
{"geometry": {"type": "Point", "coordinates": [-82.5011261412, 35.0321058799]}, "type": "Feature", "properties": {"collection_times": [{"days": "Mon-Fri", "time": "3:45pm"}, {"days": "Sat", "time": "10:45am"}, {"days": "Sun", "time": "Closed"}], "id": "2966100001", "name": "USPS COLLECTION BOX - PO LOBBY", "address": {"city": "MARIETTA", "state": "SC", "street": "3047 GEER HWY", "postcode": "29661"}}},
{"geometry": {"type": "Point", "coordinates": [-82.3129396826, 34.7855989851]}, "type": "Feature", "properties": {"collection_times": [{"days": "Mon-Fri", "time": "3:45pm"}, {"days": "Sat", "time": "10:45am"}, {"days": "Sun", "time": "Closed"}], "id": "2966200000", "name": "USPS COLLECTION BOX - BLUE BOX", "address": {"city": "MAULDIN", "state": "SC", "street": "498 N MAIN ST", "postcode": "29662"}}},
{"geometry": {"type": "Point", "coordinates": [-82.3129396826, 34.7855989851]}, "type": "Feature", "properties": {"collection_times": [{"days": "Mon-Fri", "time": "3:45pm"}, {"days": "Sat", "time": "10:45am"}, {"days": "Sun", "time": "Closed"}], "id": "2966200003", "name": "USPS COLLECTION BOX - PO LOBBY", "address": {"city": "MAULDIN", "state": "SC", "street": "498 N MAIN ST", "postcode": "29662"}}},
{"geometry": {"type": "Point", "coordinates": [-82.3129396826, 34.7855989851]}, "type": "Feature", "properties": {"collection_times": [{"days": "Mon-Fri", "time": "3:45pm"}, {"days": "Sat", "time": "10:45am"}, {"days": "Sun", "time": "Closed"}], "id": "2966200010", "name": "USPS COLLECTION BOX - BLUE BOX", "address": {"city": "MAULDIN", "state": "SC", "street": "498 N MAIN ST", "postcode": "29662"}}},
{"geometry": {"type": "Point", "coordinates": [-82.3129396826, 34.7855989851]}, "type": "Feature", "properties": {"collection_times": [{"days": "Mon-Fri", "time": "3:45pm"}, {"days": "Sat", "time": "10:45am"}, {"days": "Sun", "time": "Closed"}], "id": "2966200011", "name": "USPS COLLECTION BOX - APC", "address": {"city": "MAULDIN", "state": "SC", "street": "498 N MAIN ST", "postcode": "29662"}}},
{"geometry": {"type": "Point", "coordinates": [-83.1362001712, 34.8462179363]}, "type": "Feature", "properties": {"collection_times": [{"days": "Mon-Fri", "time": "3:45pm"}, {"days": "Sat", "time": "9:45am"}, {"days": "Sun", "time": "Closed"}], "id": "2966400000", "name": "USPS COLLECTION BOX - BLUE BOX", "address": {"city": "MOUNTAIN REST", "state": "SC", "street": "9601 HIGHLANDS HWY", "postcode": "29664"}}},
{"geometry": {"type": "Point", "coordinates": [-83.1362001712, 34.8462179363]}, "type": "Feature", "properties": {"collection_times": [{"days": "Mon-Fri", "time": "3:45pm"}, {"days": "Sat", "time": "9:45am"}, {"days": "Sun", "time": "Closed"}], "id": "2966400001", "name": "USPS COLLECTION BOX - PO LOBBY", "address": {"city": "MOUNTAIN REST", "state": "SC", "street": "9601 HIGHLANDS HWY", "postcode": "29664"}}},
{"geometry": {"type": "Point", "coordinates": [-82.9198953601, 34.7133020705]}, "type": "Feature", "properties": {"collection_times": [{"days": "Mon-Fri", "time": "3:45pm"}, {"days": "Sat", "time": "9:45am"}, {"days": "Sun", "time": "Closed"}], "id": "2966500000", "name": "USPS COLLECTION BOX - BLUE BOX", "address": {"city": "NEWRY", "state": "SC", "street": "701A BROADWAY ST", "postcode": "29665"}}},
{"geometry": {"type": "Point", "coordinates": [-82.9198953601, 34.7133020705]}, "type": "Feature", "properties": {"collection_times": [{"days": "Mon-Fri", "time": "12:00pm"}, {"days": "Sat", "time": "10:00am"}, {"days": "Sun", "time": "Closed"}], "id": "2966500001", "name": "USPS COLLECTION BOX - PO LOBBY", "address": {"city": "NEWRY", "state": "SC", "street": "701A BROADWAY ST", "postcode": "29665"}}},
{"geometry": {"type": "Point", "coordinates": [-82.0238628532, 34.1769836544]}, "type": "Feature", "properties": {"collection_times": [{"days": "Mon-Fri", "time": "3:45pm"}, {"days": "Sat", "time": "9:45am"}, {"days": "Sun", "time": "Closed"}], "id": "2966600000", "name": "USPS COLLECTION BOX - BLUE BOX", "address": {"city": "NINETY SIX", "state": "SC", "street": "201 N CAMBRIDGE ST", "postcode": "29666"}}},
{"geometry": {"type": "Point", "coordinates": [-82.0238628532, 34.1769836544]}, "type": "Feature", "properties": {"collection_times": [{"days": "Mon-Fri", "time": "3:45pm"}, {"days": "Sat", "time": "9:45am"}, {"days": "Sun", "time": "Closed"}], "id": "2966600001", "name": "USPS COLLECTION BOX - PO LOBBY", "address": {"city": "NINETY SIX", "state": "SC", "street": "201 N CAMBRIDGE ST", "postcode": "29666"}}},
{"geometry": {"type": "Point", "coordinates": [-82.0238628532, 34.1769836544]}, "type": "Feature", "properties": {"collection_times": [{"days": "Mon-Fri", "time": "3:45pm"}, {"days": "Sat", "time": "9:45am"}, {"days": "Sun", "time": "Closed"}], "id": "2966600002", "name": "USPS COLLECTION BOX - PO LOBBY", "address": {"city": "NINETY SIX", "state": "SC", "street": "201 N CAMBRIDGE ST", "postcode": "29666"}}},
{"geometry": {"type": "Point", "coordinates": [-82.0238628532, 34.1769836544]}, "type": "Feature", "properties": {"collection_times": [{"days": "Mon-Fri", "time": "3:45pm"}, {"days": "Sat", "time": "9:45am"}, {"days": "Sun", "time": "Closed"}], "id": "2966600003", "name": "USPS COLLECTION BOX - PO LOBBY", "address": {"city": "NINETY SIX", "state": "SC", "street": "201 N CAMBRIDGE ST", "postcode": "29666"}}},
{"geometry": {"type": "Point", "coordinates": [-82.022219223, 34.1756632007]}, "type": "Feature", "properties": {"collection_times": [{"days": "Mon-Fri", "time": "3:00pm"}, {"days": "Sat-Sun", "time": "Closed"}], "id": "2966600005", "name": "USPS COLLECTION BOX - BLUE BOX", "address": {"city": "NINETY SIX", "state": "SC", "street": "123 E MAIN ST", "postcode": "29666"}}},
{"geometry": {"type": "Point", "coordinates": [-82.7538287053, 34.7599944343]}, "type": "Feature", "properties": {"collection_times": [{"days": "Mon-Fri", "time": "3:45pm"}, {"days": "Sat", "time": "9:45am"}, {"days": "Sun", "time": "Closed"}], "id": "2966700000", "name": "USPS COLLECTION BOX - BLUE BOX", "address": {"city": "NORRIS", "state": "SC", "street": "201 S NORRIS DR", "postcode": "29667"}}},
{"geometry": {"type": "Point", "coordinates": [-82.7538287053, 34.7599944343]}, "type": "Feature", "properties": {"collection_times": [{"days": "Mon-Fri", "time": "3:45pm"}, {"days": "Sat", "time": "9:45am"}, {"days": "Sun", "time": "Closed"}], "id": "2966700001", "name": "USPS COLLECTION BOX - PO LOBBY", "address": {"city": "NORRIS", "state": "SC", "street": "201 S NORRIS DR", "postcode": "29667"}}},
{"geometry": {"type": "Point", "coordinates": [-82.7538287053, 34.7599944343]}, "type": "Feature", "properties": {"collection_times": [{"days": "Mon-Fri", "time": "3:45pm"}, {"days": "Sat", "time": "9:45am"}, {"days": "Sun", "time": "Closed"}], "id": "2966700002", "name": "USPS COLLECTION BOX - PO LOBBY", "address": {"city": "NORRIS", "state": "SC", "street": "201 S NORRIS DR", "postcode": "29667"}}},
{"geometry": {"type": "Point", "coordinates": [-82.4587718019, 34.6419421267]}, "type": "Feature", "properties": {"collection_times": [{"days": "Mon-Fri", "time": "4:15pm"}, {"days": "Sat", "time": "9:45am"}, {"days": "Sun", "time": "Closed"}], "id": "2966900000", "name": "USPS COLLECTION BOX - BLUE BOX", "address": {"city": "PELZER", "state": "SC", "street": "185 LEBBY ST", "postcode": "29669"}}},
{"geometry": {"type": "Point", "coordinates": [-82.3895669528, 34.6524774045]}, "type": "Feature", "properties": {"collection_times": [{"days": "Mon-Fri", "time": "12:45pm"}, {"days": "Sat-Sun", "time": "Closed"}], "id": "2966900008", "name": "USPS COLLECTION BOX - BLUE BOX", "address": {"city": "PELZER", "state": "SC", "street": "9495 AUGUSTA RD", "postcode": "29669"}}},
{"geometry": {"type": "Point", "coordinates": [-82.4587718019, 34.6419421267]}, "type": "Feature", "properties": {"collection_times": [{"days": "Mon-Fri", "time": "4:15pm"}, {"days": "Sat", "time": "9:45am"}, {"days": "Sun", "time": "Closed"}], "id": "2966900011", "name": "USPS COLLECTION BOX - PO LOBBY", "address": {"city": "PELZER", "state": "SC", "street": "185 LEBBY ST", "postcode": "29669"}}},
{"geometry": {"type": "Point", "coordinates": [-82.4587718019, 34.6419421267]}, "type": "Feature", "properties": {"collection_times": [{"days": "Mon-Fri", "time": "4:15pm"}, {"days": "Sat", "time": "9:45am"}, {"days": "Sun", "time": "Closed"}], "id": "2966900012", "name": "USPS COLLECTION BOX - PO LOBBY", "address": {"city": "PELZER", "state": "SC", "street": "185 LEBBY ST", "postcode": "29669"}}},
{"geometry": {"type": "Point", "coordinates": [-82.7825682167, 34.63780798]}, "type": "Feature", "properties": {"collection_times": [{"days": "Mon-Fri", "time": "3:45pm"}, {"days": "Sat", "time": "10:45am"}, {"days": "Sun", "time": "Closed"}], "id": "2967000000", "name": "USPS COLLECTION BOX - BLUE BOX", "address": {"city": "PENDLETON", "state": "SC", "street": "891 S MECHANIC ST", "postcode": "29670"}}},
{"geometry": {"type": "Point", "coordinates": [-82.7825682167, 34.63780798]}, "type": "Feature", "properties": {"collection_times": [{"days": "Mon-Fri", "time": "3:45pm"}, {"days": "Sat", "time": "10:45am"}, {"days": "Sun", "time": "Closed"}], "id": "2967000001", "name": "USPS COLLECTION BOX - PO LOBBY", "address": {"city": "PENDLETON", "state": "SC", "street": "891 S MECHANIC ST", "postcode": "29670"}}},
{"geometry": {"type": "Point", "coordinates": [-82.7825682167, 34.63780798]}, "type": "Feature", "properties": {"collection_times": [{"days": "Mon-Fri", "time": "3:45pm"}, {"days": "Sat", "time": "10:45am"}, {"days": "Sun", "time": "Closed"}], "id": "2967000002", "name": "USPS COLLECTION BOX - PO LOBBY", "address": {"city": "PENDLETON", "state": "SC", "street": "891 S MECHANIC ST", "postcode": "29670"}}},
{"geometry": {"type": "Point", "coordinates": [-82.7957786609, 34.6429128725]}, "type": "Feature", "properties": {"collection_times": [{"days": "Mon-Fri", "time": "3:00pm"}, {"days": "Sat", "time": "11:30am"}, {"days": "Sun", "time": "Closed"}], "id": "2967000006", "name": "USPS COLLECTION BOX - BLUE BOX", "address": {"city": "PENDLETON", "state": "SC", "street": "7701 HIGHWAY 76", "postcode": "29670"}}},
{"geometry": {"type": "Point", "coordinates": [-82.7832367927, 34.6516095895]}, "type": "Feature", "properties": {"collection_times": [{"days": "Mon-Fri", "time": "3:00pm"}, {"days": "Sat", "time": "11:30am"}, {"days": "Sun", "time": "Closed"}], "id": "2967000007", "name": "USPS COLLECTION BOX - BLUE BOX", "address": {"city": "PENDLETON", "state": "SC", "street": "105 EXCHANGE ST", "postcode": "29670"}}},
{"geometry": {"type": "Point", "coordinates": [-82.7825682167, 34.63780798]}, "type": "Feature", "properties": {"collection_times": [{"days": "Mon-Fri", "time": "3:45pm"}, {"days": "Sat", "time": "10:45am"}, {"days": "Sun", "time": "Closed"}], "id": "2967000008", "name": "USPS COLLECTION BOX - BLUE BOX", "address": {"city": "PENDLETON", "state": "SC", "street": "891 S MECHANIC ST", "postcode": "29670"}}},
{"geometry": {"type": "Point", "coordinates": [-82.7038607891, 34.8818497537]}, "type": "Feature", "properties": {"collection_times": [{"days": "Mon-Fri", "time": "4:15pm"}, {"days": "Sat", "time": "9:45am"}, {"days": "Sun", "time": "Closed"}], "id": "2967100001", "name": "USPS COLLECTION BOX - PO LOBBY", "address": {"city": "PICKENS", "state": "SC", "street": "110 JOHNSON ST", "postcode": "29671"}}},
{"geometry": {"type": "Point", "coordinates": [-82.7038607891, 34.8818497537]}, "type": "Feature", "properties": {"collection_times": [{"days": "Mon-Fri", "time": "4:15pm"}, {"days": "Sat", "time": "9:45am"}, {"days": "Sun", "time": "Closed"}], "id": "2967100002", "name": "USPS COLLECTION BOX - PO LOBBY", "address": {"city": "PICKENS", "state": "SC", "street": "110 JOHNSON ST", "postcode": "29671"}}},
{"geometry": {"type": "Point", "coordinates": [-82.7038607891, 34.8818497537]}, "type": "Feature", "properties": {"collection_times": [{"days": "Mon-Fri", "time": "4:15pm"}, {"days": "Sat", "time": "9:45am"}, {"days": "Sun", "time": "Closed"}], "id": "2967100003", "name": "USPS COLLECTION BOX - BLUE BOX", "address": {"city": "PICKENS", "state": "SC", "street": "110 JOHNSON ST", "postcode": "29671"}}},
{"geometry": {"type": "Point", "coordinates": [-82.7038607891, 34.8818497537]}, "type": "Feature", "properties": {"collection_times": [{"days": "Mon-Fri", "time": "4:15pm"}, {"days": "Sat", "time": "9:45am"}, {"days": "Sun", "time": "Closed"}], "id": "2967100004", "name": "USPS COLLECTION BOX - BLUE BOX", "address": {"city": "PICKENS", "state": "SC", "street": "110 JOHNSON ST", "postcode": "29671"}}},
{"geometry": {"type": "Point", "coordinates": [-82.7067933444, 34.8838998216]}, "type": "Feature", "properties": {"collection_times": [{"days": "Mon-Fri", "time": "10:00am"}, {"days": "Sat-Sun", "time": "Closed"}], "id": "2967100017", "name": "USPS COLLECTION BOX - BLUE BOX", "address": {"city": "PICKENS", "state": "SC", "street": "219 E MAIN ST", "postcode": "29671"}}},
{"geometry": {"type": "Point", "coordinates": [-82.7070161487, 34.8702895301]}, "type": "Feature", "properties": {"collection_times": [{"days": "Mon-Fri", "time": "11:00am"}, {"days": "Sat-Sun", "time": "Closed"}], "id": "2967100018", "name": "USPS COLLECTION BOX - BLUE BOX", "address": {"city": "PICKENS", "state": "SC", "street": "200 MCDANIEL AVE", "postcode": "29671"}}},
{"geometry": {"type": "Point", "coordinates": [-82.7038607891, 34.8818497537]}, "type": "Feature", "properties": {"collection_times": [{"days": "Mon-Fri", "time": "4:15pm"}, {"days": "Sat", "time": "9:45am"}, {"days": "Sun", "time": "Closed"}], "id": "2967100021", "name": "USPS COLLECTION BOX - PO LOBBY", "address": {"city": "PICKENS", "state": "SC", "street": "110 JOHNSON ST", "postcode": "29671"}}},
{"geometry": {"type": "Point", "coordinates": [-82.7038607891, 34.8818497537]}, "type": "Feature", "properties": {"collection_times": [{"days": "Mon-Fri", "time": "4:15pm"}, {"days": "Sat", "time": "9:45am"}, {"days": "Sun", "time": "Closed"}], "id": "2967100022", "name": "USPS COLLECTION BOX - PO LOBBY", "address": {"city": "PICKENS", "state": "SC", "street": "110 JOHNSON ST", "postcode": "29671"}}},
{"geometry": {"type": "Point", "coordinates": [-82.4764905571, 34.7010564973]}, "type": "Feature", "properties": {"collection_times": [{"days": "Mon-Fri", "time": "3:45pm"}, {"days": "Sat", "time": "10:45am"}, {"days": "Sun", "time": "Closed"}], "id": "2967300000", "name": "USPS COLLECTION BOX - BLUE BOX", "address": {"city": "PIEDMONT", "state": "SC", "street": "912 ANDERSON ST", "postcode": "29673"}}},
{"geometry": {"type": "Point", "coordinates": [-82.4764905571, 34.7010564973]}, "type": "Feature", "properties": {"collection_times": [{"days": "Mon-Fri", "time": "3:45pm"}, {"days": "Sat", "time": "10:45am"}, {"days": "Sun", "time": "Closed"}], "id": "2967300001", "name": "USPS COLLECTION BOX - PO LOBBY", "address": {"city": "PIEDMONT", "state": "SC", "street": "912 ANDERSON ST", "postcode": "29673"}}},
{"geometry": {"type": "Point", "coordinates": [-82.389821205, 34.7101402153]}, "type": "Feature", "properties": {"collection_times": [{"days": "Mon-Fri", "time": "1:00pm"}, {"days": "Sat-Sun", "time": "Closed"}], "id": "2967300008", "name": "USPS COLLECTION BOX - BLUE BOX", "address": {"city": "PIEDMONT", "state": "SC", "street": "7716 AUGUSTA RD", "postcode": "29673"}}},
{"geometry": {"type": "Point", "coordinates": [-82.4830492823, 34.7875844533]}, "type": "Feature", "properties": {"collection_times": [{"days": "Mon-Fri", "time": "3:15pm"}, {"days": "Sat-Sun", "time": "Closed"}], "id": "2967300013", "name": "USPS COLLECTION BOX - BLUE BOX", "address": {"city": "PIEDMONT", "state": "SC", "street": "11027 ANDERSON RD", "postcode": "29673"}}},
{"geometry": {"type": "Point", "coordinates": [-82.4830492823, 34.7875844533]}, "type": "Feature", "properties": {"collection_times": [{"days": "Mon-Fri", "time": "3:15pm"}, {"days": "Sat-Sun", "time": "Closed"}], "id": "2967300014", "name": "USPS COLLECTION BOX - BLUE BOX", "address": {"city": "PIEDMONT", "state": "SC", "street": "11027 ANDERSON RD", "postcode": "29673"}}},
{"geometry": {"type": "Point", "coordinates": [-83.0249581495, 34.6796763516]}, "type": "Feature", "properties": {"collection_times": [{"days": "Mon-Fri", "time": "3:45pm"}, {"days": "Sat", "time": "9:45am"}, {"days": "Sun", "time": "Closed"}], "id": "2967500000", "name": "USPS COLLECTION BOX - BLUE BOX", "address": {"city": "RICHLAND", "state": "SC", "street": "304 RICHLAND RD", "postcode": "29675"}}},
{"geometry": {"type": "Point", "coordinates": [-83.0249581495, 34.6796763516]}, "type": "Feature", "properties": {"collection_times": [{"days": "Mon-Fri", "time": "3:45pm"}, {"days": "Sat", "time": "9:45am"}, {"days": "Sun", "time": "Closed"}], "id": "2967500001", "name": "USPS COLLECTION BOX - PO LOBBY", "address": {"city": "RICHLAND", "state": "SC", "street": "304 RICHLAND RD", "postcode": "29675"}}},
{"geometry": {"type": "Point", "coordinates": [-82.9723126397, 34.8834063605]}, "type": "Feature", "properties": {"collection_times": [{"days": "Mon-Fri", "time": "3:45pm"}, {"days": "Sat", "time": "10:45am"}, {"days": "Sun", "time": "Closed"}], "id": "2967600000", "name": "USPS COLLECTION BOX - BLUE BOX", "address": {"city": "SALEM", "state": "SC", "street": "467 E MAIN ST", "postcode": "29676"}}},
{"geometry": {"type": "Point", "coordinates": [-82.9723126397, 34.8834063605]}, "type": "Feature", "properties": {"collection_times": [{"days": "Mon-Fri", "time": "3:45pm"}, {"days": "Sat", "time": "10:45am"}, {"days": "Sun", "time": "Closed"}], "id": "2967600001", "name": "USPS COLLECTION BOX - PO LOBBY", "address": {"city": "SALEM", "state": "SC", "street": "467 E MAIN ST", "postcode": "29676"}}},
{"geometry": {"type": "Point", "coordinates": [-82.9723126397, 34.8834063605]}, "type": "Feature", "properties": {"collection_times": [{"days": "Mon-Fri", "time": "3:45pm"}, {"days": "Sat", "time": "10:45am"}, {"days": "Sun", "time": "Closed"}], "id": "2967600002", "name": "USPS COLLECTION BOX - PO LOBBY", "address": {"city": "SALEM", "state": "SC", "street": "467 E MAIN ST", "postcode": "29676"}}},
{"geometry": {"type": "Point", "coordinates": [-82.9712568593, 34.8784059042]}, "type": "Feature", "properties": {"collection_times": [{"days": "Mon-Fri", "time": "12:15pm"}, {"days": "Sat", "time": "11:15am"}, {"days": "Sun", "time": "Closed"}], "id": "2967600003", "name": "USPS COLLECTION BOX - BLUE BOX", "address": {"city": "SALEM", "state": "SC", "street": "1225 STAMP CREEK RD", "postcode": "29676"}}},
{"geometry": {"type": "Point", "coordinates": [-82.7498117655, 34.5953300286]}, "type": "Feature", "properties": {"collection_times": [{"days": "Mon-Fri", "time": "3:45pm"}, {"days": "Sat", "time": "9:45am"}, {"days": "Sun", "time": "Closed"}], "id": "2967700000", "name": "USPS COLLECTION BOX - BLUE BOX", "address": {"city": "SANDY SPRINGS", "state": "SC", "street": "5410 CLEMSON BLVD", "postcode": "29677"}}},
{"geometry": {"type": "Point", "coordinates": [-82.7498117655, 34.5953300286]}, "type": "Feature", "properties": {"collection_times": [{"days": "Mon-Fri", "time": "3:45pm"}, {"days": "Sat", "time": "9:45am"}, {"days": "Sun", "time": "Closed"}], "id": "2967700002", "name": "USPS COLLECTION BOX - PO LOBBY", "address": {"city": "SANDY SPRINGS", "state": "SC", "street": "5410 CLEMSON BLVD", "postcode": "29677"}}},
{"geometry": {"type": "Point", "coordinates": [-82.7498117655, 34.5953300286]}, "type": "Feature", "properties": {"collection_times": [{"days": "Mon-Fri", "time": "3:45pm"}, {"days": "Sat", "time": "9:45am"}, {"days": "Sun", "time": "Closed"}], "id": "2967700003", "name": "USPS COLLECTION BOX - PO LOBBY", "address": {"city": "SANDY SPRINGS", "state": "SC", "street": "5410 CLEMSON BLVD", "postcode": "29677"}}},
{"geometry": {"type": "Point", "coordinates": [-82.9479473529, 34.6854212616]}, "type": "Feature", "properties": {"collection_times": [{"days": "Mon-Fri", "time": "5:00pm"}, {"days": "Sat", "time": "2:00pm"}, {"days": "Sun", "time": "Closed"}], "id": "2967800000", "name": "USPS COLLECTION BOX - BLUE BOX", "address": {"city": "SENECA", "state": "SC", "street": "508 E MAIN ST", "postcode": "29678"}}},
{"geometry": {"type": "Point", "coordinates": [-82.9479473529, 34.6854212616]}, "type": "Feature", "properties": {"collection_times": [{"days": "Mon-Fri", "time": "5:00pm"}, {"days": "Sat", "time": "2:00pm"}, {"days": "Sun", "time": "Closed"}], "id": "2967800002", "name": "USPS COLLECTION BOX - BLUE BOX", "address": {"city": "SENECA", "state": "SC", "street": "508 E MAIN ST", "postcode": "29678"}}},
{"geometry": {"type": "Point", "coordinates": [-82.9479473529, 34.6854212616]}, "type": "Feature", "properties": {"collection_times": [{"days": "Mon-Fri", "time": "5:00pm"}, {"days": "Sat", "time": "2:00pm"}, {"days": "Sun", "time": "Closed"}], "id": "2967800003", "name": "USPS COLLECTION BOX - PO LOBBY", "address": {"city": "SENECA", "state": "SC", "street": "508 E MAIN ST", "postcode": "29678"}}},
{"geometry": {"type": "Point", "coordinates": [-82.9710067894, 34.6952489195]}, "type": "Feature", "properties": {"collection_times": [{"days": "Mon-Sat", "time": "1:30pm"}, {"days": "Sun", "time": "Closed"}], "id": "2967800008", "name": "USPS COLLECTION BOX - BLUE BOX", "address": {"city": "SENECA", "state": "SC", "street": "807 HIGHWAY 123", "postcode": "29678"}}},
{"geometry": {"type": "Point", "coordinates": [-82.9945731265, 34.6890275853]}, "type": "Feature", "properties": {"collection_times": [{"days": "Mon-Sat", "time": "1:15pm"}, {"days": "Sun", "time": "Closed"}], "id": "2967800017", "name": "USPS COLLECTION BOX - BLUE BOX", "address": {"city": "SENECA", "state": "SC", "street": "238 MARKET ST", "postcode": "29678"}}},
{"geometry": {"type": "Point", "coordinates": [-82.9819544344, 34.6929940641]}, "type": "Feature", "properties": {"collection_times": [{"days": "Mon-Sat", "time": "1:30pm"}, {"days": "Sun", "time": "Closed"}], "id": "2967800018", "name": "USPS COLLECTION BOX - BLUE BOX", "address": {"city": "SENECA", "state": "SC", "street": "1231 SANDIFER BLVD", "postcode": "29678"}}},
{"geometry": {"type": "Point", "coordinates": [-82.9530991706, 34.6853670629]}, "type": "Feature", "properties": {"collection_times": [{"days": "Mon-Sat", "time": "1:45pm"}, {"days": "Sun", "time": "Closed"}], "id": "2967800020", "name": "USPS COLLECTION BOX - BLUE BOX", "address": {"city": "SENECA", "state": "SC", "street": "124 N TOWNVILLE ST", "postcode": "29678"}}},
{"geometry": {"type": "Point", "coordinates": [-82.9376060448, 34.6999865477]}, "type": "Feature", "properties": {"collection_times": [{"days": "Mon-Sat", "time": "12:45pm"}, {"days": "Sun", "time": "Closed"}], "id": "2967800024", "name": "USPS COLLECTION BOX - BLUE BOX", "address": {"city": "SENECA", "state": "SC", "street": "201 INGLES PL", "postcode": "29678"}}},
{"geometry": {"type": "Point", "coordinates": [-83.000352864, 34.6858179172]}, "type": "Feature", "properties": {"collection_times": [{"days": "Mon-Sat", "time": "1:00pm"}, {"days": "Sun", "time": "Closed"}], "id": "2967800026", "name": "USPS COLLECTION BOX - BLUE BOX", "address": {"city": "SENECA", "state": "SC", "street": "1636 SANDIFER BLVD", "postcode": "29678"}}},
{"geometry": {"type": "Point", "coordinates": [-82.9850976509, 34.6950912384]}, "type": "Feature", "properties": {"collection_times": [{"days": "Mon-Sat", "time": "1:00pm"}, {"days": "Sun", "time": "Closed"}], "id": "2967800027", "name": "USPS COLLECTION BOX - BLUE BOX", "address": {"city": "SENECA", "state": "SC", "street": "298 MEMORIAL DR", "postcode": "29678"}}},
{"geometry": {"type": "Point", "coordinates": [-82.2558997884, 34.7155009957]}, "type": "Feature", "properties": {"collection_times": [{"days": "Mon-Fri", "time": "4:30pm"}, {"days": "Sat", "time": "3:15pm"}, {"days": "Sun", "time": "Closed"}], "id": "2968000000", "name": "USPS COLLECTION BOX - BLUE BOX", "address": {"city": "SIMPSONVILLE", "state": "SC", "street": "677 FAIRVIEW RD", "postcode": "29680"}}},
{"geometry": {"type": "Point", "coordinates": [-82.2558997884, 34.7155009957]}, "type": "Feature", "properties": {"collection_times": [{"days": "Mon-Fri", "time": "4:30pm"}, {"days": "Sat", "time": "3:15pm"}, {"days": "Sun", "time": "Closed"}], "id": "2968000001", "name": "USPS COLLECTION BOX - BLUE BOX", "address": {"city": "SIMPSONVILLE", "state": "SC", "street": "677 FAIRVIEW RD", "postcode": "29680"}}},
{"geometry": {"type": "Point", "coordinates": [-82.2558997884, 34.7155009957]}, "type": "Feature", "properties": {"collection_times": [{"days": "Mon-Fri", "time": "4:30pm"}, {"days": "Sat", "time": "3:15pm"}, {"days": "Sun", "time": "Closed"}], "id": "2968000002", "name": "USPS COLLECTION BOX - PO LOBBY", "address": {"city": "SIMPSONVILLE", "state": "SC", "street": "677 FAIRVIEW RD", "postcode": "29680"}}},
{"geometry": {"type": "Point", "coordinates": [-82.2558997884, 34.7155009957]}, "type": "Feature", "properties": {"collection_times": [{"days": "Mon-Fri", "time": "4:30pm"}, {"days": "Sat", "time": "3:15pm"}, {"days": "Sun", "time": "Closed"}], "id": "2968000003", "name": "USPS COLLECTION BOX - PO LOBBY", "address": {"city": "SIMPSONVILLE", "state": "SC", "street": "677 FAIRVIEW RD", "postcode": "29680"}}},
{"geometry": {"type": "Point", "coordinates": [-82.2558997884, 34.7155009957]}, "type": "Feature", "properties": {"collection_times": [{"days": "Mon-Fri", "time": "4:30pm"}, {"days": "Sat", "time": "3:15pm"}, {"days": "Sun", "time": "Closed"}], "id": "2968000004", "name": "USPS COLLECTION BOX - PO LOBBY", "address": {"city": "SIMPSONVILLE", "state": "SC", "street": "677 FAIRVIEW RD", "postcode": "29680"}}},
{"geometry": {"type": "Point", "coordinates": [-82.261149341, 34.7478311089]}, "type": "Feature", "properties": {"collection_times": [{"days": "Mon-Fri", "time": "5:00pm"}, {"days": "Sat", "time": "3:30pm"}, {"days": "Sun", "time": "Closed"}], "id": "2968100000", "name": "USPS COLLECTION BOX - BLUE BOX", "address": {"city": "SIMPSONVILLE", "state": "SC", "street": "634 NE MAIN ST", "postcode": "29681"}}},
{"geometry": {"type": "Point", "coordinates": [-82.261149341, 34.7478311089]}, "type": "Feature", "properties": {"collection_times": [{"days": "Mon-Fri", "time": "5:00pm"}, {"days": "Sat", "time": "3:30pm"}, {"days": "Sun", "time": "Closed"}], "id": "2968100002", "name": "USPS COLLECTION BOX - PO LOBBY", "address": {"city": "SIMPSONVILLE", "state": "SC", "street": "634 NE MAIN ST", "postcode": "29681"}}},
{"geometry": {"type": "Point", "coordinates": [-82.2557622513, 34.73792795]}, "type": "Feature", "properties": {"collection_times": [{"days": "Mon-Fri", "time": "2:15pm"}, {"days": "Sat", "time": "2:00pm"}, {"days": "Sun", "time": "Closed"}], "id": "2968100003", "name": "USPS COLLECTION BOX - BLUE BOX", "address": {"city": "SIMPSONVILLE", "state": "SC", "street": "129 N MAIN ST", "postcode": "29681"}}},
{"geometry": {"type": "Point", "coordinates": [-82.261149341, 34.7478311089]}, "type": "Feature", "properties": {"collection_times": [{"days": "Mon-Fri", "time": "5:00pm"}, {"days": "Sat", "time": "3:30pm"}, {"days": "Sun", "time": "Closed"}], "id": "2968100009", "name": "USPS COLLECTION BOX - PO LOBBY", "address": {"city": "SIMPSONVILLE", "state": "SC", "street": "634 NE MAIN ST", "postcode": "29681"}}},
{"geometry": {"type": "Point", "coordinates": [-82.8111020215, 34.8144698689]}, "type": "Feature", "properties": {"collection_times": [{"days": "Mon-Fri", "time": "3:45pm"}, {"days": "Sat", "time": "9:45am"}, {"days": "Sun", "time": "Closed"}], "id": "2968200000", "name": "USPS COLLECTION BOX - BLUE BOX", "address": {"city": "SIX MILE", "state": "SC", "street": "515 N MAIN ST", "postcode": "29682"}}},
{"geometry": {"type": "Point", "coordinates": [-82.8111020215, 34.8144698689]}, "type": "Feature", "properties": {"collection_times": [{"days": "Mon-Fri", "time": "3:45pm"}, {"days": "Sat", "time": "9:45am"}, {"days": "Sun", "time": "Closed"}], "id": "2968200001", "name": "USPS COLLECTION BOX - PO LOBBY", "address": {"city": "SIX MILE", "state": "SC", "street": "515 N MAIN ST", "postcode": "29682"}}},
{"geometry": {"type": "Point", "coordinates": [-82.8111020215, 34.8144698689]}, "type": "Feature", "properties": {"collection_times": [{"days": "Mon-Fri", "time": "3:45pm"}, {"days": "Sat", "time": "9:45am"}, {"days": "Sun", "time": "Closed"}], "id": "2968200002", "name": "USPS COLLECTION BOX - PO LOBBY", "address": {"city": "SIX MILE", "state": "SC", "street": "515 N MAIN ST", "postcode": "29682"}}},
{"geometry": {"type": "Point", "coordinates": [-82.492783232, 35.0296199626]}, "type": "Feature", "properties": {"collection_times": [{"days": "Mon-Fri", "time": "3:45pm"}, {"days": "Sat", "time": "9:45am"}, {"days": "Sun", "time": "Closed"}], "id": "2968300000", "name": "USPS COLLECTION BOX - BLUE BOX", "address": {"city": "SLATER", "state": "SC", "street": "7 MAIN ST", "postcode": "29683"}}},
{"geometry": {"type": "Point", "coordinates": [-82.492783232, 35.0296199626]}, "type": "Feature", "properties": {"collection_times": [{"days": "Mon-Fri", "time": "3:45pm"}, {"days": "Sat", "time": "9:45am"}, {"days": "Sun", "time": "Closed"}], "id": "2968300001", "name": "USPS COLLECTION BOX - PO LOBBY", "address": {"city": "SLATER", "state": "SC", "street": "7 MAIN ST", "postcode": "29683"}}},
{"geometry": {"type": "Point", "coordinates": [-82.6909093249, 34.3653439966]}, "type": "Feature", "properties": {"collection_times": [{"days": "Mon-Fri", "time": "3:45pm"}, {"days": "Sat", "time": "9:45am"}, {"days": "Sun", "time": "Closed"}], "id": "2968400000", "name": "USPS COLLECTION BOX - BLUE BOX", "address": {"city": "STARR", "state": "SC", "street": "7842 HIGHWAY 81 S", "postcode": "29684"}}},
{"geometry": {"type": "Point", "coordinates": [-82.6909093249, 34.3653439966]}, "type": "Feature", "properties": {"collection_times": [{"days": "Mon-Fri", "time": "3:45pm"}, {"days": "Sat", "time": "9:45am"}, {"days": "Sun", "time": "Closed"}], "id": "2968400001", "name": "USPS COLLECTION BOX - PO LOBBY", "address": {"city": "STARR", "state": "SC", "street": "7842 HIGHWAY 81 S", "postcode": "29684"}}},
{"geometry": {"type": "Point", "coordinates": [-82.6909093249, 34.3653439966]}, "type": "Feature", "properties": {"collection_times": [{"days": "Mon-Fri", "time": "3:45pm"}, {"days": "Sat", "time": "9:45am"}, {"days": "Sun", "time": "Closed"}], "id": "2968400002", "name": "USPS COLLECTION BOX - PO LOBBY", "address": {"city": "STARR", "state": "SC", "street": "7842 HIGHWAY 81 S", "postcode": "29684"}}},
{"geometry": {"type": "Point", "coordinates": [-82.6909093249, 34.3653439966]}, "type": "Feature", "properties": {"collection_times": [{"days": "Mon-Fri", "time": "3:45pm"}, {"days": "Sat", "time": "9:45am"}, {"days": "Sun", "time": "Closed"}], "id": "2968400003", "name": "USPS COLLECTION BOX - PO LOBBY", "address": {"city": "STARR", "state": "SC", "street": "7842 HIGHWAY 81 S", "postcode": "29684"}}},
{"geometry": {"type": "Point", "coordinates": [-82.798076581, 34.9778961466]}, "type": "Feature", "properties": {"collection_times": [{"days": "Mon-Fri", "time": "3:45pm"}, {"days": "Sat", "time": "9:45am"}, {"days": "Sun", "time": "Closed"}], "id": "2968500000", "name": "USPS COLLECTION BOX - BLUE BOX", "address": {"city": "SUNSET", "state": "SC", "street": "7149 HIGHWAY 11", "postcode": "29685"}}},
{"geometry": {"type": "Point", "coordinates": [-82.798076581, 34.9778961466]}, "type": "Feature", "properties": {"collection_times": [{"days": "Mon-Fri", "time": "3:45pm"}, {"days": "Sat", "time": "9:45am"}, {"days": "Sun", "time": "Closed"}], "id": "2968500002", "name": "USPS COLLECTION BOX - PO LOBBY", "address": {"city": "SUNSET", "state": "SC", "street": "7149 HIGHWAY 11", "postcode": "29685"}}},
{"geometry": {"type": "Point", "coordinates": [-83.0190431641, 34.8837089274]}, "type": "Feature", "properties": {"collection_times": [{"days": "Mon-Fri", "time": "3:45pm"}, {"days": "Sat", "time": "9:45am"}, {"days": "Sun", "time": "Closed"}], "id": "2968600000", "name": "USPS COLLECTION BOX - BLUE BOX", "address": {"city": "TAMASSEE", "state": "SC", "street": "2655B CAIN DR", "postcode": "29686"}}},
{"geometry": {"type": "Point", "coordinates": [-83.0190431641, 34.8837089274]}, "type": "Feature", "properties": {"collection_times": [{"days": "Mon-Fri", "time": "3:45pm"}, {"days": "Sat", "time": "9:45am"}, {"days": "Sun", "time": "Closed"}], "id": "2968600001", "name": "USPS COLLECTION BOX - PO LOBBY", "address": {"city": "TAMASSEE", "state": "SC", "street": "2655B CAIN DR", "postcode": "29686"}}},
{"geometry": {"type": "Point", "coordinates": [-82.300592202, 34.9273081822]}, "type": "Feature", "properties": {"collection_times": [{"days": "Mon-Fri", "time": "5:00pm"}, {"days": "Sat", "time": "2:45pm"}, {"days": "Sun", "time": "Closed"}], "id": "2968700000", "name": "USPS COLLECTION BOX - BLUE BOX", "address": {"city": "TAYLORS", "state": "SC", "street": "4359 WADE HAMPTON BLVD", "postcode": "29687"}}},
{"geometry": {"type": "Point", "coordinates": [-82.300592202, 34.9273081822]}, "type": "Feature", "properties": {"collection_times": [{"days": "Mon-Fri", "time": "5:00pm"}, {"days": "Sat", "time": "2:45pm"}, {"days": "Sun", "time": "Closed"}], "id": "2968700003", "name": "USPS COLLECTION BOX - PO LOBBY", "address": {"city": "TAYLORS", "state": "SC", "street": "4359 WADE HAMPTON BLVD", "postcode": "29687"}}},
{"geometry": {"type": "Point", "coordinates": [-82.2933952663, 34.8925361213]}, "type": "Feature", "properties": {"collection_times": [{"days": "Mon-Fri", "time": "2:15pm"}, {"days": "Sat-Sun", "time": "Closed"}], "id": "2968700004", "name": "USPS COLLECTION BOX - BLUE BOX", "address": {"city": "TAYLORS", "state": "SC", "street": "5000 OLD SPARTANBURG RD", "postcode": "29687"}}},
{"geometry": {"type": "Point", "coordinates": [-82.337520986, 34.8999790083]}, "type": "Feature", "properties": {"collection_times": [{"days": "Mon-Fri", "time": "2:15pm"}, {"days": "Sat-Sun", "time": "Closed"}], "id": "2968700008", "name": "USPS COLLECTION BOX - BLUE BOX", "address": {"city": "TAYLORS", "state": "SC", "street": "2801 WADE HAMPTON BLVD", "postcode": "29687"}}},
{"geometry": {"type": "Point", "coordinates": [-82.3213979013, 34.913474643]}, "type": "Feature", "properties": {"collection_times": [{"days": "Mon-Fri", "time": "2:15pm"}, {"days": "Sat-Sun", "time": "Closed"}], "id": "2968700016", "name": "USPS COLLECTION BOX - BLUE BOX", "address": {"city": "TAYLORS", "state": "SC", "street": "3110 WADE HAMPTON BLVD", "postcode": "29687"}}},
{"geometry": {"type": "Point", "coordinates": [-82.300592202, 34.9273081822]}, "type": "Feature", "properties": {"collection_times": [{"days": "Mon-Fri", "time": "5:00pm"}, {"days": "Sat", "time": "2:45pm"}, {"days": "Sun", "time": "Closed"}], "id": "2968700018", "name": "USPS COLLECTION BOX - PO LOBBY", "address": {"city": "TAYLORS", "state": "SC", "street": "4359 WADE HAMPTON BLVD", "postcode": "29687"}}},
{"geometry": {"type": "Point", "coordinates": [-82.300592202, 34.9273081822]}, "type": "Feature", "properties": {"collection_times": [{"days": "Mon-Fri", "time": "5:00pm"}, {"days": "Sat", "time": "2:45pm"}, {"days": "Sun", "time": "Closed"}], "id": "2968700019", "name": "USPS COLLECTION BOX - APC", "address": {"city": "TAYLORS", "state": "SC", "street": "4359 WADE HAMTON BLVD", "postcode": "29687"}}},
{"geometry": {"type": "Point", "coordinates": [-82.363748958, 35.1057967718]}, "type": "Feature", "properties": {"collection_times": [{"days": "Mon-Fri", "time": "3:45pm"}, {"days": "Sat", "time": "9:45am"}, {"days": "Sun", "time": "Closed"}], "id": "2968800000", "name": "USPS COLLECTION BOX - BLUE BOX", "address": {"city": "TIGERVILLE", "state": "SC", "street": "7864 N TIGERVILLE RD", "postcode": "29688"}}},
{"geometry": {"type": "Point", "coordinates": [-82.363748958, 35.1057967718]}, "type": "Feature", "properties": {"collection_times": [{"days": "Mon-Fri", "time": "3:45pm"}, {"days": "Sat", "time": "9:45am"}, {"days": "Sun", "time": "Closed"}], "id": "2968800001", "name": "USPS COLLECTION BOX - PO LOBBY", "address": {"city": "TIGERVILLE", "state": "SC", "street": "7864 N TIGERVILLE RD", "postcode": "29688"}}},
{"geometry": {"type": "Point", "coordinates": [-82.363748958, 35.1057967718]}, "type": "Feature", "properties": {"collection_times": [{"days": "Mon-Fri", "time": "3:45pm"}, {"days": "Sat", "time": "9:45am"}, {"days": "Sun", "time": "Closed"}], "id": "2968800002", "name": "USPS COLLECTION BOX - PO LOBBY", "address": {"city": "TIGERVILLE", "state": "SC", "street": "7864 N TIGERVILLE RD", "postcode": "29688"}}},
{"geometry": {"type": "Point", "coordinates": [-82.8973673901, 34.5644266653]}, "type": "Feature", "properties": {"collection_times": [{"days": "Mon-Fri", "time": "3:45pm"}, {"days": "Sat", "time": "10:15am"}, {"days": "Sun", "time": "Closed"}], "id": "2968900000", "name": "USPS COLLECTION BOX - BLUE BOX", "address": {"city": "TOWNVILLE", "state": "SC", "street": "8923 HIGHWAY 24", "postcode": "29689"}}},
{"geometry": {"type": "Point", "coordinates": [-82.8973673901, 34.5644266653]}, "type": "Feature", "properties": {"collection_times": [{"days": "Mon-Fri", "time": "3:45pm"}, {"days": "Sat", "time": "10:15am"}, {"days": "Sun", "time": "Closed"}], "id": "2968900001", "name": "USPS COLLECTION BOX - PO LOBBY", "address": {"city": "TOWNVILLE", "state": "SC", "street": "8923 HIGHWAY 24", "postcode": "29689"}}},
{"geometry": {"type": "Point", "coordinates": [-82.7988118211, 34.5292982905]}, "type": "Feature", "properties": {"collection_times": [{"days": "Mon-Sat", "time": "11:00am"}, {"days": "Sun", "time": "Closed"}], "id": "2968900002", "name": "USPS COLLECTION BOX - BLUE BOX", "address": {"city": "TOWNVILLE", "state": "SC", "street": "6416 HIGHWAY 24", "postcode": "29689"}}},
{"geometry": {"type": "Point", "coordinates": [-82.8973673901, 34.5644266653]}, "type": "Feature", "properties": {"collection_times": [{"days": "Mon-Fri", "time": "3:45pm"}, {"days": "Sat", "time": "10:15am"}, {"days": "Sun", "time": "Closed"}], "id": "2968900003", "name": "USPS COLLECTION BOX - PO LOBBY", "address": {"city": "TOWNVILLE", "state": "SC", "street": "8923 HIGHWAY 24", "postcode": "29689"}}},
{"geometry": {"type": "Point", "coordinates": [-82.4397438687, 34.9561856348]}, "type": "Feature", "properties": {"collection_times": [{"days": "Mon-Fri", "time": "4:15pm"}, {"days": "Sat", "time": "10:45am"}, {"days": "Sun", "time": "Closed"}], "id": "2969000000", "name": "USPS COLLECTION BOX - BLUE BOX", "address": {"city": "TRAVELERS REST", "state": "SC", "street": "400 S MAIN ST", "postcode": "29690"}}},
{"geometry": {"type": "Point", "coordinates": [-82.4397438687, 34.9561856348]}, "type": "Feature", "properties": {"collection_times": [{"days": "Mon-Fri", "time": "4:15pm"}, {"days": "Sat", "time": "10:45am"}, {"days": "Sun", "time": "Closed"}], "id": "2969000002", "name": "USPS COLLECTION BOX - PO LOBBY", "address": {"city": "TRAVELERS REST", "state": "SC", "street": "400 S MAIN ST", "postcode": "29690"}}},
{"geometry": {"type": "Point", "coordinates": [-82.4397438687, 34.9561856348]}, "type": "Feature", "properties": {"collection_times": [{"days": "Mon-Fri", "time": "4:15pm"}, {"days": "Sat", "time": "10:45am"}, {"days": "Sun", "time": "Closed"}], "id": "2969000003", "name": "USPS COLLECTION BOX - PO LOBBY", "address": {"city": "TRAVELERS REST", "state": "SC", "street": "400 S MAIN ST", "postcode": "29690"}}},
{"geometry": {"type": "Point", "coordinates": [-82.4397438687, 34.9561856348]}, "type": "Feature", "properties": {"collection_times": [{"days": "Mon-Fri", "time": "4:15pm"}, {"days": "Sat", "time": "10:45am"}, {"days": "Sun", "time": "Closed"}], "id": "2969000013", "name": "USPS COLLECTION BOX - PO LOBBY", "address": {"city": "TRAVELERS REST", "state": "SC", "street": "400 S MAIN ST", "postcode": "29690"}}},
{"geometry": {"type": "Point", "coordinates": [-83.066956, 34.76681]}, "type": "Feature", "properties": {"collection_times": [{"days": "Mon-Fri", "time": "4:15pm"}, {"days": "Sat", "time": "3:30pm"}, {"days": "Sun", "time": "Closed"}], "id": "2969100000", "name": "USPS COLLECTION BOX - BLUE BOX", "address": {"city": "WALHALLA", "state": "SC", "street": "208 W NORTH BROAD ST", "postcode": "29691"}}},
{"geometry": {"type": "Point", "coordinates": [-83.0678185133, 34.7637046357]}, "type": "Feature", "properties": {"collection_times": [{"days": "Mon-Sat", "time": "11:00am"}, {"days": "Sun", "time": "Closed"}], "id": "2969100008", "name": "USPS COLLECTION BOX - BLUE BOX", "address": {"city": "WALHALLA", "state": "SC", "street": "208 BOOKER DR", "postcode": "29691"}}},
{"geometry": {"type": "Point", "coordinates": [-83.066956, 34.76681]}, "type": "Feature", "properties": {"collection_times": [{"days": "Mon-Fri", "time": "4:15pm"}, {"days": "Sat", "time": "3:30pm"}, {"days": "Sun", "time": "Closed"}], "id": "2969100011", "name": "USPS COLLECTION BOX - PO LOBBY", "address": {"city": "WALHALLA", "state": "SC", "street": "208 W NORTH BROAD ST", "postcode": "29691"}}},
{"geometry": {"type": "Point", "coordinates": [-83.066956, 34.76681]}, "type": "Feature", "properties": {"collection_times": [{"days": "Mon-Fri", "time": "4:15pm"}, {"days": "Sat", "time": "3:30pm"}, {"days": "Sun", "time": "Closed"}], "id": "2969100012", "name": "USPS COLLECTION BOX - PO LOBBY", "address": {"city": "WALHALLA", "state": "SC", "street": "208 W NORTH BROAD ST", "postcode": "29691"}}},
{"geometry": {"type": "Point", "coordinates": [-83.066956, 34.76681]}, "type": "Feature", "properties": {"collection_times": [{"days": "Mon-Fri", "time": "4:15pm"}, {"days": "Sat", "time": "3:30pm"}, {"days": "Sun", "time": "Closed"}], "id": "2969100013", "name": "USPS COLLECTION BOX - BLUE BOX", "address": {"city": "WALHALLA", "state": "SC", "street": "208 W NORTH BROAD ST", "postcode": "29691"}}},
{"geometry": {"type": "Point", "coordinates": [-82.2454145059, 34.3991421651]}, "type": "Feature", "properties": {"collection_times": [{"days": "Mon-Fri", "time": "3:45pm"}, {"days": "Sat", "time": "10:45am"}, {"days": "Sun", "time": "Closed"}], "id": "2969200000", "name": "USPS COLLECTION BOX - BLUE BOX", "address": {"city": "WARE SHOALS", "state": "SC", "street": "101 MCLANE AVE", "postcode": "29692"}}},
{"geometry": {"type": "Point", "coordinates": [-82.2454145059, 34.3991421651]}, "type": "Feature", "properties": {"collection_times": [{"days": "Mon-Fri", "time": "3:45pm"}, {"days": "Sat", "time": "10:45am"}, {"days": "Sun", "time": "Closed"}], "id": "2969200001", "name": "USPS COLLECTION BOX - PO LOBBY", "address": {"city": "WARE SHOALS", "state": "SC", "street": "101 MCLANE AVE", "postcode": "29692"}}},
{"geometry": {"type": "Point", "coordinates": [-83.0882899905, 34.6587325855]}, "type": "Feature", "properties": {"collection_times": [{"days": "Mon-Fri", "time": "4:30pm"}, {"days": "Sat", "time": "3:30pm"}, {"days": "Sun", "time": "Closed"}], "id": "2969300000", "name": "USPS COLLECTION BOX - BLUE BOX", "address": {"city": "WESTMINSTER", "state": "SC", "street": "800 E MAIN ST", "postcode": "29693"}}},
{"geometry": {"type": "Point", "coordinates": [-83.0882899905, 34.6587325855]}, "type": "Feature", "properties": {"collection_times": [{"days": "Mon-Fri", "time": "4:30pm"}, {"days": "Sat", "time": "3:30pm"}, {"days": "Sun", "time": "Closed"}], "id": "2969300001", "name": "USPS COLLECTION BOX - PO LOBBY", "address": {"city": "WESTMINSTER", "state": "SC", "street": "800 E MAIN ST", "postcode": "29693"}}},
{"geometry": {"type": "Point", "coordinates": [-83.046570011, 34.7561074935]}, "type": "Feature", "properties": {"collection_times": [{"days": "Mon-Fri", "time": "3:45pm"}, {"days": "Sat", "time": "9:45am"}, {"days": "Sun", "time": "Closed"}], "id": "2969600001", "name": "USPS COLLECTION BOX - BLUE BOX", "address": {"city": "WEST UNION", "state": "SC", "street": "190 S HIGHWAY 11", "postcode": "29696"}}},
{"geometry": {"type": "Point", "coordinates": [-83.046570011, 34.7561074935]}, "type": "Feature", "properties": {"collection_times": [{"days": "Mon-Fri", "time": "3:45pm"}, {"days": "Sat", "time": "9:45am"}, {"days": "Sun", "time": "Closed"}], "id": "2969600002", "name": "USPS COLLECTION BOX - PO LOBBY", "address": {"city": "WEST UNION", "state": "SC", "street": "190 S HIGHWAY 11", "postcode": "29696"}}},
{"geometry": {"type": "Point", "coordinates": [-83.046570011, 34.7561074935]}, "type": "Feature", "properties": {"collection_times": [{"days": "Mon-Fri", "time": "3:45pm"}, {"days": "Sat", "time": "9:45am"}, {"days": "Sun", "time": "Closed"}], "id": "2969600003", "name": "USPS COLLECTION BOX - PO LOBBY", "address": {"city": "WEST UNION", "state": "SC", "street": "190 S HIGHWAY 11", "postcode": "29696"}}},
{"geometry": {"type": "Point", "coordinates": [-83.046570011, 34.7561074935]}, "type": "Feature", "properties": {"collection_times": [{"days": "Mon-Fri", "time": "3:45pm"}, {"days": "Sat", "time": "9:45am"}, {"days": "Sun", "time": "Closed"}], "id": "2969600005", "name": "USPS COLLECTION BOX - PO LOBBY", "address": {"city": "WEST UNION", "state": "SC", "street": "190 S HIGHWAY 11", "postcode": "29696"}}},
{"geometry": {"type": "Point", "coordinates": [-82.4731614226, 34.6162306746]}, "type": "Feature", "properties": {"collection_times": [{"days": "Mon-Fri", "time": "4:15pm"}, {"days": "Sat", "time": "11:15am"}, {"days": "Sun", "time": "Closed"}], "id": "2969700008", "name": "USPS COLLECTION BOX - BLUE BOX", "address": {"city": "WILLIAMSTON", "state": "SC", "street": "101 MILL ST", "postcode": "29697"}}},
{"geometry": {"type": "Point", "coordinates": [-82.4731614226, 34.6162306746]}, "type": "Feature", "properties": {"collection_times": [{"days": "Mon-Fri", "time": "4:15pm"}, {"days": "Sat", "time": "11:15am"}, {"days": "Sun", "time": "Closed"}], "id": "2969700010", "name": "USPS COLLECTION BOX - PO LOBBY", "address": {"city": "WILLIAMSTON", "state": "SC", "street": "101 MILL ST", "postcode": "29697"}}},
{"geometry": {"type": "Point", "coordinates": [-82.4731614226, 34.6162306746]}, "type": "Feature", "properties": {"collection_times": [{"days": "Mon-Fri", "time": "4:15pm"}, {"days": "Sat", "time": "11:15am"}, {"days": "Sun", "time": "Closed"}], "id": "2969700014", "name": "USPS COLLECTION BOX - PO LOBBY", "address": {"city": "WILLIAMSTON", "state": "SC", "street": "101 MILL ST", "postcode": "29697"}}}
]}
