{"type": "FeatureCollection", "features": [
{"geometry": {"type": "Point", "coordinates": [-81.5157062075, 35.1182852517]}, "type": "Feature", "properties": {"collection_times": [{"days": "Mon-Fri", "time": "4:45pm"}, {"days": "Sat", "time": "12:00pm"}, {"days": "Sun", "time": "Closed"}], "id": "2970200005", "name": "USPS COLLECTION BOX - BLUE BOX", "address": {"city": "BLACKSBURG", "state": "SC", "street": "202 W PINE ST", "postcode": "29702"}}},
{"geometry": {"type": "Point", "coordinates": [-81.5157062075, 35.1182852517]}, "type": "Feature", "properties": {"collection_times": [{"days": "Mon-Fri", "time": "4:45pm"}, {"days": "Sat", "time": "12:00pm"}, {"days": "Sun", "time": "Closed"}], "id": "2970200006", "name": "USPS COLLECTION BOX - BLUE BOX", "address": {"city": "BLACKSBURG", "state": "SC", "street": "202 W PINE ST", "postcode": "29702"}}},
{"geometry": {"type": "Point", "coordinates": [-81.5157062075, 35.1182852517]}, "type": "Feature", "properties": {"collection_times": [{"days": "Mon-Fri", "time": "4:45pm"}, {"days": "Sat", "time": "12:00pm"}, {"days": "Sun", "time": "Closed"}], "id": "2970200007", "name": "USPS COLLECTION BOX - PO LOBBY", "address": {"city": "BLACKSBURG", "state": "SC", "street": "202 W PINE ST", "postcode": "29702"}}},
{"geometry": {"type": "Point", "coordinates": [-81.5083248481, 35.1421344068]}, "type": "Feature", "properties": {"collection_times": [{"days": "Mon-Sat", "time": "12:00pm"}, {"days": "Sun", "time": "Closed"}], "id": "2970200008", "name": "USPS COLLECTION BOX - BLUE BOX", "address": {"city": "BLACKSBURG", "state": "SC", "street": "1011 N MOUNTAIN ST", "postcode": "29702"}}},
{"geometry": {"type": "Point", "coordinates": [-81.2135950747, 35.1469469681]}, "type": "Feature", "properties": {"collection_times": [{"days": "Mon-Fri", "time": "4:30pm"}, {"days": "Sat", "time": "10:00am"}, {"days": "Sun", "time": "Closed"}], "id": "2970300002", "name": "USPS COLLECTION BOX - BLUE BOX", "address": {"city": "BOWLING GREEN", "state": "SC", "street": "1771 N HIGHWAY 321", "postcode": "29703"}}},
{"geometry": {"type": "Point", "coordinates": [-81.2135950747, 35.1469469681]}, "type": "Feature", "properties": {"collection_times": [{"days": "Mon-Fri", "time": "4:30pm"}, {"days": "Sat", "time": "10:00am"}, {"days": "Sun", "time": "Closed"}], "id": "2970300003", "name": "USPS COLLECTION BOX - PO LOBBY", "address": {"city": "BOWLING GREEN", "state": "SC", "street": "1771 N HIGHWAY 321", "postcode": "29703"}}},
{"geometry": {"type": "Point", "coordinates": [-81.2135950747, 35.1469469681]}, "type": "Feature", "properties": {"collection_times": [{"days": "Mon-Fri", "time": "4:30pm"}, {"days": "Sat", "time": "10:00am"}, {"days": "Sun", "time": "Closed"}], "id": "2970300004", "name": "USPS COLLECTION BOX - PO LOBBY", "address": {"city": "BOWLING GREEN", "state": "SC", "street": "1771 N HIGHWAY 321", "postcode": "29703"}}},
{"geometry": {"type": "Point", "coordinates": [-80.9124350509, 34.8533487233]}, "type": "Feature", "properties": {"collection_times": [{"days": "Mon-Fri", "time": "4:15pm"}, {"days": "Sat", "time": "11:00am"}, {"days": "Sun", "time": "Closed"}], "id": "2970400003", "name": "USPS COLLECTION BOX - BLUE BOX", "address": {"city": "CATAWBA", "state": "SC", "street": "4795 CURETON FERRY RD", "postcode": "29704"}}},
{"geometry": {"type": "Point", "coordinates": [-80.9330760491, 34.8386705528]}, "type": "Feature", "properties": {"collection_times": [{"days": "Mon-Fri", "time": "4:15pm"}, {"days": "Sat", "time": "11:00am"}, {"days": "Sun", "time": "Closed"}], "id": "2970400005", "name": "USPS COLLECTION BOX - PO LOBBY", "address": {"city": "CATAWBA", "state": "SC", "street": "4795 CURETON FERRY RD", "postcode": "29704"}}},
{"geometry": {"type": "Point", "coordinates": [-81.2089728124, 34.7090608754]}, "type": "Feature", "properties": {"collection_times": [{"days": "Mon-Fri", "time": "5:00pm"}, {"days": "Sat", "time": "3:00pm"}, {"days": "Sun", "time": "Closed"}], "id": "2970600002", "name": "USPS COLLECTION BOX - BLUE BOX", "address": {"city": "CHESTER", "state": "SC", "street": "131 SALUDA ST", "postcode": "29706"}}},
{"geometry": {"type": "Point", "coordinates": [-81.2089728124, 34.7090608754]}, "type": "Feature", "properties": {"collection_times": [{"days": "Mon-Fri", "time": "5:00pm"}, {"days": "Sat", "time": "3:00pm"}, {"days": "Sun", "time": "Closed"}], "id": "2970600003", "name": "USPS COLLECTION BOX - BLUE BOX", "address": {"city": "CHESTER", "state": "SC", "street": "131 SALUDA ST", "postcode": "29706"}}},
{"geometry": {"type": "Point", "coordinates": [-81.2089728124, 34.7090608754]}, "type": "Feature", "properties": {"collection_times": [{"days": "Mon-Fri", "time": "5:00pm"}, {"days": "Sat", "time": "3:00pm"}, {"days": "Sun", "time": "Closed"}], "id": "2970600004", "name": "USPS COLLECTION BOX - BLUE BOX", "address": {"city": "CHESTER", "state": "SC", "street": "131 SALUDA ST", "postcode": "29706"}}},
{"geometry": {"type": "Point", "coordinates": [-81.209242543, 34.702406048]}, "type": "Feature", "properties": {"collection_times": [{"days": "Mon-Fri", "time": "4:00pm"}, {"days": "Sat", "time": "2:00pm"}, {"days": "Sun", "time": "Closed"}], "id": "2970600006", "name": "USPS COLLECTION BOX - BLUE BOX", "address": {"city": "CHESTER", "state": "SC", "street": "105 CESTRAIN SQ", "postcode": "29706"}}},
{"geometry": {"type": "Point", "coordinates": [-81.2119720125, 34.7053723487]}, "type": "Feature", "properties": {"collection_times": [{"days": "Mon-Fri", "time": "4:00pm"}, {"days": "Sat", "time": "2:00pm"}, {"days": "Sun", "time": "Closed"}], "id": "2970600010", "name": "USPS COLLECTION BOX - BLUE BOX", "address": {"city": "CHESTER", "state": "SC", "street": "135 GADSDEN ST", "postcode": "29706"}}},
{"geometry": {"type": "Point", "coordinates": [-81.190846065, 34.709574063]}, "type": "Feature", "properties": {"collection_times": [{"days": "Mon-Fri", "time": "4:00pm"}, {"days": "Sat", "time": "2:00pm"}, {"days": "Sun", "time": "Closed"}], "id": "2970600015", "name": "USPS COLLECTION BOX - BLUE BOX", "address": {"city": "CHESTER", "state": "SC", "street": "1841 J A COCHRAN BYP", "postcode": "29706"}}},
{"geometry": {"type": "Point", "coordinates": [-81.191526137, 34.697907839]}, "type": "Feature", "properties": {"collection_times": [{"days": "Mon-Fri", "time": "4:00pm"}, {"days": "Sat", "time": "2:00pm"}, {"days": "Sun", "time": "Closed"}], "id": "2970600016", "name": "USPS COLLECTION BOX - BLUE BOX", "address": {"city": "CHESTER", "state": "SC", "street": "1649 J A COCHRAN BYP", "postcode": "29706"}}},
{"geometry": {"type": "Point", "coordinates": [-81.2089728125, 34.7090608756]}, "type": "Feature", "properties": {"collection_times": [{"days": "Mon-Fri", "time": "5:00pm"}, {"days": "Sat", "time": "3:00pm"}, {"days": "Sun", "time": "Closed"}], "id": "2970600017", "name": "USPS COLLECTION BOX - PO LOBBY", "address": {"city": "CHESTER", "state": "SC", "street": "131 SALUDA ST", "postcode": "29706"}}},
{"geometry": {"type": "Point", "coordinates": [-81.2089728124, 34.7090608754]}, "type": "Feature", "properties": {"collection_times": [{"days": "Mon-Fri", "time": "5:00pm"}, {"days": "Sat", "time": "3:00pm"}, {"days": "Sun", "time": "Closed"}], "id": "2970600018", "name": "USPS COLLECTION BOX - PO LOBBY", "address": {"city": "CHESTER", "state": "SC", "street": "131 SALUDA ST", "postcode": "29706"}}},
{"geometry": {"type": "Point", "coordinates": [-80.9917108896, 35.0597233428]}, "type": "Feature", "properties": {"collection_times": [{"days": "Mon-Fri", "time": "12:00pm"}, {"days": "Sat", "time": "10:00am"}, {"days": "Sun", "time": "Closed"}], "id": "2970800000", "name": "USPS COLLECTION BOX - BLUE BOX", "address": {"city": "FORT MILL", "state": "SC", "street": "2879 HIGHWAY 160 W", "postcode": "29708"}}},
{"geometry": {"type": "Point", "coordinates": [-80.9917108896, 35.0597233428]}, "type": "Feature", "properties": {"collection_times": [{"days": "Mon-Fri", "time": "12:00pm"}, {"days": "Sat", "time": "10:00am"}, {"days": "Sun", "time": "Closed"}], "id": "2970800002", "name": "USPS COLLECTION BOX - BLUE BOX", "address": {"city": "FORT MILL", "state": "SC", "street": "2879 HIGHWAY 160 W", "postcode": "29708"}}},
{"geometry": {"type": "Point", "coordinates": [-80.9450065216, 35.0985971643]}, "type": "Feature", "properties": {"collection_times": [{"days": "Mon-Fri", "time": "12:00pm"}, {"days": "Sat", "time": "10:00am"}, {"days": "Sun", "time": "Closed"}], "id": "2970800004", "name": "USPS COLLECTION BOX - BLUE BOX", "address": {"city": "FORT MILL", "state": "SC", "street": "377 CAROWINDS BLVD", "postcode": "29708"}}},
{"geometry": {"type": "Point", "coordinates": [-80.9921674959, 35.0627384048]}, "type": "Feature", "properties": {"collection_times": [{"days": "Mon-Sat", "time": "12:00pm"}, {"days": "Sun", "time": "Closed"}], "id": "2970800005", "name": "USPS COLLECTION BOX - BLUE BOX", "address": {"city": "FORT MILL", "state": "SC", "street": "737 STOCKBRIDGE DR", "postcode": "29708"}}},
{"geometry": {"type": "Point", "coordinates": [-80.9670016798, 35.0286989885]}, "type": "Feature", "properties": {"collection_times": [{"days": "Mon-Sat", "time": "12:00pm"}, {"days": "Sun", "time": "Closed"}], "id": "2970800006", "name": "USPS COLLECTION BOX - BLUE BOX", "address": {"city": "FORT MILL", "state": "SC", "street": "951 MARKET ST", "postcode": "29708"}}},
{"geometry": {"type": "Point", "coordinates": [-80.0850036875, 34.7358225633]}, "type": "Feature", "properties": {"collection_times": [{"days": "Mon-Fri", "time": "4:45pm"}, {"days": "Sat", "time": "12:00pm"}, {"days": "Sun", "time": "Closed"}], "id": "2970900004", "name": "USPS COLLECTION BOX - BLUE BOX", "address": {"city": "CHESTERFIELD", "state": "SC", "street": "200 E MAIN ST", "postcode": "29709"}}},
{"geometry": {"type": "Point", "coordinates": [-80.0850405466, 34.7358278903]}, "type": "Feature", "properties": {"collection_times": [{"days": "Mon-Fri", "time": "3:00pm"}, {"days": "Sat", "time": "2:00pm"}, {"days": "Sun", "time": "Closed"}], "id": "2970900006", "name": "USPS COLLECTION BOX - BLUE BOX", "address": {"city": "CHESTERFIELD", "state": "SC", "street": "198 MAIN ST", "postcode": "29709"}}},
{"geometry": {"type": "Point", "coordinates": [-80.0850036879, 34.7358225638]}, "type": "Feature", "properties": {"collection_times": [{"days": "Mon-Fri", "time": "4:45pm"}, {"days": "Sat", "time": "12:00pm"}, {"days": "Sun", "time": "Closed"}], "id": "2970900008", "name": "USPS COLLECTION BOX - PO LOBBY", "address": {"city": "CHESTERFIELD", "state": "SC", "street": "200 E MAIN ST", "postcode": "29709"}}},
{"geometry": {"type": "Point", "coordinates": [-80.0850036875, 34.7358225633]}, "type": "Feature", "properties": {"collection_times": [{"days": "Mon-Fri", "time": "4:45pm"}, {"days": "Sat", "time": "12:00pm"}, {"days": "Sun", "time": "Closed"}], "id": "2970900009", "name": "USPS COLLECTION BOX - PO LOBBY", "address": {"city": "CHESTERFIELD", "state": "SC", "street": "200 E MAIN ST", "postcode": "29709"}}},
{"geometry": {"type": "Point", "coordinates": [-81.0824522792, 35.1204868827]}, "type": "Feature", "properties": {"collection_times": [{"days": "Mon-Sat", "time": "1:30pm"}, {"days": "Sun", "time": "Closed"}], "id": "2971000004", "name": "USPS COLLECTION BOX - BLUE BOX", "address": {"city": "CLOVER", "state": "SC", "street": "144 HIGHWAY 274", "postcode": "29710"}}},
{"geometry": {"type": "Point", "coordinates": [-81.0435234656, 35.1089790579]}, "type": "Feature", "properties": {"collection_times": [{"days": "Mon-Sat", "time": "1:30pm"}, {"days": "Sun", "time": "Closed"}], "id": "2971000016", "name": "USPS COLLECTION BOX - BLUE BOX", "address": {"city": "CLOVER", "state": "SC", "street": "4052 CHARLOTTE HWY", "postcode": "29710"}}},
{"geometry": {"type": "Point", "coordinates": [-81.0824522792, 35.1204868827]}, "type": "Feature", "properties": {"collection_times": [{"days": "Mon-Sat", "time": "1:30pm"}, {"days": "Sun", "time": "Closed"}], "id": "2971000017", "name": "USPS COLLECTION BOX - BLUE BOX", "address": {"city": "CLOVER", "state": "SC", "street": "144 HIGHWAY 274", "postcode": "29710"}}},
{"geometry": {"type": "Point", "coordinates": [-81.2108688606, 35.1070150633]}, "type": "Feature", "properties": {"collection_times": [{"days": "Mon-Fri", "time": "5:00pm"}, {"days": "Sat", "time": "4:00pm"}, {"days": "Sun", "time": "Closed"}], "id": "2971000018", "name": "USPS COLLECTION BOX - BLUE BOX", "address": {"city": "CLOVER", "state": "SC", "street": "913 BETHEL ST", "postcode": "29710"}}},
{"geometry": {"type": "Point", "coordinates": [-81.2108688606, 35.1070150633]}, "type": "Feature", "properties": {"collection_times": [{"days": "Mon-Fri", "time": "5:00pm"}, {"days": "Sat", "time": "4:00pm"}, {"days": "Sun", "time": "Closed"}], "id": "2971000019", "name": "USPS COLLECTION BOX - BLUE BOX", "address": {"city": "CLOVER", "state": "SC", "street": "913 BETHEL ST", "postcode": "29710"}}},
{"geometry": {"type": "Point", "coordinates": [-81.2260649471, 35.1114109062]}, "type": "Feature", "properties": {"collection_times": [{"days": "Mon-Sat", "time": "12:00pm"}, {"days": "Sun", "time": "Closed"}], "id": "2971000020", "name": "USPS COLLECTION BOX - BLUE BOX", "address": {"city": "CLOVER", "state": "SC", "street": "124 N MAIN ST", "postcode": "29710"}}},
{"geometry": {"type": "Point", "coordinates": [-81.2108688604, 35.1070150637]}, "type": "Feature", "properties": {"collection_times": [{"days": "Mon-Fri", "time": "5:00pm"}, {"days": "Sat", "time": "4:00pm"}, {"days": "Sun", "time": "Closed"}], "id": "2971000022", "name": "USPS COLLECTION BOX - PO LOBBY", "address": {"city": "CLOVER", "state": "SC", "street": "913 BETHEL ST", "postcode": "29710"}}},
{"geometry": {"type": "Point", "coordinates": [-81.2108688606, 35.1070150633]}, "type": "Feature", "properties": {"collection_times": [{"days": "Mon-Fri", "time": "5:00pm"}, {"days": "Sat", "time": "4:00pm"}, {"days": "Sun", "time": "Closed"}], "id": "2971000023", "name": "USPS COLLECTION BOX - PO LOBBY", "address": {"city": "CLOVER", "state": "SC", "street": "913 BETHEL ST", "postcode": "29710"}}},
{"geometry": {"type": "Point", "coordinates": [-81.0130716271, 34.8072157708]}, "type": "Feature", "properties": {"collection_times": [{"days": "Mon-Fri", "time": "4:00pm"}, {"days": "Sat", "time": "9:15am"}, {"days": "Sun", "time": "Closed"}], "id": "2971200001", "name": "USPS COLLECTION BOX - BLUE BOX", "address": {"city": "EDGEMOOR", "state": "SC", "street": "4469 EDGELAND RD", "postcode": "29712"}}},
{"geometry": {"type": "Point", "coordinates": [-81.0130716271, 34.8072157708]}, "type": "Feature", "properties": {"collection_times": [{"days": "Mon-Fri", "time": "4:00pm"}, {"days": "Sat", "time": "9:15am"}, {"days": "Sun", "time": "Closed"}], "id": "2971200002", "name": "USPS COLLECTION BOX - PO LOBBY", "address": {"city": "EDGEMOOR", "state": "SC", "street": "4469 EDGELAND RD", "postcode": "29712"}}},
{"geometry": {"type": "Point", "coordinates": [-80.9217571634, 34.6900845959]}, "type": "Feature", "properties": {"collection_times": [{"days": "Mon-Fri", "time": "3:30pm"}, {"days": "Sat", "time": "11:00am"}, {"days": "Sun", "time": "Closed"}], "id": "2971400001", "name": "USPS COLLECTION BOX - BLUE BOX", "address": {"city": "FORT LAWN", "state": "SC", "street": "5915 LANCASTER HWY", "postcode": "29714"}}},
{"geometry": {"type": "Point", "coordinates": [-80.9217571635, 34.6900845958]}, "type": "Feature", "properties": {"collection_times": [{"days": "Mon-Fri", "time": "3:30pm"}, {"days": "Sat", "time": "11:00am"}, {"days": "Sun", "time": "Closed"}], "id": "2971400002", "name": "USPS COLLECTION BOX - PO LOBBY", "address": {"city": "FORT LAWN", "state": "SC", "street": "5915 LANCASTER HWY", "postcode": "29714"}}},
{"geometry": {"type": "Point", "coordinates": [-80.9217571634, 34.6900845959]}, "type": "Feature", "properties": {"collection_times": [{"days": "Mon-Fri", "time": "3:30pm"}, {"days": "Sat", "time": "11:00am"}, {"days": "Sun", "time": "Closed"}], "id": "2971400003", "name": "USPS COLLECTION BOX - PO LOBBY", "address": {"city": "FORT LAWN", "state": "SC", "street": "5915 LANCASTER HWY", "postcode": "29714"}}},
{"geometry": {"type": "Point", "coordinates": [-80.9402655621, 35.0071918904]}, "type": "Feature", "properties": {"collection_times": [{"days": "Mon-Fri", "time": "5:00pm"}, {"days": "Sat", "time": "2:00pm"}, {"days": "Sun", "time": "Closed"}], "id": "2971500003", "name": "USPS COLLECTION BOX - BLUE BOX", "address": {"city": "FORT MILL", "state": "SC", "street": "201 TOM HALL ST", "postcode": "29715"}}},
{"geometry": {"type": "Point", "coordinates": [-80.9402655621, 35.0071918904]}, "type": "Feature", "properties": {"collection_times": [{"days": "Mon-Fri", "time": "5:00pm"}, {"days": "Sat", "time": "2:00pm"}, {"days": "Sun", "time": "Closed"}], "id": "2971500004", "name": "USPS COLLECTION BOX - BLUE BOX", "address": {"city": "FORT MILL", "state": "SC", "street": "201 TOM HALL ST", "postcode": "29715"}}},
{"geometry": {"type": "Point", "coordinates": [-80.9596694711, 35.0214087811]}, "type": "Feature", "properties": {"collection_times": [{"days": "Mon-Fri", "time": "11:00am"}, {"days": "Sat", "time": "10:00am"}, {"days": "Sun", "time": "Closed"}], "id": "2971500006", "name": "USPS COLLECTION BOX - BLUE BOX", "address": {"city": "FORT MILL", "state": "SC", "street": "1329 HIGHWAY 160 W", "postcode": "29715"}}},
{"geometry": {"type": "Point", "coordinates": [-80.9402655621, 35.0071918904]}, "type": "Feature", "properties": {"collection_times": [{"days": "Mon-Fri", "time": "5:00pm"}, {"days": "Sat", "time": "2:00pm"}, {"days": "Sun", "time": "Closed"}], "id": "2971500020", "name": "USPS COLLECTION BOX - BLUE BOX", "address": {"city": "FORT MILL", "state": "SC", "street": "201 TOM HALL ST", "postcode": "29715"}}},
{"geometry": {"type": "Point", "coordinates": [-80.9402655621, 35.0071918904]}, "type": "Feature", "properties": {"collection_times": [{"days": "Mon-Fri", "time": "5:00pm"}, {"days": "Sat", "time": "2:00pm"}, {"days": "Sun", "time": "Closed"}], "id": "2971500021", "name": "USPS COLLECTION BOX - PO LOBBY", "address": {"city": "FORT MILL", "state": "SC", "street": "201 TOM HALL ST", "postcode": "29715"}}},
{"geometry": {"type": "Point", "coordinates": [-80.9402655621, 35.0071918904]}, "type": "Feature", "properties": {"collection_times": [{"days": "Mon-Fri", "time": "5:00pm"}, {"days": "Sat", "time": "2:00pm"}, {"days": "Sun", "time": "Closed"}], "id": "2971500022", "name": "USPS COLLECTION BOX - PO LOBBY", "address": {"city": "FORT MILL", "state": "SC", "street": "201 TOM HALL ST", "postcode": "29715"}}},
{"geometry": {"type": "Point", "coordinates": [-80.8478265142, 34.9503573162]}, "type": "Feature", "properties": {"collection_times": [{"days": "Mon-Sat", "time": "12:00pm"}, {"days": "Sun", "time": "Closed"}], "id": "2971500023", "name": "USPS COLLECTION BOX - BLUE BOX", "address": {"city": "FORT MILL", "state": "SC", "street": "8175 CHARLOTTE HWY", "postcode": "29715"}}},
{"geometry": {"type": "Point", "coordinates": [-80.9147240765, 35.0086463933]}, "type": "Feature", "properties": {"collection_times": [{"days": "Mon-Sat", "time": "12:00pm"}, {"days": "Sun", "time": "Closed"}], "id": "2971500025", "name": "USPS COLLECTION BOX - BLUE BOX", "address": {"city": "FORT MILL", "state": "SC", "street": "1360 HIGHWAY 160 E", "postcode": "29715"}}},
{"geometry": {"type": "Point", "coordinates": [-80.9288186099, 35.0123389544]}, "type": "Feature", "properties": {"collection_times": [{"days": "Mon-Sat", "time": "12:00pm"}, {"days": "Sun", "time": "Closed"}], "id": "2971500027", "name": "USPS COLLECTION BOX - BLUE BOX", "address": {"city": "FORT MILL", "state": "SC", "street": "3476 STATEVIEW BLVD", "postcode": "29715"}}},
{"geometry": {"type": "Point", "coordinates": [-80.9288186099, 35.0123389544]}, "type": "Feature", "properties": {"collection_times": [{"days": "Mon-Sat", "time": "12:00pm"}, {"days": "Sun", "time": "Closed"}], "id": "2971500028", "name": "USPS COLLECTION BOX - BLUE BOX", "address": {"city": "FORT MILL", "state": "SC", "street": "5074 GRANDVIEW DR", "postcode": "29715"}}},
{"geometry": {"type": "Point", "coordinates": [-81.416633455, 34.9838740496]}, "type": "Feature", "properties": {"collection_times": [{"days": "Mon-Fri", "time": "4:30pm"}, {"days": "Sat", "time": "10:00am"}, {"days": "Sun", "time": "Closed"}], "id": "2971700002", "name": "USPS COLLECTION BOX - BLUE BOX", "address": {"city": "HICKORY GROVE", "state": "SC", "street": "6015 WYLIE AVE", "postcode": "29717"}}},
{"geometry": {"type": "Point", "coordinates": [-81.4380786583, 34.9627639098]}, "type": "Feature", "properties": {"collection_times": [{"days": "Mon-Fri", "time": "4:30pm"}, {"days": "Sat", "time": "10:00am"}, {"days": "Sun", "time": "Closed"}], "id": "2971700003", "name": "USPS COLLECTION BOX - PO LOBBY", "address": {"city": "HICKORY GROVE", "state": "SC", "street": "6015 WYLIE AVE", "postcode": "29717"}}},
{"geometry": {"type": "Point", "coordinates": [-81.4380786583, 34.9627639098]}, "type": "Feature", "properties": {"collection_times": [{"days": "Mon-Fri", "time": "10:30am"}, {"days": "Sat-Sun", "time": "Closed"}], "id": "2971700004", "name": "USPS COLLECTION BOX - BLUE BOX", "address": {"city": "HICKORY GROVE", "state": "SC", "street": "4060 PEACHTREE ST", "postcode": "29717"}}},
{"geometry": {"type": "Point", "coordinates": [-80.3886343711, 34.6527365519]}, "type": "Feature", "properties": {"collection_times": [{"days": "Mon-Fri", "time": "4:30pm"}, {"days": "Sat", "time": "9:45am"}, {"days": "Sun", "time": "Closed"}], "id": "2971800003", "name": "USPS COLLECTION BOX - BLUE BOX", "address": {"city": "JEFFERSON", "state": "SC", "street": "108 S MAIN ST", "postcode": "29718"}}},
{"geometry": {"type": "Point", "coordinates": [-80.3886343709, 34.6527365517]}, "type": "Feature", "properties": {"collection_times": [{"days": "Mon-Fri", "time": "4:30pm"}, {"days": "Sat", "time": "9:45am"}, {"days": "Sun", "time": "Closed"}], "id": "2971800004", "name": "USPS COLLECTION BOX - PO LOBBY", "address": {"city": "JEFFERSON", "state": "SC", "street": "108 S MAIN ST", "postcode": "29718"}}},
{"geometry": {"type": "Point", "coordinates": [-80.3886343711, 34.6527365519]}, "type": "Feature", "properties": {"collection_times": [{"days": "Mon-Fri", "time": "4:30pm"}, {"days": "Sat", "time": "9:45am"}, {"days": "Sun", "time": "Closed"}], "id": "2971800005", "name": "USPS COLLECTION BOX - PO LOBBY", "address": {"city": "JEFFERSON", "state": "SC", "street": "108 S MAIN ST", "postcode": "29718"}}},
{"geometry": {"type": "Point", "coordinates": [-80.7733000748, 34.724579113]}, "type": "Feature", "properties": {"collection_times": [{"days": "Mon-Fri", "time": "5:00pm"}, {"days": "Sat", "time": "1:00pm"}, {"days": "Sun", "time": "Closed"}], "id": "2972000003", "name": "USPS COLLECTION BOX - BLUE BOX", "address": {"city": "LANCASTER", "state": "SC", "street": "501 N MAIN ST", "postcode": "29720"}}},
{"geometry": {"type": "Point", "coordinates": [-80.7733000748, 34.724579113]}, "type": "Feature", "properties": {"collection_times": [{"days": "Mon-Fri", "time": "5:00pm"}, {"days": "Sat", "time": "1:00pm"}, {"days": "Sun", "time": "Closed"}], "id": "2972000004", "name": "USPS COLLECTION BOX - BLUE BOX", "address": {"city": "LANCASTER", "state": "SC", "street": "501 N MAIN ST", "postcode": "29720"}}},
{"geometry": {"type": "Point", "coordinates": [-80.7733000748, 34.724579113]}, "type": "Feature", "properties": {"collection_times": [{"days": "Mon-Fri", "time": "5:00pm"}, {"days": "Sat", "time": "1:00pm"}, {"days": "Sun", "time": "Closed"}], "id": "2972000005", "name": "USPS COLLECTION BOX - BLUE BOX", "address": {"city": "LANCASTER", "state": "SC", "street": "501 N MAIN ST", "postcode": "29720"}}},
{"geometry": {"type": "Point", "coordinates": [-80.7868393615, 34.716962358]}, "type": "Feature", "properties": {"collection_times": [{"days": "Mon-Fri", "time": "2:30pm"}, {"days": "Sat", "time": "1:00pm"}, {"days": "Sun", "time": "Closed"}], "id": "2972000011", "name": "USPS COLLECTION BOX - BLUE BOX", "address": {"city": "LANCASTER", "state": "SC", "street": "800 W MEETING ST", "postcode": "29720"}}},
{"geometry": {"type": "Point", "coordinates": [-80.7758560001, 34.7292143259]}, "type": "Feature", "properties": {"collection_times": [{"days": "Mon-Fri", "time": "2:30pm"}, {"days": "Sat", "time": "1:00pm"}, {"days": "Sun", "time": "Closed"}], "id": "2972000014", "name": "USPS COLLECTION BOX - BLUE BOX", "address": {"city": "LANCASTER", "state": "SC", "street": "929 N MAIN ST", "postcode": "29720"}}},
{"geometry": {"type": "Point", "coordinates": [-80.7942685734, 34.7150546194]}, "type": "Feature", "properties": {"collection_times": [{"days": "Mon-Fri", "time": "2:30pm"}, {"days": "Sat", "time": "1:00pm"}, {"days": "Sun", "time": "Closed"}], "id": "2972000017", "name": "USPS COLLECTION BOX - BLUE BOX", "address": {"city": "LANCASTER", "state": "SC", "street": "1020 W MEETING ST", "postcode": "29720"}}},
{"geometry": {"type": "Point", "coordinates": [-80.7733000748, 34.7245791127]}, "type": "Feature", "properties": {"collection_times": [{"days": "Mon-Fri", "time": "5:00pm"}, {"days": "Sat", "time": "1:00pm"}, {"days": "Sun", "time": "Closed"}], "id": "2972000021", "name": "USPS COLLECTION BOX - PO LOBBY", "address": {"city": "LANCASTER", "state": "SC", "street": "501 N MAIN ST", "postcode": "29720"}}},
{"geometry": {"type": "Point", "coordinates": [-80.7733000748, 34.724579113]}, "type": "Feature", "properties": {"collection_times": [{"days": "Mon-Fri", "time": "5:00pm"}, {"days": "Sat", "time": "1:00pm"}, {"days": "Sun", "time": "Closed"}], "id": "2972000022", "name": "USPS COLLECTION BOX - PO LOBBY", "address": {"city": "LANCASTER", "state": "SC", "street": "501 N MAIN ST", "postcode": "29720"}}},
{"geometry": {"type": "Point", "coordinates": [-80.768016901, 34.7041360008]}, "type": "Feature", "properties": {"collection_times": [{"days": "Mon-Fri", "time": "2:30pm"}, {"days": "Sat", "time": "1:00pm"}, {"days": "Sun", "time": "Closed"}], "id": "2972000024", "name": "USPS COLLECTION BOX - BLUE BOX", "address": {"city": "LANCASTER", "state": "SC", "street": "1831 GREAT FALLS RD", "postcode": "29720"}}},
{"geometry": {"type": "Point", "coordinates": [-81.2268359698, 34.8692382282]}, "type": "Feature", "properties": {"collection_times": [{"days": "Mon-Fri", "time": "4:15pm"}, {"days": "Sat", "time": "10:00am"}, {"days": "Sun", "time": "Closed"}], "id": "2972600001", "name": "USPS COLLECTION BOX - BLUE BOX", "address": {"city": "MC CONNELLS", "state": "SC", "street": "4182 CHESTER HWY", "postcode": "29726"}}},
{"geometry": {"type": "Point", "coordinates": [-81.2268359698, 34.8692382282]}, "type": "Feature", "properties": {"collection_times": [{"days": "Mon-Fri", "time": "4:15pm"}, {"days": "Sat", "time": "10:00am"}, {"days": "Sun", "time": "Closed"}], "id": "2972600002", "name": "USPS COLLECTION BOX - PO LOBBY", "address": {"city": "MC CONNELLS", "state": "SC", "street": "4182 CHESTER HWY", "postcode": "29726"}}},
{"geometry": {"type": "Point", "coordinates": [-80.2260889295, 34.7701123756]}, "type": "Feature", "properties": {"collection_times": [{"days": "Mon-Fri", "time": "4:30pm"}, {"days": "Sat", "time": "10:00am"}, {"days": "Sun", "time": "Closed"}], "id": "2972700003", "name": "USPS COLLECTION BOX - BLUE BOX", "address": {"city": "MOUNT CROGHAN", "state": "SC", "street": "6 CAMDEN RD", "postcode": "29727"}}},
{"geometry": {"type": "Point", "coordinates": [-80.2260889294, 34.7701123752]}, "type": "Feature", "properties": {"collection_times": [{"days": "Mon-Fri", "time": "4:30pm"}, {"days": "Sat", "time": "10:00am"}, {"days": "Sun", "time": "Closed"}], "id": "2972700004", "name": "USPS COLLECTION BOX - PO LOBBY", "address": {"city": "MOUNT CROGHAN", "state": "SC", "street": "6 CAMDEN RD", "postcode": "29727"}}},
{"geometry": {"type": "Point", "coordinates": [-80.2260889295, 34.7701123756]}, "type": "Feature", "properties": {"collection_times": [{"days": "Mon-Fri", "time": "4:30pm"}, {"days": "Sat", "time": "10:00am"}, {"days": "Sun", "time": "Closed"}], "id": "2972700005", "name": "USPS COLLECTION BOX - PO LOBBY", "address": {"city": "MOUNT CROGHAN", "state": "SC", "street": "6 CAMDEN RD", "postcode": "29727"}}},
{"geometry": {"type": "Point", "coordinates": [-80.3919109934, 34.7734560056]}, "type": "Feature", "properties": {"collection_times": [{"days": "Mon-Fri", "time": "4:45pm"}, {"days": "Sat", "time": "12:00pm"}, {"days": "Sun", "time": "Closed"}], "id": "2972800003", "name": "USPS COLLECTION BOX - BLUE BOX", "address": {"city": "PAGELAND", "state": "SC", "street": "207 N PEARL ST", "postcode": "29728"}}},
{"geometry": {"type": "Point", "coordinates": [-80.3919109932, 34.773456006]}, "type": "Feature", "properties": {"collection_times": [{"days": "Mon-Fri", "time": "4:45pm"}, {"days": "Sat", "time": "12:00pm"}, {"days": "Sun", "time": "Closed"}], "id": "2972800004", "name": "USPS COLLECTION BOX - PO LOBBY", "address": {"city": "PAGELAND", "state": "SC", "street": "207 N PEARL ST", "postcode": "29728"}}},
{"geometry": {"type": "Point", "coordinates": [-80.3919109934, 34.7734560056]}, "type": "Feature", "properties": {"collection_times": [{"days": "Mon-Fri", "time": "4:45pm"}, {"days": "Sat", "time": "12:00pm"}, {"days": "Sun", "time": "Closed"}], "id": "2972800005", "name": "USPS COLLECTION BOX - PO LOBBY", "address": {"city": "PAGELAND", "state": "SC", "street": "207 N PEARL ST", "postcode": "29728"}}},
{"geometry": {"type": "Point", "coordinates": [-81.0178445994, 34.7169279706]}, "type": "Feature", "properties": {"collection_times": [{"days": "Mon-Fri", "time": "3:45pm"}, {"days": "Sat", "time": "10:45am"}, {"days": "Sun", "time": "Closed"}], "id": "2972900002", "name": "USPS COLLECTION BOX - BLUE BOX", "address": {"city": "RICHBURG", "state": "SC", "street": "109 BROAD ST", "postcode": "29729"}}},
{"geometry": {"type": "Point", "coordinates": [-81.0178445997, 34.7169279704]}, "type": "Feature", "properties": {"collection_times": [{"days": "Mon-Fri", "time": "3:45pm"}, {"days": "Sat", "time": "10:45am"}, {"days": "Sun", "time": "Closed"}], "id": "2972900003", "name": "USPS COLLECTION BOX - PO LOBBY", "address": {"city": "RICHBURG", "state": "SC", "street": "109 BROAD ST", "postcode": "29729"}}},
{"geometry": {"type": "Point", "coordinates": [-81.0178445994, 34.7169279706]}, "type": "Feature", "properties": {"collection_times": [{"days": "Mon-Fri", "time": "3:45pm"}, {"days": "Sat", "time": "10:45am"}, {"days": "Sun", "time": "Closed"}], "id": "2972900004", "name": "USPS COLLECTION BOX - PO LOBBY", "address": {"city": "RICHBURG", "state": "SC", "street": "109 BROAD ST", "postcode": "29729"}}},
{"geometry": {"type": "Point", "coordinates": [-80.9657238034, 34.9405103228]}, "type": "Feature", "properties": {"collection_times": [{"days": "Mon-Fri", "time": "1:00pm"}, {"days": "Sat-Sun", "time": "Closed"}], "id": "2973000001", "name": "USPS COLLECTION BOX - BLUE BOX", "address": {"city": "ROCK HILL", "state": "SC", "street": "2251 DAVE LYLE BLVD", "postcode": "29730"}}},
{"geometry": {"type": "Point", "coordinates": [-80.9657238034, 34.9405103228]}, "type": "Feature", "properties": {"collection_times": [{"days": "Mon-Fri", "time": "1:00pm"}, {"days": "Sat-Sun", "time": "Closed"}], "id": "2973000002", "name": "USPS COLLECTION BOX - BLUE BOX", "address": {"city": "ROCK HILL", "state": "SC", "street": "2251 DAVE LYLE BLVD", "postcode": "29730"}}},
{"geometry": {"type": "Point", "coordinates": [-81.0319576267, 34.9272549845]}, "type": "Feature", "properties": {"collection_times": [{"days": "Mon-Fri", "time": "5:00pm"}, {"days": "Sat", "time": "3:00pm"}, {"days": "Sun", "time": "Closed"}], "id": "2973000008", "name": "USPS COLLECTION BOX - BLUE BOX", "address": {"city": "ROCK HILL", "state": "SC", "street": "206 S WILSON ST", "postcode": "29730"}}},
{"geometry": {"type": "Point", "coordinates": [-81.0319576267, 34.9272549845]}, "type": "Feature", "properties": {"collection_times": [{"days": "Mon-Fri", "time": "5:00pm"}, {"days": "Sat", "time": "3:00pm"}, {"days": "Sun", "time": "Closed"}], "id": "2973000009", "name": "USPS COLLECTION BOX - BLUE BOX", "address": {"city": "ROCK HILL", "state": "SC", "street": "206 S WILSON ST", "postcode": "29730"}}},
{"geometry": {"type": "Point", "coordinates": [-81.0103563169, 34.9160637907]}, "type": "Feature", "properties": {"collection_times": [{"days": "Mon-Fri", "time": "1:00pm"}, {"days": "Sat-Sun", "time": "Closed"}], "id": "2973000023", "name": "USPS COLLECTION BOX - BLUE BOX", "address": {"city": "ROCK HILL", "state": "SC", "street": "500 HUEY RD", "postcode": "29730"}}},
{"geometry": {"type": "Point", "coordinates": [-80.9980702859, 34.9327685134]}, "type": "Feature", "properties": {"collection_times": [{"days": "Mon-Fri", "time": "1:00pm"}, {"days": "Sat-Sun", "time": "Closed"}], "id": "2973000024", "name": "USPS COLLECTION BOX - BLUE BOX", "address": {"city": "ROCK HILL", "state": "SC", "street": "452 LAKESHORE PKWY", "postcode": "29730"}}},
{"geometry": {"type": "Point", "coordinates": [-80.9964885302, 34.9354343282]}, "type": "Feature", "properties": {"collection_times": [{"days": "Mon-Fri", "time": "1:00pm"}, {"days": "Sat-Sun", "time": "Closed"}], "id": "2973000025", "name": "USPS COLLECTION BOX - BLUE BOX", "address": {"city": "ROCK HILL", "state": "SC", "street": "454 ANDERSON RD S", "postcode": "29730"}}},
{"geometry": {"type": "Point", "coordinates": [-81.0249498269, 34.9317268525]}, "type": "Feature", "properties": {"collection_times": [{"days": "Mon-Fri", "time": "1:00pm"}, {"days": "Sat-Sun", "time": "Closed"}], "id": "2973000044", "name": "USPS COLLECTION BOX - BLUE BOX", "address": {"city": "ROCK HILL", "state": "SC", "street": "201 OAKLAND AVE", "postcode": "29730"}}},
{"geometry": {"type": "Point", "coordinates": [-80.9964885302, 34.9354343282]}, "type": "Feature", "properties": {"collection_times": [{"days": "Mon-Fri", "time": "1:00pm"}, {"days": "Sat-Sun", "time": "Closed"}], "id": "2973000054", "name": "USPS COLLECTION BOX - BLUE BOX", "address": {"city": "ROCK HILL", "state": "SC", "street": "454 ANDERSON RD S", "postcode": "29730"}}},
{"geometry": {"type": "Point", "coordinates": [-81.0255247997, 34.9247191832]}, "type": "Feature", "properties": {"collection_times": [{"days": "Mon-Fri", "time": "1:00pm"}, {"days": "Sat-Sun", "time": "Closed"}], "id": "2973000061", "name": "USPS COLLECTION BOX - BLUE BOX", "address": {"city": "ROCK HILL", "state": "SC", "street": "215 E MAIN ST", "postcode": "29730"}}},
{"geometry": {"type": "Point", "coordinates": [-80.992890456, 34.9693792534]}, "type": "Feature", "properties": {"collection_times": [{"days": "Mon-Fri", "time": "1:00pm"}, {"days": "Sat-Sun", "time": "Closed"}], "id": "2973000076", "name": "USPS COLLECTION BOX - BLUE BOX", "address": {"city": "ROCK HILL", "state": "SC", "street": "2431 CHERRY RD", "postcode": "29730"}}},
{"geometry": {"type": "Point", "coordinates": [-81.0276597747, 34.9446049526]}, "type": "Feature", "properties": {"collection_times": [{"days": "Mon-Fri", "time": "5:00pm"}, {"days": "Sat", "time": "3:00pm"}, {"days": "Sun", "time": "Closed"}], "id": "2973000080", "name": "USPS COLLECTION BOX - BLUE BOX", "address": {"city": "ROCK HILL", "state": "SC", "street": "725 CHERRY RD", "postcode": "29730"}}},
{"geometry": {"type": "Point", "coordinates": [-81.0276597747, 34.9446049526]}, "type": "Feature", "properties": {"collection_times": [{"days": "Mon-Fri", "time": "5:00pm"}, {"days": "Sat", "time": "3:00pm"}, {"days": "Sun", "time": "Closed"}], "id": "2973000081", "name": "USPS COLLECTION BOX - BLUE BOX", "address": {"city": "ROCK HILL", "state": "SC", "street": "725 CHERRY RD", "postcode": "29730"}}},
{"geometry": {"type": "Point", "coordinates": [-81.0596867126, 34.9367611884]}, "type": "Feature", "properties": {"collection_times": [{"days": "Mon-Fri", "time": "1:00pm"}, {"days": "Sat-Sun", "time": "Closed"}], "id": "2973000082", "name": "USPS COLLECTION BOX - BLUE BOX", "address": {"city": "ROCK HILL", "state": "SC", "street": "1070 HECKLE BLVD", "postcode": "29730"}}},
{"geometry": {"type": "Point", "coordinates": [-81.0510920081, 34.9552416601]}, "type": "Feature", "properties": {"collection_times": [{"days": "Mon-Fri", "time": "1:00pm"}, {"days": "Sat-Sun", "time": "Closed"}], "id": "2973000083", "name": "USPS COLLECTION BOX - BLUE BOX", "address": {"city": "ROCK HILL", "state": "SC", "street": "222 S HERLONG AVE", "postcode": "29730"}}},
{"geometry": {"type": "Point", "coordinates": [-81.0293269588, 34.9713208532]}, "type": "Feature", "properties": {"collection_times": [{"days": "Mon-Fri", "time": "1:00pm"}, {"days": "Sat-Sun", "time": "Closed"}], "id": "2973000084", "name": "USPS COLLECTION BOX - BLUE BOX", "address": {"city": "ROCK HILL", "state": "SC", "street": "2210 INDIA HOOK RD", "postcode": "29730"}}},
{"geometry": {"type": "Point", "coordinates": [-81.0652486193, 34.977807664]}, "type": "Feature", "properties": {"collection_times": [{"days": "Mon-Fri", "time": "1:00pm"}, {"days": "Sat-Sun", "time": "Closed"}], "id": "2973000086", "name": "USPS COLLECTION BOX - BLUE BOX", "address": {"city": "ROCK HILL", "state": "SC", "street": "4124 CELANESE RD", "postcode": "29730"}}},
{"geometry": {"type": "Point", "coordinates": [-81.0276597747, 34.9446049526]}, "type": "Feature", "properties": {"collection_times": [{"days": "Mon-Fri", "time": "5:00pm"}, {"days": "Sat", "time": "3:00pm"}, {"days": "Sun", "time": "Closed"}], "id": "2973000087", "name": "USPS COLLECTION BOX - BLUE BOX", "address": {"city": "ROCK HILL", "state": "SC", "street": "725 CHERRY RD", "postcode": "29730"}}},
{"geometry": {"type": "Point", "coordinates": [-81.0276597747, 34.9446049526]}, "type": "Feature", "properties": {"collection_times": [{"days": "Mon-Fri", "time": "5:00pm"}, {"days": "Sat", "time": "3:00pm"}, {"days": "Sun", "time": "Closed"}], "id": "2973000088", "name": "USPS COLLECTION BOX - BLUE BOX", "address": {"city": "ROCK HILL", "state": "SC", "street": "725 CHERRY RD", "postcode": "29730"}}},
{"geometry": {"type": "Point", "coordinates": [-81.0020399918, 34.962641363]}, "type": "Feature", "properties": {"collection_times": [{"days": "Mon-Fri", "time": "1:00pm"}, {"days": "Sat-Sun", "time": "Closed"}], "id": "2973000089", "name": "USPS COLLECTION BOX - BLUE BOX", "address": {"city": "ROCK HILL", "state": "SC", "street": "2030 CHERRY RD", "postcode": "29730"}}},
{"geometry": {"type": "Point", "coordinates": [-81.0467387481, 34.9575224557]}, "type": "Feature", "properties": {"collection_times": [{"days": "Mon-Fri", "time": "1:00pm"}, {"days": "Sat-Sun", "time": "Closed"}], "id": "2973000090", "name": "USPS COLLECTION BOX - BLUE BOX", "address": {"city": "ROCK HILL", "state": "SC", "street": "1720 EBENEZER RD", "postcode": "29730"}}},
{"geometry": {"type": "Point", "coordinates": [-81.0103563169, 34.9160637907]}, "type": "Feature", "properties": {"collection_times": [{"days": "Mon-Fri", "time": "1:00pm"}, {"days": "Sat-Sun", "time": "Closed"}], "id": "2973000091", "name": "USPS COLLECTION BOX - BLUE BOX", "address": {"city": "ROCK HILL", "state": "SC", "street": "1681 CEDAR LINE DR", "postcode": "29730"}}},
{"geometry": {"type": "Point", "coordinates": [-81.0023267664, 34.9355949]}, "type": "Feature", "properties": {"collection_times": [{"days": "Mon-Fri", "time": "1:00pm"}, {"days": "Sat-Sun", "time": "Closed"}], "id": "2973000092", "name": "USPS COLLECTION BOX - BLUE BOX", "address": {"city": "ROCK HILL", "state": "SC", "street": "226 NORTHPARK DR", "postcode": "29730"}}},
{"geometry": {"type": "Point", "coordinates": [-81.0103563169, 34.9160637907]}, "type": "Feature", "properties": {"collection_times": [{"days": "Mon-Fri", "time": "5:00pm"}, {"days": "Sat", "time": "3:00pm"}, {"days": "Sun", "time": "Closed"}], "id": "2973000108", "name": "USPS COLLECTION BOX - PO LOBBY", "address": {"city": "ROCK HILL", "state": "SC", "street": "206 S WILSON ST", "postcode": "29730"}}},
{"geometry": {"type": "Point", "coordinates": [-81.0319576267, 34.9272549845]}, "type": "Feature", "properties": {"collection_times": [{"days": "Mon-Fri", "time": "5:00pm"}, {"days": "Sat", "time": "3:00pm"}, {"days": "Sun", "time": "Closed"}], "id": "2973000109", "name": "USPS COLLECTION BOX - PO LOBBY", "address": {"city": "ROCK HILL", "state": "SC", "street": "206 S WILSON ST", "postcode": "29730"}}},
{"geometry": {"type": "Point", "coordinates": [-81.0319576267, 34.9272549845]}, "type": "Feature", "properties": {"collection_times": [{"days": "Mon-Fri", "time": "5:00pm"}, {"days": "Sat", "time": "3:00pm"}, {"days": "Sun", "time": "Closed"}], "id": "2973000110", "name": "USPS COLLECTION BOX - PO LOBBY", "address": {"city": "ROCK HILL", "state": "SC", "street": "206 S WILSON ST", "postcode": "29730"}}},
{"geometry": {"type": "Point", "coordinates": [-81.0528794881, 34.9687428215]}, "type": "Feature", "properties": {"collection_times": [{"days": "Mon-Fri", "time": "5:00pm"}, {"days": "Sat", "time": "3:00pm"}, {"days": "Sun", "time": "Closed"}], "id": "2973000111", "name": "USPS COLLECTION BOX - BLUE BOX", "address": {"city": "ROCK HILL", "state": "SC", "street": "2191 EBENEZER RD", "postcode": "29730"}}},
{"geometry": {"type": "Point", "coordinates": [-81.0528794881, 34.9687428215]}, "type": "Feature", "properties": {"collection_times": [{"days": "Mon-Fri", "time": "5:00pm"}, {"days": "Sat", "time": "3:00pm"}, {"days": "Sun", "time": "Closed"}], "id": "2973000112", "name": "USPS COLLECTION BOX - BLUE BOX", "address": {"city": "ROCK HILL", "state": "SC", "street": "2191 EBENEZER RD", "postcode": "29730"}}},
{"geometry": {"type": "Point", "coordinates": [-81.0528794881, 34.9687428215]}, "type": "Feature", "properties": {"collection_times": [{"days": "Mon-Fri", "time": "5:00pm"}, {"days": "Sat", "time": "3:00pm"}, {"days": "Sun", "time": "Closed"}], "id": "2973000113", "name": "USPS COLLECTION BOX - BLUE BOX", "address": {"city": "ROCK HILL", "state": "SC", "street": "2191 EBENEZER RD", "postcode": "29730"}}},
{"geometry": {"type": "Point", "coordinates": [-81.0276597747, 34.9446049526]}, "type": "Feature", "properties": {"collection_times": [{"days": "Mon-Fri", "time": "5:00pm"}, {"days": "Sat-Sun", "time": "Closed"}], "id": "2973000114", "name": "USPS COLLECTION BOX - PO LOBBY", "address": {"city": "ROCK HILL", "state": "SC", "street": "725 CHERRY RD", "postcode": "29730"}}},
{"geometry": {"type": "Point", "coordinates": [-81.0276597747, 34.9446049526]}, "type": "Feature", "properties": {"collection_times": [{"days": "Mon-Fri", "time": "5:00pm"}, {"days": "Sat-Sun", "time": "Closed"}], "id": "2973000115", "name": "USPS COLLECTION BOX - PO LOBBY", "address": {"city": "ROCK HILL", "state": "SC", "street": "725 CHERRY RD", "postcode": "29730"}}},
{"geometry": {"type": "Point", "coordinates": [-81.0276597747, 34.9446049526]}, "type": "Feature", "properties": {"collection_times": [{"days": "Mon-Fri", "time": "5:00pm"}, {"days": "Sat-Sun", "time": "Closed"}], "id": "2973000116", "name": "USPS COLLECTION BOX - PO LOBBY", "address": {"city": "ROCK HILL", "state": "SC", "street": "725 CHERRY RD", "postcode": "29730"}}},
{"geometry": {"type": "Point", "coordinates": [-81.0528794878, 34.9687428215]}, "type": "Feature", "properties": {"collection_times": [{"days": "Mon-Fri", "time": "5:00pm"}, {"days": "Sat", "time": "3:00pm"}, {"days": "Sun", "time": "Closed"}], "id": "2973200023", "name": "USPS COLLECTION BOX - PO LOBBY", "address": {"city": "ROCK HILL", "state": "SC", "street": "2191 EBENEZER RD", "postcode": "29732"}}},
{"geometry": {"type": "Point", "coordinates": [-81.0528794881, 34.9687428215]}, "type": "Feature", "properties": {"collection_times": [{"days": "Mon-Fri", "time": "5:00pm"}, {"days": "Sat", "time": "3:00pm"}, {"days": "Sun", "time": "Closed"}], "id": "2973200024", "name": "USPS COLLECTION BOX - PO LOBBY", "address": {"city": "ROCK HILL", "state": "SC", "street": "2191 EBENEZER RD", "postcode": "29732"}}},
{"geometry": {"type": "Point", "coordinates": [-81.3386397875, 34.9516514304]}, "type": "Feature", "properties": {"collection_times": [{"days": "Mon-Fri", "time": "4:30pm"}, {"days": "Sat", "time": "10:00am"}, {"days": "Sun", "time": "Closed"}], "id": "2974200001", "name": "USPS COLLECTION BOX - BLUE BOX", "address": {"city": "SHARON", "state": "SC", "street": "3311 N YORK ST", "postcode": "29742"}}},
{"geometry": {"type": "Point", "coordinates": [-81.3386397875, 34.9516514304]}, "type": "Feature", "properties": {"collection_times": [{"days": "Mon-Fri", "time": "4:30pm"}, {"days": "Sat", "time": "10:00am"}, {"days": "Sun", "time": "Closed"}], "id": "2974200002", "name": "USPS COLLECTION BOX - PO LOBBY", "address": {"city": "SHARON", "state": "SC", "street": "3311 N YORK ST", "postcode": "29742"}}},
{"geometry": {"type": "Point", "coordinates": [-81.4071977988, 35.0427350438]}, "type": "Feature", "properties": {"collection_times": [{"days": "Mon-Fri", "time": "4:00pm"}, {"days": "Sat", "time": "9:00am"}, {"days": "Sun", "time": "Closed"}], "id": "2974300002", "name": "USPS COLLECTION BOX - BLUE BOX", "address": {"city": "SMYRNA", "state": "SC", "street": "1021 MAIN ST", "postcode": "29743"}}},
{"geometry": {"type": "Point", "coordinates": [-80.8476221672, 34.8563225522]}, "type": "Feature", "properties": {"collection_times": [{"days": "Mon-Fri", "time": "4:30pm"}, {"days": "Sat", "time": "10:00am"}, {"days": "Sun", "time": "Closed"}], "id": "2974400003", "name": "USPS COLLECTION BOX - BLUE BOX", "address": {"city": "VAN WYCK", "state": "SC", "street": "5222 OLD HICKORY RD", "postcode": "29744"}}},
{"geometry": {"type": "Point", "coordinates": [-80.8476221672, 34.8563225522]}, "type": "Feature", "properties": {"collection_times": [{"days": "Mon-Fri", "time": "4:30pm"}, {"days": "Sat", "time": "10:00am"}, {"days": "Sun", "time": "Closed"}], "id": "2974400004", "name": "USPS COLLECTION BOX - PO LOBBY", "address": {"city": "VAN WYCK", "state": "SC", "street": "5222 OLD HICKORY  RD", "postcode": "29744"}}},
{"geometry": {"type": "Point", "coordinates": [-80.8476221672, 34.8563225522]}, "type": "Feature", "properties": {"collection_times": [{"days": "Mon-Fri", "time": "4:30pm"}, {"days": "Sat", "time": "10:00am"}, {"days": "Sun", "time": "Closed"}], "id": "2974400005", "name": "USPS COLLECTION BOX - PO LOBBY", "address": {"city": "VAN WYCK", "state": "SC", "street": "5222 OLD HICKORY RD", "postcode": "29744"}}},
{"geometry": {"type": "Point", "coordinates": [-81.2141378097, 34.9856606357]}, "type": "Feature", "properties": {"collection_times": [{"days": "Mon-Fri", "time": "5:00pm"}, {"days": "Sat", "time": "3:00pm"}, {"days": "Sun", "time": "Closed"}], "id": "2974500019", "name": "USPS COLLECTION BOX - BLUE BOX", "address": {"city": "YORK", "state": "SC", "street": "909 E LIBERTY ST", "postcode": "29745"}}},
{"geometry": {"type": "Point", "coordinates": [-81.2141378097, 34.9856606357]}, "type": "Feature", "properties": {"collection_times": [{"days": "Mon-Fri", "time": "5:00pm"}, {"days": "Sat", "time": "3:00pm"}, {"days": "Sun", "time": "Closed"}], "id": "2974500020", "name": "USPS COLLECTION BOX - BLUE BOX", "address": {"city": "YORK", "state": "SC", "street": "909 E LIBERTY ST", "postcode": "29745"}}},
{"geometry": {"type": "Point", "coordinates": [-81.2141378097, 34.9856606357]}, "type": "Feature", "properties": {"collection_times": [{"days": "Mon-Fri", "time": "5:00pm"}, {"days": "Sat", "time": "3:00pm"}, {"days": "Sun", "time": "Closed"}], "id": "2974500021", "name": "USPS COLLECTION BOX - BLUE BOX", "address": {"city": "YORK", "state": "SC", "street": "909 E LIBERTY ST", "postcode": "29745"}}},
{"geometry": {"type": "Point", "coordinates": [-81.2464072329, 34.9780942478]}, "type": "Feature", "properties": {"collection_times": [{"days": "Mon-Sat", "time": "9:00am"}, {"days": "Sun", "time": "Closed"}], "id": "2974500022", "name": "USPS COLLECTION BOX - BLUE BOX", "address": {"city": "YORK", "state": "SC", "street": "1131 US HIGHWAY 321 S", "postcode": "29745"}}},
{"geometry": {"type": "Point", "coordinates": [-81.2417233113, 34.9943643661]}, "type": "Feature", "properties": {"collection_times": [{"days": "Mon-Fri", "time": "10:00am"}, {"days": "Sat-Sun", "time": "Closed"}], "id": "2974500023", "name": "USPS COLLECTION BOX - BLUE BOX", "address": {"city": "YORK", "state": "SC", "street": "12 N CONGRESS ST", "postcode": "29745"}}},
{"geometry": {"type": "Point", "coordinates": [-81.2141378097, 34.9856606357]}, "type": "Feature", "properties": {"collection_times": [{"days": "Mon-Fri", "time": "5:00pm"}, {"days": "Sat", "time": "3:00pm"}, {"days": "Sun", "time": "Closed"}], "id": "2974500024", "name": "USPS COLLECTION BOX - PO LOBBY", "address": {"city": "YORK", "state": "SC", "street": "909 E LIBERTY ST", "postcode": "29745"}}},
{"geometry": {"type": "Point", "coordinates": [-81.2141378097, 34.9856606357]}, "type": "Feature", "properties": {"collection_times": [{"days": "Mon-Fri", "time": "5:00pm"}, {"days": "Sat", "time": "3:00pm"}, {"days": "Sun", "time": "Closed"}], "id": "2974500025", "name": "USPS COLLECTION BOX - PO LOBBY", "address": {"city": "YORK", "state": "SC", "street": "909 E LIBERTY ST", "postcode": "29745"}}},
{"geometry": {"type": "Point", "coordinates": [-81.2141378097, 34.9856606357]}, "type": "Feature", "properties": {"collection_times": [{"days": "Mon-Fri", "time": "5:00pm"}, {"days": "Sat", "time": "3:00pm"}, {"days": "Sun", "time": "Closed"}], "id": "2974500026", "name": "USPS COLLECTION BOX - PO LOBBY", "address": {"city": "YORK", "state": "SC", "street": "909 E LIBERTY ST", "postcode": "29745"}}}
]}
