{"type": "FeatureCollection", "features": [
{"geometry": {"type": "Point", "coordinates": [-81.7027679843, 33.577317932]}, "type": "Feature", "properties": {"collection_times": [{"days": "Mon-Fri", "time": "12:00pm"}, {"days": "Sat", "time": "4:30pm"}, {"days": "Sun", "time": "Closed"}], "id": "2980100003", "name": "USPS COLLECTION BOX - BLUE BOX", "address": {"city": "AIKEN", "state": "SC", "street": "1048 YORK ST NE", "postcode": "29801"}}},
{"geometry": {"type": "Point", "coordinates": [-81.6963021364, 33.5528260315]}, "type": "Feature", "properties": {"collection_times": [{"days": "Mon-Fri", "time": "5:00pm"}, {"days": "Sat", "time": "4:30pm"}, {"days": "Sun", "time": "Closed"}], "id": "2980100007", "name": "USPS COLLECTION BOX - BLUE BOX", "address": {"city": "AIKEN", "state": "SC", "street": "1555 RICHLAND AVE E", "postcode": "29801"}}},
{"geometry": {"type": "Point", "coordinates": [-81.765582056, 33.57695269]}, "type": "Feature", "properties": {"collection_times": [{"days": "Mon-Fri", "time": "4:15pm"}, {"days": "Sat", "time": "3:30pm"}, {"days": "Sun", "time": "Closed"}], "id": "2980100012", "name": "USPS COLLECTION BOX - BLUE BOX", "address": {"city": "AIKEN", "state": "SC", "street": "302 UNIVERSITY PKWY", "postcode": "29801"}}},
{"geometry": {"type": "Point", "coordinates": [-81.7649747055, 33.5794884028]}, "type": "Feature", "properties": {"collection_times": [{"days": "Mon-Fri", "time": "4:15pm"}, {"days": "Sat-Sun", "time": "Closed"}], "id": "2980100013", "name": "USPS COLLECTION BOX - BLUE BOX", "address": {"city": "AIKEN", "state": "SC", "street": "410 UNIVERSITY PKWY", "postcode": "29801"}}},
{"geometry": {"type": "Point", "coordinates": [-81.7403644521, 33.5655282799]}, "type": "Feature", "properties": {"collection_times": [{"days": "Mon-Fri", "time": "4:00pm"}, {"days": "Sat", "time": "3:30pm"}, {"days": "Sun", "time": "Closed"}], "id": "2980100016", "name": "USPS COLLECTION BOX - BLUE BOX", "address": {"city": "AIKEN", "state": "SC", "street": "1614 RICHLAND AVE W", "postcode": "29801"}}},
{"geometry": {"type": "Point", "coordinates": [-81.7246183239, 33.5570933388]}, "type": "Feature", "properties": {"collection_times": [{"days": "Mon-Sat", "time": "10:00am"}, {"days": "Sun", "time": "Closed"}], "id": "2980100018", "name": "USPS COLLECTION BOX - BLUE BOX", "address": {"city": "AIKEN", "state": "SC", "street": "319 LAURENS ST SW", "postcode": "29801"}}},
{"geometry": {"type": "Point", "coordinates": [-81.7002010703, 33.5347536466]}, "type": "Feature", "properties": {"collection_times": [{"days": "Mon-Fri", "time": "10:45am"}, {"days": "Sat", "time": "10:15am"}, {"days": "Sun", "time": "Closed"}], "id": "2980100020", "name": "USPS COLLECTION BOX - BLUE BOX", "address": {"city": "AIKEN", "state": "SC", "street": "200 PEBBLE LN", "postcode": "29801"}}},
{"geometry": {"type": "Point", "coordinates": [-81.7202655019, 33.5583669983]}, "type": "Feature", "properties": {"collection_times": [{"days": "Mon-Fri", "time": "5:00pm"}, {"days": "Sat", "time": "4:30pm"}, {"days": "Sun", "time": "Closed"}], "id": "2980100022", "name": "USPS COLLECTION BOX - BLUE BOX", "address": {"city": "AIKEN", "state": "SC", "street": "109 PARK AVE SE", "postcode": "29801"}}},
{"geometry": {"type": "Point", "coordinates": [-81.72345396, 33.5598754399]}, "type": "Feature", "properties": {"collection_times": [{"days": "Mon-Fri", "time": "5:00pm"}, {"days": "Sat", "time": "3:45pm"}, {"days": "Sun", "time": "Closed"}], "id": "2980100024", "name": "USPS COLLECTION BOX - BLUE BOX", "address": {"city": "AIKEN", "state": "SC", "street": "300 PARK AVE SW", "postcode": "29801"}}},
{"geometry": {"type": "Point", "coordinates": [-81.7229209947, 33.5610026776]}, "type": "Feature", "properties": {"collection_times": [{"days": "Mon-Fri", "time": "5:00pm"}, {"days": "Sat", "time": "3:45pm"}, {"days": "Sun", "time": "Closed"}], "id": "2980100026", "name": "USPS COLLECTION BOX - BLUE BOX", "address": {"city": "AIKEN", "state": "SC", "street": "135 LAURENS ST SW", "postcode": "29801"}}},
{"geometry": {"type": "Point", "coordinates": [-81.7222213754, 33.5617027025]}, "type": "Feature", "properties": {"collection_times": [{"days": "Mon-Sat", "time": "9:45am"}, {"days": "Sun", "time": "Closed"}], "id": "2980100028", "name": "USPS COLLECTION BOX - BLUE BOX", "address": {"city": "AIKEN", "state": "SC", "street": "100 LAURENS ST NW", "postcode": "29801"}}},
{"geometry": {"type": "Point", "coordinates": [-81.7169008396, 33.5623874228]}, "type": "Feature", "properties": {"collection_times": [{"days": "Mon-Fri", "time": "5:00pm"}, {"days": "Sat-Sun", "time": "Closed"}], "id": "2980100033", "name": "USPS COLLECTION BOX - BLUE BOX", "address": {"city": "AIKEN", "state": "SC", "street": "211 YORK ST NE", "postcode": "29801"}}},
{"geometry": {"type": "Point", "coordinates": [-81.7205296983, 33.5659770683]}, "type": "Feature", "properties": {"collection_times": [{"days": "Mon-Sat", "time": "5:00pm"}, {"days": "Sun", "time": "Closed"}], "id": "2980100034", "name": "USPS COLLECTION BOX - BLUE BOX", "address": {"city": "AIKEN", "state": "SC", "street": "307 LAURENS ST NW", "postcode": "29801"}}},
{"geometry": {"type": "Point", "coordinates": [-81.7205296983, 33.5659770683]}, "type": "Feature", "properties": {"collection_times": [{"days": "Mon-Sat", "time": "5:00pm"}, {"days": "Sun", "time": "Closed"}], "id": "2980100037", "name": "USPS COLLECTION BOX - BLUE BOX", "address": {"city": "AIKEN", "state": "SC", "street": "307 LAURENS ST NW", "postcode": "29801"}}},
{"geometry": {"type": "Point", "coordinates": [-81.7205296983, 33.5659770683]}, "type": "Feature", "properties": {"collection_times": [{"days": "Mon-Sat", "time": "5:00pm"}, {"days": "Sun", "time": "Closed"}], "id": "2980100042", "name": "USPS COLLECTION BOX - PO LOBBY", "address": {"city": "AIKEN", "state": "SC", "street": "307 LAURENS ST NW", "postcode": "29801"}}},
{"geometry": {"type": "Point", "coordinates": [-81.7611814699, 33.532227526]}, "type": "Feature", "properties": {"collection_times": [{"days": "Mon-Sat", "time": "1:45pm"}, {"days": "Sun", "time": "Closed"}], "id": "2980300001", "name": "USPS COLLECTION BOX - BLUE BOX", "address": {"city": "AIKEN", "state": "SC", "street": "1800 HUNTSMAN DR", "postcode": "29803"}}},
{"geometry": {"type": "Point", "coordinates": [-81.724597128, 33.5334164321]}, "type": "Feature", "properties": {"collection_times": [{"days": "Mon-Fri", "time": "4:45pm"}, {"days": "Sat", "time": "4:00pm"}, {"days": "Sun", "time": "Closed"}], "id": "2980300003", "name": "USPS COLLECTION BOX - BLUE BOX", "address": {"city": "AIKEN", "state": "SC", "street": "1521 WHISKEY RD", "postcode": "29803"}}},
{"geometry": {"type": "Point", "coordinates": [-81.7344281979, 33.5124293875]}, "type": "Feature", "properties": {"collection_times": [{"days": "Mon-Fri", "time": "5:00pm"}, {"days": "Sat", "time": "4:30pm"}, {"days": "Sun", "time": "Closed"}], "id": "2980300006", "name": "USPS COLLECTION BOX - BLUE BOX", "address": {"city": "AIKEN", "state": "SC", "street": "758 SILVER BLUFF RD", "postcode": "29803"}}},
{"geometry": {"type": "Point", "coordinates": [-81.7438747251, 33.5025143743]}, "type": "Feature", "properties": {"collection_times": [{"days": "Mon-Fri", "time": "5:00pm"}, {"days": "Sat-Sun", "time": "Closed"}], "id": "2980300007", "name": "USPS COLLECTION BOX - BLUE BOX", "address": {"city": "AIKEN", "state": "SC", "street": "1080 SILVER BLUFF RD", "postcode": "29803"}}},
{"geometry": {"type": "Point", "coordinates": [-81.7728643738, 33.4491617602]}, "type": "Feature", "properties": {"collection_times": [{"days": "Mon-Fri", "time": "5:00pm"}, {"days": "Sat-Sun", "time": "Closed"}], "id": "2980300015", "name": "USPS COLLECTION BOX - BLUE BOX", "address": {"city": "AIKEN", "state": "SC", "street": "2100 SILVER BLUFF RD", "postcode": "29803"}}},
{"geometry": {"type": "Point", "coordinates": [-81.7127022045, 33.5102854385]}, "type": "Feature", "properties": {"collection_times": [{"days": "Mon-Fri", "time": "4:45pm"}, {"days": "Sat", "time": "4:15pm"}, {"days": "Sun", "time": "Closed"}], "id": "2980300021", "name": "USPS COLLECTION BOX - BLUE BOX", "address": {"city": "AIKEN", "state": "SC", "street": "2441 WHISKEY RD", "postcode": "29803"}}},
{"geometry": {"type": "Point", "coordinates": [-81.7210607625, 33.5257171172]}, "type": "Feature", "properties": {"collection_times": [{"days": "Mon-Fri", "time": "5:00pm"}, {"days": "Sat", "time": "4:00pm"}, {"days": "Sun", "time": "Closed"}], "id": "2980300026", "name": "USPS COLLECTION BOX - BLUE BOX", "address": {"city": "AIKEN", "state": "SC", "street": "1795 WHISKEY RD", "postcode": "29803"}}},
{"geometry": {"type": "Point", "coordinates": [-81.7210607625, 33.5257171172]}, "type": "Feature", "properties": {"collection_times": [{"days": "Mon-Fri", "time": "5:00pm"}, {"days": "Sat", "time": "4:00pm"}, {"days": "Sun", "time": "Closed"}], "id": "2980300027", "name": "USPS COLLECTION BOX - BLUE BOX", "address": {"city": "AIKEN", "state": "SC", "street": "1795 WHISKEY RD", "postcode": "29803"}}},
{"geometry": {"type": "Point", "coordinates": [-81.7195364721, 33.5231932303]}, "type": "Feature", "properties": {"collection_times": [{"days": "Mon-Fri", "time": "4:45pm"}, {"days": "Sat", "time": "4:00pm"}, {"days": "Sun", "time": "Closed"}], "id": "2980300029", "name": "USPS COLLECTION BOX - BLUE BOX", "address": {"city": "AIKEN", "state": "SC", "street": "1909 WHISKEY RD", "postcode": "29803"}}},
{"geometry": {"type": "Point", "coordinates": [-81.7165761308, 33.4865004961]}, "type": "Feature", "properties": {"collection_times": [{"days": "Mon-Fri", "time": "4:45pm"}, {"days": "Sat", "time": "4:00pm"}, {"days": "Sun", "time": "Closed"}], "id": "2980300030", "name": "USPS COLLECTION BOX - BLUE BOX", "address": {"city": "AIKEN", "state": "SC", "street": "1909 WHISKEY RD", "postcode": "29803"}}},
{"geometry": {"type": "Point", "coordinates": [-81.7102478109, 33.5255641239]}, "type": "Feature", "properties": {"collection_times": [{"days": "Mon-Fri", "time": "4:45pm"}, {"days": "Sat-Sun", "time": "Closed"}], "id": "2980300031", "name": "USPS COLLECTION BOX - BLUE BOX", "address": {"city": "AIKEN", "state": "SC", "street": "1993 S CENTENNIAL AVE", "postcode": "29803"}}},
{"geometry": {"type": "Point", "coordinates": [-81.7344281979, 33.5124293875]}, "type": "Feature", "properties": {"collection_times": [{"days": "Mon-Fri", "time": "5:00pm"}, {"days": "Sat", "time": "4:30pm"}, {"days": "Sun", "time": "Closed"}], "id": "2980300032", "name": "USPS COLLECTION BOX - PO LOBBY", "address": {"city": "AIKEN", "state": "SC", "street": "758 SILVER BLUFF RD", "postcode": "29803"}}},
{"geometry": {"type": "Point", "coordinates": [-81.7166654607, 33.5178394145]}, "type": "Feature", "properties": {"collection_times": [{"days": "Mon-Fri", "time": "4:45pm"}, {"days": "Sat", "time": "4:15pm"}, {"days": "Sun", "time": "Closed"}], "id": "2980300037", "name": "USPS COLLECTION BOX - BLUE BOX", "address": {"city": "AIKEN", "state": "SC", "street": "2035 WHISKEY RD", "postcode": "29803"}}},
{"geometry": {"type": "Point", "coordinates": [-81.7166654607, 33.5178394145]}, "type": "Feature", "properties": {"collection_times": [{"days": "Mon-Fri", "time": "4:45pm"}, {"days": "Sat", "time": "4:15pm"}, {"days": "Sun", "time": "Closed"}], "id": "2980300038", "name": "USPS COLLECTION BOX - BLUE BOX", "address": {"city": "AIKEN", "state": "SC", "street": "2035 WHISKEY RD", "postcode": "29803"}}},
{"geometry": {"type": "Point", "coordinates": [-81.6856435477, 33.4265916479]}, "type": "Feature", "properties": {"collection_times": [{"days": "Mon-Fri", "time": "5:00pm"}, {"days": "Sat", "time": "12:15pm"}, {"days": "Sun", "time": "Closed"}], "id": "2980900003", "name": "USPS COLLECTION BOX - BLUE BOX", "address": {"city": "NEW ELLENTON", "state": "SC", "street": "518 MAIN ST N", "postcode": "29809"}}},
{"geometry": {"type": "Point", "coordinates": [-81.6856435477, 33.4265916479]}, "type": "Feature", "properties": {"collection_times": [{"days": "Mon-Fri", "time": "5:00pm"}, {"days": "Sat", "time": "12:15pm"}, {"days": "Sun", "time": "Closed"}], "id": "2980900005", "name": "USPS COLLECTION BOX - PO LOBBY", "address": {"city": "NEW ELLENTON", "state": "SC", "street": "518 MAIN ST N", "postcode": "29809"}}},
{"geometry": {"type": "Point", "coordinates": [-81.3100456642, 33.0092523553]}, "type": "Feature", "properties": {"collection_times": [{"days": "Mon-Fri", "time": "5:00pm"}, {"days": "Sat", "time": "11:30am"}, {"days": "Sun", "time": "Closed"}], "id": "2981000001", "name": "USPS COLLECTION BOX - BLUE BOX", "address": {"city": "ALLENDALE", "state": "SC", "street": "315 AUGUSTA HWY", "postcode": "29810"}}},
{"geometry": {"type": "Point", "coordinates": [-81.3100456642, 33.0092523553]}, "type": "Feature", "properties": {"collection_times": [{"days": "Mon-Fri", "time": "5:00pm"}, {"days": "Sat", "time": "11:30am"}, {"days": "Sun", "time": "Closed"}], "id": "2981000002", "name": "USPS COLLECTION BOX - BLUE BOX", "address": {"city": "ALLENDALE", "state": "SC", "street": "315 AUGUSTA HWY", "postcode": "29810"}}},
{"geometry": {"type": "Point", "coordinates": [-81.3100456642, 33.0092523553]}, "type": "Feature", "properties": {"collection_times": [{"days": "Mon-Fri", "time": "5:00pm"}, {"days": "Sat", "time": "11:30am"}, {"days": "Sun", "time": "Closed"}], "id": "2981000007", "name": "USPS COLLECTION BOX - PO LOBBY", "address": {"city": "ALLENDALE", "state": "SC", "street": "315 AUGUSTA HWY", "postcode": "29810"}}},
{"geometry": {"type": "Point", "coordinates": [-81.3100456642, 33.0092523553]}, "type": "Feature", "properties": {"collection_times": [{"days": "Mon-Fri", "time": "5:00pm"}, {"days": "Sat", "time": "11:30am"}, {"days": "Sun", "time": "Closed"}], "id": "2981000010", "name": "USPS COLLECTION BOX - BLUE BOX", "address": {"city": "ALLENDALE", "state": "SC", "street": "315 AUGUSTA HWY", "postcode": "29810"}}},
{"geometry": {"type": "Point", "coordinates": [-81.3645648913, 33.2436967543]}, "type": "Feature", "properties": {"collection_times": [{"days": "Mon-Fri", "time": "5:00pm"}, {"days": "Sat", "time": "3:45pm"}, {"days": "Sun", "time": "Closed"}], "id": "2981200003", "name": "USPS COLLECTION BOX - PO LOBBY", "address": {"city": "BARNWELL", "state": "SC", "street": "221 MAIN ST", "postcode": "29812"}}},
{"geometry": {"type": "Point", "coordinates": [-81.3645648913, 33.2436967543]}, "type": "Feature", "properties": {"collection_times": [{"days": "Mon-Fri", "time": "5:00pm"}, {"days": "Sat", "time": "3:45pm"}, {"days": "Sun", "time": "Closed"}], "id": "2981200008", "name": "USPS COLLECTION BOX - BLUE BOX", "address": {"city": "BARNWELL", "state": "SC", "street": "221 MAIN ST", "postcode": "29812"}}},
{"geometry": {"type": "Point", "coordinates": [-81.8917730747, 33.4969920196]}, "type": "Feature", "properties": {"collection_times": [{"days": "Mon-Fri", "time": "4:30pm"}, {"days": "Sat", "time": "11:30am"}, {"days": "Sun", "time": "Closed"}], "id": "2981600001", "name": "USPS COLLECTION BOX - BLUE BOX", "address": {"city": "BATH", "state": "SC", "street": "3880 AUGUSTA RD", "postcode": "29816"}}},
{"geometry": {"type": "Point", "coordinates": [-81.8917730747, 33.4969920196]}, "type": "Feature", "properties": {"collection_times": [{"days": "Mon-Fri", "time": "4:30pm"}, {"days": "Sat", "time": "11:30am"}, {"days": "Sun", "time": "Closed"}], "id": "2981600002", "name": "USPS COLLECTION BOX - PO LOBBY", "address": {"city": "BATH", "state": "SC", "street": "3880 AUGUSTA RD", "postcode": "29816"}}},
{"geometry": {"type": "Point", "coordinates": [-81.2683049196, 33.3547172828]}, "type": "Feature", "properties": {"collection_times": [{"days": "Mon-Fri", "time": "4:45pm"}, {"days": "Sat", "time": "12:00pm"}, {"days": "Sun", "time": "Closed"}], "id": "2981700001", "name": "USPS COLLECTION BOX - BLUE BOX", "address": {"city": "BLACKVILLE", "state": "SC", "street": "476 MAIN ST", "postcode": "29817"}}},
{"geometry": {"type": "Point", "coordinates": [-81.2683049196, 33.3547172828]}, "type": "Feature", "properties": {"collection_times": [{"days": "Mon-Fri", "time": "4:45pm"}, {"days": "Sat", "time": "12:00pm"}, {"days": "Sun", "time": "Closed"}], "id": "2981700003", "name": "USPS COLLECTION BOX - PO LOBBY", "address": {"city": "BLACKVILLE", "state": "SC", "street": "476 MAIN ST", "postcode": "29817"}}},
{"geometry": {"type": "Point", "coordinates": [-82.2335482194, 34.046753569]}, "type": "Feature", "properties": {"collection_times": [{"days": "Mon-Fri", "time": "4:00pm"}, {"days": "Sat", "time": "11:45am"}, {"days": "Sun", "time": "Closed"}], "id": "2981900001", "name": "USPS COLLECTION BOX - BLUE BOX", "address": {"city": "BRADLEY", "state": "SC", "street": "103 MILL ST", "postcode": "29819"}}},
{"geometry": {"type": "Point", "coordinates": [-82.2335482194, 34.046753569]}, "type": "Feature", "properties": {"collection_times": [{"days": "Mon-Fri", "time": "4:00pm"}, {"days": "Sat", "time": "11:45am"}, {"days": "Sun", "time": "Closed"}], "id": "2981900002", "name": "USPS COLLECTION BOX - PO LOBBY", "address": {"city": "BRADLEY", "state": "SC", "street": "103 MILL ST", "postcode": "29819"}}},
{"geometry": {"type": "Point", "coordinates": [-82.1055482769, 33.6272753187]}, "type": "Feature", "properties": {"collection_times": [{"days": "Mon-Fri", "time": "12:00pm"}, {"days": "Sat", "time": "11:00am"}, {"days": "Sun", "time": "Closed"}], "id": "2982100001", "name": "USPS COLLECTION BOX - BLUE BOX", "address": {"city": "CLARKS HILL", "state": "SC", "street": "13423 SC HIGHWAY 28", "postcode": "29821"}}},
{"geometry": {"type": "Point", "coordinates": [-82.1055482769, 33.6272753187]}, "type": "Feature", "properties": {"collection_times": [{"days": "Mon-Fri", "time": "12:00pm"}, {"days": "Sat", "time": "11:00am"}, {"days": "Sun", "time": "Closed"}], "id": "2982100002", "name": "USPS COLLECTION BOX - PO LOBBY", "address": {"city": "CLARKS HILL", "state": "SC", "street": "13423 SC HIGHWAY 28", "postcode": "29821"}}},
{"geometry": {"type": "Point", "coordinates": [-81.9096348928, 33.4988028699]}, "type": "Feature", "properties": {"collection_times": [{"days": "Mon-Fri", "time": "5:00pm"}, {"days": "Sat", "time": "12:00pm"}, {"days": "Sun", "time": "Closed"}], "id": "2982200001", "name": "USPS COLLECTION BOX - BLUE BOX", "address": {"city": "CLEARWATER", "state": "SC", "street": "4435 JEFFERSON DAVIS HWY", "postcode": "29822"}}},
{"geometry": {"type": "Point", "coordinates": [-81.9096348928, 33.4988028699]}, "type": "Feature", "properties": {"collection_times": [{"days": "Mon-Fri", "time": "5:00pm"}, {"days": "Sat", "time": "12:00pm"}, {"days": "Sun", "time": "Closed"}], "id": "2982200002", "name": "USPS COLLECTION BOX - BLUE BOX", "address": {"city": "CLEARWATER", "state": "SC", "street": "4435 JEFFERSON DAVIS HWY", "postcode": "29822"}}},
{"geometry": {"type": "Point", "coordinates": [-81.9096348928, 33.4988028699]}, "type": "Feature", "properties": {"collection_times": [{"days": "Mon-Fri", "time": "5:00pm"}, {"days": "Sat", "time": "12:00pm"}, {"days": "Sun", "time": "Closed"}], "id": "2982200004", "name": "USPS COLLECTION BOX - PO LOBBY", "address": {"city": "CLEARWATER", "state": "SC", "street": "4435 JEFFERSON DAVIS HWY", "postcode": "29822"}}},
{"geometry": {"type": "Point", "coordinates": [-81.9276947878, 33.7886340954]}, "type": "Feature", "properties": {"collection_times": [{"days": "Mon-Fri", "time": "5:00pm"}, {"days": "Sat", "time": "12:00pm"}, {"days": "Sun", "time": "Closed"}], "id": "2982400003", "name": "USPS COLLECTION BOX - BLUE BOX", "address": {"city": "EDGEFIELD", "state": "SC", "street": "325 BACON ST", "postcode": "29824"}}},
{"geometry": {"type": "Point", "coordinates": [-81.9291708969, 33.7893778845]}, "type": "Feature", "properties": {"collection_times": [{"days": "Mon-Fri", "time": "3:15pm"}, {"days": "Sat-Sun", "time": "Closed"}], "id": "2982400007", "name": "USPS COLLECTION BOX - BLUE BOX", "address": {"city": "EDGEFIELD", "state": "SC", "street": "129 COURTHOUSE SQ", "postcode": "29824"}}},
{"geometry": {"type": "Point", "coordinates": [-81.9276947878, 33.7886340954]}, "type": "Feature", "properties": {"collection_times": [{"days": "Mon-Fri", "time": "5:00pm"}, {"days": "Sat", "time": "12:00pm"}, {"days": "Sun", "time": "Closed"}], "id": "2982400008", "name": "USPS COLLECTION BOX - PO LOBBY", "address": {"city": "EDGEFIELD", "state": "SC", "street": "325 BACON ST", "postcode": "29824"}}},
{"geometry": {"type": "Point", "coordinates": [-81.4206773318, 33.4012042699]}, "type": "Feature", "properties": {"collection_times": [{"days": "Mon-Fri", "time": "12:30pm"}, {"days": "Sat", "time": "11:00am"}, {"days": "Sun", "time": "Closed"}], "id": "2982600001", "name": "USPS COLLECTION BOX - BLUE BOX", "address": {"city": "ELKO", "state": "SC", "street": "10049 US HIGHWAY 78", "postcode": "29826"}}},
{"geometry": {"type": "Point", "coordinates": [-81.4206773318, 33.4012042699]}, "type": "Feature", "properties": {"collection_times": [{"days": "Mon-Fri", "time": "12:30pm"}, {"days": "Sat", "time": "11:00am"}, {"days": "Sun", "time": "Closed"}], "id": "2982600002", "name": "USPS COLLECTION BOX - PO LOBBY", "address": {"city": "ELKO", "state": "SC", "street": "10049 US HIGHWAY 78", "postcode": "29826"}}},
{"geometry": {"type": "Point", "coordinates": [-81.2365896717, 32.9595441158]}, "type": "Feature", "properties": {"collection_times": [{"days": "Mon-Fri", "time": "4:30pm"}, {"days": "Sat", "time": "12:00pm"}, {"days": "Sun", "time": "Closed"}], "id": "2982700001", "name": "USPS COLLECTION BOX - BLUE BOX", "address": {"city": "FAIRFAX", "state": "SC", "street": "190 PICKENS AVE N", "postcode": "29827"}}},
{"geometry": {"type": "Point", "coordinates": [-81.2365896717, 32.9595441158]}, "type": "Feature", "properties": {"collection_times": [{"days": "Mon-Fri", "time": "4:30pm"}, {"days": "Sat", "time": "12:00pm"}, {"days": "Sun", "time": "Closed"}], "id": "2982700002", "name": "USPS COLLECTION BOX - BLUE BOX", "address": {"city": "FAIRFAX", "state": "SC", "street": "190 PICKENS AVE N", "postcode": "29827"}}},
{"geometry": {"type": "Point", "coordinates": [-81.2365896717, 32.9595441158]}, "type": "Feature", "properties": {"collection_times": [{"days": "Mon-Fri", "time": "4:30pm"}, {"days": "Sat", "time": "12:00pm"}, {"days": "Sun", "time": "Closed"}], "id": "2982700003", "name": "USPS COLLECTION BOX - PO LOBBY", "address": {"city": "FAIRFAX", "state": "SC", "street": "190 PICKENS AVE N", "postcode": "29827"}}},
{"geometry": {"type": "Point", "coordinates": [-81.8316384314, 33.5248809768]}, "type": "Feature", "properties": {"collection_times": [{"days": "Mon-Sat", "time": "12:00pm"}, {"days": "Sun", "time": "Closed"}], "id": "2982800001", "name": "USPS COLLECTION BOX - BLUE BOX", "address": {"city": "GLOVERVILLE", "state": "SC", "street": "2298 AUGUSTA RD", "postcode": "29828"}}},
{"geometry": {"type": "Point", "coordinates": [-81.8316384314, 33.5248809768]}, "type": "Feature", "properties": {"collection_times": [{"days": "Mon-Sat", "time": "12:00pm"}, {"days": "Sun", "time": "Closed"}], "id": "2982800002", "name": "USPS COLLECTION BOX - PO LOBBY", "address": {"city": "GLOVERVILLE", "state": "SC", "street": "2298 AUGUSTA RD", "postcode": "29828"}}},
{"geometry": {"type": "Point", "coordinates": [-81.8054667789, 33.5727375449]}, "type": "Feature", "properties": {"collection_times": [{"days": "Mon-Fri", "time": "4:30pm"}, {"days": "Sat", "time": "12:00pm"}, {"days": "Sun", "time": "Closed"}], "id": "2982900003", "name": "USPS COLLECTION BOX - BLUE BOX", "address": {"city": "GRANITEVILLE", "state": "SC", "street": "50 CANAL ST", "postcode": "29829"}}},
{"geometry": {"type": "Point", "coordinates": [-81.8054667789, 33.5727375449]}, "type": "Feature", "properties": {"collection_times": [{"days": "Mon-Fri", "time": "4:30pm"}, {"days": "Sat", "time": "12:00pm"}, {"days": "Sun", "time": "Closed"}], "id": "2982900004", "name": "USPS COLLECTION BOX - PO LOBBY", "address": {"city": "GRANITEVILLE", "state": "SC", "street": "50 CANAL ST", "postcode": "29829"}}},
{"geometry": {"type": "Point", "coordinates": [-81.7756206486, 33.3176829661]}, "type": "Feature", "properties": {"collection_times": [{"days": "Mon-Fri", "time": "5:00pm"}, {"days": "Sat", "time": "11:30am"}, {"days": "Sun", "time": "Closed"}], "id": "2983100001", "name": "USPS COLLECTION BOX - BLUE BOX", "address": {"city": "JACKSON", "state": "SC", "street": "100 MAIN ST", "postcode": "29831"}}},
{"geometry": {"type": "Point", "coordinates": [-81.7756206486, 33.3176829661]}, "type": "Feature", "properties": {"collection_times": [{"days": "Mon-Fri", "time": "5:00pm"}, {"days": "Sat", "time": "11:30am"}, {"days": "Sun", "time": "Closed"}], "id": "2983100002", "name": "USPS COLLECTION BOX - PO LOBBY", "address": {"city": "JACKSON", "state": "SC", "street": "100 MAIN ST", "postcode": "29831"}}},
{"geometry": {"type": "Point", "coordinates": [-81.8071316435, 33.8266228192]}, "type": "Feature", "properties": {"collection_times": [{"days": "Mon-Fri", "time": "4:30pm"}, {"days": "Sat", "time": "12:00pm"}, {"days": "Sun", "time": "Closed"}], "id": "2983200001", "name": "USPS COLLECTION BOX - BLUE BOX", "address": {"city": "JOHNSTON", "state": "SC", "street": "519 CALHOUN ST", "postcode": "29832"}}},
{"geometry": {"type": "Point", "coordinates": [-81.8071316435, 33.8266228192]}, "type": "Feature", "properties": {"collection_times": [{"days": "Mon-Fri", "time": "4:30pm"}, {"days": "Sat", "time": "12:00pm"}, {"days": "Sun", "time": "Closed"}], "id": "2983200002", "name": "USPS COLLECTION BOX - BLUE BOX", "address": {"city": "JOHNSTON", "state": "SC", "street": "519 CALHOUN ST", "postcode": "29832"}}},
{"geometry": {"type": "Point", "coordinates": [-81.8071316435, 33.8266228192]}, "type": "Feature", "properties": {"collection_times": [{"days": "Mon-Fri", "time": "4:30pm"}, {"days": "Sat", "time": "12:00pm"}, {"days": "Sun", "time": "Closed"}], "id": "2983200009", "name": "USPS COLLECTION BOX - PO LOBBY", "address": {"city": "JOHNSTON", "state": "SC", "street": "519 CALHOUN ST", "postcode": "29832"}}},
{"geometry": {"type": "Point", "coordinates": [-81.8433182495, 33.5182130196]}, "type": "Feature", "properties": {"collection_times": [{"days": "Mon-Fri", "time": "4:30pm"}, {"days": "Sat", "time": "12:00pm"}, {"days": "Sun", "time": "Closed"}], "id": "2983400001", "name": "USPS COLLECTION BOX - BLUE BOX", "address": {"city": "LANGLEY", "state": "SC", "street": "2748 AUGUSTA RD", "postcode": "29834"}}},
{"geometry": {"type": "Point", "coordinates": [-81.8433182495, 33.5182130196]}, "type": "Feature", "properties": {"collection_times": [{"days": "Mon-Fri", "time": "4:30pm"}, {"days": "Sat", "time": "12:00pm"}, {"days": "Sun", "time": "Closed"}], "id": "2983400002", "name": "USPS COLLECTION BOX - PO LOBBY", "address": {"city": "LANGLEY", "state": "SC", "street": "2748 AUGUSTA RD", "postcode": "29834"}}},
{"geometry": {"type": "Point", "coordinates": [-82.292625056, 33.9124976198]}, "type": "Feature", "properties": {"collection_times": [{"days": "Mon-Fri", "time": "4:45pm"}, {"days": "Sat", "time": "12:00pm"}, {"days": "Sun", "time": "Closed"}], "id": "2983500001", "name": "USPS COLLECTION BOX - BLUE BOX", "address": {"city": "MCCORMICK", "state": "SC", "street": "201 N PINE ST", "postcode": "29835"}}},
{"geometry": {"type": "Point", "coordinates": [-82.292625056, 33.9124976198]}, "type": "Feature", "properties": {"collection_times": [{"days": "Mon-Fri", "time": "4:45pm"}, {"days": "Sat", "time": "12:00pm"}, {"days": "Sun", "time": "Closed"}], "id": "2983500003", "name": "USPS COLLECTION BOX - PO LOBBY", "address": {"city": "MCCORMICK", "state": "SC", "street": "201 N PINE ST", "postcode": "29835"}}},
{"geometry": {"type": "Point", "coordinates": [-82.292625056, 33.9124976198]}, "type": "Feature", "properties": {"collection_times": [{"days": "Mon-Fri", "time": "4:45pm"}, {"days": "Sat", "time": "12:00pm"}, {"days": "Sun", "time": "Closed"}], "id": "2983500004", "name": "USPS COLLECTION BOX - BLUE BOX", "address": {"city": "MCCORMICK", "state": "SC", "street": "201 N PINE ST", "postcode": "29835"}}},
{"geometry": {"type": "Point", "coordinates": [-82.3965408329, 33.8963827907]}, "type": "Feature", "properties": {"collection_times": [{"days": "Mon-Sat", "time": "12:00pm"}, {"days": "Sun", "time": "Closed"}], "id": "2983500005", "name": "USPS COLLECTION BOX - BLUE BOX", "address": {"city": "MCCORMICK", "state": "SC", "street": "385 COUNTRY CLUB DR", "postcode": "29835"}}},
{"geometry": {"type": "Point", "coordinates": [-81.5111944247, 33.0983816969]}, "type": "Feature", "properties": {"collection_times": [{"days": "Mon-Fri", "time": "12:00pm"}, {"days": "Sat", "time": "11:15am"}, {"days": "Sun", "time": "Closed"}], "id": "2983600001", "name": "USPS COLLECTION BOX - BLUE BOX", "address": {"city": "MARTIN", "state": "SC", "street": "6545 AUGUSTA HWY", "postcode": "29836"}}},
{"geometry": {"type": "Point", "coordinates": [-81.5111944247, 33.0983816969]}, "type": "Feature", "properties": {"collection_times": [{"days": "Mon-Fri", "time": "11:45am"}, {"days": "Sat", "time": "11:15am"}, {"days": "Sun", "time": "Closed"}], "id": "2983600002", "name": "USPS COLLECTION BOX - PO LOBBY", "address": {"city": "MARTIN", "state": "SC", "street": "6545 AUGUSTA HWY", "postcode": "29836"}}},
{"geometry": {"type": "Point", "coordinates": [-82.1883857262, 33.6927465129]}, "type": "Feature", "properties": {"collection_times": [{"days": "Mon-Fri", "time": "4:15pm"}, {"days": "Sat", "time": "11:15am"}, {"days": "Sun", "time": "Closed"}], "id": "2983800001", "name": "USPS COLLECTION BOX - BLUE BOX", "address": {"city": "MODOC", "state": "SC", "street": "1 SC HIGHWAY 28", "postcode": "29838"}}},
{"geometry": {"type": "Point", "coordinates": [-82.1883857262, 33.6927465129]}, "type": "Feature", "properties": {"collection_times": [{"days": "Mon-Fri", "time": "4:15pm"}, {"days": "Sat", "time": "11:15am"}, {"days": "Sun", "time": "Closed"}], "id": "2983800002", "name": "USPS COLLECTION BOX - PO LOBBY", "address": {"city": "MODOC", "state": "SC", "street": "1 SC HIGHWAY 28", "postcode": "29838"}}},
{"geometry": {"type": "Point", "coordinates": [-81.6330520131, 33.5268116105]}, "type": "Feature", "properties": {"collection_times": [{"days": "Mon-Fri", "time": "4:30pm"}, {"days": "Sat", "time": "11:15am"}, {"days": "Sun", "time": "Closed"}], "id": "2983900001", "name": "USPS COLLECTION BOX - BLUE BOX", "address": {"city": "MONTMORENCI", "state": "SC", "street": "3053 CHARLESTON HWY", "postcode": "29839"}}},
{"geometry": {"type": "Point", "coordinates": [-81.6330520131, 33.5268116105]}, "type": "Feature", "properties": {"collection_times": [{"days": "Mon-Fri", "time": "4:30pm"}, {"days": "Sat", "time": "11:15am"}, {"days": "Sun", "time": "Closed"}], "id": "2983900002", "name": "USPS COLLECTION BOX - PO LOBBY", "address": {"city": "MONTMORENCI", "state": "SC", "street": "3053 CHARLESTON HWY", "postcode": "29839"}}},
{"geometry": {"type": "Point", "coordinates": [-82.4669760931, 33.9871587416]}, "type": "Feature", "properties": {"collection_times": [{"days": "Mon-Fri", "time": "3:45pm"}, {"days": "Sat", "time": "11:45am"}, {"days": "Sun", "time": "Closed"}], "id": "2984000001", "name": "USPS COLLECTION BOX - BLUE BOX", "address": {"city": "MOUNT CARMEL", "state": "SC", "street": "102 DEPOT ST", "postcode": "29840"}}},
{"geometry": {"type": "Point", "coordinates": [-82.4669760931, 33.9871587416]}, "type": "Feature", "properties": {"collection_times": [{"days": "Mon-Fri", "time": "12:15pm"}, {"days": "Sat", "time": "11:45am"}, {"days": "Sun", "time": "Closed"}], "id": "2984000002", "name": "USPS COLLECTION BOX - PO LOBBY", "address": {"city": "MOUNT CARMEL", "state": "SC", "street": "102 DEPOT ST", "postcode": "29840"}}},
{"geometry": {"type": "Point", "coordinates": [-81.9595581318, 33.4966651793]}, "type": "Feature", "properties": {"collection_times": [{"days": "Mon-Sat", "time": "3:45pm"}, {"days": "Sun", "time": "Closed"}], "id": "2984100001", "name": "USPS COLLECTION BOX - BLUE BOX", "address": {"city": "NORTH AUGUSTA", "state": "SC", "street": "342 E MARTINTOWN RD", "postcode": "29841"}}},
{"geometry": {"type": "Point", "coordinates": [-81.9592710313, 33.5020869888]}, "type": "Feature", "properties": {"collection_times": [{"days": "Mon-Sat", "time": "4:15pm"}, {"days": "Sun", "time": "Closed"}], "id": "2984100003", "name": "USPS COLLECTION BOX - BLUE BOX", "address": {"city": "NORTH AUGUSTA", "state": "SC", "street": "1284 KNOX AVE", "postcode": "29841"}}},
{"geometry": {"type": "Point", "coordinates": [-81.9491215423, 33.4862498375]}, "type": "Feature", "properties": {"collection_times": [{"days": "Mon-Sat", "time": "4:30pm"}, {"days": "Sun", "time": "Closed"}], "id": "2984100009", "name": "USPS COLLECTION BOX - BLUE BOX", "address": {"city": "NORTH AUGUSTA", "state": "SC", "street": "802 E MARTINTOWN RD", "postcode": "29841"}}},
{"geometry": {"type": "Point", "coordinates": [-81.9410308869, 33.5425882466]}, "type": "Feature", "properties": {"collection_times": [{"days": "Mon-Sat", "time": "4:15pm"}, {"days": "Sun", "time": "Closed"}], "id": "2984100017", "name": "USPS COLLECTION BOX - BLUE BOX", "address": {"city": "NORTH AUGUSTA", "state": "SC", "street": "610 EDGEFIELD RD", "postcode": "29841"}}},
{"geometry": {"type": "Point", "coordinates": [-81.9600450424, 33.4990775049]}, "type": "Feature", "properties": {"collection_times": [{"days": "Mon-Sat", "time": "4:30pm"}, {"days": "Sun", "time": "Closed"}], "id": "2984100019", "name": "USPS COLLECTION BOX - BLUE BOX", "address": {"city": "NORTH AUGUSTA", "state": "SC", "street": "1137 KNOX AVE", "postcode": "29841"}}},
{"geometry": {"type": "Point", "coordinates": [-81.9539197399, 33.5257487477]}, "type": "Feature", "properties": {"collection_times": [{"days": "Mon-Sat", "time": "4:15pm"}, {"days": "Sun", "time": "Closed"}], "id": "2984100020", "name": "USPS COLLECTION BOX - BLUE BOX", "address": {"city": "NORTH AUGUSTA", "state": "SC", "street": "179 EDGEWOOD SQ", "postcode": "29841"}}},
{"geometry": {"type": "Point", "coordinates": [-81.9735417386, 33.5093650503]}, "type": "Feature", "properties": {"collection_times": [{"days": "Mon-Sat", "time": "3:45pm"}, {"days": "Sun", "time": "Closed"}], "id": "2984100021", "name": "USPS COLLECTION BOX - BLUE BOX", "address": {"city": "NORTH AUGUSTA", "state": "SC", "street": "401 W MARTINTOWN RD", "postcode": "29841"}}},
{"geometry": {"type": "Point", "coordinates": [-81.9479259487, 33.5163506839]}, "type": "Feature", "properties": {"collection_times": [{"days": "Mon-Fri", "time": "5:00pm"}, {"days": "Sat", "time": "4:15pm"}, {"days": "Sun", "time": "Closed"}], "id": "2984100025", "name": "USPS COLLECTION BOX - PO LOBBY", "address": {"city": "NORTH AUGUSTA", "state": "SC", "street": "1450 GEORGIA AVE", "postcode": "29841"}}},
{"geometry": {"type": "Point", "coordinates": [-81.9701034415, 33.4959924324]}, "type": "Feature", "properties": {"collection_times": [{"days": "Mon-Sat", "time": "4:30pm"}, {"days": "Sun", "time": "Closed"}], "id": "2984100027", "name": "USPS COLLECTION BOX - BLUE BOX", "address": {"city": "NORTH AUGUSTA", "state": "SC", "street": "501 GEORGIA AVE", "postcode": "29841"}}},
{"geometry": {"type": "Point", "coordinates": [-81.9699162911, 33.4959004881]}, "type": "Feature", "properties": {"collection_times": [{"days": "Mon-Sat", "time": "4:30pm"}, {"days": "Sun", "time": "Closed"}], "id": "2984100028", "name": "USPS COLLECTION BOX - BLUE BOX", "address": {"city": "NORTH AUGUSTA", "state": "SC", "street": "500 GEORGIA AVE", "postcode": "29841"}}},
{"geometry": {"type": "Point", "coordinates": [-81.9479259487, 33.5163506839]}, "type": "Feature", "properties": {"collection_times": [{"days": "Mon-Sat", "time": "5:00pm"}, {"days": "Sun", "time": "Closed"}], "id": "2984100031", "name": "USPS COLLECTION BOX - BLUE BOX", "address": {"city": "NORTH AUGUSTA", "state": "SC", "street": "1450 GEORGIA AVE", "postcode": "29841"}}},
{"geometry": {"type": "Point", "coordinates": [-81.869246589, 33.4511626128]}, "type": "Feature", "properties": {"collection_times": [{"days": "Mon-Sat", "time": "3:30pm"}, {"days": "Sun", "time": "Closed"}], "id": "2984200000", "name": "USPS COLLECTION BOX - BLUE BOX", "address": {"city": "BEECH ISLAND", "state": "SC", "street": "257 BEECH ISLAND AVE", "postcode": "29842"}}},
{"geometry": {"type": "Point", "coordinates": [-81.1817164913, 33.1900211784]}, "type": "Feature", "properties": {"collection_times": [{"days": "Mon-Fri", "time": "12:00pm"}, {"days": "Sat", "time": "11:45am"}, {"days": "Sun", "time": "Closed"}], "id": "2984300001", "name": "USPS COLLECTION BOX - PO LOBBY", "address": {"city": "OLAR", "state": "SC", "street": "15223 CAROLINA HWY", "postcode": "29843"}}},
{"geometry": {"type": "Point", "coordinates": [-81.1817164913, 33.1900211784]}, "type": "Feature", "properties": {"collection_times": [{"days": "Mon-Fri", "time": "12:00pm"}, {"days": "Sat", "time": "11:45am"}, {"days": "Sun", "time": "Closed"}], "id": "2984300002", "name": "USPS COLLECTION BOX - BLUE BOX", "address": {"city": "OLAR", "state": "SC", "street": "15223 CAROLINA HWY", "postcode": "29843"}}},
{"geometry": {"type": "Point", "coordinates": [-82.261047008, 33.8489688694]}, "type": "Feature", "properties": {"collection_times": [{"days": "Mon-Sat", "time": "11:15am"}, {"days": "Sun", "time": "Closed"}], "id": "2984500001", "name": "USPS COLLECTION BOX - BLUE BOX", "address": {"city": "PLUM BRANCH", "state": "SC", "street": "102 DEPOT ST N", "postcode": "29845"}}},
{"geometry": {"type": "Point", "coordinates": [-82.261047008, 33.8489688694]}, "type": "Feature", "properties": {"collection_times": [{"days": "Mon-Sat", "time": "11:15am"}, {"days": "Sun", "time": "Closed"}], "id": "2984500002", "name": "USPS COLLECTION BOX - PO LOBBY", "address": {"city": "PLUM BRANCH", "state": "SC", "street": "102 DEPOT ST N", "postcode": "29845"}}},
{"geometry": {"type": "Point", "coordinates": [-81.2216892869, 33.0362131249]}, "type": "Feature", "properties": {"collection_times": [{"days": "Mon-Fri", "time": "10:00am"}, {"days": "Sat", "time": "11:45am"}, {"days": "Sun", "time": "Closed"}], "id": "2984600001", "name": "USPS COLLECTION BOX - BLUE BOX", "address": {"city": "SYCAMORE", "state": "SC", "street": "345 MAIN ST W", "postcode": "29846"}}},
{"geometry": {"type": "Point", "coordinates": [-81.2216892869, 33.0362131249]}, "type": "Feature", "properties": {"collection_times": [{"days": "Mon-Fri", "time": "9:30am"}, {"days": "Sat", "time": "11:45am"}, {"days": "Sun", "time": "Closed"}], "id": "2984600002", "name": "USPS COLLECTION BOX - PO LOBBY", "address": {"city": "SYCAMORE", "state": "SC", "street": "345 MAIN ST W", "postcode": "29846"}}},
{"geometry": {"type": "Point", "coordinates": [-81.8428279821, 33.7405809216]}, "type": "Feature", "properties": {"collection_times": [{"days": "Mon-Fri", "time": "4:30pm"}, {"days": "Sat", "time": "11:00am"}, {"days": "Sun", "time": "Closed"}], "id": "2984700001", "name": "USPS COLLECTION BOX - BLUE BOX", "address": {"city": "TRENTON", "state": "SC", "street": "113 WATSON ST", "postcode": "29847"}}},
{"geometry": {"type": "Point", "coordinates": [-81.8428279821, 33.7405809216]}, "type": "Feature", "properties": {"collection_times": [{"days": "Mon-Fri", "time": "4:30pm"}, {"days": "Sat", "time": "11:00am"}, {"days": "Sun", "time": "Closed"}], "id": "2984700002", "name": "USPS COLLECTION BOX - PO LOBBY", "address": {"city": "TRENTON", "state": "SC", "street": "113 WATSON ST", "postcode": "29847"}}},
{"geometry": {"type": "Point", "coordinates": [-82.2957470439, 33.9876356936]}, "type": "Feature", "properties": {"collection_times": [{"days": "Mon-Fri", "time": "11:45am"}, {"days": "Sat", "time": "11:00am"}, {"days": "Sun", "time": "Closed"}], "id": "2984800001", "name": "USPS COLLECTION BOX - BLUE BOX", "address": {"city": "TROY", "state": "SC", "street": "104 SLOAN ST", "postcode": "29848"}}},
{"geometry": {"type": "Point", "coordinates": [-82.2957470439, 33.9876356936]}, "type": "Feature", "properties": {"collection_times": [{"days": "Mon-Sat", "time": "11:15am"}, {"days": "Sun", "time": "Closed"}], "id": "2984800002", "name": "USPS COLLECTION BOX - PO LOBBY", "address": {"city": "TROY", "state": "SC", "street": "104 SLOAN ST", "postcode": "29848"}}},
{"geometry": {"type": "Point", "coordinates": [-81.2115804015, 33.0651019465]}, "type": "Feature", "properties": {"collection_times": [{"days": "Mon-Fri", "time": "1:00pm"}, {"days": "Sat", "time": "11:00am"}, {"days": "Sun", "time": "Closed"}], "id": "2984900001", "name": "USPS COLLECTION BOX - BLUE BOX", "address": {"city": "ULMER", "state": "SC", "street": "219 BURTONS FERRY HWY", "postcode": "29849"}}},
{"geometry": {"type": "Point", "coordinates": [-81.2115804015, 33.0651019465]}, "type": "Feature", "properties": {"collection_times": [{"days": "Mon-Fri", "time": "12:30pm"}, {"days": "Sat", "time": "11:00am"}, {"days": "Sun", "time": "Closed"}], "id": "2984900002", "name": "USPS COLLECTION BOX - PO LOBBY", "address": {"city": "ULMER", "state": "SC", "street": "219 BURTONS FERRY HWY", "postcode": "29849"}}},
{"geometry": {"type": "Point", "coordinates": [-81.8052767308, 33.6126525994]}, "type": "Feature", "properties": {"collection_times": [{"days": "Mon-Fri", "time": "4:15pm"}, {"days": "Sat", "time": "11:00am"}, {"days": "Sun", "time": "Closed"}], "id": "2985000001", "name": "USPS COLLECTION BOX - BLUE BOX", "address": {"city": "VAUCLUSE", "state": "SC", "street": "111 SENN ST", "postcode": "29850"}}},
{"geometry": {"type": "Point", "coordinates": [-81.8052767308, 33.6126525994]}, "type": "Feature", "properties": {"collection_times": [{"days": "Mon-Fri", "time": "4:30pm"}, {"days": "Sat", "time": "11:15am"}, {"days": "Sun", "time": "Closed"}], "id": "2985000002", "name": "USPS COLLECTION BOX - PO LOBBY", "address": {"city": "VAUCLUSE", "state": "SC", "street": "111 SENN ST", "postcode": "29850"}}},
{"geometry": {"type": "Point", "coordinates": [-81.8134175621, 33.5459175596]}, "type": "Feature", "properties": {"collection_times": [{"days": "Mon-Fri", "time": "4:30pm"}, {"days": "Sat", "time": "12:00pm"}, {"days": "Sun", "time": "Closed"}], "id": "2985100001", "name": "USPS COLLECTION BOX - BLUE BOX", "address": {"city": "WARRENVILLE", "state": "SC", "street": "1341 AUGUSTA RD", "postcode": "29851"}}},
{"geometry": {"type": "Point", "coordinates": [-81.8134175621, 33.5459175596]}, "type": "Feature", "properties": {"collection_times": [{"days": "Mon-Fri", "time": "4:30pm"}, {"days": "Sat", "time": "12:00pm"}, {"days": "Sun", "time": "Closed"}], "id": "2985100003", "name": "USPS COLLECTION BOX - PO LOBBY", "address": {"city": "WARRENVILLE", "state": "SC", "street": "1341 AUGUSTA RD", "postcode": "29851"}}},
{"geometry": {"type": "Point", "coordinates": [-81.4190276607, 33.4001679574]}, "type": "Feature", "properties": {"collection_times": [{"days": "Mon-Fri", "time": "5:00pm"}, {"days": "Sat", "time": "12:00pm"}, {"days": "Sun", "time": "Closed"}], "id": "2985300001", "name": "USPS COLLECTION BOX - BLUE BOX", "address": {"city": "WILLISTON", "state": "SC", "street": "12926 MAIN ST", "postcode": "29853"}}},
{"geometry": {"type": "Point", "coordinates": [-81.4190276607, 33.4001679574]}, "type": "Feature", "properties": {"collection_times": [{"days": "Mon-Fri", "time": "4:30pm"}, {"days": "Sat", "time": "12:00pm"}, {"days": "Sun", "time": "Closed"}], "id": "2985300003", "name": "USPS COLLECTION BOX - PO LOBBY", "address": {"city": "WILLISTON", "state": "SC", "street": "12926 MAIN ST", "postcode": "29853"}}},
{"geometry": {"type": "Point", "coordinates": [-81.5150138148, 33.4824941663]}, "type": "Feature", "properties": {"collection_times": [{"days": "Mon-Fri", "time": "4:30pm"}, {"days": "Sat", "time": "12:00pm"}, {"days": "Sun", "time": "Closed"}], "id": "2985600001", "name": "USPS COLLECTION BOX - BLUE BOX", "address": {"city": "WINDSOR", "state": "SC", "street": "559 MIDDLETON DR", "postcode": "29856"}}},
{"geometry": {"type": "Point", "coordinates": [-81.5150138148, 33.4824941663]}, "type": "Feature", "properties": {"collection_times": [{"days": "Mon-Fri", "time": "4:30pm"}, {"days": "Sat", "time": "12:00pm"}, {"days": "Sun", "time": "Closed"}], "id": "2985600002", "name": "USPS COLLECTION BOX - PO LOBBY", "address": {"city": "WINDSOR", "state": "SC", "street": "559 MIDDLETON DR", "postcode": "29856"}}},
{"geometry": {"type": "Point", "coordinates": [-81.9451425438, 33.5953536651]}, "type": "Feature", "properties": {"collection_times": [{"days": "Mon-Sat", "time": "4:00pm"}, {"days": "Sun", "time": "Closed"}], "id": "2986000001", "name": "USPS COLLECTION BOX - BLUE BOX", "address": {"city": "NORTH AUGUSTA", "state": "SC", "street": "135 MARKET PLACE DR", "postcode": "29860"}}}
]}
