{"type": "FeatureCollection", "features": [
{"geometry": {"type": "Point", "coordinates": [-80.6942430016, 32.4415970482]}, "type": "Feature", "properties": {"collection_times": [{"days": "Mon-Sat", "time": "10:30am"}, {"days": "Sun", "time": "Closed"}], "id": "2990200011", "name": "USPS COLLECTION BOX - BLUE BOX", "address": {"city": "BEAUFORT", "state": "SC", "street": "2201 BOUNDARY ST", "postcode": "29902"}}},
{"geometry": {"type": "Point", "coordinates": [-80.671876097, 32.430872954]}, "type": "Feature", "properties": {"collection_times": [{"days": "Mon-Sat", "time": "10:15am"}, {"days": "Sun", "time": "Closed"}], "id": "2990200013", "name": "USPS COLLECTION BOX - BLUE BOX", "address": {"city": "BEAUFORT", "state": "SC", "street": "902 BAY ST", "postcode": "29902"}}},
{"geometry": {"type": "Point", "coordinates": [-80.7006220667, 32.3448136727]}, "type": "Feature", "properties": {"collection_times": [{"days": "Mon-Sat", "time": "3:00pm"}, {"days": "Sun", "time": "Closed"}], "id": "2990200051", "name": "USPS COLLECTION BOX - BLUE BOX", "address": {"city": "BEAUFORT", "state": "SC", "street": "590 GUANTANAMO STREET (PARRIS ISLAN", "postcode": "29902"}}},
{"geometry": {"type": "Point", "coordinates": [-80.7006220667, 32.3448136727]}, "type": "Feature", "properties": {"collection_times": [{"days": "Mon-Sat", "time": "3:00pm"}, {"days": "Sun", "time": "Closed"}], "id": "2990200052", "name": "USPS COLLECTION BOX - BLUE BOX", "address": {"city": "BEAUFORT", "state": "SC", "street": "926 SANTO DOMINGO (PARRIS ISLAND)", "postcode": "29902"}}},
{"geometry": {"type": "Point", "coordinates": [-80.7006220667, 32.3448136727]}, "type": "Feature", "properties": {"collection_times": [{"days": "Mon-Sat", "time": "3:00pm"}, {"days": "Sun", "time": "Closed"}], "id": "2990200053", "name": "USPS COLLECTION BOX - BLUE BOX", "address": {"city": "BEAUFORT", "state": "SC", "street": "683 SHANGHAI ST", "postcode": "29902"}}},
{"geometry": {"type": "Point", "coordinates": [-80.7006220667, 32.3448136727]}, "type": "Feature", "properties": {"collection_times": [{"days": "Mon-Sat", "time": "3:00pm"}, {"days": "Sun", "time": "Closed"}], "id": "2990200054", "name": "USPS COLLECTION BOX - BLUE BOX", "address": {"city": "BEAUFORT", "state": "SC", "street": "6012 PANAMA DRIVE (PARRIS ISLAND)", "postcode": "29902"}}},
{"geometry": {"type": "Point", "coordinates": [-80.7006220667, 32.3448136727]}, "type": "Feature", "properties": {"collection_times": [{"days": "Mon-Sat", "time": "3:00pm"}, {"days": "Sun", "time": "Closed"}], "id": "2990200056", "name": "USPS COLLECTION BOX - BLUE BOX", "address": {"city": "BEAUFORT", "state": "SC", "street": "8740 WAKE BLVD", "postcode": "29902"}}},
{"geometry": {"type": "Point", "coordinates": [-80.7006220667, 32.3448136727]}, "type": "Feature", "properties": {"collection_times": [{"days": "Mon-Sat", "time": "3:00pm"}, {"days": "Sun", "time": "Closed"}], "id": "2990200057", "name": "USPS COLLECTION BOX - BLUE BOX", "address": {"city": "BEAUFORT", "state": "SC", "street": "6012 PANAMA DR PARRIS ISLAND", "postcode": "29902"}}},
{"geometry": {"type": "Point", "coordinates": [-80.7006220667, 32.3448136727]}, "type": "Feature", "properties": {"collection_times": [{"days": "Mon-Sat", "time": "3:00pm"}, {"days": "Sun", "time": "Closed"}], "id": "2990200058", "name": "USPS COLLECTION BOX - BLUE BOX", "address": {"city": "BEAUFORT", "state": "SC", "street": "683 SHANGHAI (PARRIS ISLAND) ST", "postcode": "29902"}}},
{"geometry": {"type": "Point", "coordinates": [-80.6897597012, 32.3507107567]}, "type": "Feature", "properties": {"collection_times": [{"days": "Mon-Fri", "time": "4:00pm"}, {"days": "Sat", "time": "3:00pm"}, {"days": "Sun", "time": "Closed"}], "id": "2990200059", "name": "USPS COLLECTION BOX - BLUE BOX", "address": {"city": "BEAUFORT", "state": "SC", "street": "292 BOULEVARD DE FRANCE", "postcode": "29902"}}},
{"geometry": {"type": "Point", "coordinates": [-80.690437479, 32.4412339351]}, "type": "Feature", "properties": {"collection_times": [{"days": "Mon-Sat", "time": "10:30am"}, {"days": "Sun", "time": "Closed"}], "id": "2990200064", "name": "USPS COLLECTION BOX - BLUE BOX", "address": {"city": "BEAUFORT", "state": "SC", "street": "2127 BOUNDARY ST", "postcode": "29902"}}},
{"geometry": {"type": "Point", "coordinates": [-80.6752819572, 32.4397551291]}, "type": "Feature", "properties": {"collection_times": [{"days": "Mon-Sat", "time": "10:30am"}, {"days": "Sun", "time": "Closed"}], "id": "2990200065", "name": "USPS COLLECTION BOX - BLUE BOX", "address": {"city": "BEAUFORT", "state": "SC", "street": "1211 BOUNDARY ST", "postcode": "29902"}}},
{"geometry": {"type": "Point", "coordinates": [-80.6863313721, 32.4093365743]}, "type": "Feature", "properties": {"collection_times": [{"days": "Mon-Fri", "time": "11:00am"}, {"days": "Sat-Sun", "time": "Closed"}], "id": "2990200069", "name": "USPS COLLECTION BOX - BLUE BOX", "address": {"city": "BEAUFORT", "state": "SC", "street": "1100 RIBAUT RD", "postcode": "29902"}}},
{"geometry": {"type": "Point", "coordinates": [-80.6729331788, 32.4339705118]}, "type": "Feature", "properties": {"collection_times": [{"days": "Mon-Fri", "time": "5:00pm"}, {"days": "Sat", "time": "4:00pm"}, {"days": "Sun", "time": "Closed"}], "id": "2990200070", "name": "USPS COLLECTION BOX - BLUE BOX", "address": {"city": "BEAUFORT", "state": "SC", "street": "501 CHARLES ST", "postcode": "29902"}}},
{"geometry": {"type": "Point", "coordinates": [-80.6884565844, 32.4208531372]}, "type": "Feature", "properties": {"collection_times": [{"days": "Mon-Fri", "time": "5:00pm"}, {"days": "Sat", "time": "4:00pm"}, {"days": "Sun", "time": "Closed"}], "id": "2990200071", "name": "USPS COLLECTION BOX - EXPRESS", "address": {"city": "BEAUFORT", "state": "SC", "street": "501 CHARLES ST", "postcode": "29902"}}},
{"geometry": {"type": "Point", "coordinates": [-80.6729331788, 32.4339705118]}, "type": "Feature", "properties": {"collection_times": [{"days": "Mon-Fri", "time": "5:00pm"}, {"days": "Sat", "time": "4:00pm"}, {"days": "Sun", "time": "Closed"}], "id": "2990200077", "name": "USPS COLLECTION BOX - PO LOBBY", "address": {"city": "BEAUFORT", "state": "SC", "street": "501 CHARLES ST", "postcode": "29902"}}},
{"geometry": {"type": "Point", "coordinates": [-80.6897597012, 32.3507107567]}, "type": "Feature", "properties": {"collection_times": [{"days": "Mon-Fri", "time": "4:00pm"}, {"days": "Sat-Sun", "time": "Closed"}], "id": "2990200085", "name": "USPS COLLECTION BOX - PO LOBBY", "address": {"city": "BEAUFORT", "state": "SC", "street": "292 BOULEVARD DE FRANCE", "postcode": "29902"}}},
{"geometry": {"type": "Point", "coordinates": [-80.682415802, 32.4005487376]}, "type": "Feature", "properties": {"collection_times": [{"days": "Mon-Sat", "time": "10:30am"}, {"days": "Sun", "time": "Closed"}], "id": "2990200092", "name": "USPS COLLECTION BOX - BLUE BOX", "address": {"city": "BEAUFORT", "state": "SC", "street": "27A JOHNNY MORRALL CIR", "postcode": "29902"}}},
{"geometry": {"type": "Point", "coordinates": [-80.6884618812, 32.4147119398]}, "type": "Feature", "properties": {"collection_times": [{"days": "Mon-Fri", "time": "11:15am"}, {"days": "Sat-Sun", "time": "Closed"}], "id": "2990200094", "name": "USPS COLLECTION BOX - BLUE BOX", "address": {"city": "BEAUFORT", "state": "SC", "street": "1005 RIBAUT RD", "postcode": "29902"}}},
{"geometry": {"type": "Point", "coordinates": [-80.7006220667, 32.3448136727]}, "type": "Feature", "properties": {"collection_times": [{"days": "Mon-Fri", "time": "3:30pm"}, {"days": "Sat", "time": "3:00pm"}, {"days": "Sun", "time": "Closed"}], "id": "2990200095", "name": "USPS COLLECTION BOX - BLUE BOX", "address": {"city": "BEAUFORT", "state": "SC", "street": "149 CORREGIDOR ST", "postcode": "29902"}}},
{"geometry": {"type": "Point", "coordinates": [-80.7047043084, 32.4399529199]}, "type": "Feature", "properties": {"collection_times": [{"days": "Mon-Fri", "time": "5:30pm"}, {"days": "Sat", "time": "4:00pm"}, {"days": "Sun", "time": "Closed"}], "id": "2990600000", "name": "USPS COLLECTION BOX - BLUE BOX", "address": {"city": "BEAUFORT", "state": "SC", "street": "11 ROBERT SMALLS PKWY", "postcode": "29906"}}},
{"geometry": {"type": "Point", "coordinates": [-80.7309542434, 32.4491836542]}, "type": "Feature", "properties": {"collection_times": [{"days": "Mon-Fri", "time": "4:00pm"}, {"days": "Sat", "time": "3:15pm"}, {"days": "Sun", "time": "Closed"}], "id": "2990600001", "name": "USPS COLLECTION BOX - BLUE BOX", "address": {"city": "BEAUFORT", "state": "SC", "street": "3481 TRASK PKWY", "postcode": "29906"}}},
{"geometry": {"type": "Point", "coordinates": [-80.7284600311, 32.3788545128]}, "type": "Feature", "properties": {"collection_times": [{"days": "Mon-Sat", "time": "10:30am"}, {"days": "Sun", "time": "Closed"}], "id": "2990600004", "name": "USPS COLLECTION BOX - BLUE BOX", "address": {"city": "BEAUFORT", "state": "SC", "street": "300 MIDTOWN DR", "postcode": "29906"}}},
{"geometry": {"type": "Point", "coordinates": [-80.7483845964, 32.450404994]}, "type": "Feature", "properties": {"collection_times": [{"days": "Mon-Fri", "time": "4:00pm"}, {"days": "Sat-Sun", "time": "Closed"}], "id": "2990600009", "name": "USPS COLLECTION BOX - PO LOBBY", "address": {"city": "BEAUFORT", "state": "SC", "street": "1283 GEIGER BLVD", "postcode": "29906"}}},
{"geometry": {"type": "Point", "coordinates": [-80.7539271273, 32.4410834828]}, "type": "Feature", "properties": {"collection_times": [{"days": "Mon-Fri", "time": "5:30pm"}, {"days": "Sat", "time": "4:00pm"}, {"days": "Sun", "time": "Closed"}], "id": "2990600012", "name": "USPS COLLECTION BOX - EXPRESS", "address": {"city": "BEAUFORT", "state": "SC", "street": "11 ROBERT SMALLS PKWY", "postcode": "29906"}}},
{"geometry": {"type": "Point", "coordinates": [-80.7047043084, 32.4399529199]}, "type": "Feature", "properties": {"collection_times": [{"days": "Mon-Fri", "time": "5:00pm"}, {"days": "Sat", "time": "3:00pm"}, {"days": "Sun", "time": "Closed"}], "id": "2990600013", "name": "USPS COLLECTION BOX - PO LOBBY", "address": {"city": "BEAUFORT", "state": "SC", "street": "11 ROBERT SMALLS PKWY", "postcode": "29906"}}},
{"geometry": {"type": "Point", "coordinates": [-80.708859296, 32.4365612394]}, "type": "Feature", "properties": {"collection_times": [{"days": "Mon-Sat", "time": "10:30am"}, {"days": "Sun", "time": "Closed"}], "id": "2990600016", "name": "USPS COLLECTION BOX - BLUE BOX", "address": {"city": "BEAUFORT", "state": "SC", "street": "69 ROBERT SMALLS PKWY", "postcode": "29906"}}},
{"geometry": {"type": "Point", "coordinates": [-80.7324018834, 32.4237908905]}, "type": "Feature", "properties": {"collection_times": [{"days": "Mon-Fri", "time": "4:00pm"}, {"days": "Sat", "time": "3:00pm"}, {"days": "Sun", "time": "Closed"}], "id": "2990600017", "name": "USPS COLLECTION BOX - BLUE BOX", "address": {"city": "BEAUFORT", "state": "SC", "street": "330 ROBERT SMALLS PKWY", "postcode": "29906"}}},
{"geometry": {"type": "Point", "coordinates": [-80.7364149775, 32.3832177209]}, "type": "Feature", "properties": {"collection_times": [{"days": "Mon-Sat", "time": "10:30am"}, {"days": "Sun", "time": "Closed"}], "id": "2990600018", "name": "USPS COLLECTION BOX - BLUE BOX", "address": {"city": "BEAUFORT", "state": "SC", "street": "14 SAVANNAH HWY", "postcode": "29906"}}},
{"geometry": {"type": "Point", "coordinates": [-80.7483845964, 32.450404994]}, "type": "Feature", "properties": {"collection_times": [{"days": "Mon-Fri", "time": "4:00pm"}, {"days": "Sat", "time": "2:30pm"}, {"days": "Sun", "time": "Closed"}], "id": "2990600021", "name": "USPS COLLECTION BOX - BLUE BOX", "address": {"city": "BEAUFORT", "state": "SC", "street": "1283 GEIGER BLVD", "postcode": "29906"}}},
{"geometry": {"type": "Point", "coordinates": [-80.6512424432, 32.4154938757]}, "type": "Feature", "properties": {"collection_times": [{"days": "Mon-Fri", "time": "2:30pm"}, {"days": "Sat-Sun", "time": "Closed"}], "id": "2990700001", "name": "USPS COLLECTION BOX - BLUE BOX", "address": {"city": "BEAUFORT", "state": "SC", "street": "7 PROFESSIONAL VILLAGE CIR", "postcode": "29907"}}},
{"geometry": {"type": "Point", "coordinates": [-80.6480029478, 32.4135181012]}, "type": "Feature", "properties": {"collection_times": [{"days": "Mon-Sat", "time": "2:30pm"}, {"days": "Sun", "time": "Closed"}], "id": "2990700002", "name": "USPS COLLECTION BOX - BLUE BOX", "address": {"city": "BEAUFORT", "state": "SC", "street": "10 SAMS POINT RD", "postcode": "29907"}}},
{"geometry": {"type": "Point", "coordinates": [-80.6515062427, 32.4145036383]}, "type": "Feature", "properties": {"collection_times": [{"days": "Mon-Sat", "time": "2:30pm"}, {"days": "Sun", "time": "Closed"}], "id": "2990700006", "name": "USPS COLLECTION BOX - BLUE BOX", "address": {"city": "BEAUFORT", "state": "SC", "street": "136 SEA ISLAND PKWY", "postcode": "29907"}}},
{"geometry": {"type": "Point", "coordinates": [-80.641360004, 32.4339267423]}, "type": "Feature", "properties": {"collection_times": [{"days": "Mon-Sat", "time": "11:00am"}, {"days": "Sun", "time": "Closed"}], "id": "2990700008", "name": "USPS COLLECTION BOX - BLUE BOX", "address": {"city": "BEAUFORT", "state": "SC", "street": "1 MERCHANTS LN", "postcode": "29907"}}},
{"geometry": {"type": "Point", "coordinates": [-80.9525332577, 32.2918196117]}, "type": "Feature", "properties": {"collection_times": [{"days": "Mon-Sat", "time": "12:00pm"}, {"days": "Sun", "time": "Closed"}], "id": "2990900000", "name": "USPS COLLECTION BOX - BLUE BOX", "address": {"city": "BLUFFTON", "state": "SC", "street": "100 SUN CITY LN", "postcode": "29909"}}},
{"geometry": {"type": "Point", "coordinates": [-80.9540909245, 32.2976911151]}, "type": "Feature", "properties": {"collection_times": [{"days": "Mon-Fri", "time": "12:00pm"}, {"days": "Sat", "time": "10:00am"}, {"days": "Sun", "time": "Closed"}], "id": "2990900001", "name": "USPS COLLECTION BOX - BLUE BOX", "address": {"city": "BLUFFTON", "state": "SC", "street": "30 WILLIAM POPE DR", "postcode": "29909"}}},
{"geometry": {"type": "Point", "coordinates": [-80.9365952152, 32.2966735525]}, "type": "Feature", "properties": {"collection_times": [{"days": "Mon-Sat", "time": "12:00pm"}, {"days": "Sun", "time": "Closed"}], "id": "2990900002", "name": "USPS COLLECTION BOX - BLUE BOX", "address": {"city": "BLUFFTON", "state": "SC", "street": "40 OKATIE CENTER BLVD", "postcode": "29909"}}},
{"geometry": {"type": "Point", "coordinates": [-80.9160061202, 32.3417508694]}, "type": "Feature", "properties": {"collection_times": [{"days": "Mon-Sat", "time": "11:00am"}, {"days": "Sun", "time": "Closed"}], "id": "2990900005", "name": "USPS COLLECTION BOX - BLUE BOX", "address": {"city": "BLUFFTON", "state": "SC", "street": "10 OLDFIELD WAY", "postcode": "29909"}}},
{"geometry": {"type": "Point", "coordinates": [-80.9775971625, 32.2771231656]}, "type": "Feature", "properties": {"collection_times": [{"days": "Mon-Sat", "time": "12:00pm"}, {"days": "Sun", "time": "Closed"}], "id": "2990900006", "name": "USPS COLLECTION BOX - BLUE BOX", "address": {"city": "BLUFFTON", "state": "SC", "street": "675 CYPRESS HILLS DR", "postcode": "29909"}}},
{"geometry": {"type": "Point", "coordinates": [-80.9525332577, 32.2918196117]}, "type": "Feature", "properties": {"collection_times": [{"days": "Mon-Sat", "time": "12:00pm"}, {"days": "Sun", "time": "Closed"}], "id": "2990900007", "name": "USPS COLLECTION BOX - BLUE BOX", "address": {"city": "BLUFFTON", "state": "SC", "street": "100 SUN CITY LN", "postcode": "29909"}}},
{"geometry": {"type": "Point", "coordinates": [-80.9041495197, 32.3253119776]}, "type": "Feature", "properties": {"collection_times": [{"days": "Mon-Sat", "time": "4:00pm"}, {"days": "Sun", "time": "Closed"}], "id": "2990900008", "name": "USPS COLLECTION BOX - BLUE BOX", "address": {"city": "BLUFFTON", "state": "SC", "street": "208 RED OAKS WAY", "postcode": "29909"}}},
{"geometry": {"type": "Point", "coordinates": [-80.8567870704, 32.2455738619]}, "type": "Feature", "properties": {"collection_times": [{"days": "Mon-Fri", "time": "5:00pm"}, {"days": "Sat", "time": "4:00pm"}, {"days": "Sun", "time": "Closed"}], "id": "2991000002", "name": "USPS COLLECTION BOX - BLUE BOX", "address": {"city": "BLUFFTON", "state": "SC", "street": "25 THURMOND WAY", "postcode": "29910"}}},
{"geometry": {"type": "Point", "coordinates": [-80.8874069891, 32.220594439]}, "type": "Feature", "properties": {"collection_times": [{"days": "Mon-Fri", "time": "5:00pm"}, {"days": "Sat", "time": "12:15pm"}, {"days": "Sun", "time": "Closed"}], "id": "2991000004", "name": "USPS COLLECTION BOX - PO LOBBY", "address": {"city": "BLUFFTON", "state": "SC", "street": "25 THURMOND WAY", "postcode": "29910"}}},
{"geometry": {"type": "Point", "coordinates": [-80.8198413038, 32.2409932329]}, "type": "Feature", "properties": {"collection_times": [{"days": "Mon-Sat", "time": "11:00am"}, {"days": "Sun", "time": "Closed"}], "id": "2991000011", "name": "USPS COLLECTION BOX - BLUE BOX", "address": {"city": "BLUFFTON", "state": "SC", "street": "1414 FORDING ISLAND RD", "postcode": "29910"}}},
{"geometry": {"type": "Point", "coordinates": [-80.8798686406, 32.2468771155]}, "type": "Feature", "properties": {"collection_times": [{"days": "Mon-Sat", "time": "10:00am"}, {"days": "Sun", "time": "Closed"}], "id": "2991000012", "name": "USPS COLLECTION BOX - BLUE BOX", "address": {"city": "BLUFFTON", "state": "SC", "street": "25 KITTY RD", "postcode": "29910"}}},
{"geometry": {"type": "Point", "coordinates": [-80.8628489599, 32.2661973566]}, "type": "Feature", "properties": {"collection_times": [{"days": "Mon-Sat", "time": "12:00pm"}, {"days": "Sun", "time": "Closed"}], "id": "2991000014", "name": "USPS COLLECTION BOX - BLUE BOX", "address": {"city": "BLUFFTON", "state": "SC", "street": "1 PENNINGTON DR", "postcode": "29910"}}},
{"geometry": {"type": "Point", "coordinates": [-80.8608420574, 32.2702373647]}, "type": "Feature", "properties": {"collection_times": [{"days": "Mon-Sat", "time": "10:00am"}, {"days": "Sun", "time": "Closed"}], "id": "2991000017", "name": "USPS COLLECTION BOX - BLUE BOX", "address": {"city": "BLUFFTON", "state": "SC", "street": "105 TOWNE DR", "postcode": "29910"}}},
{"geometry": {"type": "Point", "coordinates": [-80.8821605961, 32.2840035714]}, "type": "Feature", "properties": {"collection_times": [{"days": "Mon-Sat", "time": "12:00pm"}, {"days": "Sun", "time": "Closed"}], "id": "2991000020", "name": "USPS COLLECTION BOX - BLUE BOX", "address": {"city": "BLUFFTON", "state": "SC", "street": "1 ROSE HILL WAY", "postcode": "29910"}}},
{"geometry": {"type": "Point", "coordinates": [-80.8707813014, 32.2753630247]}, "type": "Feature", "properties": {"collection_times": [{"days": "Mon-Sat", "time": "12:00pm"}, {"days": "Sun", "time": "Closed"}], "id": "2991000021", "name": "USPS COLLECTION BOX - BLUE BOX", "address": {"city": "BLUFFTON", "state": "SC", "street": "2 WESTBURY WAY", "postcode": "29910"}}},
{"geometry": {"type": "Point", "coordinates": [-80.8874069891, 32.220594439]}, "type": "Feature", "properties": {"collection_times": [{"days": "Mon-Fri", "time": "5:00pm"}, {"days": "Sat", "time": "12:15pm"}, {"days": "Sun", "time": "Closed"}], "id": "2991000022", "name": "USPS COLLECTION BOX - APC", "address": {"city": "BLUFFTON", "state": "SC", "street": "25 THURMOND WAY", "postcode": "29910"}}},
{"geometry": {"type": "Point", "coordinates": [-80.8519340306, 32.2637781045]}, "type": "Feature", "properties": {"collection_times": [{"days": "Mon-Sat", "time": "12:30pm"}, {"days": "Sun", "time": "Closed"}], "id": "2991000023", "name": "USPS COLLECTION BOX - BLUE BOX", "address": {"city": "BLUFFTON", "state": "SC", "street": "30 CRESENT PLANTATION", "postcode": "29910"}}},
{"geometry": {"type": "Point", "coordinates": [-81.1430431533, 32.9554855413]}, "type": "Feature", "properties": {"collection_times": [{"days": "Mon-Fri", "time": "4:30pm"}, {"days": "Sat", "time": "12:00pm"}, {"days": "Sun", "time": "Closed"}], "id": "2991100001", "name": "USPS COLLECTION BOX - PO LOBBY", "address": {"city": "BRUNSON", "state": "SC", "street": "816 N RAILROAD AVE", "postcode": "29911"}}},
{"geometry": {"type": "Point", "coordinates": [-81.1430431533, 32.9554855413]}, "type": "Feature", "properties": {"collection_times": [{"days": "Mon-Fri", "time": "4:30pm"}, {"days": "Sat", "time": "12:00pm"}, {"days": "Sun", "time": "Closed"}], "id": "2991100002", "name": "USPS COLLECTION BOX - BLUE BOX", "address": {"city": "BRUNSON", "state": "SC", "street": "816 N RAILROAD AVE", "postcode": "29911"}}},
{"geometry": {"type": "Point", "coordinates": [-80.9286387364, 32.7472596719]}, "type": "Feature", "properties": {"collection_times": [{"days": "Mon-Fri", "time": "3:45pm"}, {"days": "Sat", "time": "10:30am"}, {"days": "Sun", "time": "Closed"}], "id": "2991600001", "name": "USPS COLLECTION BOX - BLUE BOX", "address": {"city": "EARLY BRANCH", "state": "SC", "street": "34 FICKEN RD", "postcode": "29916"}}},
{"geometry": {"type": "Point", "coordinates": [-80.9286387364, 32.7472596719]}, "type": "Feature", "properties": {"collection_times": [{"days": "Mon-Fri", "time": "3:45pm"}, {"days": "Sat", "time": "10:30am"}, {"days": "Sun", "time": "Closed"}], "id": "2991600002", "name": "USPS COLLECTION BOX - PO LOBBY", "address": {"city": "EARLY BRANCH", "state": "SC", "street": "34 FICKEN RD", "postcode": "29916"}}},
{"geometry": {"type": "Point", "coordinates": [-81.2410220605, 32.7588210997]}, "type": "Feature", "properties": {"collection_times": [{"days": "Mon-Fri", "time": "4:00pm"}, {"days": "Sat", "time": "11:00am"}, {"days": "Sun", "time": "Closed"}], "id": "2991800001", "name": "USPS COLLECTION BOX - BLUE BOX", "address": {"city": "ESTILL", "state": "SC", "street": "328 E RAILROAD AVE N", "postcode": "29918"}}},
{"geometry": {"type": "Point", "coordinates": [-81.2410220605, 32.7588210997]}, "type": "Feature", "properties": {"collection_times": [{"days": "Mon-Fri", "time": "4:00pm"}, {"days": "Sat", "time": "11:00am"}, {"days": "Sun", "time": "Closed"}], "id": "2991800002", "name": "USPS COLLECTION BOX - PO LOBBY", "address": {"city": "ESTILL", "state": "SC", "street": "328 E RAILROAD AVE N", "postcode": "29918"}}},
{"geometry": {"type": "Point", "coordinates": [-81.238304, 32.74756]}, "type": "Feature", "properties": {"collection_times": [{"days": "Mon-Sat", "time": "10:00am"}, {"days": "Sun", "time": "Closed"}], "id": "2991800003", "name": "USPS COLLECTION BOX - BLUE BOX", "address": {"city": "ESTILL", "state": "SC", "street": "170 GRAYSON ST E", "postcode": "29918"}}},
{"geometry": {"type": "Point", "coordinates": [-80.4668256492, 32.3321160554]}, "type": "Feature", "properties": {"collection_times": [{"days": "Mon-Sat", "time": "11:45am"}, {"days": "Sun", "time": "Closed"}], "id": "2992000002", "name": "USPS COLLECTION BOX - BLUE BOX", "address": {"city": "ST HELENA IS", "state": "SC", "street": "202 TARPON BLVD", "postcode": "29920"}}},
{"geometry": {"type": "Point", "coordinates": [-80.5831801708, 32.4108179696]}, "type": "Feature", "properties": {"collection_times": [{"days": "Mon-Sat", "time": "12:00pm"}, {"days": "Sun", "time": "Closed"}], "id": "2992000005", "name": "USPS COLLECTION BOX - BLUE BOX", "address": {"city": "ST HELENA IS", "state": "SC", "street": "1 DATAW DR", "postcode": "29920"}}},
{"geometry": {"type": "Point", "coordinates": [-80.5921041217, 32.3966130261]}, "type": "Feature", "properties": {"collection_times": [{"days": "Mon-Fri", "time": "4:30pm"}, {"days": "Sat", "time": "12:00pm"}, {"days": "Sun", "time": "Closed"}], "id": "2992000007", "name": "USPS COLLECTION BOX - BLUE BOX", "address": {"city": "ST HELENA IS", "state": "SC", "street": "744 SEA ISLAND PKWY", "postcode": "29920"}}},
{"geometry": {"type": "Point", "coordinates": [-80.5921041217, 32.3966130261]}, "type": "Feature", "properties": {"collection_times": [{"days": "Mon-Fri", "time": "4:00pm"}, {"days": "Sat", "time": "12:00pm"}, {"days": "Sun", "time": "Closed"}], "id": "2992000009", "name": "USPS COLLECTION BOX - PO LOBBY", "address": {"city": "ST HELENA IS", "state": "SC", "street": "744 SEA ISLAND PKWY", "postcode": "29920"}}},
{"geometry": {"type": "Point", "coordinates": [-81.1860524055, 32.6812377948]}, "type": "Feature", "properties": {"collection_times": [{"days": "Mon-Fri", "time": "4:00pm"}, {"days": "Sat", "time": "11:00am"}, {"days": "Sun", "time": "Closed"}], "id": "2992100001", "name": "USPS COLLECTION BOX - BLUE BOX", "address": {"city": "FURMAN", "state": "SC", "street": "81 JEFFERSON ST", "postcode": "29921"}}},
{"geometry": {"type": "Point", "coordinates": [-81.1860524055, 32.6812377948]}, "type": "Feature", "properties": {"collection_times": [{"days": "Mon-Fri", "time": "4:00pm"}, {"days": "Sat", "time": "11:00am"}, {"days": "Sun", "time": "Closed"}], "id": "2992100002", "name": "USPS COLLECTION BOX - PO LOBBY", "address": {"city": "FURMAN", "state": "SC", "street": "81 JEFFERSON ST", "postcode": "29921"}}},
{"geometry": {"type": "Point", "coordinates": [-81.2429392362, 32.6066230436]}, "type": "Feature", "properties": {"collection_times": [{"days": "Mon-Fri", "time": "4:00pm"}, {"days": "Sat", "time": "11:00am"}, {"days": "Sun", "time": "Closed"}], "id": "2992200001", "name": "USPS COLLECTION BOX - BLUE BOX", "address": {"city": "GARNETT", "state": "SC", "street": "15 AUGUSTA STAGECOACH RD", "postcode": "29922"}}},
{"geometry": {"type": "Point", "coordinates": [-81.2429392362, 32.6066230436]}, "type": "Feature", "properties": {"collection_times": [{"days": "Mon-Fri", "time": "11:45am"}, {"days": "Sat", "time": "11:00am"}, {"days": "Sun", "time": "Closed"}], "id": "2992200002", "name": "USPS COLLECTION BOX - PO LOBBY", "address": {"city": "GARNETT", "state": "SC", "street": "15 AUGUSTA STAGECOACH RD", "postcode": "29922"}}},
{"geometry": {"type": "Point", "coordinates": [-81.2379421738, 32.8599187536]}, "type": "Feature", "properties": {"collection_times": [{"days": "Mon-Fri", "time": "3:45pm"}, {"days": "Sat", "time": "10:30am"}, {"days": "Sun", "time": "Closed"}], "id": "2992300001", "name": "USPS COLLECTION BOX - BLUE BOX", "address": {"city": "GIFFORD", "state": "SC", "street": "5944 COLUMBIA HWY", "postcode": "29923"}}},
{"geometry": {"type": "Point", "coordinates": [-81.2379421738, 32.8599187536]}, "type": "Feature", "properties": {"collection_times": [{"days": "Mon-Fri", "time": "3:45pm"}, {"days": "Sat", "time": "10:30am"}, {"days": "Sun", "time": "Closed"}], "id": "2992300002", "name": "USPS COLLECTION BOX - PO LOBBY", "address": {"city": "GIFFORD", "state": "SC", "street": "5944 COLUMBIA HWY", "postcode": "29923"}}},
{"geometry": {"type": "Point", "coordinates": [-81.110395547, 32.8660960726]}, "type": "Feature", "properties": {"collection_times": [{"days": "Mon-Fri", "time": "3:45pm"}, {"days": "Sat", "time": "3:00pm"}, {"days": "Sun", "time": "Closed"}], "id": "2992400002", "name": "USPS COLLECTION BOX - PO LOBBY", "address": {"city": "HAMPTON", "state": "SC", "street": "604 1ST ST W", "postcode": "29924"}}},
{"geometry": {"type": "Point", "coordinates": [-81.1083368136, 32.868160526]}, "type": "Feature", "properties": {"collection_times": [{"days": "Mon-Fri", "time": "3:00pm"}, {"days": "Sat", "time": "2:45pm"}, {"days": "Sun", "time": "Closed"}], "id": "2992400004", "name": "USPS COLLECTION BOX - BLUE BOX", "address": {"city": "HAMPTON", "state": "SC", "street": "1 MAPLE ST", "postcode": "29924"}}},
{"geometry": {"type": "Point", "coordinates": [-81.110395547, 32.8660960726]}, "type": "Feature", "properties": {"collection_times": [{"days": "Mon-Fri", "time": "3:45pm"}, {"days": "Sat", "time": "3:00pm"}, {"days": "Sun", "time": "Closed"}], "id": "2992400005", "name": "USPS COLLECTION BOX - BLUE BOX", "address": {"city": "HAMPTON", "state": "SC", "street": "604 1ST ST W", "postcode": "29924"}}},
{"geometry": {"type": "Point", "coordinates": [-81.1202021858, 32.8696567689]}, "type": "Feature", "properties": {"collection_times": [{"days": "Mon-Sat", "time": "1:00pm"}, {"days": "Sun", "time": "Closed"}], "id": "2992400007", "name": "USPS COLLECTION BOX - BLUE BOX", "address": {"city": "HAMPTON", "state": "SC", "street": "705 HOOVER ST S", "postcode": "29924"}}},
{"geometry": {"type": "Point", "coordinates": [-81.1188238581, 32.876009883]}, "type": "Feature", "properties": {"collection_times": [{"days": "Mon-Sat", "time": "11:30am"}, {"days": "Sun", "time": "Closed"}], "id": "2992400008", "name": "USPS COLLECTION BOX - BLUE BOX", "address": {"city": "HAMPTON", "state": "SC", "street": "1012 ELM ST", "postcode": "29924"}}},
{"geometry": {"type": "Point", "coordinates": [-81.1203069478, 32.8776124681]}, "type": "Feature", "properties": {"collection_times": [{"days": "Mon-Sat", "time": "12:15pm"}, {"days": "Sun", "time": "Closed"}], "id": "2992400009", "name": "USPS COLLECTION BOX - BLUE BOX", "address": {"city": "HAMPTON", "state": "SC", "street": "1317 ELM ST W", "postcode": "29924"}}},
{"geometry": {"type": "Point", "coordinates": [-81.1080930959, 32.8672842971]}, "type": "Feature", "properties": {"collection_times": [{"days": "Mon-Fri", "time": "3:00pm"}, {"days": "Sat", "time": "2:45pm"}, {"days": "Sun", "time": "Closed"}], "id": "2992400010", "name": "USPS COLLECTION BOX - BLUE BOX", "address": {"city": "HAMPTON", "state": "SC", "street": "129 LEE AVE", "postcode": "29924"}}},
{"geometry": {"type": "Point", "coordinates": [-80.7337576118, 32.2238723129]}, "type": "Feature", "properties": {"collection_times": [{"days": "Mon-Sat", "time": "12:00pm"}, {"days": "Sun", "time": "Closed"}], "id": "2992600003", "name": "USPS COLLECTION BOX - EXPRESS", "address": {"city": "HILTON HEAD", "state": "SC", "street": "430 WILLIAM HILTON PKWY", "postcode": "29926"}}},
{"geometry": {"type": "Point", "coordinates": [-80.7079115174, 32.2160658763]}, "type": "Feature", "properties": {"collection_times": [{"days": "Mon-Sat", "time": "12:00pm"}, {"days": "Sun", "time": "Closed"}], "id": "2992600004", "name": "USPS COLLECTION BOX - BLUE BOX", "address": {"city": "HILTON HEAD", "state": "SC", "street": "430 WILLIAM HILTON PKWY", "postcode": "29926"}}},
{"geometry": {"type": "Point", "coordinates": [-80.7079115174, 32.2160658763]}, "type": "Feature", "properties": {"collection_times": [{"days": "Mon-Sat", "time": "12:00pm"}, {"days": "Sun", "time": "Closed"}], "id": "2992600005", "name": "USPS COLLECTION BOX - BLUE BOX", "address": {"city": "HILTON HEAD", "state": "SC", "street": "430 WILLIAM HILTON PKWY", "postcode": "29926"}}},
{"geometry": {"type": "Point", "coordinates": [-80.7026186968, 32.2120813984]}, "type": "Feature", "properties": {"collection_times": [{"days": "Mon-Sat", "time": "12:00pm"}, {"days": "Sun", "time": "Closed"}], "id": "2992600006", "name": "USPS COLLECTION BOX - BLUE BOX", "address": {"city": "HILTON HEAD", "state": "SC", "street": "95 MATHEWS DR", "postcode": "29926"}}},
{"geometry": {"type": "Point", "coordinates": [-80.7113974552, 32.2235924579]}, "type": "Feature", "properties": {"collection_times": [{"days": "Mon-Sat", "time": "12:00pm"}, {"days": "Sun", "time": "Closed"}], "id": "2992600007", "name": "USPS COLLECTION BOX - BLUE BOX", "address": {"city": "HILTON HEAD", "state": "SC", "street": "35 BILL FRIES DR", "postcode": "29926"}}},
{"geometry": {"type": "Point", "coordinates": [-80.7307009783, 32.2156405963]}, "type": "Feature", "properties": {"collection_times": [{"days": "Mon-Sat", "time": "12:00pm"}, {"days": "Sun", "time": "Closed"}], "id": "2992600012", "name": "USPS COLLECTION BOX - BLUE BOX", "address": {"city": "HILTON HEAD", "state": "SC", "street": "800 MAIN ST", "postcode": "29926"}}},
{"geometry": {"type": "Point", "coordinates": [-80.7337576118, 32.2238723129]}, "type": "Feature", "properties": {"collection_times": [{"days": "Mon-Fri", "time": "5:00pm"}, {"days": "Sat", "time": "3:00pm"}, {"days": "Sun", "time": "Closed"}], "id": "2992600013", "name": "USPS COLLECTION BOX - PO LOBBY", "address": {"city": "HILTON HEAD", "state": "SC", "street": "213 WILLIAM HILTON PKWY", "postcode": "29926"}}},
{"geometry": {"type": "Point", "coordinates": [-80.7287313461, 32.2470314651]}, "type": "Feature", "properties": {"collection_times": [{"days": "Mon-Sat", "time": "12:00pm"}, {"days": "Sun", "time": "Closed"}], "id": "2992600014", "name": "USPS COLLECTION BOX - BLUE BOX", "address": {"city": "HILTON HEAD", "state": "SC", "street": "231 SEABROOK DR", "postcode": "29926"}}},
{"geometry": {"type": "Point", "coordinates": [-80.7337576118, 32.2238723129]}, "type": "Feature", "properties": {"collection_times": [{"days": "Mon-Fri", "time": "5:00pm"}, {"days": "Sat", "time": "3:00pm"}, {"days": "Sun", "time": "Closed"}], "id": "2992600015", "name": "USPS COLLECTION BOX - APC", "address": {"city": "HILTON HEAD", "state": "SC", "street": "213 WILLIAM HILTON PKWY", "postcode": "29926"}}},
{"geometry": {"type": "Point", "coordinates": [-80.7337576118, 32.2238723129]}, "type": "Feature", "properties": {"collection_times": [{"days": "Mon-Sat", "time": "5:00pm"}, {"days": "Sun", "time": "Closed"}], "id": "2992600017", "name": "USPS COLLECTION BOX - BLUE BOX", "address": {"city": "HILTON HEAD", "state": "SC", "street": "213 WILLIAM HILTON PKWY", "postcode": "29926"}}},
{"geometry": {"type": "Point", "coordinates": [-81.049926282, 32.2645937044]}, "type": "Feature", "properties": {"collection_times": [{"days": "Mon-Fri", "time": "4:30pm"}, {"days": "Sat", "time": "12:00pm"}, {"days": "Sun", "time": "Closed"}], "id": "2992700003", "name": "USPS COLLECTION BOX - BLUE BOX", "address": {"city": "HARDEEVILLE", "state": "SC", "street": "23848 WHYTE HARDEE BLVD", "postcode": "29927"}}},
{"geometry": {"type": "Point", "coordinates": [-81.049926282, 32.2645937044]}, "type": "Feature", "properties": {"collection_times": [{"days": "Mon-Fri", "time": "4:30pm"}, {"days": "Sat", "time": "12:00pm"}, {"days": "Sun", "time": "Closed"}], "id": "2992700004", "name": "USPS COLLECTION BOX - PO LOBBY", "address": {"city": "HARDEEVILLE", "state": "SC", "street": "23848 WHYTE HARDEE BLVD", "postcode": "29927"}}},
{"geometry": {"type": "Point", "coordinates": [-80.7405874511, 32.1677613806]}, "type": "Feature", "properties": {"collection_times": [{"days": "Mon-Sat", "time": "3:00pm"}, {"days": "Sun", "time": "Closed"}], "id": "2992800001", "name": "USPS COLLECTION BOX - BLUE BOX", "address": {"city": "HILTON HEAD", "state": "SC", "street": "1000 HIGHWAY 278", "postcode": "29928"}}},
{"geometry": {"type": "Point", "coordinates": [-80.8005804294, 32.1318021943]}, "type": "Feature", "properties": {"collection_times": [{"days": "Mon-Sat", "time": "3:00pm"}, {"days": "Sun", "time": "Closed"}], "id": "2992800007", "name": "USPS COLLECTION BOX - PO LOBBY", "address": {"city": "HILTON HEAD", "state": "SC", "street": "71 LIGHTHOUSE RD", "postcode": "29928"}}},
{"geometry": {"type": "Point", "coordinates": [-80.7530416671, 32.1620664668]}, "type": "Feature", "properties": {"collection_times": [{"days": "Mon-Sat", "time": "12:00pm"}, {"days": "Sun", "time": "Closed"}], "id": "2992800010", "name": "USPS COLLECTION BOX - BLUE BOX", "address": {"city": "HILTON HEAD", "state": "SC", "street": "10 WEXFORD PLANTATION", "postcode": "29928"}}},
{"geometry": {"type": "Point", "coordinates": [-80.8100247618, 32.1394090202]}, "type": "Feature", "properties": {"collection_times": [{"days": "Mon-Sat", "time": "3:00pm"}, {"days": "Sun", "time": "Closed"}], "id": "2992800011", "name": "USPS COLLECTION BOX - BLUE BOX", "address": {"city": "HILTON HEAD", "state": "SC", "street": "149 LIGHTHOUSE RD", "postcode": "29928"}}},
{"geometry": {"type": "Point", "coordinates": [-80.7527478078, 32.1439815083]}, "type": "Feature", "properties": {"collection_times": [{"days": "Mon-Sat", "time": "3:00pm"}, {"days": "Sun", "time": "Closed"}], "id": "2992800013", "name": "USPS COLLECTION BOX - BLUE BOX", "address": {"city": "HILTON HEAD", "state": "SC", "street": "1 LAGOON RD", "postcode": "29928"}}},
{"geometry": {"type": "Point", "coordinates": [-80.7438267791, 32.1466325123]}, "type": "Feature", "properties": {"collection_times": [{"days": "Mon-Sat", "time": "3:00pm"}, {"days": "Sun", "time": "Closed"}], "id": "2992800016", "name": "USPS COLLECTION BOX - BLUE BOX", "address": {"city": "HILTON HEAD", "state": "SC", "street": "33 OFFICE PARK RD", "postcode": "29928"}}},
{"geometry": {"type": "Point", "coordinates": [-80.7529668811, 32.1587406804]}, "type": "Feature", "properties": {"collection_times": [{"days": "Mon-Sat", "time": "4:45pm"}, {"days": "Sun", "time": "Closed"}], "id": "2992800018", "name": "USPS COLLECTION BOX - PO LOBBY", "address": {"city": "HILTON HEAD", "state": "SC", "street": "10 BOW CIR", "postcode": "29928"}}},
{"geometry": {"type": "Point", "coordinates": [-80.7584124323, 32.1558336095]}, "type": "Feature", "properties": {"collection_times": [{"days": "Mon-Sat", "time": "3:00pm"}, {"days": "Sun", "time": "Closed"}], "id": "2992800019", "name": "USPS COLLECTION BOX - BLUE BOX", "address": {"city": "HILTON HEAD", "state": "SC", "street": "37 NEW ORLEANS RD", "postcode": "29928"}}},
{"geometry": {"type": "Point", "coordinates": [-80.7238085686, 32.1752137212]}, "type": "Feature", "properties": {"collection_times": [{"days": "Mon-Sat", "time": "3:00pm"}, {"days": "Sun", "time": "Closed"}], "id": "2992800020", "name": "USPS COLLECTION BOX - BLUE BOX", "address": {"city": "HILTON HEAD", "state": "SC", "street": "75 QUEENS FOLLY RD", "postcode": "29928"}}},
{"geometry": {"type": "Point", "coordinates": [-80.7211676152, 32.1825753501]}, "type": "Feature", "properties": {"collection_times": [{"days": "Mon-Sat", "time": "3:00pm"}, {"days": "Sun", "time": "Closed"}], "id": "2992800021", "name": "USPS COLLECTION BOX - BLUE BOX", "address": {"city": "HILTON HEAD", "state": "SC", "street": "801 WILLIAM HILTON PKWY", "postcode": "29928"}}},
{"geometry": {"type": "Point", "coordinates": [-80.7439009025, 32.1640906685]}, "type": "Feature", "properties": {"collection_times": [{"days": "Mon-Sat", "time": "3:00pm"}, {"days": "Sun", "time": "Closed"}], "id": "2992800022", "name": "USPS COLLECTION BOX - BLUE BOX", "address": {"city": "HILTON HEAD", "state": "SC", "street": "11 PARK LN", "postcode": "29928"}}},
{"geometry": {"type": "Point", "coordinates": [-80.7301162315, 32.1764204305]}, "type": "Feature", "properties": {"collection_times": [{"days": "Mon-Sat", "time": "3:00pm"}, {"days": "Sun", "time": "Closed"}], "id": "2992800028", "name": "USPS COLLECTION BOX - BLUE BOX", "address": {"city": "HILTON HEAD", "state": "SC", "street": "890 WILLIAM HILTON PKWY", "postcode": "29928"}}},
{"geometry": {"type": "Point", "coordinates": [-80.7634367969, 32.1563278416]}, "type": "Feature", "properties": {"collection_times": [{"days": "Mon-Sat", "time": "3:00pm"}, {"days": "Sun", "time": "Closed"}], "id": "2992800029", "name": "USPS COLLECTION BOX - BLUE BOX", "address": {"city": "HILTON HEAD", "state": "SC", "street": "11 PALMETTO BAY RD", "postcode": "29928"}}},
{"geometry": {"type": "Point", "coordinates": [-80.8005804294, 32.1318021943]}, "type": "Feature", "properties": {"collection_times": [{"days": "Mon-Sat", "time": "3:00pm"}, {"days": "Sun", "time": "Closed"}], "id": "2992800030", "name": "USPS COLLECTION BOX - BLUE BOX", "address": {"city": "HILTON HEAD", "state": "SC", "street": "71 LIGHTHOUSE RD", "postcode": "29928"}}},
{"geometry": {"type": "Point", "coordinates": [-80.7529668811, 32.1587406804]}, "type": "Feature", "properties": {"collection_times": [{"days": "Mon-Sat", "time": "4:45pm"}, {"days": "Sun", "time": "Closed"}], "id": "2992800031", "name": "USPS COLLECTION BOX - APC", "address": {"city": "HILTON HEAD", "state": "SC", "street": "10 BOW CIR", "postcode": "29928"}}},
{"geometry": {"type": "Point", "coordinates": [-80.7529668811, 32.1587406804]}, "type": "Feature", "properties": {"collection_times": [{"days": "Mon-Fri", "time": "5:00pm"}, {"days": "Sat", "time": "4:45pm"}, {"days": "Sun", "time": "Closed"}], "id": "2992800033", "name": "USPS COLLECTION BOX - BLUE BOX", "address": {"city": "HILTON HEAD", "state": "SC", "street": "10 BOW CIR", "postcode": "29928"}}},
{"geometry": {"type": "Point", "coordinates": [-80.8937521976, 33.9038639711]}, "type": "Feature", "properties": {"collection_times": [{"days": "Mon-Sat", "time": "4:45pm"}, {"days": "Sun", "time": "Closed"}], "id": "2992800035", "name": "USPS COLLECTION BOX - PO LOBBY", "address": {"city": "HILTON HEAD", "state": "SC", "street": "10 BOW CIR", "postcode": "29928"}}},
{"geometry": {"type": "Point", "coordinates": [-80.926935908, 32.9088455601]}, "type": "Feature", "properties": {"collection_times": [{"days": "Mon-Fri", "time": "4:00pm"}, {"days": "Sat", "time": "10:45am"}, {"days": "Sun", "time": "Closed"}], "id": "2992900001", "name": "USPS COLLECTION BOX - BLUE BOX", "address": {"city": "ISLANDTON", "state": "SC", "street": "14759 SNIDERS HWY", "postcode": "29929"}}},
{"geometry": {"type": "Point", "coordinates": [-80.926935908, 32.9088455601]}, "type": "Feature", "properties": {"collection_times": [{"days": "Mon-Fri", "time": "4:00pm"}, {"days": "Sat", "time": "10:45am"}, {"days": "Sun", "time": "Closed"}], "id": "2992900002", "name": "USPS COLLECTION BOX - PO LOBBY", "address": {"city": "ISLANDTON", "state": "SC", "street": "14759 SNIDERS HWY", "postcode": "29929"}}},
{"geometry": {"type": "Point", "coordinates": [-80.7433820124, 32.5579044296]}, "type": "Feature", "properties": {"collection_times": [{"days": "Mon-Fri", "time": "4:15pm"}, {"days": "Sat", "time": "11:45am"}, {"days": "Sun", "time": "Closed"}], "id": "2993100001", "name": "USPS COLLECTION BOX - BLUE BOX", "address": {"city": "LOBECO", "state": "SC", "street": "1892 TRASK PKWY", "postcode": "29931"}}},
{"geometry": {"type": "Point", "coordinates": [-80.7433820124, 32.5579044296]}, "type": "Feature", "properties": {"collection_times": [{"days": "Mon-Fri", "time": "4:15pm"}, {"days": "Sat", "time": "11:45am"}, {"days": "Sun", "time": "Closed"}], "id": "2993100002", "name": "USPS COLLECTION BOX - PO LOBBY", "address": {"city": "LOBECO", "state": "SC", "street": "1892 TRASK PKWY", "postcode": "29931"}}},
{"geometry": {"type": "Point", "coordinates": [-81.239898534, 32.8134655164]}, "type": "Feature", "properties": {"collection_times": [{"days": "Mon-Fri", "time": "3:45pm"}, {"days": "Sat", "time": "11:00am"}, {"days": "Sun", "time": "Closed"}], "id": "2993200001", "name": "USPS COLLECTION BOX - BLUE BOX", "address": {"city": "LURAY", "state": "SC", "street": "2902 COLUMBIA HWY N", "postcode": "29932"}}},
{"geometry": {"type": "Point", "coordinates": [-81.239898534, 32.8134655164]}, "type": "Feature", "properties": {"collection_times": [{"days": "Mon-Fri", "time": "10:15am"}, {"days": "Sat", "time": "11:00am"}, {"days": "Sun", "time": "Closed"}], "id": "2993200002", "name": "USPS COLLECTION BOX - PO LOBBY", "address": {"city": "LURAY", "state": "SC", "street": "2902 COLUMBIA HWY N", "postcode": "29932"}}},
{"geometry": {"type": "Point", "coordinates": [-81.0318885126, 32.9476930203]}, "type": "Feature", "properties": {"collection_times": [{"days": "Mon-Fri", "time": "10:15am"}, {"days": "Sat-Sun", "time": "Closed"}], "id": "2993300001", "name": "USPS COLLECTION BOX - BLUE BOX", "address": {"city": "MILEY", "state": "SC", "street": "21396 OLD SALKEHATCHIE HWY", "postcode": "29933"}}},
{"geometry": {"type": "Point", "coordinates": [-81.031682024, 32.9479923211]}, "type": "Feature", "properties": {"collection_times": [{"days": "Mon-Fri", "time": "10:15am"}, {"days": "Sat-Sun", "time": "Closed"}], "id": "2993300002", "name": "USPS COLLECTION BOX - PO LOBBY", "address": {"city": "MILEY", "state": "SC", "street": "21396 OLD SALKEHATCHIE HWY", "postcode": "29933"}}},
{"geometry": {"type": "Point", "coordinates": [-81.0832224211, 32.6441730748]}, "type": "Feature", "properties": {"collection_times": [{"days": "Mon-Fri", "time": "4:00pm"}, {"days": "Sat", "time": "11:00am"}, {"days": "Sun", "time": "Closed"}], "id": "2993400001", "name": "USPS COLLECTION BOX - BLUE BOX", "address": {"city": "PINELAND", "state": "SC", "street": "3672 CYPRESS BRANCH RD", "postcode": "29934"}}},
{"geometry": {"type": "Point", "coordinates": [-81.0832224211, 32.6441730748]}, "type": "Feature", "properties": {"collection_times": [{"days": "Mon-Fri", "time": "12:30pm"}, {"days": "Sat", "time": "11:00am"}, {"days": "Sun", "time": "Closed"}], "id": "2993400002", "name": "USPS COLLECTION BOX - PO LOBBY", "address": {"city": "PINELAND", "state": "SC", "street": "3672 CYPRESS BRANCH RD", "postcode": "29934"}}},
{"geometry": {"type": "Point", "coordinates": [-80.6925774629, 32.3806169647]}, "type": "Feature", "properties": {"collection_times": [{"days": "Mon-Fri", "time": "4:30pm"}, {"days": "Sat", "time": "11:45am"}, {"days": "Sun", "time": "Closed"}], "id": "2993500003", "name": "USPS COLLECTION BOX - BLUE BOX", "address": {"city": "PORT ROYAL", "state": "SC", "street": "1625 PARIS AVE", "postcode": "29935"}}},
{"geometry": {"type": "Point", "coordinates": [-80.6925774629, 32.3806169647]}, "type": "Feature", "properties": {"collection_times": [{"days": "Mon-Fri", "time": "4:30pm"}, {"days": "Sat", "time": "11:45am"}, {"days": "Sun", "time": "Closed"}], "id": "2993500004", "name": "USPS COLLECTION BOX - PO LOBBY", "address": {"city": "PORT ROYAL", "state": "SC", "street": "1625 PARIS AVE", "postcode": "29935"}}},
{"geometry": {"type": "Point", "coordinates": [-80.6851744382, 32.3990673075]}, "type": "Feature", "properties": {"collection_times": [{"days": "Mon-Fri", "time": "12:00pm"}, {"days": "Sat", "time": "11:45am"}, {"days": "Sun", "time": "Closed"}], "id": "2993500007", "name": "USPS COLLECTION BOX - BLUE BOX", "address": {"city": "PORT ROYAL", "state": "SC", "street": "1345 RIBAUT RD", "postcode": "29935"}}},
{"geometry": {"type": "Point", "coordinates": [-80.9378278077, 32.5081556424]}, "type": "Feature", "properties": {"collection_times": [{"days": "Mon-Fri", "time": "4:30pm"}, {"days": "Sat", "time": "11:00am"}, {"days": "Sun", "time": "Closed"}], "id": "2993600001", "name": "USPS COLLECTION BOX - BLUE BOX", "address": {"city": "RIDGELAND", "state": "SC", "street": "7554 W MAIN ST", "postcode": "29936"}}},
{"geometry": {"type": "Point", "coordinates": [-80.9378278077, 32.5081556424]}, "type": "Feature", "properties": {"collection_times": [{"days": "Mon-Fri", "time": "4:30pm"}, {"days": "Sat", "time": "11:00am"}, {"days": "Sun", "time": "Closed"}], "id": "2993600003", "name": "USPS COLLECTION BOX - PO LOBBY", "address": {"city": "RIDGELAND", "state": "SC", "street": "7554 W MAIN ST", "postcode": "29936"}}},
{"geometry": {"type": "Point", "coordinates": [-80.9353580337, 32.3199881141]}, "type": "Feature", "properties": {"collection_times": [{"days": "Mon-Fri", "time": "11:00am"}, {"days": "Sat", "time": "10:00am"}, {"days": "Sun", "time": "Closed"}], "id": "2993600004", "name": "USPS COLLECTION BOX - BLUE BOX", "address": {"city": "RIDGELAND", "state": "SC", "street": "149 RIVERWALK BLVD", "postcode": "29936"}}},
{"geometry": {"type": "Point", "coordinates": [-80.7610817445, 32.5305784425]}, "type": "Feature", "properties": {"collection_times": [{"days": "Mon-Fri", "time": "4:30pm"}, {"days": "Sat", "time": "11:00am"}, {"days": "Sun", "time": "Closed"}], "id": "2994000001", "name": "USPS COLLECTION BOX - BLUE BOX", "address": {"city": "SEABROOK", "state": "SC", "street": "219 SEABROOK RD", "postcode": "29940"}}},
{"geometry": {"type": "Point", "coordinates": [-80.8200868807, 32.5723410408]}, "type": "Feature", "properties": {"collection_times": [{"days": "Mon-Fri", "time": "4:15pm"}, {"days": "Sat", "time": "12:00pm"}, {"days": "Sun", "time": "Closed"}], "id": "2994100001", "name": "USPS COLLECTION BOX - BLUE BOX", "address": {"city": "SHELDON", "state": "SC", "street": "21 PAIGE POINT BLF", "postcode": "29941"}}},
{"geometry": {"type": "Point", "coordinates": [-80.8084923272, 32.5587597422]}, "type": "Feature", "properties": {"collection_times": [{"days": "Mon-Fri", "time": "4:15pm"}, {"days": "Sat", "time": "12:00pm"}, {"days": "Sun", "time": "Closed"}], "id": "2994100002", "name": "USPS COLLECTION BOX - PO LOBBY", "address": {"city": "SHELDON", "state": "SC", "street": "21 PAIGE POINT RD", "postcode": "29941"}}},
{"geometry": {"type": "Point", "coordinates": [-81.1204540924, 32.485536745]}, "type": "Feature", "properties": {"collection_times": [{"days": "Mon-Fri", "time": "4:15pm"}, {"days": "Sat", "time": "11:30am"}, {"days": "Sun", "time": "Closed"}], "id": "2994300001", "name": "USPS COLLECTION BOX - BLUE BOX", "address": {"city": "TILLMAN", "state": "SC", "street": "28 COTTON HILL RD", "postcode": "29943"}}},
{"geometry": {"type": "Point", "coordinates": [-81.1204540924, 32.485536745]}, "type": "Feature", "properties": {"collection_times": [{"days": "Mon-Fri", "time": "4:15pm"}, {"days": "Sat", "time": "11:30am"}, {"days": "Sun", "time": "Closed"}], "id": "2994300002", "name": "USPS COLLECTION BOX - PO LOBBY", "address": {"city": "TILLMAN", "state": "SC", "street": "28 COTTON HILL RD", "postcode": "29943"}}},
{"geometry": {"type": "Point", "coordinates": [-81.0796228388, 32.8510718228]}, "type": "Feature", "properties": {"collection_times": [{"days": "Mon-Fri", "time": "4:30pm"}, {"days": "Sat", "time": "11:30am"}, {"days": "Sun", "time": "Closed"}], "id": "2994400001", "name": "USPS COLLECTION BOX - BLUE BOX", "address": {"city": "VARNVILLE", "state": "SC", "street": "81 MAIN ST", "postcode": "29944"}}},
{"geometry": {"type": "Point", "coordinates": [-81.0172511106, 32.8203433124]}, "type": "Feature", "properties": {"collection_times": [{"days": "Mon-Fri", "time": "11:00am"}, {"days": "Sat-Sun", "time": "Closed"}], "id": "2994400002", "name": "USPS COLLECTION BOX - BLUE BOX", "address": {"city": "VARNVILLE", "state": "SC", "street": "940 E ELM ST", "postcode": "29944"}}},
{"geometry": {"type": "Point", "coordinates": [-81.0796228388, 32.8510718228]}, "type": "Feature", "properties": {"collection_times": [{"days": "Mon-Fri", "time": "4:30pm"}, {"days": "Sat", "time": "11:30am"}, {"days": "Sun", "time": "Closed"}], "id": "2994400003", "name": "USPS COLLECTION BOX - PO LOBBY", "address": {"city": "VARNVILLE", "state": "SC", "street": "81 MAIN ST", "postcode": "29944"}}},
{"geometry": {"type": "Point", "coordinates": [-80.8476773634, 32.6898049619]}, "type": "Feature", "properties": {"collection_times": [{"days": "Mon-Fri", "time": "4:00pm"}, {"days": "Sat", "time": "11:30am"}, {"days": "Sun", "time": "Closed"}], "id": "2994500002", "name": "USPS COLLECTION BOX - BLUE BOX", "address": {"city": "YEMASSEE", "state": "SC", "street": "27 SALKEHATCHIE RD", "postcode": "29945"}}},
{"geometry": {"type": "Point", "coordinates": [-80.8476773634, 32.6898049619]}, "type": "Feature", "properties": {"collection_times": [{"days": "Mon-Fri", "time": "4:00pm"}, {"days": "Sat", "time": "11:30am"}, {"days": "Sun", "time": "Closed"}], "id": "2994500005", "name": "USPS COLLECTION BOX - PO LOBBY", "address": {"city": "YEMASSEE", "state": "SC", "street": "27 SALKEHATCHIE RD", "postcode": "29945"}}}
]}
