{"type": "FeatureCollection", "features": [
{"geometry": {"type": "Point", "coordinates": [-96.9657191623, 41.3143345947]}, "type": "Feature", "properties": {"collection_times": [{"days": "Mon-Sat", "time": "1:45pm"}, {"days": "Sun", "time": "Closed"}], "id": "6800100000", "name": "USPS COLLECTION BOX - BLUE BOX", "address": {"city": "ABIE", "state": "NE", "street": "305 2ND ST", "postcode": "68001"}}},
{"geometry": {"type": "Point", "coordinates": [-96.9657191623, 41.3143345947]}, "type": "Feature", "properties": {"collection_times": [{"days": "Mon-Sat", "time": "1:45pm"}, {"days": "Sun", "time": "Closed"}], "id": "6800100001", "name": "USPS COLLECTION BOX - PO LOBBY", "address": {"city": "ABIE", "state": "NE", "street": "305 2ND ST", "postcode": "68001"}}},
{"geometry": {"type": "Point", "coordinates": [-96.3496529253, 41.451779804]}, "type": "Feature", "properties": {"collection_times": [{"days": "Mon-Fri", "time": "4:45pm"}, {"days": "Sat", "time": "5:15pm"}, {"days": "Sun", "time": "Closed"}], "id": "6800200001", "name": "USPS COLLECTION BOX - BLUE BOX", "address": {"city": "ARLINGTON", "state": "NE", "street": "237 N 2ND ST", "postcode": "68002"}}},
{"geometry": {"type": "Point", "coordinates": [-96.3496529253, 41.451779804]}, "type": "Feature", "properties": {"collection_times": [{"days": "Mon-Fri", "time": "4:45pm"}, {"days": "Sat", "time": "9:00am"}, {"days": "Sun", "time": "Closed"}], "id": "6800200002", "name": "USPS COLLECTION BOX - PO LOBBY", "address": {"city": "ARLINGTON", "state": "NE", "street": "237 N 2ND ST", "postcode": "68002"}}},
{"geometry": {"type": "Point", "coordinates": [-96.3727295394, 41.0450162219]}, "type": "Feature", "properties": {"collection_times": [{"days": "Mon-Sat", "time": "1:00pm"}, {"days": "Sun", "time": "Closed"}], "id": "6800300003", "name": "USPS COLLECTION BOX - BLUE BOX", "address": {"city": "ASHLAND", "state": "NE", "street": "705 N 17TH ST", "postcode": "68003"}}},
{"geometry": {"type": "Point", "coordinates": [-96.3693477612, 41.0391791455]}, "type": "Feature", "properties": {"collection_times": [{"days": "Mon-Fri", "time": "4:15pm"}, {"days": "Sat", "time": "5:25pm"}, {"days": "Sun", "time": "Closed"}], "id": "6800300004", "name": "USPS COLLECTION BOX - BLUE BOX", "address": {"city": "ASHLAND", "state": "NE", "street": "1542 SILVER ST", "postcode": "68003"}}},
{"geometry": {"type": "Point", "coordinates": [-96.3693477612, 41.0391791455]}, "type": "Feature", "properties": {"collection_times": [{"days": "Mon-Fri", "time": "4:15pm"}, {"days": "Sat", "time": "10:30am"}, {"days": "Sun", "time": "Closed"}], "id": "6800300005", "name": "USPS COLLECTION BOX - PO LOBBY", "address": {"city": "ASHLAND", "state": "NE", "street": "1542 SILVER ST", "postcode": "68003"}}},
{"geometry": {"type": "Point", "coordinates": [-96.5742749868, 42.0128516116]}, "type": "Feature", "properties": {"collection_times": [{"days": "Mon-Fri", "time": "3:40pm"}, {"days": "Sat", "time": "3:45pm"}, {"days": "Sun", "time": "Closed"}], "id": "6800400001", "name": "USPS COLLECTION BOX - BLUE BOX", "address": {"city": "BANCROFT", "state": "NE", "street": "203 POPLAR ST", "postcode": "68004"}}},
{"geometry": {"type": "Point", "coordinates": [-96.5742749868, 42.0128516116]}, "type": "Feature", "properties": {"collection_times": [{"days": "Mon-Fri", "time": "3:15pm"}, {"days": "Sat", "time": "10:45am"}, {"days": "Sun", "time": "Closed"}], "id": "6800400002", "name": "USPS COLLECTION BOX - PO LOBBY", "address": {"city": "BANCROFT", "state": "NE", "street": "203 POPLAR ST", "postcode": "68004"}}},
{"geometry": {"type": "Point", "coordinates": [-95.9102187624, 41.1498605616]}, "type": "Feature", "properties": {"collection_times": [{"days": "Mon-Fri", "time": "5:00pm"}, {"days": "Sat", "time": "4:51pm"}, {"days": "Sun", "time": "Closed"}], "id": "6800500003", "name": "USPS COLLECTION BOX - BLUE BOX", "address": {"city": "BELLEVUE", "state": "NE", "street": "204 W MISSION AVE", "postcode": "68005"}}},
{"geometry": {"type": "Point", "coordinates": [-95.8952265394, 41.136536014]}, "type": "Feature", "properties": {"collection_times": [{"days": "Mon-Fri", "time": "4:58pm"}, {"days": "Sat", "time": "4:49pm"}, {"days": "Sun", "time": "Closed"}], "id": "6800500004", "name": "USPS COLLECTION BOX - BLUE BOX", "address": {"city": "BELLEVUE", "state": "NE", "street": "210 W MISSION AVE", "postcode": "68005"}}},
{"geometry": {"type": "Point", "coordinates": [-95.9140398043, 41.140292705]}, "type": "Feature", "properties": {"collection_times": [{"days": "Mon-Fri", "time": "5:00pm"}, {"days": "Sat", "time": "4:58pm"}, {"days": "Sun", "time": "Closed"}], "id": "6800500005", "name": "USPS COLLECTION BOX - BLUE BOX", "address": {"city": "BELLEVUE", "state": "NE", "street": "1502 HARLAN DR", "postcode": "68005"}}},
{"geometry": {"type": "Point", "coordinates": [-95.912726997, 41.1451942457]}, "type": "Feature", "properties": {"collection_times": [{"days": "Mon-Fri", "time": "4:51pm"}, {"days": "Sat", "time": "4:42pm"}, {"days": "Sun", "time": "Closed"}], "id": "6800500011", "name": "USPS COLLECTION BOX - BLUE BOX", "address": {"city": "BELLEVUE", "state": "NE", "street": "1411 J F KENNEDY DR", "postcode": "68005"}}},
{"geometry": {"type": "Point", "coordinates": [-95.9078290924, 41.1505832213]}, "type": "Feature", "properties": {"collection_times": [{"days": "Mon-Fri", "time": "4:46pm"}, {"days": "Sat", "time": "4:37pm"}, {"days": "Sun", "time": "Closed"}], "id": "6800500013", "name": "USPS COLLECTION BOX - BLUE BOX", "address": {"city": "BELLEVUE", "state": "NE", "street": "1003 LINCOLN RD", "postcode": "68005"}}},
{"geometry": {"type": "Point", "coordinates": [-95.9177987124, 41.1514563444]}, "type": "Feature", "properties": {"collection_times": [{"days": "Mon-Fri", "time": "4:10pm"}, {"days": "Sat", "time": "4:08pm"}, {"days": "Sun", "time": "Closed"}], "id": "6800500014", "name": "USPS COLLECTION BOX - BLUE BOX", "address": {"city": "BELLEVUE", "state": "NE", "street": "1000 GALVIN RD S", "postcode": "68005"}}},
{"geometry": {"type": "Point", "coordinates": [-95.9084488692, 41.1402384827]}, "type": "Feature", "properties": {"collection_times": [{"days": "Mon-Fri", "time": "4:53pm"}, {"days": "Sat", "time": "4:44pm"}, {"days": "Sun", "time": "Closed"}], "id": "6800500017", "name": "USPS COLLECTION BOX - BLUE BOX", "address": {"city": "BELLEVUE", "state": "NE", "street": "1802 GALVIN RD S", "postcode": "68005"}}},
{"geometry": {"type": "Point", "coordinates": [-95.9182269802, 41.1532245895]}, "type": "Feature", "properties": {"collection_times": [{"days": "Mon-Fri", "time": "4:18pm"}, {"days": "Sat", "time": "4:15pm"}, {"days": "Sun", "time": "Closed"}], "id": "6800500022", "name": "USPS COLLECTION BOX - BLUE BOX", "address": {"city": "BELLEVUE", "state": "NE", "street": "801 GALVIN RD S", "postcode": "68005"}}},
{"geometry": {"type": "Point", "coordinates": [-95.9255869159, 41.1737134209]}, "type": "Feature", "properties": {"collection_times": [{"days": "Mon-Fri", "time": "4:23pm"}, {"days": "Sat", "time": "4:20pm"}, {"days": "Sun", "time": "Closed"}], "id": "6800500023", "name": "USPS COLLECTION BOX - BLUE BOX", "address": {"city": "BELLEVUE", "state": "NE", "street": "909 FORT CROOK RD N", "postcode": "68005"}}},
{"geometry": {"type": "Point", "coordinates": [-95.9263191158, 41.1765200224]}, "type": "Feature", "properties": {"collection_times": [{"days": "Mon-Fri", "time": "4:25pm"}, {"days": "Sat", "time": "4:22pm"}, {"days": "Sun", "time": "Closed"}], "id": "6800500025", "name": "USPS COLLECTION BOX - BLUE BOX", "address": {"city": "BELLEVUE", "state": "NE", "street": "1001 FORT CROOK RD N", "postcode": "68005"}}},
{"geometry": {"type": "Point", "coordinates": [-95.9079284853, 41.1617142592]}, "type": "Feature", "properties": {"collection_times": [{"days": "Mon-Sat", "time": "3:30pm"}, {"days": "Sun", "time": "Closed"}], "id": "6800500028", "name": "USPS COLLECTION BOX - BLUE BOX", "address": {"city": "BELLEVUE", "state": "NE", "street": "206 MARTIN DR", "postcode": "68005"}}},
{"geometry": {"type": "Point", "coordinates": [-95.9102187624, 41.1498605616]}, "type": "Feature", "properties": {"collection_times": [{"days": "Mon-Sat", "time": "5:05pm"}, {"days": "Sun", "time": "Closed"}], "id": "6800500039", "name": "USPS COLLECTION BOX - BLUE BOX", "address": {"city": "BELLEVUE", "state": "NE", "street": "2609 VICTORIA AVE", "postcode": "68005"}}},
{"geometry": {"type": "Point", "coordinates": [-95.9102187624, 41.1498605616]}, "type": "Feature", "properties": {"collection_times": [{"days": "Mon-Sat", "time": "5:05pm"}, {"days": "Sun", "time": "Closed"}], "id": "6800500040", "name": "USPS COLLECTION BOX - BLUE BOX", "address": {"city": "BELLEVUE", "state": "NE", "street": "2609 VICTORIA AVE", "postcode": "68005"}}},
{"geometry": {"type": "Point", "coordinates": [-95.9172190356, 41.1506329142]}, "type": "Feature", "properties": {"collection_times": [{"days": "Mon-Fri", "time": "4:13pm"}, {"days": "Sat", "time": "4:11pm"}, {"days": "Sun", "time": "Closed"}], "id": "6800500043", "name": "USPS COLLECTION BOX - BLUE BOX", "address": {"city": "BELLEVUE", "state": "NE", "street": "1021 GALVIN RD S", "postcode": "68005"}}},
{"geometry": {"type": "Point", "coordinates": [-95.9102187624, 41.1498605616]}, "type": "Feature", "properties": {"collection_times": [{"days": "Mon-Sat", "time": "5:05pm"}, {"days": "Sun", "time": "Closed"}], "id": "6800500050", "name": "USPS COLLECTION BOX - PO LOBBY", "address": {"city": "BELLEVUE", "state": "NE", "street": "2609 VICTORIA AVE", "postcode": "68005"}}},
{"geometry": {"type": "Point", "coordinates": [-95.9102187624, 41.1498605616]}, "type": "Feature", "properties": {"collection_times": [{"days": "Mon-Fri", "time": "5:00pm"}, {"days": "Sat", "time": "4:51pm"}, {"days": "Sun", "time": "Closed"}], "id": "6800500051", "name": "USPS COLLECTION BOX - PO LOBBY", "address": {"city": "BELLEVUE", "state": "NE", "street": "204 W MISSION AVE", "postcode": "68005"}}},
{"geometry": {"type": "Point", "coordinates": [-95.9355250035, 41.1592705767]}, "type": "Feature", "properties": {"collection_times": [{"days": "Mon-Sat", "time": "4:00pm"}, {"days": "Sun", "time": "Closed"}], "id": "6800500052", "name": "USPS COLLECTION BOX - BLUE BOX", "address": {"city": "BELLEVUE", "state": "NE", "street": "10504 S 15TH ST", "postcode": "68005"}}},
{"geometry": {"type": "Point", "coordinates": [-95.9102187624, 41.1498605616]}, "type": "Feature", "properties": {"collection_times": [{"days": "Mon-Sat", "time": "5:05pm"}, {"days": "Sun", "time": "Closed"}], "id": "6800500053", "name": "USPS COLLECTION BOX - APC", "address": {"city": "BELLEVUE", "state": "NE", "street": "2609 VICTORIA AVE", "postcode": "68005"}}},
{"geometry": {"type": "Point", "coordinates": [-96.155687311, 41.3637113654]}, "type": "Feature", "properties": {"collection_times": [{"days": "Mon-Fri", "time": "4:15pm"}, {"days": "Sat", "time": "5:30pm"}, {"days": "Sun", "time": "Closed"}], "id": "6800700001", "name": "USPS COLLECTION BOX - BLUE BOX", "address": {"city": "BENNINGTON", "state": "NE", "street": "124 S STARK ST", "postcode": "68007"}}},
{"geometry": {"type": "Point", "coordinates": [-96.1556949496, 41.3642553346]}, "type": "Feature", "properties": {"collection_times": [{"days": "Mon-Fri", "time": "4:15pm"}, {"days": "Sat", "time": "10:00am"}, {"days": "Sun", "time": "Closed"}], "id": "6800700002", "name": "USPS COLLECTION BOX - PO LOBBY", "address": {"city": "BENNINGTON", "state": "NE", "street": "124 S STARK ST", "postcode": "68007"}}},
{"geometry": {"type": "Point", "coordinates": [-96.1360795146, 41.5426269332]}, "type": "Feature", "properties": {"collection_times": [{"days": "Mon-Sat", "time": "2:00pm"}, {"days": "Sun", "time": "Closed"}], "id": "6800800003", "name": "USPS COLLECTION BOX - BLUE BOX", "address": {"city": "BLAIR", "state": "NE", "street": "218 S 16TH ST", "postcode": "68008"}}},
{"geometry": {"type": "Point", "coordinates": [-96.1244453823, 41.5429388526]}, "type": "Feature", "properties": {"collection_times": [{"days": "Mon-Sat", "time": "10:00am"}, {"days": "Sun", "time": "Closed"}], "id": "6800800009", "name": "USPS COLLECTION BOX - BLUE BOX", "address": {"city": "BLAIR", "state": "NE", "street": "865 LINCOLN ST", "postcode": "68008"}}},
{"geometry": {"type": "Point", "coordinates": [-96.1248159206, 41.4487072088]}, "type": "Feature", "properties": {"collection_times": [{"days": "Mon-Sat", "time": "10:45am"}, {"days": "Sun", "time": "Closed"}], "id": "6800800015", "name": "USPS COLLECTION BOX - BLUE BOX", "address": {"city": "BLAIR", "state": "NE", "street": "4861 LAKELAND DR", "postcode": "68008"}}},
{"geometry": {"type": "Point", "coordinates": [-96.1456473253, 41.5022606492]}, "type": "Feature", "properties": {"collection_times": [{"days": "Mon-Sat", "time": "11:00am"}, {"days": "Sun", "time": "Closed"}], "id": "6800800017", "name": "USPS COLLECTION BOX - BLUE BOX", "address": {"city": "BLAIR", "state": "NE", "street": "12490 ANN DR", "postcode": "68008"}}},
{"geometry": {"type": "Point", "coordinates": [-96.1362260111, 41.5445805855]}, "type": "Feature", "properties": {"collection_times": [{"days": "Mon-Fri", "time": "5:10pm"}, {"days": "Sat", "time": "5:15pm"}, {"days": "Sun", "time": "Closed"}], "id": "6800800018", "name": "USPS COLLECTION BOX - BLUE BOX", "address": {"city": "BLAIR", "state": "NE", "street": "201 N 16TH ST", "postcode": "68008"}}},
{"geometry": {"type": "Point", "coordinates": [-96.1362260111, 41.5445805855]}, "type": "Feature", "properties": {"collection_times": [{"days": "Mon-Fri", "time": "5:00pm"}, {"days": "Sat", "time": "3:00pm"}, {"days": "Sun", "time": "Closed"}], "id": "6800800020", "name": "USPS COLLECTION BOX - PO LOBBY", "address": {"city": "BLAIR", "state": "NE", "street": "201 N 16TH ST", "postcode": "68008"}}},
{"geometry": {"type": "Point", "coordinates": [-96.1353991062, 41.5406876037]}, "type": "Feature", "properties": {"collection_times": [{"days": "Mon-Sat", "time": "1:55pm"}, {"days": "Sun", "time": "Closed"}], "id": "6800800023", "name": "USPS COLLECTION BOX - BLUE BOX", "address": {"city": "BLAIR", "state": "NE", "street": "1555 COLFAX ST", "postcode": "68008"}}},
{"geometry": {"type": "Point", "coordinates": [-96.1385494864, 41.2587654231]}, "type": "Feature", "properties": {"collection_times": [{"days": "Mon-Fri", "time": "5:30pm"}, {"days": "Sat", "time": "4:35pm"}, {"days": "Sun", "time": "Closed"}], "id": "6801000002", "name": "USPS COLLECTION BOX - BLUE BOX", "address": {"city": "BOYSTOWN", "state": "NE", "street": "139 S 144TH ST", "postcode": "68010"}}},
{"geometry": {"type": "Point", "coordinates": [-96.1385494864, 41.2587654231]}, "type": "Feature", "properties": {"collection_times": [{"days": "Mon-Fri", "time": "5:30pm"}, {"days": "Sat", "time": "4:35pm"}, {"days": "Sun", "time": "Closed"}], "id": "6801000003", "name": "USPS COLLECTION BOX - BLUE BOX", "address": {"city": "BOYSTOWN", "state": "NE", "street": "139 S 144TH ST", "postcode": "68010"}}},
{"geometry": {"type": "Point", "coordinates": [-96.1385494864, 41.2587654231]}, "type": "Feature", "properties": {"collection_times": [{"days": "Mon-Fri", "time": "5:30pm"}, {"days": "Sat", "time": "4:35pm"}, {"days": "Sun", "time": "Closed"}], "id": "6801000004", "name": "USPS COLLECTION BOX - BLUE BOX", "address": {"city": "BOYSTOWN", "state": "NE", "street": "139 S 144TH ST", "postcode": "68010"}}},
{"geometry": {"type": "Point", "coordinates": [-96.1385494864, 41.2587654231]}, "type": "Feature", "properties": {"collection_times": [{"days": "Mon-Fri", "time": "5:30pm"}, {"days": "Sat", "time": "4:35pm"}, {"days": "Sun", "time": "Closed"}], "id": "6801000012", "name": "USPS COLLECTION BOX - PO LOBBY", "address": {"city": "BOYSTOWN", "state": "NE", "street": "139 S 144TH ST", "postcode": "68010"}}},
{"geometry": {"type": "Point", "coordinates": [-96.1385494864, 41.2587654231]}, "type": "Feature", "properties": {"collection_times": [{"days": "Mon-Fri", "time": "5:30pm"}, {"days": "Sat", "time": "4:35pm"}, {"days": "Sun", "time": "Closed"}], "id": "6801000013", "name": "USPS COLLECTION BOX - PO LOBBY", "address": {"city": "BOYSTOWN", "state": "NE", "street": "139 S 144TH ST", "postcode": "68010"}}},
{"geometry": {"type": "Point", "coordinates": [-96.1385494864, 41.2587654231]}, "type": "Feature", "properties": {"collection_times": [{"days": "Mon-Fri", "time": "5:30pm"}, {"days": "Sat", "time": "4:35pm"}, {"days": "Sun", "time": "Closed"}], "id": "6801000014", "name": "USPS COLLECTION BOX - PO LOBBY", "address": {"city": "BOYSTOWN", "state": "NE", "street": "139 S 144TH ST", "postcode": "68010"}}},
{"geometry": {"type": "Point", "coordinates": [-96.1385494864, 41.2587654231]}, "type": "Feature", "properties": {"collection_times": [{"days": "Mon-Fri", "time": "5:30pm"}, {"days": "Sat", "time": "4:35pm"}, {"days": "Sun", "time": "Closed"}], "id": "6801000015", "name": "USPS COLLECTION BOX - PO LOBBY", "address": {"city": "BOYSTOWN", "state": "NE", "street": "139 S 144TH ST", "postcode": "68010"}}},
{"geometry": {"type": "Point", "coordinates": [-96.1385494864, 41.2587654231]}, "type": "Feature", "properties": {"collection_times": [{"days": "Mon-Fri", "time": "5:30pm"}, {"days": "Sat", "time": "4:35pm"}, {"days": "Sun", "time": "Closed"}], "id": "6801000017", "name": "USPS COLLECTION BOX - APC", "address": {"city": "BOYSTOWN", "state": "NE", "street": "139 S 144TH ST", "postcode": "68010"}}},
{"geometry": {"type": "Point", "coordinates": [-96.9591384473, 41.283882205]}, "type": "Feature", "properties": {"collection_times": [{"days": "Mon-Sat", "time": "3:05pm"}, {"days": "Sun", "time": "Closed"}], "id": "6801400001", "name": "USPS COLLECTION BOX - BLUE BOX", "address": {"city": "BRUNO", "state": "NE", "street": "205 2ND ST", "postcode": "68014"}}},
{"geometry": {"type": "Point", "coordinates": [-96.9591384473, 41.283882205]}, "type": "Feature", "properties": {"collection_times": [{"days": "Mon-Fri", "time": "12:00pm"}, {"days": "Sat", "time": "9:30am"}, {"days": "Sun", "time": "Closed"}], "id": "6801400002", "name": "USPS COLLECTION BOX - PO LOBBY", "address": {"city": "BRUNO", "state": "NE", "street": "205 2ND ST", "postcode": "68014"}}},
{"geometry": {"type": "Point", "coordinates": [-96.6107711841, 41.3969705633]}, "type": "Feature", "properties": {"collection_times": [{"days": "Mon-Sat", "time": "4:10pm"}, {"days": "Sun", "time": "Closed"}], "id": "6801500001", "name": "USPS COLLECTION BOX - BLUE BOX", "address": {"city": "CEDAR BLUFFS", "state": "NE", "street": "105 W MAIN ST", "postcode": "68015"}}},
{"geometry": {"type": "Point", "coordinates": [-96.6107711841, 41.3969705633]}, "type": "Feature", "properties": {"collection_times": [{"days": "Mon-Fri", "time": "2:00pm"}, {"days": "Sat", "time": "10:00am"}, {"days": "Sun", "time": "Closed"}], "id": "6801500002", "name": "USPS COLLECTION BOX - PO LOBBY", "address": {"city": "CEDAR BLUFFS", "state": "NE", "street": "105 W MAIN ST", "postcode": "68015"}}},
{"geometry": {"type": "Point", "coordinates": [-96.0997450141, 41.0365924365]}, "type": "Feature", "properties": {"collection_times": [{"days": "Mon-Fri", "time": "4:00pm"}, {"days": "Sat", "time": "4:05pm"}, {"days": "Sun", "time": "Closed"}], "id": "6801600001", "name": "USPS COLLECTION BOX - BLUE BOX", "address": {"city": "CEDAR CREEK", "state": "NE", "street": "104 PARSON DR", "postcode": "68016"}}},
{"geometry": {"type": "Point", "coordinates": [-96.0997450141, 41.0365924365]}, "type": "Feature", "properties": {"collection_times": [{"days": "Mon-Fri", "time": "2:20pm"}, {"days": "Sat", "time": "12:10pm"}, {"days": "Sun", "time": "Closed"}], "id": "6801600002", "name": "USPS COLLECTION BOX - PO LOBBY", "address": {"city": "CEDAR CREEK", "state": "NE", "street": "104 PARSON DR", "postcode": "68016"}}},
{"geometry": {"type": "Point", "coordinates": [-96.6449177331, 41.0581586025]}, "type": "Feature", "properties": {"collection_times": [{"days": "Mon-Fri", "time": "4:10pm"}, {"days": "Sat", "time": "4:15pm"}, {"days": "Sun", "time": "Closed"}], "id": "6801700001", "name": "USPS COLLECTION BOX - BLUE BOX", "address": {"city": "CERESCO", "state": "NE", "street": "313 2ND ST", "postcode": "68017"}}},
{"geometry": {"type": "Point", "coordinates": [-96.6449177331, 41.0581586025]}, "type": "Feature", "properties": {"collection_times": [{"days": "Mon-Fri", "time": "4:10pm"}, {"days": "Sat", "time": "10:00am"}, {"days": "Sun", "time": "Closed"}], "id": "6801700003", "name": "USPS COLLECTION BOX - PO LOBBY", "address": {"city": "CERESCO", "state": "NE", "street": "313 2ND ST", "postcode": "68017"}}},
{"geometry": {"type": "Point", "coordinates": [-96.609407176, 41.2974637919]}, "type": "Feature", "properties": {"collection_times": [{"days": "Mon-Sat", "time": "3:55pm"}, {"days": "Sun", "time": "Closed"}], "id": "6801800001", "name": "USPS COLLECTION BOX - BLUE BOX", "address": {"city": "COLON", "state": "NE", "street": "108 SPRUCE ST", "postcode": "68018"}}},
{"geometry": {"type": "Point", "coordinates": [-96.609407176, 41.2974637919]}, "type": "Feature", "properties": {"collection_times": [{"days": "Mon-Sat", "time": "2:30pm"}, {"days": "Sun", "time": "Closed"}], "id": "6801800002", "name": "USPS COLLECTION BOX - PO LOBBY", "address": {"city": "COLON", "state": "NE", "street": "108 SPRUCE ST", "postcode": "68018"}}},
{"geometry": {"type": "Point", "coordinates": [-96.3640144678, 41.7858962482]}, "type": "Feature", "properties": {"collection_times": [{"days": "Mon-Fri", "time": "4:50pm"}, {"days": "Sat", "time": "4:55pm"}, {"days": "Sun", "time": "Closed"}], "id": "6801900001", "name": "USPS COLLECTION BOX - BLUE BOX", "address": {"city": "CRAIG", "state": "NE", "street": "149 N MAIN ST", "postcode": "68019"}}},
{"geometry": {"type": "Point", "coordinates": [-96.3640144678, 41.7858962482]}, "type": "Feature", "properties": {"collection_times": [{"days": "Mon-Fri", "time": "12:00pm"}, {"days": "Sat", "time": "10:30am"}, {"days": "Sun", "time": "Closed"}], "id": "6801900002", "name": "USPS COLLECTION BOX - PO LOBBY", "address": {"city": "CRAIG", "state": "NE", "street": "149 N MAIN ST", "postcode": "68019"}}},
{"geometry": {"type": "Point", "coordinates": [-96.2498603228, 42.0061194532]}, "type": "Feature", "properties": {"collection_times": [{"days": "Mon-Sat", "time": "4:30pm"}, {"days": "Sun", "time": "Closed"}], "id": "6802000001", "name": "USPS COLLECTION BOX - BLUE BOX", "address": {"city": "DECATUR", "state": "NE", "street": "833 S BROADWAY ST", "postcode": "68020"}}},
{"geometry": {"type": "Point", "coordinates": [-96.2498603228, 42.0061194532]}, "type": "Feature", "properties": {"collection_times": [{"days": "Mon-Fri", "time": "11:30am"}, {"days": "Sat", "time": "10:00am"}, {"days": "Sun", "time": "Closed"}], "id": "6802000002", "name": "USPS COLLECTION BOX - PO LOBBY", "address": {"city": "DECATUR", "state": "NE", "street": "833 S BROADWAY ST", "postcode": "68020"}}},
{"geometry": {"type": "Point", "coordinates": [-96.2322721341, 41.2867596922]}, "type": "Feature", "properties": {"collection_times": [{"days": "Mon-Fri", "time": "4:30pm"}, {"days": "Sat", "time": "4:40pm"}, {"days": "Sun", "time": "Closed"}], "id": "6802200001", "name": "USPS COLLECTION BOX - BLUE BOX", "address": {"city": "ELKHORN", "state": "NE", "street": "20284 WIRT ST", "postcode": "68022"}}},
{"geometry": {"type": "Point", "coordinates": [-96.2322721341, 41.2867596922]}, "type": "Feature", "properties": {"collection_times": [{"days": "Mon-Fri", "time": "4:30pm"}, {"days": "Sat", "time": "4:40pm"}, {"days": "Sun", "time": "Closed"}], "id": "6802200004", "name": "USPS COLLECTION BOX - BLUE BOX", "address": {"city": "ELKHORN", "state": "NE", "street": "20284 WIRT ST", "postcode": "68022"}}},
{"geometry": {"type": "Point", "coordinates": [-96.2322721341, 41.2867596922]}, "type": "Feature", "properties": {"collection_times": [{"days": "Mon-Fri", "time": "4:20pm"}, {"days": "Sat", "time": "12:00pm"}, {"days": "Sun", "time": "Closed"}], "id": "6802200007", "name": "USPS COLLECTION BOX - PO LOBBY", "address": {"city": "ELKHORN", "state": "NE", "street": "20284 WIRT ST", "postcode": "68022"}}},
{"geometry": {"type": "Point", "coordinates": [-96.2332470663, 41.2741139648]}, "type": "Feature", "properties": {"collection_times": [{"days": "Mon-Sat", "time": "10:30am"}, {"days": "Sun", "time": "Closed"}], "id": "6802200010", "name": "USPS COLLECTION BOX - BLUE BOX", "address": {"city": "ELKHORN", "state": "NE", "street": "1908 N 203RD ST", "postcode": "68022"}}},
{"geometry": {"type": "Point", "coordinates": [-96.2440929881, 41.2567352221]}, "type": "Feature", "properties": {"collection_times": [{"days": "Mon-Sat", "time": "10:30am"}, {"days": "Sun", "time": "Closed"}], "id": "6802200011", "name": "USPS COLLECTION BOX - BLUE BOX", "address": {"city": "ELKHORN", "state": "NE", "street": "400 S 210TH ST", "postcode": "68022"}}},
{"geometry": {"type": "Point", "coordinates": [-96.2204654415, 41.2484385753]}, "type": "Feature", "properties": {"collection_times": [{"days": "Mon-Sat", "time": "11:00am"}, {"days": "Sun", "time": "Closed"}], "id": "6802200012", "name": "USPS COLLECTION BOX - BLUE BOX", "address": {"city": "ELKHORN", "state": "NE", "street": "19500 PACIFIC ST", "postcode": "68022"}}},
{"geometry": {"type": "Point", "coordinates": [-96.2186349555, 41.2809661078]}, "type": "Feature", "properties": {"collection_times": [{"days": "Mon-Sat", "time": "12:00pm"}, {"days": "Sun", "time": "Closed"}], "id": "6802200013", "name": "USPS COLLECTION BOX - BLUE BOX", "address": {"city": "ELKHORN", "state": "NE", "street": "19312 GRANT PLZ", "postcode": "68022"}}},
{"geometry": {"type": "Point", "coordinates": [-96.2322721341, 41.2867596922]}, "type": "Feature", "properties": {"collection_times": [{"days": "Mon-Fri", "time": "4:20pm"}, {"days": "Sat", "time": "12:00pm"}, {"days": "Sun", "time": "Closed"}], "id": "6802200014", "name": "USPS COLLECTION BOX - PO LOBBY", "address": {"city": "ELKHORN", "state": "NE", "street": "20284 WIRT ST", "postcode": "68022"}}},
{"geometry": {"type": "Point", "coordinates": [-96.2322721341, 41.2867596922]}, "type": "Feature", "properties": {"collection_times": [{"days": "Mon-Fri", "time": "4:20pm"}, {"days": "Sat", "time": "12:00pm"}, {"days": "Sun", "time": "Closed"}], "id": "6802200015", "name": "USPS COLLECTION BOX - PO LOBBY", "address": {"city": "ELKHORN", "state": "NE", "street": "20284 WIRT ST", "postcode": "68022"}}},
{"geometry": {"type": "Point", "coordinates": [-96.2322721341, 41.2867596922]}, "type": "Feature", "properties": {"collection_times": [{"days": "Mon-Fri", "time": "4:20pm"}, {"days": "Sat", "time": "12:00pm"}, {"days": "Sun", "time": "Closed"}], "id": "6802200016", "name": "USPS COLLECTION BOX - PO LOBBY", "address": {"city": "ELKHORN", "state": "NE", "street": "20284 WIRT ST", "postcode": "68022"}}},
{"geometry": {"type": "Point", "coordinates": [-96.0262925522, 41.4589829511]}, "type": "Feature", "properties": {"collection_times": [{"days": "Mon-Fri", "time": "4:30pm"}, {"days": "Sat", "time": "5:40pm"}, {"days": "Sun", "time": "Closed"}], "id": "6802300002", "name": "USPS COLLECTION BOX - BLUE BOX", "address": {"city": "FORT CALHOUN", "state": "NE", "street": "406 N 14TH ST", "postcode": "68023"}}},
{"geometry": {"type": "Point", "coordinates": [-96.0262925522, 41.4589829511]}, "type": "Feature", "properties": {"collection_times": [{"days": "Mon-Fri", "time": "4:30pm"}, {"days": "Sat", "time": "11:00am"}, {"days": "Sun", "time": "Closed"}], "id": "6802300003", "name": "USPS COLLECTION BOX - PO LOBBY", "address": {"city": "FORT CALHOUN", "state": "NE", "street": "406 N 14TH ST", "postcode": "68023"}}},
{"geometry": {"type": "Point", "coordinates": [-96.4960618419, 41.4349087745]}, "type": "Feature", "properties": {"collection_times": [{"days": "Mon-Fri", "time": "4:00pm"}, {"days": "Sat-Sun", "time": "Closed"}], "id": "6802500008", "name": "USPS COLLECTION BOX - BLUE BOX", "address": {"city": "FREMONT", "state": "NE", "street": "617 N MAIN ST", "postcode": "68025"}}},
{"geometry": {"type": "Point", "coordinates": [-96.4835752061, 41.4434995845]}, "type": "Feature", "properties": {"collection_times": [{"days": "Mon-Sat", "time": "10:45am"}, {"days": "Sun", "time": "Closed"}], "id": "6802500009", "name": "USPS COLLECTION BOX - BLUE BOX", "address": {"city": "FREMONT", "state": "NE", "street": "1531 N BELL ST", "postcode": "68025"}}},
{"geometry": {"type": "Point", "coordinates": [-96.4974329279, 41.4332890558]}, "type": "Feature", "properties": {"collection_times": [{"days": "Mon-Fri", "time": "4:00pm"}, {"days": "Sat-Sun", "time": "Closed"}], "id": "6802500013", "name": "USPS COLLECTION BOX - BLUE BOX", "address": {"city": "FREMONT", "state": "NE", "street": "435 N PARK AVE", "postcode": "68025"}}},
{"geometry": {"type": "Point", "coordinates": [-96.4935910468, 41.4504994172]}, "type": "Feature", "properties": {"collection_times": [{"days": "Mon-Sat", "time": "9:00am"}, {"days": "Sun", "time": "Closed"}], "id": "6802500018", "name": "USPS COLLECTION BOX - BLUE BOX", "address": {"city": "FREMONT", "state": "NE", "street": "322 E 22ND ST", "postcode": "68025"}}},
{"geometry": {"type": "Point", "coordinates": [-96.4874540494, 41.4515703336]}, "type": "Feature", "properties": {"collection_times": [{"days": "Mon-Fri", "time": "11:00am"}, {"days": "Sat", "time": "10:00am"}, {"days": "Sun", "time": "Closed"}], "id": "6802500020", "name": "USPS COLLECTION BOX - BLUE BOX", "address": {"city": "FREMONT", "state": "NE", "street": "860 E 23RD ST", "postcode": "68025"}}},
{"geometry": {"type": "Point", "coordinates": [-96.4634666709, 41.4514516658]}, "type": "Feature", "properties": {"collection_times": [{"days": "Mon-Fri", "time": "4:00pm"}, {"days": "Sat", "time": "3:00pm"}, {"days": "Sun", "time": "Closed"}], "id": "6802500023", "name": "USPS COLLECTION BOX - BLUE BOX", "address": {"city": "FREMONT", "state": "NE", "street": "3010 E 23RD ST", "postcode": "68025"}}},
{"geometry": {"type": "Point", "coordinates": [-96.5012754216, 41.4514165647]}, "type": "Feature", "properties": {"collection_times": [{"days": "Mon-Fri", "time": "10:00am"}, {"days": "Sat", "time": "9:00am"}, {"days": "Sun", "time": "Closed"}], "id": "6802500024", "name": "USPS COLLECTION BOX - BLUE BOX", "address": {"city": "FREMONT", "state": "NE", "street": "450 W 23RD ST", "postcode": "68025"}}},
{"geometry": {"type": "Point", "coordinates": [-96.4961620723, 41.4338592346]}, "type": "Feature", "properties": {"collection_times": [{"days": "Mon-Fri", "time": "11:00am"}, {"days": "Sat-Sun", "time": "Closed"}], "id": "6802500027", "name": "USPS COLLECTION BOX - BLUE BOX", "address": {"city": "FREMONT", "state": "NE", "street": "505 N MAIN ST", "postcode": "68025"}}},
{"geometry": {"type": "Point", "coordinates": [-96.4972742974, 41.4348257204]}, "type": "Feature", "properties": {"collection_times": [{"days": "Mon-Fri", "time": "4:00pm"}, {"days": "Sat-Sun", "time": "Closed"}], "id": "6802500032", "name": "USPS COLLECTION BOX - BLUE BOX", "address": {"city": "FREMONT", "state": "NE", "street": "100 E 6TH ST", "postcode": "68025"}}},
{"geometry": {"type": "Point", "coordinates": [-96.4932909131, 41.4346398223]}, "type": "Feature", "properties": {"collection_times": [{"days": "Mon-Fri", "time": "4:40pm"}, {"days": "Sat", "time": "4:00pm"}, {"days": "Sun", "time": "Closed"}], "id": "6802500034", "name": "USPS COLLECTION BOX - BLUE BOX", "address": {"city": "FREMONT", "state": "NE", "street": "406 E 6TH ST", "postcode": "68025"}}},
{"geometry": {"type": "Point", "coordinates": [-96.4933849315, 41.4346347933]}, "type": "Feature", "properties": {"collection_times": [{"days": "Mon-Fri", "time": "4:40pm"}, {"days": "Sat", "time": "4:00pm"}, {"days": "Sun", "time": "Closed"}], "id": "6802500036", "name": "USPS COLLECTION BOX - BLUE BOX", "address": {"city": "FREMONT", "state": "NE", "street": "406 E 6TH ST", "postcode": "68025"}}},
{"geometry": {"type": "Point", "coordinates": [-96.4933849315, 41.4346347933]}, "type": "Feature", "properties": {"collection_times": [{"days": "Mon-Fri", "time": "4:40pm"}, {"days": "Sat", "time": "4:00pm"}, {"days": "Sun", "time": "Closed"}], "id": "6802500037", "name": "USPS COLLECTION BOX - BLUE BOX", "address": {"city": "FREMONT", "state": "NE", "street": "406 E 6TH ST", "postcode": "68025"}}},
{"geometry": {"type": "Point", "coordinates": [-96.4707691195, 41.4512852605]}, "type": "Feature", "properties": {"collection_times": [{"days": "Mon-Fri", "time": "4:00pm"}, {"days": "Sat-Sun", "time": "Closed"}], "id": "6802500038", "name": "USPS COLLECTION BOX - BLUE BOX", "address": {"city": "FREMONT", "state": "NE", "street": "2300 E 23RD ST", "postcode": "68025"}}},
{"geometry": {"type": "Point", "coordinates": [-96.4941348798, 41.4346806763]}, "type": "Feature", "properties": {"collection_times": [{"days": "Mon-Fri", "time": "4:30pm"}, {"days": "Sat", "time": "4:00pm"}, {"days": "Sun", "time": "Closed"}], "id": "6802500047", "name": "USPS COLLECTION BOX - PO LOBBY", "address": {"city": "FREMONT", "state": "NE", "street": "348 E 6TH ST", "postcode": "68025"}}},
{"geometry": {"type": "Point", "coordinates": [-96.4740647741, 41.4346231149]}, "type": "Feature", "properties": {"collection_times": [{"days": "Mon-Fri", "time": "4:00pm"}, {"days": "Sat-Sun", "time": "Closed"}], "id": "6802500049", "name": "USPS COLLECTION BOX - BLUE BOX", "address": {"city": "FREMONT", "state": "NE", "street": "1800 E MILITARY AVE", "postcode": "68025"}}},
{"geometry": {"type": "Point", "coordinates": [-96.5120955464, 41.4514246367]}, "type": "Feature", "properties": {"collection_times": [{"days": "Mon-Sat", "time": "8:30am"}, {"days": "Sun", "time": "Closed"}], "id": "6802500053", "name": "USPS COLLECTION BOX - BLUE BOX", "address": {"city": "FREMONT", "state": "NE", "street": "1156 W 23RD ST", "postcode": "68025"}}},
{"geometry": {"type": "Point", "coordinates": [-96.4634666709, 41.4514516658]}, "type": "Feature", "properties": {"collection_times": [{"days": "Mon-Fri", "time": "4:00pm"}, {"days": "Sat", "time": "3:00pm"}, {"days": "Sun", "time": "Closed"}], "id": "6802500056", "name": "USPS COLLECTION BOX - BLUE BOX", "address": {"city": "FREMONT", "state": "NE", "street": "3010 E 23RD ST", "postcode": "68025"}}},
{"geometry": {"type": "Point", "coordinates": [-96.2396677169, 41.1458219923]}, "type": "Feature", "properties": {"collection_times": [{"days": "Mon-Sat", "time": "12:30pm"}, {"days": "Sun", "time": "Closed"}], "id": "6802800003", "name": "USPS COLLECTION BOX - BLUE BOX", "address": {"city": "GRETNA", "state": "NE", "street": "916 VILLAGE SQ", "postcode": "68028"}}},
{"geometry": {"type": "Point", "coordinates": [-96.2533792609, 41.0901147291]}, "type": "Feature", "properties": {"collection_times": [{"days": "Mon-Sat", "time": "10:30am"}, {"days": "Sun", "time": "Closed"}], "id": "6802800004", "name": "USPS COLLECTION BOX - BLUE BOX", "address": {"city": "GRETNA", "state": "NE", "street": "15010 S HIGHWAY 31", "postcode": "68028"}}},
{"geometry": {"type": "Point", "coordinates": [-96.2389438333, 41.1456787403]}, "type": "Feature", "properties": {"collection_times": [{"days": "Mon-Fri", "time": "4:30pm"}, {"days": "Sat", "time": "4:40pm"}, {"days": "Sun", "time": "Closed"}], "id": "6802800005", "name": "USPS COLLECTION BOX - BLUE BOX", "address": {"city": "GRETNA", "state": "NE", "street": "104 E ENTERPRISE DR", "postcode": "68028"}}},
{"geometry": {"type": "Point", "coordinates": [-96.2389438333, 41.1456787403]}, "type": "Feature", "properties": {"collection_times": [{"days": "Mon-Fri", "time": "4:30pm"}, {"days": "Sat", "time": "11:30am"}, {"days": "Sun", "time": "Closed"}], "id": "6802800011", "name": "USPS COLLECTION BOX - PO LOBBY", "address": {"city": "GRETNA", "state": "NE", "street": "104 E ENTERPRISE DR", "postcode": "68028"}}},
{"geometry": {"type": "Point", "coordinates": [-96.2151003797, 41.6733232483]}, "type": "Feature", "properties": {"collection_times": [{"days": "Mon-Sat", "time": "4:50pm"}, {"days": "Sun", "time": "Closed"}], "id": "6802900001", "name": "USPS COLLECTION BOX - BLUE BOX", "address": {"city": "HERMAN", "state": "NE", "street": "108 5TH ST", "postcode": "68029"}}},
{"geometry": {"type": "Point", "coordinates": [-96.2151003797, 41.6733232483]}, "type": "Feature", "properties": {"collection_times": [{"days": "Mon-Fri", "time": "12:00pm"}, {"days": "Sat", "time": "10:00am"}, {"days": "Sun", "time": "Closed"}], "id": "6802900002", "name": "USPS COLLECTION BOX - PO LOBBY", "address": {"city": "HERMAN", "state": "NE", "street": "108 5TH ST", "postcode": "68029"}}},
{"geometry": {"type": "Point", "coordinates": [-96.4895975385, 42.3214479359]}, "type": "Feature", "properties": {"collection_times": [{"days": "Mon-Sat", "time": "3:20pm"}, {"days": "Sun", "time": "Closed"}], "id": "6803000001", "name": "USPS COLLECTION BOX - BLUE BOX", "address": {"city": "HOMER", "state": "NE", "street": "113 JOHN ST", "postcode": "68030"}}},
{"geometry": {"type": "Point", "coordinates": [-96.4895975385, 42.3214479359]}, "type": "Feature", "properties": {"collection_times": [{"days": "Mon-Fri", "time": "12:30pm"}, {"days": "Sat", "time": "10:30am"}, {"days": "Sun", "time": "Closed"}], "id": "6803000002", "name": "USPS COLLECTION BOX - PO LOBBY", "address": {"city": "HOMER", "state": "NE", "street": "113 JOHN ST", "postcode": "68030"}}},
{"geometry": {"type": "Point", "coordinates": [-96.5478550761, 41.6119714761]}, "type": "Feature", "properties": {"collection_times": [{"days": "Mon-Sat", "time": "4:00pm"}, {"days": "Sun", "time": "Closed"}], "id": "6803100001", "name": "USPS COLLECTION BOX - BLUE BOX", "address": {"city": "HOOPER", "state": "NE", "street": "211 N MAIN ST", "postcode": "68031"}}},
{"geometry": {"type": "Point", "coordinates": [-96.5478550761, 41.6119714761]}, "type": "Feature", "properties": {"collection_times": [{"days": "Mon-Fri", "time": "4:00pm"}, {"days": "Sat", "time": "10:00am"}, {"days": "Sun", "time": "Closed"}], "id": "6803100002", "name": "USPS COLLECTION BOX - PO LOBBY", "address": {"city": "HOOPER", "state": "NE", "street": "211 N MAIN ST", "postcode": "68031"}}},
{"geometry": {"type": "Point", "coordinates": [-96.5478550761, 41.6119714761]}, "type": "Feature", "properties": {"collection_times": [{"days": "Mon-Fri", "time": "4:00pm"}, {"days": "Sat", "time": "10:00am"}, {"days": "Sun", "time": "Closed"}], "id": "6803100005", "name": "USPS COLLECTION BOX - PO LOBBY", "address": {"city": "HOOPER", "state": "NE", "street": "211 N MAIN ST", "postcode": "68031"}}},
{"geometry": {"type": "Point", "coordinates": [-96.5405083494, 41.1574491366]}, "type": "Feature", "properties": {"collection_times": [{"days": "Mon-Fri", "time": "4:30pm"}, {"days": "Sat", "time": "12:00pm"}, {"days": "Sun", "time": "Closed"}], "id": "6803300002", "name": "USPS COLLECTION BOX - PO LOBBY", "address": {"city": "ITHACA", "state": "NE", "street": "402 MAIN ST", "postcode": "68033"}}},
{"geometry": {"type": "Point", "coordinates": [-96.5405083494, 41.1574491366]}, "type": "Feature", "properties": {"collection_times": [{"days": "Mon-Sat", "time": "4:35pm"}, {"days": "Sun", "time": "Closed"}], "id": "6803300003", "name": "USPS COLLECTION BOX - BLUE BOX", "address": {"city": "ITHACA", "state": "NE", "street": "402 MAIN ST", "postcode": "68033"}}},
{"geometry": {"type": "Point", "coordinates": [-96.2015801926, 41.4728934814]}, "type": "Feature", "properties": {"collection_times": [{"days": "Mon-Sat", "time": "5:05pm"}, {"days": "Sun", "time": "Closed"}], "id": "6803400001", "name": "USPS COLLECTION BOX - BLUE BOX", "address": {"city": "KENNARD", "state": "NE", "street": "204 MAIN ST", "postcode": "68034"}}},
{"geometry": {"type": "Point", "coordinates": [-96.2015801926, 41.4728934814]}, "type": "Feature", "properties": {"collection_times": [{"days": "Mon-Fri", "time": "4:00pm"}, {"days": "Sat", "time": "2:50pm"}, {"days": "Sun", "time": "Closed"}], "id": "6803400002", "name": "USPS COLLECTION BOX - PO LOBBY", "address": {"city": "KENNARD", "state": "NE", "street": "204 MAIN ST", "postcode": "68034"}}},
{"geometry": {"type": "Point", "coordinates": [-96.9320956544, 41.4134901509]}, "type": "Feature", "properties": {"collection_times": [{"days": "Mon-Sat", "time": "1:30pm"}, {"days": "Sun", "time": "Closed"}], "id": "6803600000", "name": "USPS COLLECTION BOX - BLUE BOX", "address": {"city": "LINWOOD", "state": "NE", "street": "215 2ND ST", "postcode": "68036"}}},
{"geometry": {"type": "Point", "coordinates": [-96.9320956544, 41.4134901509]}, "type": "Feature", "properties": {"collection_times": [{"days": "Mon-Sat", "time": "1:30pm"}, {"days": "Sun", "time": "Closed"}], "id": "6803600001", "name": "USPS COLLECTION BOX - PO LOBBY", "address": {"city": "LINWOOD", "state": "NE", "street": "215 2ND ST", "postcode": "68036"}}},
{"geometry": {"type": "Point", "coordinates": [-96.1631428437, 41.000960501]}, "type": "Feature", "properties": {"collection_times": [{"days": "Mon-Fri", "time": "3:30pm"}, {"days": "Sat", "time": "3:35pm"}, {"days": "Sun", "time": "Closed"}], "id": "6803700001", "name": "USPS COLLECTION BOX - BLUE BOX", "address": {"city": "LOUISVILLE", "state": "NE", "street": "202 CHERRY ST", "postcode": "68037"}}},
{"geometry": {"type": "Point", "coordinates": [-96.1631428437, 41.000960501]}, "type": "Feature", "properties": {"collection_times": [{"days": "Mon-Fri", "time": "3:15pm"}, {"days": "Sat", "time": "10:15am"}, {"days": "Sun", "time": "Closed"}], "id": "6803700002", "name": "USPS COLLECTION BOX - PO LOBBY", "address": {"city": "LOUISVILLE", "state": "NE", "street": "202 CHERRY ST", "postcode": "68037"}}},
{"geometry": {"type": "Point", "coordinates": [-96.4773568918, 41.9371405415]}, "type": "Feature", "properties": {"collection_times": [{"days": "Mon-Fri", "time": "4:15pm"}, {"days": "Sat", "time": "4:20pm"}, {"days": "Sun", "time": "Closed"}], "id": "6803800001", "name": "USPS COLLECTION BOX - BLUE BOX", "address": {"city": "LYONS", "state": "NE", "street": "145 S 2ND ST", "postcode": "68038"}}},
{"geometry": {"type": "Point", "coordinates": [-96.4778332344, 41.9375326377]}, "type": "Feature", "properties": {"collection_times": [{"days": "Mon-Fri", "time": "4:05pm"}, {"days": "Sat", "time": "9:30am"}, {"days": "Sun", "time": "Closed"}], "id": "6803800002", "name": "USPS COLLECTION BOX - PO LOBBY", "address": {"city": "LYONS", "state": "NE", "street": "165 MAIN ST", "postcode": "68038"}}},
{"geometry": {"type": "Point", "coordinates": [-96.4778332344, 41.9375326377]}, "type": "Feature", "properties": {"collection_times": [{"days": "Mon-Fri", "time": "4:05pm"}, {"days": "Sat", "time": "9:30am"}, {"days": "Sun", "time": "Closed"}], "id": "6803800004", "name": "USPS COLLECTION BOX - PO LOBBY", "address": {"city": "LYONS", "state": "NE", "street": "165 MAIN ST", "postcode": "68038"}}},
{"geometry": {"type": "Point", "coordinates": [-96.3571350078, 42.1163434844]}, "type": "Feature", "properties": {"collection_times": [{"days": "Mon-Fri", "time": "12:00pm"}, {"days": "Sat", "time": "10:00am"}, {"days": "Sun", "time": "Closed"}], "id": "6803900002", "name": "USPS COLLECTION BOX - PO LOBBY", "address": {"city": "MACY", "state": "NE", "street": "665 SUNRISE DR", "postcode": "68039"}}},
{"geometry": {"type": "Point", "coordinates": [-96.3571350078, 42.1163434844]}, "type": "Feature", "properties": {"collection_times": [{"days": "Mon-Fri", "time": "12:00pm"}, {"days": "Sat", "time": "10:00am"}, {"days": "Sun", "time": "Closed"}], "id": "6803900004", "name": "USPS COLLECTION BOX - PO LOBBY", "address": {"city": "MACY", "state": "NE", "street": "665 SUNRISE DR", "postcode": "68039"}}},
{"geometry": {"type": "Point", "coordinates": [-96.7220723551, 41.2654946904]}, "type": "Feature", "properties": {"collection_times": [{"days": "Mon-Fri", "time": "1:20pm"}, {"days": "Sat", "time": "1:10pm"}, {"days": "Sun", "time": "Closed"}], "id": "6804000001", "name": "USPS COLLECTION BOX - BLUE BOX", "address": {"city": "MALMO", "state": "NE", "street": "158 CENTER AVE", "postcode": "68040"}}},
{"geometry": {"type": "Point", "coordinates": [-96.7220723551, 41.2654946904]}, "type": "Feature", "properties": {"collection_times": [{"days": "Mon-Fri", "time": "1:20pm"}, {"days": "Sat", "time": "1:10pm"}, {"days": "Sun", "time": "Closed"}], "id": "6804000002", "name": "USPS COLLECTION BOX - PO LOBBY", "address": {"city": "MALMO", "state": "NE", "street": "158 CENTER AVE", "postcode": "68040"}}},
{"geometry": {"type": "Point", "coordinates": [-96.4890424848, 41.2272320368]}, "type": "Feature", "properties": {"collection_times": [{"days": "Mon-Sat", "time": "4:40pm"}, {"days": "Sun", "time": "Closed"}], "id": "6804100001", "name": "USPS COLLECTION BOX - BLUE BOX", "address": {"city": "MEAD", "state": "NE", "street": "320 S VINE ST", "postcode": "68041"}}},
{"geometry": {"type": "Point", "coordinates": [-96.4890424848, 41.2272320368]}, "type": "Feature", "properties": {"collection_times": [{"days": "Mon-Fri", "time": "2:00pm"}, {"days": "Sat", "time": "9:30am"}, {"days": "Sun", "time": "Closed"}], "id": "6804100002", "name": "USPS COLLECTION BOX - PO LOBBY", "address": {"city": "MEAD", "state": "NE", "street": "320 S VINE ST", "postcode": "68041"}}},
{"geometry": {"type": "Point", "coordinates": [-96.468819103, 41.5344662841]}, "type": "Feature", "properties": {"collection_times": [{"days": "Mon-Sat", "time": "4:20pm"}, {"days": "Sun", "time": "Closed"}], "id": "6804400001", "name": "USPS COLLECTION BOX - BLUE BOX", "address": {"city": "NICKERSON", "state": "NE", "street": "209 CEDAR ST", "postcode": "68044"}}},
{"geometry": {"type": "Point", "coordinates": [-96.468819103, 41.5344662841]}, "type": "Feature", "properties": {"collection_times": [{"days": "Mon-Fri", "time": "12:00pm"}, {"days": "Sat", "time": "11:00am"}, {"days": "Sun", "time": "Closed"}], "id": "6804400002", "name": "USPS COLLECTION BOX - PO LOBBY", "address": {"city": "NICKERSON", "state": "NE", "street": "209 CEDAR ST", "postcode": "68044"}}},
{"geometry": {"type": "Point", "coordinates": [-96.4667688009, 41.8355497537]}, "type": "Feature", "properties": {"collection_times": [{"days": "Mon-Fri", "time": "4:35pm"}, {"days": "Sat", "time": "4:40pm"}, {"days": "Sun", "time": "Closed"}], "id": "6804500005", "name": "USPS COLLECTION BOX - BLUE BOX", "address": {"city": "OAKLAND", "state": "NE", "street": "313 N OAKLAND AVE", "postcode": "68045"}}},
{"geometry": {"type": "Point", "coordinates": [-96.4667688009, 41.8355497537]}, "type": "Feature", "properties": {"collection_times": [{"days": "Mon-Fri", "time": "4:25pm"}, {"days": "Sat", "time": "10:00am"}, {"days": "Sun", "time": "Closed"}], "id": "6804500006", "name": "USPS COLLECTION BOX - PO LOBBY", "address": {"city": "OAKLAND", "state": "NE", "street": "313 N OAKLAND AVE", "postcode": "68045"}}},
{"geometry": {"type": "Point", "coordinates": [-96.0398857652, 41.1419098453]}, "type": "Feature", "properties": {"collection_times": [{"days": "Mon-Sat", "time": "12:00pm"}, {"days": "Sun", "time": "Closed"}], "id": "6804600000", "name": "USPS COLLECTION BOX - BLUE BOX", "address": {"city": "PAPILLION", "state": "NE", "street": "1210 GOLDEN GATE DR", "postcode": "68046"}}},
{"geometry": {"type": "Point", "coordinates": [-96.0398857652, 41.1419098453]}, "type": "Feature", "properties": {"collection_times": [{"days": "Mon-Sat", "time": "12:00pm"}, {"days": "Sun", "time": "Closed"}], "id": "6804600001", "name": "USPS COLLECTION BOX - BLUE BOX", "address": {"city": "PAPILLION", "state": "NE", "street": "1210 GOLDEN GATE DR", "postcode": "68046"}}},
{"geometry": {"type": "Point", "coordinates": [-96.0398857652, 41.1419098453]}, "type": "Feature", "properties": {"collection_times": [{"days": "Mon-Sat", "time": "12:00pm"}, {"days": "Sun", "time": "Closed"}], "id": "6804600002", "name": "USPS COLLECTION BOX - BLUE BOX", "address": {"city": "PAPILLION", "state": "NE", "street": "1210 GOLDEN GATE DR", "postcode": "68046"}}},
{"geometry": {"type": "Point", "coordinates": [-96.0435353251, 41.1573938237]}, "type": "Feature", "properties": {"collection_times": [{"days": "Mon-Sat", "time": "10:00am"}, {"days": "Sun", "time": "Closed"}], "id": "6804600004", "name": "USPS COLLECTION BOX - BLUE BOX", "address": {"city": "PAPILLION", "state": "NE", "street": "145 W 2ND ST", "postcode": "68046"}}},
{"geometry": {"type": "Point", "coordinates": [-96.0426035969, 41.1585193112]}, "type": "Feature", "properties": {"collection_times": [{"days": "Mon-Sat", "time": "10:00am"}, {"days": "Sun", "time": "Closed"}], "id": "6804600005", "name": "USPS COLLECTION BOX - BLUE BOX", "address": {"city": "PAPILLION", "state": "NE", "street": "122 E 3RD ST", "postcode": "68046"}}},
{"geometry": {"type": "Point", "coordinates": [-96.0443023724, 41.1696721923]}, "type": "Feature", "properties": {"collection_times": [{"days": "Mon-Fri", "time": "5:30pm"}, {"days": "Sat", "time": "4:30pm"}, {"days": "Sun", "time": "Closed"}], "id": "6804600008", "name": "USPS COLLECTION BOX - BLUE BOX", "address": {"city": "PAPILLION", "state": "NE", "street": "909 N ADAMS ST", "postcode": "68046"}}},
{"geometry": {"type": "Point", "coordinates": [-96.0443023724, 41.1696721923]}, "type": "Feature", "properties": {"collection_times": [{"days": "Mon-Fri", "time": "5:30pm"}, {"days": "Sat", "time": "4:30pm"}, {"days": "Sun", "time": "Closed"}], "id": "6804600009", "name": "USPS COLLECTION BOX - BLUE BOX", "address": {"city": "PAPILLION", "state": "NE", "street": "909 N ADAMS ST", "postcode": "68046"}}},
{"geometry": {"type": "Point", "coordinates": [-96.04438, 41.17043]}, "type": "Feature", "properties": {"collection_times": [{"days": "Mon-Fri", "time": "5:30pm"}, {"days": "Sat", "time": "4:30pm"}, {"days": "Sun", "time": "Closed"}], "id": "6804600010", "name": "USPS COLLECTION BOX - BLUE BOX", "address": {"city": "PAPILLION", "state": "NE", "street": "909 N ADAMS ST", "postcode": "68046"}}},
{"geometry": {"type": "Point", "coordinates": [-96.04438, 41.17043]}, "type": "Feature", "properties": {"collection_times": [{"days": "Mon-Fri", "time": "5:30pm"}, {"days": "Sat", "time": "4:30pm"}, {"days": "Sun", "time": "Closed"}], "id": "6804600011", "name": "USPS COLLECTION BOX - BLUE BOX", "address": {"city": "PAPILLION", "state": "NE", "street": "909 N ADAMS ST", "postcode": "68046"}}},
{"geometry": {"type": "Point", "coordinates": [-96.0397159073, 41.1374794915]}, "type": "Feature", "properties": {"collection_times": [{"days": "Mon-Sat", "time": "10:00am"}, {"days": "Sun", "time": "Closed"}], "id": "6804600012", "name": "USPS COLLECTION BOX - BLUE BOX", "address": {"city": "PAPILLION", "state": "NE", "street": "401 E GOLD COAST RD", "postcode": "68046"}}},
{"geometry": {"type": "Point", "coordinates": [-96.0443023724, 41.1696721923]}, "type": "Feature", "properties": {"collection_times": [{"days": "Mon-Fri", "time": "5:30pm"}, {"days": "Sat", "time": "4:30pm"}, {"days": "Sun", "time": "Closed"}], "id": "6804600015", "name": "USPS COLLECTION BOX - BLUE BOX", "address": {"city": "PAPILLION", "state": "NE", "street": "909 N ADAMS ST", "postcode": "68046"}}},
{"geometry": {"type": "Point", "coordinates": [-96.0443023724, 41.1696721923]}, "type": "Feature", "properties": {"collection_times": [{"days": "Mon-Fri", "time": "5:30pm"}, {"days": "Sat", "time": "4:30pm"}, {"days": "Sun", "time": "Closed"}], "id": "6804600016", "name": "USPS COLLECTION BOX - BLUE BOX", "address": {"city": "PAPILLION", "state": "NE", "street": "909 N ADAMS ST", "postcode": "68046"}}},
{"geometry": {"type": "Point", "coordinates": [-96.045717759, 41.1465627024]}, "type": "Feature", "properties": {"collection_times": [{"days": "Mon-Fri", "time": "5:30pm"}, {"days": "Sat", "time": "4:30pm"}, {"days": "Sun", "time": "Closed"}], "id": "6804600017", "name": "USPS COLLECTION BOX - EXPRESS", "address": {"city": "PAPILLION", "state": "NE", "street": "909 N ADAMS ST", "postcode": "68046"}}},
{"geometry": {"type": "Point", "coordinates": [-96.0443023724, 41.1696721923]}, "type": "Feature", "properties": {"collection_times": [{"days": "Mon-Fri", "time": "5:30pm"}, {"days": "Sat", "time": "4:30pm"}, {"days": "Sun", "time": "Closed"}], "id": "6804600018", "name": "USPS COLLECTION BOX - PO LOBBY", "address": {"city": "PAPILLION", "state": "NE", "street": "909 N ADAMS ST", "postcode": "68046"}}},
{"geometry": {"type": "Point", "coordinates": [-96.0443023724, 41.1696721923]}, "type": "Feature", "properties": {"collection_times": [{"days": "Mon-Fri", "time": "5:30pm"}, {"days": "Sat", "time": "4:30pm"}, {"days": "Sun", "time": "Closed"}], "id": "6804600020", "name": "USPS COLLECTION BOX - APC", "address": {"city": "PAPILLION", "state": "NE", "street": "909 N ADAMS ST", "postcode": "68046"}}},
{"geometry": {"type": "Point", "coordinates": [-96.0276945125, 41.1373372684]}, "type": "Feature", "properties": {"collection_times": [{"days": "Mon-Fri", "time": "5:15pm"}, {"days": "Sat", "time": "4:35pm"}, {"days": "Sun", "time": "Closed"}], "id": "6804600023", "name": "USPS COLLECTION BOX - BLUE BOX", "address": {"city": "PAPILLION", "state": "NE", "street": "7608 OLSON DR", "postcode": "68046"}}},
{"geometry": {"type": "Point", "coordinates": [-96.70601602, 42.1140346382]}, "type": "Feature", "properties": {"collection_times": [{"days": "Mon-Fri", "time": "3:15pm"}, {"days": "Sat", "time": "3:20pm"}, {"days": "Sun", "time": "Closed"}], "id": "6804700001", "name": "USPS COLLECTION BOX - BLUE BOX", "address": {"city": "PENDER", "state": "NE", "street": "319 MAIN ST", "postcode": "68047"}}},
{"geometry": {"type": "Point", "coordinates": [-96.70601602, 42.1140346382]}, "type": "Feature", "properties": {"collection_times": [{"days": "Mon-Fri", "time": "3:15pm"}, {"days": "Sat", "time": "10:00am"}, {"days": "Sun", "time": "Closed"}], "id": "6804700002", "name": "USPS COLLECTION BOX - PO LOBBY", "address": {"city": "PENDER", "state": "NE", "street": "319 MAIN ST", "postcode": "68047"}}},
{"geometry": {"type": "Point", "coordinates": [-95.8851184539, 41.0111471669]}, "type": "Feature", "properties": {"collection_times": [{"days": "Mon-Fri", "time": "3:40pm"}, {"days": "Sat", "time": "1:30pm"}, {"days": "Sun", "time": "Closed"}], "id": "6804800001", "name": "USPS COLLECTION BOX - BLUE BOX", "address": {"city": "PLATTSMOUTH", "state": "NE", "street": "501 MAIN ST", "postcode": "68048"}}},
{"geometry": {"type": "Point", "coordinates": [-95.9056009717, 41.0024212749]}, "type": "Feature", "properties": {"collection_times": [{"days": "Mon-Fri", "time": "3:40pm"}, {"days": "Sat", "time": "10:00am"}, {"days": "Sun", "time": "Closed"}], "id": "6804800006", "name": "USPS COLLECTION BOX - BLUE BOX", "address": {"city": "PLATTSMOUTH", "state": "NE", "street": "2380 8TH AVE", "postcode": "68048"}}},
{"geometry": {"type": "Point", "coordinates": [-95.8886486054, 41.0132589199]}, "type": "Feature", "properties": {"collection_times": [{"days": "Mon-Fri", "time": "4:30pm"}, {"days": "Sat", "time": "4:40pm"}, {"days": "Sun", "time": "Closed"}], "id": "6804800007", "name": "USPS COLLECTION BOX - BLUE BOX", "address": {"city": "PLATTSMOUTH", "state": "NE", "street": "802 AVENUE B", "postcode": "68048"}}},
{"geometry": {"type": "Point", "coordinates": [-95.8886486054, 41.0132589199]}, "type": "Feature", "properties": {"collection_times": [{"days": "Mon-Fri", "time": "4:20pm"}, {"days": "Sat", "time": "12:00pm"}, {"days": "Sun", "time": "Closed"}], "id": "6804800010", "name": "USPS COLLECTION BOX - PO LOBBY", "address": {"city": "PLATTSMOUTH", "state": "NE", "street": "802 AVENUE B", "postcode": "68048"}}},
{"geometry": {"type": "Point", "coordinates": [-95.8831892563, 41.0111385267]}, "type": "Feature", "properties": {"collection_times": [{"days": "Mon-Fri", "time": "3:45pm"}, {"days": "Sat", "time": "1:30pm"}, {"days": "Sun", "time": "Closed"}], "id": "6804800012", "name": "USPS COLLECTION BOX - BLUE BOX", "address": {"city": "PLATTSMOUTH", "state": "NE", "street": "346 MAIN ST", "postcode": "68048"}}},
{"geometry": {"type": "Point", "coordinates": [-95.8831892563, 41.0111385267]}, "type": "Feature", "properties": {"collection_times": [{"days": "Mon-Fri", "time": "3:45pm"}, {"days": "Sat", "time": "1:30pm"}, {"days": "Sun", "time": "Closed"}], "id": "6804800013", "name": "USPS COLLECTION BOX - BLUE BOX", "address": {"city": "PLATTSMOUTH", "state": "NE", "street": "346 MAIN ST", "postcode": "68048"}}},
{"geometry": {"type": "Point", "coordinates": [-96.8085633745, 41.3100965899]}, "type": "Feature", "properties": {"collection_times": [{"days": "Mon-Sat", "time": "3:30pm"}, {"days": "Sun", "time": "Closed"}], "id": "6805000001", "name": "USPS COLLECTION BOX - BLUE BOX", "address": {"city": "PRAGUE", "state": "NE", "street": "303 W CENTER AVE", "postcode": "68050"}}},
{"geometry": {"type": "Point", "coordinates": [-96.8085633745, 41.3100965899]}, "type": "Feature", "properties": {"collection_times": [{"days": "Mon-Fri", "time": "12:00pm"}, {"days": "Sat", "time": "10:00am"}, {"days": "Sun", "time": "Closed"}], "id": "6805000002", "name": "USPS COLLECTION BOX - PO LOBBY", "address": {"city": "PRAGUE", "state": "NE", "street": "303 W CENTER AVE", "postcode": "68050"}}},
{"geometry": {"type": "Point", "coordinates": [-96.5125294717, 42.0544454158]}, "type": "Feature", "properties": {"collection_times": [{"days": "Mon-Sat", "time": "3:55pm"}, {"days": "Sun", "time": "Closed"}], "id": "6805500001", "name": "USPS COLLECTION BOX - BLUE BOX", "address": {"city": "ROSALIE", "state": "NE", "street": "200 FARLEY AVE", "postcode": "68055"}}},
{"geometry": {"type": "Point", "coordinates": [-96.5125294717, 42.0544454158]}, "type": "Feature", "properties": {"collection_times": [{"days": "Mon-Fri", "time": "2:00pm"}, {"days": "Sat", "time": "1:30pm"}, {"days": "Sun", "time": "Closed"}], "id": "6805500002", "name": "USPS COLLECTION BOX - PO LOBBY", "address": {"city": "ROSALIE", "state": "NE", "street": "200 FARLEY AVE", "postcode": "68055"}}},
{"geometry": {"type": "Point", "coordinates": [-96.7055535356, 41.6589204254]}, "type": "Feature", "properties": {"collection_times": [{"days": "Mon-Sat", "time": "3:40pm"}, {"days": "Sun", "time": "Closed"}], "id": "6805700001", "name": "USPS COLLECTION BOX - BLUE BOX", "address": {"city": "SCRIBNER", "state": "NE", "street": "501 3RD ST", "postcode": "68057"}}},
{"geometry": {"type": "Point", "coordinates": [-96.7055535356, 41.6589204254]}, "type": "Feature", "properties": {"collection_times": [{"days": "Mon-Fri", "time": "3:30pm"}, {"days": "Sat", "time": "10:30am"}, {"days": "Sun", "time": "Closed"}], "id": "6805700005", "name": "USPS COLLECTION BOX - PO LOBBY", "address": {"city": "SCRIBNER", "state": "NE", "street": "501 3RD ST", "postcode": "68057"}}},
{"geometry": {"type": "Point", "coordinates": [-96.2458734088, 41.002605927]}, "type": "Feature", "properties": {"collection_times": [{"days": "Mon-Fri", "time": "3:10pm"}, {"days": "Sat", "time": "3:15pm"}, {"days": "Sun", "time": "Closed"}], "id": "6805800001", "name": "USPS COLLECTION BOX - BLUE BOX", "address": {"city": "SOUTH BEND", "state": "NE", "street": "103 N NEBRASKA ST", "postcode": "68058"}}},
{"geometry": {"type": "Point", "coordinates": [-96.2458734088, 41.002605927]}, "type": "Feature", "properties": {"collection_times": [{"days": "Mon-Sat", "time": "12:30pm"}, {"days": "Sun", "time": "Closed"}], "id": "6805800002", "name": "USPS COLLECTION BOX - PO LOBBY", "address": {"city": "SOUTH BEND", "state": "NE", "street": "103 N NEBRASKA ST", "postcode": "68058"}}},
{"geometry": {"type": "Point", "coordinates": [-96.133466665, 41.0823908766]}, "type": "Feature", "properties": {"collection_times": [{"days": "Mon-Fri", "time": "3:45pm"}, {"days": "Sat", "time": "3:55pm"}, {"days": "Sun", "time": "Closed"}], "id": "6805900001", "name": "USPS COLLECTION BOX - BLUE BOX", "address": {"city": "SPRINGFIELD", "state": "NE", "street": "160 N 2ND ST", "postcode": "68059"}}},
{"geometry": {"type": "Point", "coordinates": [-96.1334758866, 41.0823980272]}, "type": "Feature", "properties": {"collection_times": [{"days": "Mon-Fri", "time": "3:35pm"}, {"days": "Sat", "time": "10:30am"}, {"days": "Sun", "time": "Closed"}], "id": "6805900002", "name": "USPS COLLECTION BOX - PO LOBBY", "address": {"city": "SPRINGFIELD", "state": "NE", "street": "160 N 2ND ST", "postcode": "68059"}}},
{"geometry": {"type": "Point", "coordinates": [-96.2225612285, 41.7758635129]}, "type": "Feature", "properties": {"collection_times": [{"days": "Mon-Fri", "time": "4:25pm"}, {"days": "Sat", "time": "4:35pm"}, {"days": "Sun", "time": "Closed"}], "id": "6806100004", "name": "USPS COLLECTION BOX - BLUE BOX", "address": {"city": "TEKAMAH", "state": "NE", "street": "315 S 14TH ST", "postcode": "68061"}}},
{"geometry": {"type": "Point", "coordinates": [-96.2205635099, 41.775940067]}, "type": "Feature", "properties": {"collection_times": [{"days": "Mon-Fri", "time": "4:15pm"}, {"days": "Sat", "time": "10:15am"}, {"days": "Sun", "time": "Closed"}], "id": "6806100005", "name": "USPS COLLECTION BOX - PO LOBBY", "address": {"city": "TEKAMAH", "state": "NE", "street": "1323 K ST", "postcode": "68061"}}},
{"geometry": {"type": "Point", "coordinates": [-96.7007324576, 42.1769599722]}, "type": "Feature", "properties": {"collection_times": [{"days": "Mon-Fri", "time": "2:55pm"}, {"days": "Sat", "time": "3:00pm"}, {"days": "Sun", "time": "Closed"}], "id": "6806200001", "name": "USPS COLLECTION BOX - BLUE BOX", "address": {"city": "THURSTON", "state": "NE", "street": "111 S MAIN ST", "postcode": "68062"}}},
{"geometry": {"type": "Point", "coordinates": [-96.7007324576, 42.1769599722]}, "type": "Feature", "properties": {"collection_times": [{"days": "Mon-Fri", "time": "12:00pm"}, {"days": "Sat", "time": "9:30am"}, {"days": "Sun", "time": "Closed"}], "id": "6806200002", "name": "USPS COLLECTION BOX - PO LOBBY", "address": {"city": "THURSTON", "state": "NE", "street": "111 S MAIN ST", "postcode": "68062"}}},
{"geometry": {"type": "Point", "coordinates": [-96.5049602014, 41.7349713511]}, "type": "Feature", "properties": {"collection_times": [{"days": "Mon-Sat", "time": "3:20pm"}, {"days": "Sun", "time": "Closed"}], "id": "6806300001", "name": "USPS COLLECTION BOX - BLUE BOX", "address": {"city": "UEHLING", "state": "NE", "street": "406 MAIN ST", "postcode": "68063"}}},
{"geometry": {"type": "Point", "coordinates": [-96.5049602014, 41.7349713511]}, "type": "Feature", "properties": {"collection_times": [{"days": "Mon-Fri", "time": "12:50pm"}, {"days": "Sat", "time": "11:50am"}, {"days": "Sun", "time": "Closed"}], "id": "6806300002", "name": "USPS COLLECTION BOX - PO LOBBY", "address": {"city": "UEHLING", "state": "NE", "street": "406 MAIN ST", "postcode": "68063"}}},
{"geometry": {"type": "Point", "coordinates": [-96.3445471888, 41.3136436872]}, "type": "Feature", "properties": {"collection_times": [{"days": "Mon-Fri", "time": "4:10pm"}, {"days": "Sat", "time": "4:00pm"}, {"days": "Sun", "time": "Closed"}], "id": "6806400001", "name": "USPS COLLECTION BOX - BLUE BOX", "address": {"city": "VALLEY", "state": "NE", "street": "108 E 2ND ST", "postcode": "68064"}}},
{"geometry": {"type": "Point", "coordinates": [-96.3445471888, 41.3136436872]}, "type": "Feature", "properties": {"collection_times": [{"days": "Mon-Fri", "time": "4:00pm"}, {"days": "Sat", "time": "10:00am"}, {"days": "Sun", "time": "Closed"}], "id": "6806400003", "name": "USPS COLLECTION BOX - PO LOBBY", "address": {"city": "VALLEY", "state": "NE", "street": "108 E 2ND ST", "postcode": "68064"}}},
{"geometry": {"type": "Point", "coordinates": [-96.8342054664, 41.082569379]}, "type": "Feature", "properties": {"collection_times": [{"days": "Mon-Sat", "time": "4:05pm"}, {"days": "Sun", "time": "Closed"}], "id": "6806500001", "name": "USPS COLLECTION BOX - BLUE BOX", "address": {"city": "VALPARAISO", "state": "NE", "street": "120 N PINE ST", "postcode": "68065"}}},
{"geometry": {"type": "Point", "coordinates": [-96.8342054664, 41.082569379]}, "type": "Feature", "properties": {"collection_times": [{"days": "Mon-Fri", "time": "2:30pm"}, {"days": "Sat", "time": "9:30am"}, {"days": "Sun", "time": "Closed"}], "id": "6806500002", "name": "USPS COLLECTION BOX - PO LOBBY", "address": {"city": "VALPARAISO", "state": "NE", "street": "120 N PINE ST", "postcode": "68065"}}},
{"geometry": {"type": "Point", "coordinates": [-96.619458436, 41.211075928]}, "type": "Feature", "properties": {"collection_times": [{"days": "Mon-Fri", "time": "4:15pm"}, {"days": "Sat", "time": "4:10pm"}, {"days": "Sun", "time": "Closed"}], "id": "6806600001", "name": "USPS COLLECTION BOX - BLUE BOX", "address": {"city": "WAHOO", "state": "NE", "street": "134 E 6TH ST", "postcode": "68066"}}},
{"geometry": {"type": "Point", "coordinates": [-96.619458436, 41.211075928]}, "type": "Feature", "properties": {"collection_times": [{"days": "Mon-Fri", "time": "4:00pm"}, {"days": "Sat", "time": "10:20am"}, {"days": "Sun", "time": "Closed"}], "id": "6806600013", "name": "USPS COLLECTION BOX - PO LOBBY", "address": {"city": "WAHOO", "state": "NE", "street": "134 E 6TH ST", "postcode": "68066"}}},
{"geometry": {"type": "Point", "coordinates": [-96.6226189942, 41.2101437218]}, "type": "Feature", "properties": {"collection_times": [{"days": "Mon-Sat", "time": "12:30pm"}, {"days": "Sun", "time": "Closed"}], "id": "6806600015", "name": "USPS COLLECTION BOX - BLUE BOX", "address": {"city": "WAHOO", "state": "NE", "street": "314 W 5TH ST", "postcode": "68066"}}},
{"geometry": {"type": "Point", "coordinates": [-96.4887100367, 42.1483245461]}, "type": "Feature", "properties": {"collection_times": [{"days": "Mon-Sat", "time": "4:05pm"}, {"days": "Sun", "time": "Closed"}], "id": "6806700001", "name": "USPS COLLECTION BOX - BLUE BOX", "address": {"city": "WALTHILL", "state": "NE", "street": "316 MAIN ST", "postcode": "68067"}}},
{"geometry": {"type": "Point", "coordinates": [-96.4887100367, 42.1483245461]}, "type": "Feature", "properties": {"collection_times": [{"days": "Mon-Fri", "time": "3:20pm"}, {"days": "Sat", "time": "11:20am"}, {"days": "Sun", "time": "Closed"}], "id": "6806700002", "name": "USPS COLLECTION BOX - PO LOBBY", "address": {"city": "WALTHILL", "state": "NE", "street": "316 MAIN ST", "postcode": "68067"}}},
{"geometry": {"type": "Point", "coordinates": [-96.2838759869, 41.2873855606]}, "type": "Feature", "properties": {"collection_times": [{"days": "Mon-Fri", "time": "4:30pm"}, {"days": "Sat", "time": "5:10pm"}, {"days": "Sun", "time": "Closed"}], "id": "6806900001", "name": "USPS COLLECTION BOX - BLUE BOX", "address": {"city": "WATERLOO", "state": "NE", "street": "206 WASHINGTON ST", "postcode": "68069"}}},
{"geometry": {"type": "Point", "coordinates": [-96.2838759869, 41.2873855606]}, "type": "Feature", "properties": {"collection_times": [{"days": "Mon-Fri", "time": "4:30pm"}, {"days": "Sat", "time": "10:00am"}, {"days": "Sun", "time": "Closed"}], "id": "6806900002", "name": "USPS COLLECTION BOX - PO LOBBY", "address": {"city": "WATERLOO", "state": "NE", "street": "206 WASHINGTON ST", "postcode": "68069"}}},
{"geometry": {"type": "Point", "coordinates": [-96.7440027159, 41.192250345]}, "type": "Feature", "properties": {"collection_times": [{"days": "Mon-Sat", "time": "3:45pm"}, {"days": "Sun", "time": "Closed"}], "id": "6807000001", "name": "USPS COLLECTION BOX - BLUE BOX", "address": {"city": "WESTON", "state": "NE", "street": "345 ELM ST", "postcode": "68070"}}},
{"geometry": {"type": "Point", "coordinates": [-96.7440027159, 41.192250345]}, "type": "Feature", "properties": {"collection_times": [{"days": "Mon-Fri", "time": "11:30am"}, {"days": "Sat", "time": "8:45am"}, {"days": "Sun", "time": "Closed"}], "id": "6807000002", "name": "USPS COLLECTION BOX - PO LOBBY", "address": {"city": "WESTON", "state": "NE", "street": "345 ELM ST", "postcode": "68070"}}},
{"geometry": {"type": "Point", "coordinates": [-96.4722759308, 42.2386193947]}, "type": "Feature", "properties": {"collection_times": [{"days": "Mon-Fri", "time": "3:10pm"}, {"days": "Sat", "time": "3:55pm"}, {"days": "Sun", "time": "Closed"}], "id": "6807100001", "name": "USPS COLLECTION BOX - BLUE BOX", "address": {"city": "WINNEBAGO", "state": "NE", "street": "100 BLUFF AVE", "postcode": "68071"}}},
{"geometry": {"type": "Point", "coordinates": [-96.4722759308, 42.2386193947]}, "type": "Feature", "properties": {"collection_times": [{"days": "Mon-Fri", "time": "3:00pm"}, {"days": "Sat", "time": "11:00am"}, {"days": "Sun", "time": "Closed"}], "id": "6807100002", "name": "USPS COLLECTION BOX - PO LOBBY", "address": {"city": "WINNEBAGO", "state": "NE", "street": "100 BLUFF AVE", "postcode": "68071"}}},
{"geometry": {"type": "Point", "coordinates": [-96.5056378358, 41.6102173425]}, "type": "Feature", "properties": {"collection_times": [{"days": "Mon-Sat", "time": "3:05pm"}, {"days": "Sun", "time": "Closed"}], "id": "6807200001", "name": "USPS COLLECTION BOX - BLUE BOX", "address": {"city": "WINSLOW", "state": "NE", "street": "208 ELKHORN ST", "postcode": "68072"}}},
{"geometry": {"type": "Point", "coordinates": [-96.5056378358, 41.6102173425]}, "type": "Feature", "properties": {"collection_times": [{"days": "Mon-Fri", "time": "12:00pm"}, {"days": "Sat", "time": "11:45am"}, {"days": "Sun", "time": "Closed"}], "id": "6807200002", "name": "USPS COLLECTION BOX - PO LOBBY", "address": {"city": "WINSLOW", "state": "NE", "street": "208 ELKHORN ST", "postcode": "68072"}}},
{"geometry": {"type": "Point", "coordinates": [-96.396061795, 41.2448529574]}, "type": "Feature", "properties": {"collection_times": [{"days": "Mon-Sat", "time": "5:00pm"}, {"days": "Sun", "time": "Closed"}], "id": "6807300001", "name": "USPS COLLECTION BOX - BLUE BOX", "address": {"city": "YUTAN", "state": "NE", "street": "502 1ST ST", "postcode": "68073"}}},
{"geometry": {"type": "Point", "coordinates": [-96.391700441, 41.2483589833]}, "type": "Feature", "properties": {"collection_times": [{"days": "Mon-Sat", "time": "12:00pm"}, {"days": "Sun", "time": "Closed"}], "id": "6807300002", "name": "USPS COLLECTION BOX - BLUE BOX", "address": {"city": "YUTAN", "state": "NE", "street": "546 COUNTY ROAD M", "postcode": "68073"}}},
{"geometry": {"type": "Point", "coordinates": [-96.396061795, 41.2448529574]}, "type": "Feature", "properties": {"collection_times": [{"days": "Mon-Fri", "time": "2:00pm"}, {"days": "Sat", "time": "9:00am"}, {"days": "Sun", "time": "Closed"}], "id": "6807300003", "name": "USPS COLLECTION BOX - PO LOBBY", "address": {"city": "YUTAN", "state": "NE", "street": "502 1ST ST", "postcode": "68073"}}}
]}
