{"type": "FeatureCollection", "features": [
{"geometry": {"type": "Point", "coordinates": [-95.9295192729, 41.2575328316]}, "type": "Feature", "properties": {"collection_times": [{"days": "Mon-Sat", "time": "9:00am"}, {"days": "Sun", "time": "Closed"}], "id": "6810200003", "name": "USPS COLLECTION BOX - BLUE BOX", "address": {"city": "OMAHA", "state": "NE", "street": "1001 FARNAM ST", "postcode": "68102"}}},
{"geometry": {"type": "Point", "coordinates": [-95.9303544614, 41.2785365626]}, "type": "Feature", "properties": {"collection_times": [{"days": "Mon-Sat", "time": "9:00am"}, {"days": "Sun", "time": "Closed"}], "id": "6810200005", "name": "USPS COLLECTION BOX - BLUE BOX", "address": {"city": "OMAHA", "state": "NE", "street": "2222 N 11TH ST", "postcode": "68102"}}},
{"geometry": {"type": "Point", "coordinates": [-95.937442177, 41.2575519727]}, "type": "Feature", "properties": {"collection_times": [{"days": "Mon-Fri", "time": "5:15pm"}, {"days": "Sat", "time": "3:00pm"}, {"days": "Sun", "time": "Closed"}], "id": "6810200006", "name": "USPS COLLECTION BOX - BLUE BOX", "address": {"city": "OMAHA", "state": "NE", "street": "1617 FARNAM ST", "postcode": "68102"}}},
{"geometry": {"type": "Point", "coordinates": [-95.9331788556, 41.2575373183]}, "type": "Feature", "properties": {"collection_times": [{"days": "Mon-Fri", "time": "5:10pm"}, {"days": "Sat", "time": "1:00pm"}, {"days": "Sun", "time": "Closed"}], "id": "6810200009", "name": "USPS COLLECTION BOX - BLUE BOX", "address": {"city": "OMAHA", "state": "NE", "street": "1299 FARNAM ST", "postcode": "68102"}}},
{"geometry": {"type": "Point", "coordinates": [-95.9342205832, 41.2575132425]}, "type": "Feature", "properties": {"collection_times": [{"days": "Mon-Fri", "time": "5:05pm"}, {"days": "Sat-Sun", "time": "Closed"}], "id": "6810200013", "name": "USPS COLLECTION BOX - BLUE BOX", "address": {"city": "OMAHA", "state": "NE", "street": "1313 FARNAM ST", "postcode": "68102"}}},
{"geometry": {"type": "Point", "coordinates": [-95.9426927145, 41.2597021918]}, "type": "Feature", "properties": {"collection_times": [{"days": "Mon-Fri", "time": "5:15pm"}, {"days": "Sat-Sun", "time": "Closed"}], "id": "6810200019", "name": "USPS COLLECTION BOX - BLUE BOX", "address": {"city": "OMAHA", "state": "NE", "street": "2027 DODGE ST", "postcode": "68102"}}},
{"geometry": {"type": "Point", "coordinates": [-95.9384215774, 41.256448578]}, "type": "Feature", "properties": {"collection_times": [{"days": "Mon-Fri", "time": "3:55pm"}, {"days": "Sat-Sun", "time": "Closed"}], "id": "6810200059", "name": "USPS COLLECTION BOX - BLUE BOX", "address": {"city": "OMAHA", "state": "NE", "street": "409 S 17TH ST", "postcode": "68102"}}},
{"geometry": {"type": "Point", "coordinates": [-95.9412139763, 41.2585847427]}, "type": "Feature", "properties": {"collection_times": [{"days": "Mon-Sat", "time": "10:00am"}, {"days": "Sun", "time": "Closed"}], "id": "6810200077", "name": "USPS COLLECTION BOX - BLUE BOX", "address": {"city": "OMAHA", "state": "NE", "street": "206 S 19TH ST", "postcode": "68102"}}},
{"geometry": {"type": "Point", "coordinates": [-95.9411135333, 41.2583497991]}, "type": "Feature", "properties": {"collection_times": [{"days": "Mon-Fri", "time": "5:10pm"}, {"days": "Sat-Sun", "time": "Closed"}], "id": "6810200080", "name": "USPS COLLECTION BOX - BLUE BOX", "address": {"city": "OMAHA", "state": "NE", "street": "209 S 19TH ST", "postcode": "68102"}}},
{"geometry": {"type": "Point", "coordinates": [-95.941318167, 41.2575746864]}, "type": "Feature", "properties": {"collection_times": [{"days": "Mon-Sat", "time": "10:00am"}, {"days": "Sun", "time": "Closed"}], "id": "6810200083", "name": "USPS COLLECTION BOX - BLUE BOX", "address": {"city": "OMAHA", "state": "NE", "street": "1913 FARNAM ST", "postcode": "68102"}}},
{"geometry": {"type": "Point", "coordinates": [-95.9410441797, 41.256517156]}, "type": "Feature", "properties": {"collection_times": [{"days": "Mon-Sat", "time": "10:30am"}, {"days": "Sun", "time": "Closed"}], "id": "6810200089", "name": "USPS COLLECTION BOX - BLUE BOX", "address": {"city": "OMAHA", "state": "NE", "street": "1905 HARNEY ST", "postcode": "68102"}}},
{"geometry": {"type": "Point", "coordinates": [-95.9423471797, 41.2562158065]}, "type": "Feature", "properties": {"collection_times": [{"days": "Mon-Sat", "time": "10:30am"}, {"days": "Sun", "time": "Closed"}], "id": "6810200094", "name": "USPS COLLECTION BOX - BLUE BOX", "address": {"city": "OMAHA", "state": "NE", "street": "430 S 20TH ST", "postcode": "68102"}}},
{"geometry": {"type": "Point", "coordinates": [-95.9469439851, 41.2595338593]}, "type": "Feature", "properties": {"collection_times": [{"days": "Mon-Fri", "time": "5:15pm"}, {"days": "Sat-Sun", "time": "Closed"}], "id": "6810200128", "name": "USPS COLLECTION BOX - BLUE BOX", "address": {"city": "OMAHA", "state": "NE", "street": "120 S 24TH ST", "postcode": "68102"}}},
{"geometry": {"type": "Point", "coordinates": [-95.93706, 41.25868]}, "type": "Feature", "properties": {"collection_times": [{"days": "Mon-Fri", "time": "5:00pm"}, {"days": "Sat-Sun", "time": "Closed"}], "id": "6810200129", "name": "USPS COLLECTION BOX - BLUE BOX", "address": {"city": "OMAHA", "state": "NE", "street": "1598 DOUGLAS ST", "postcode": "68102"}}},
{"geometry": {"type": "Point", "coordinates": [-95.9426927145, 41.2597021918]}, "type": "Feature", "properties": {"collection_times": [{"days": "Mon-Fri", "time": "5:15pm"}, {"days": "Sat-Sun", "time": "Closed"}], "id": "6810200134", "name": "USPS COLLECTION BOX - BLUE BOX", "address": {"city": "OMAHA", "state": "NE", "street": "2027 DODGE ST", "postcode": "68102"}}},
{"geometry": {"type": "Point", "coordinates": [-95.9426927145, 41.2597021918]}, "type": "Feature", "properties": {"collection_times": [{"days": "Mon-Fri", "time": "5:15pm"}, {"days": "Sat-Sun", "time": "Closed"}], "id": "6810200135", "name": "USPS COLLECTION BOX - BLUE BOX", "address": {"city": "OMAHA", "state": "NE", "street": "2027 DODGE ST", "postcode": "68102"}}},
{"geometry": {"type": "Point", "coordinates": [-95.9371056565, 41.2582032737]}, "type": "Feature", "properties": {"collection_times": [{"days": "Mon-Fri", "time": "5:15pm"}, {"days": "Sat-Sun", "time": "Closed"}], "id": "6810200136", "name": "USPS COLLECTION BOX - EXPRESS", "address": {"city": "OMAHA", "state": "NE", "street": "2027 DODGE ST", "postcode": "68102"}}},
{"geometry": {"type": "Point", "coordinates": [-95.9398595984, 41.2587266358]}, "type": "Feature", "properties": {"collection_times": [{"days": "Mon-Fri", "time": "5:00pm"}, {"days": "Sat-Sun", "time": "Closed"}], "id": "6810200141", "name": "USPS COLLECTION BOX - BLUE BOX", "address": {"city": "OMAHA", "state": "NE", "street": "1800 DOUGLAS ST", "postcode": "68102"}}},
{"geometry": {"type": "Point", "coordinates": [-95.937442177, 41.2575519727]}, "type": "Feature", "properties": {"collection_times": [{"days": "Mon-Fri", "time": "4:30pm"}, {"days": "Sat-Sun", "time": "Closed"}], "id": "6810200144", "name": "USPS COLLECTION BOX - PO LOBBY", "address": {"city": "OMAHA", "state": "NE", "street": "1617 FARNAM ST", "postcode": "68102"}}},
{"geometry": {"type": "Point", "coordinates": [-95.937442177, 41.2575519727]}, "type": "Feature", "properties": {"collection_times": [{"days": "Mon-Fri", "time": "4:30pm"}, {"days": "Sat-Sun", "time": "Closed"}], "id": "6810200145", "name": "USPS COLLECTION BOX - PO LOBBY", "address": {"city": "OMAHA", "state": "NE", "street": "1617 FARNAM ST", "postcode": "68102"}}},
{"geometry": {"type": "Point", "coordinates": [-95.937442177, 41.2575519727]}, "type": "Feature", "properties": {"collection_times": [{"days": "Mon-Fri", "time": "4:30pm"}, {"days": "Sat-Sun", "time": "Closed"}], "id": "6810200146", "name": "USPS COLLECTION BOX - PO LOBBY", "address": {"city": "OMAHA", "state": "NE", "street": "1617 FARNAM ST", "postcode": "68102"}}},
{"geometry": {"type": "Point", "coordinates": [-95.9373328477, 41.2607574602]}, "type": "Feature", "properties": {"collection_times": [{"days": "Mon-Fri", "time": "3:45pm"}, {"days": "Sat-Sun", "time": "Closed"}], "id": "6810200148", "name": "USPS COLLECTION BOX - BLUE BOX", "address": {"city": "OMAHA", "state": "NE", "street": "1616 CAPITOL AVE", "postcode": "68102"}}},
{"geometry": {"type": "Point", "coordinates": [-95.937442177, 41.2575519727]}, "type": "Feature", "properties": {"collection_times": [{"days": "Mon-Fri", "time": "4:30pm"}, {"days": "Sat-Sun", "time": "Closed"}], "id": "6810200149", "name": "USPS COLLECTION BOX - PO LOBBY", "address": {"city": "OMAHA", "state": "NE", "street": "1617 FARNAM ST", "postcode": "68102"}}},
{"geometry": {"type": "Point", "coordinates": [-95.9410441797, 41.256517156]}, "type": "Feature", "properties": {"collection_times": [{"days": "Mon-Sat", "time": "10:30am"}, {"days": "Sun", "time": "Closed"}], "id": "6810200153", "name": "USPS COLLECTION BOX - BLUE BOX", "address": {"city": "OMAHA", "state": "NE", "street": "1905 HARNEY ST", "postcode": "68102"}}},
{"geometry": {"type": "Point", "coordinates": [-95.9371056565, 41.2582032737]}, "type": "Feature", "properties": {"collection_times": [{"days": "Mon-Sat", "time": "10:00am"}, {"days": "Sun", "time": "Closed"}], "id": "6810200159", "name": "USPS COLLECTION BOX - BLUE BOX", "address": {"city": "OMAHA", "state": "NE", "street": "1620 DODGE ST", "postcode": "68102"}}},
{"geometry": {"type": "Point", "coordinates": [-95.937442177, 41.2575519727]}, "type": "Feature", "properties": {"collection_times": [{"days": "Mon-Fri", "time": "5:15pm"}, {"days": "Sat", "time": "3:00pm"}, {"days": "Sun", "time": "Closed"}], "id": "6810200161", "name": "USPS COLLECTION BOX - BLUE BOX", "address": {"city": "OMAHA", "state": "NE", "street": "1617 FARNAM ST", "postcode": "68102"}}},
{"geometry": {"type": "Point", "coordinates": [-95.9331788556, 41.2575373183]}, "type": "Feature", "properties": {"collection_times": [{"days": "Mon-Fri", "time": "5:10pm"}, {"days": "Sat", "time": "1:00pm"}, {"days": "Sun", "time": "Closed"}], "id": "6810200170", "name": "USPS COLLECTION BOX - BLUE BOX", "address": {"city": "OMAHA", "state": "NE", "street": "1299 FARNAM ST", "postcode": "68102"}}},
{"geometry": {"type": "Point", "coordinates": [-95.9303544614, 41.2785365626]}, "type": "Feature", "properties": {"collection_times": [{"days": "Mon-Sat", "time": "9:00am"}, {"days": "Sun", "time": "Closed"}], "id": "6810200172", "name": "USPS COLLECTION BOX - BLUE BOX", "address": {"city": "OMAHA", "state": "NE", "street": "2222 N 11TH ST", "postcode": "68102"}}},
{"geometry": {"type": "Point", "coordinates": [-96.0086481508, 41.2849520355]}, "type": "Feature", "properties": {"collection_times": [{"days": "Mon-Fri", "time": "5:15pm"}, {"days": "Sat", "time": "4:45pm"}, {"days": "Sun", "time": "Closed"}], "id": "6810400002", "name": "USPS COLLECTION BOX - BLUE BOX", "address": {"city": "OMAHA", "state": "NE", "street": "6223 MAPLE ST", "postcode": "68104"}}},
{"geometry": {"type": "Point", "coordinates": [-96.0072054072, 41.2867181586]}, "type": "Feature", "properties": {"collection_times": [{"days": "Mon-Sat", "time": "10:30am"}, {"days": "Sun", "time": "Closed"}], "id": "6810400016", "name": "USPS COLLECTION BOX - BLUE BOX", "address": {"city": "OMAHA", "state": "NE", "street": "2929 N 60TH ST", "postcode": "68104"}}},
{"geometry": {"type": "Point", "coordinates": [-96.0045341088, 41.3112003586]}, "type": "Feature", "properties": {"collection_times": [{"days": "Mon-Sat", "time": "10:30am"}, {"days": "Sun", "time": "Closed"}], "id": "6810400017", "name": "USPS COLLECTION BOX - BLUE BOX", "address": {"city": "OMAHA", "state": "NE", "street": "5811 N 60TH ST", "postcode": "68104"}}},
{"geometry": {"type": "Point", "coordinates": [-96.0180568995, 41.3171079544]}, "type": "Feature", "properties": {"collection_times": [{"days": "Mon-Sat", "time": "11:00am"}, {"days": "Sun", "time": "Closed"}], "id": "6810400018", "name": "USPS COLLECTION BOX - BLUE BOX", "address": {"city": "OMAHA", "state": "NE", "street": "6404 N 70TH PLZ", "postcode": "68104"}}},
{"geometry": {"type": "Point", "coordinates": [-96.0070974985, 41.2835698392]}, "type": "Feature", "properties": {"collection_times": [{"days": "Mon-Sat", "time": "10:30am"}, {"days": "Sun", "time": "Closed"}], "id": "6810400023", "name": "USPS COLLECTION BOX - BLUE BOX", "address": {"city": "OMAHA", "state": "NE", "street": "2739 N 61ST ST", "postcode": "68104"}}},
{"geometry": {"type": "Point", "coordinates": [-96.0086481508, 41.2849520355]}, "type": "Feature", "properties": {"collection_times": [{"days": "Mon-Fri", "time": "5:15pm"}, {"days": "Sat", "time": "4:45pm"}, {"days": "Sun", "time": "Closed"}], "id": "6810400026", "name": "USPS COLLECTION BOX - PO LOBBY", "address": {"city": "OMAHA", "state": "NE", "street": "6223 MAPLE ST", "postcode": "68104"}}},
{"geometry": {"type": "Point", "coordinates": [-96.0086481508, 41.2849520355]}, "type": "Feature", "properties": {"collection_times": [{"days": "Mon-Fri", "time": "5:15pm"}, {"days": "Sat", "time": "4:45pm"}, {"days": "Sun", "time": "Closed"}], "id": "6810400027", "name": "USPS COLLECTION BOX - PO LOBBY", "address": {"city": "OMAHA", "state": "NE", "street": "6223 MAPLE ST", "postcode": "68104"}}},
{"geometry": {"type": "Point", "coordinates": [-96.0086481508, 41.2849520355]}, "type": "Feature", "properties": {"collection_times": [{"days": "Mon-Fri", "time": "5:15pm"}, {"days": "Sat", "time": "4:45pm"}, {"days": "Sun", "time": "Closed"}], "id": "6810400028", "name": "USPS COLLECTION BOX - BLUE BOX", "address": {"city": "OMAHA", "state": "NE", "street": "6223 MAPLE ST", "postcode": "68104"}}},
{"geometry": {"type": "Point", "coordinates": [-96.0086481508, 41.2849520355]}, "type": "Feature", "properties": {"collection_times": [{"days": "Mon-Fri", "time": "5:15pm"}, {"days": "Sat", "time": "4:45pm"}, {"days": "Sun", "time": "Closed"}], "id": "6810400029", "name": "USPS COLLECTION BOX - BLUE BOX", "address": {"city": "OMAHA", "state": "NE", "street": "6223 MAPLE ST", "postcode": "68104"}}},
{"geometry": {"type": "Point", "coordinates": [-95.9604545778, 41.2312585087]}, "type": "Feature", "properties": {"collection_times": [{"days": "Mon-Sat", "time": "12:00pm"}, {"days": "Sun", "time": "Closed"}], "id": "6810500006", "name": "USPS COLLECTION BOX - BLUE BOX", "address": {"city": "OMAHA", "state": "NE", "street": "3052 S 32ND AVE", "postcode": "68105"}}},
{"geometry": {"type": "Point", "coordinates": [-95.9757845403, 41.2391908095]}, "type": "Feature", "properties": {"collection_times": [{"days": "Mon-Fri", "time": "3:50pm"}, {"days": "Sat-Sun", "time": "Closed"}], "id": "6810500011", "name": "USPS COLLECTION BOX - BLUE BOX", "address": {"city": "OMAHA", "state": "NE", "street": "2101 S 42ND ST", "postcode": "68105"}}},
{"geometry": {"type": "Point", "coordinates": [-95.9645431123, 41.2398101584]}, "type": "Feature", "properties": {"collection_times": [{"days": "Mon-Sat", "time": "10:30am"}, {"days": "Sun", "time": "Closed"}], "id": "6810500014", "name": "USPS COLLECTION BOX - BLUE BOX", "address": {"city": "OMAHA", "state": "NE", "street": "1215 S 42ND ST", "postcode": "68105"}}},
{"geometry": {"type": "Point", "coordinates": [-95.9471339271, 41.2523695639]}, "type": "Feature", "properties": {"collection_times": [{"days": "Mon-Sat", "time": "10:30am"}, {"days": "Sun", "time": "Closed"}], "id": "6810500021", "name": "USPS COLLECTION BOX - BLUE BOX", "address": {"city": "OMAHA", "state": "NE", "street": "2401 LEAVENWORTH ST", "postcode": "68105"}}},
{"geometry": {"type": "Point", "coordinates": [-95.9747598496, 41.2452321073]}, "type": "Feature", "properties": {"collection_times": [{"days": "Mon-Sat", "time": "9:30am"}, {"days": "Sun", "time": "Closed"}], "id": "6810500035", "name": "USPS COLLECTION BOX - BLUE BOX", "address": {"city": "OMAHA", "state": "NE", "street": "4102 WOOLWORTH AVE", "postcode": "68105"}}},
{"geometry": {"type": "Point", "coordinates": [-96.0222307379, 41.2378664446]}, "type": "Feature", "properties": {"collection_times": [{"days": "Mon-Fri", "time": "4:50pm"}, {"days": "Sat-Sun", "time": "Closed"}], "id": "6810600003", "name": "USPS COLLECTION BOX - BLUE BOX", "address": {"city": "OMAHA", "state": "NE", "street": "7101 MERCY RD", "postcode": "68106"}}},
{"geometry": {"type": "Point", "coordinates": [-96.0234142063, 41.2378627827]}, "type": "Feature", "properties": {"collection_times": [{"days": "Mon-Fri", "time": "5:02pm"}, {"days": "Sat-Sun", "time": "Closed"}], "id": "6810600004", "name": "USPS COLLECTION BOX - BLUE BOX", "address": {"city": "OMAHA", "state": "NE", "street": "7171 MERCY RD", "postcode": "68106"}}},
{"geometry": {"type": "Point", "coordinates": [-96.0234142063, 41.2378627827]}, "type": "Feature", "properties": {"collection_times": [{"days": "Mon-Fri", "time": "5:02pm"}, {"days": "Sat-Sun", "time": "Closed"}], "id": "6810600005", "name": "USPS COLLECTION BOX - BLUE BOX", "address": {"city": "OMAHA", "state": "NE", "street": "7171 MERCY RD", "postcode": "68106"}}},
{"geometry": {"type": "Point", "coordinates": [-96.0204680696, 41.2487963971]}, "type": "Feature", "properties": {"collection_times": [{"days": "Mon-Fri", "time": "5:00pm"}, {"days": "Sat-Sun", "time": "Closed"}], "id": "6810600010", "name": "USPS COLLECTION BOX - BLUE BOX", "address": {"city": "OMAHA", "state": "NE", "street": "6910 PACIFIC ST", "postcode": "68106"}}},
{"geometry": {"type": "Point", "coordinates": [-96.00479, 41.245632]}, "type": "Feature", "properties": {"collection_times": [{"days": "Mon-Sat", "time": "9:00am"}, {"days": "Sun", "time": "Closed"}], "id": "6810600012", "name": "USPS COLLECTION BOX - BLUE BOX", "address": {"city": "OMAHA", "state": "NE", "street": "1418 S 60TH ST", "postcode": "68106"}}},
{"geometry": {"type": "Point", "coordinates": [-95.9864852208, 41.2506803645]}, "type": "Feature", "properties": {"collection_times": [{"days": "Mon-Fri", "time": "12:15pm"}, {"days": "Sat", "time": "3:27pm"}, {"days": "Sun", "time": "Closed"}], "id": "6810600015", "name": "USPS COLLECTION BOX - BLUE BOX", "address": {"city": "OMAHA", "state": "NE", "street": "888 S SADDLE CREEK RD", "postcode": "68106"}}},
{"geometry": {"type": "Point", "coordinates": [-95.9950782121, 41.2523143958]}, "type": "Feature", "properties": {"collection_times": [{"days": "Mon-Sat", "time": "9:30am"}, {"days": "Sun", "time": "Closed"}], "id": "6810600017", "name": "USPS COLLECTION BOX - BLUE BOX", "address": {"city": "OMAHA", "state": "NE", "street": "801 S 52ND ST", "postcode": "68106"}}},
{"geometry": {"type": "Point", "coordinates": [-95.9954908636, 41.2523982639]}, "type": "Feature", "properties": {"collection_times": [{"days": "Mon-Fri", "time": "12:15pm"}, {"days": "Sat", "time": "1:00pm"}, {"days": "Sun", "time": "Closed"}], "id": "6810600018", "name": "USPS COLLECTION BOX - BLUE BOX", "address": {"city": "OMAHA", "state": "NE", "street": "5188 LEAVENWORTH ST", "postcode": "68106"}}},
{"geometry": {"type": "Point", "coordinates": [-95.9909603283, 41.2269421314]}, "type": "Feature", "properties": {"collection_times": [{"days": "Mon-Fri", "time": "12:05pm"}, {"days": "Sat", "time": "2:54pm"}, {"days": "Sun", "time": "Closed"}], "id": "6810600019", "name": "USPS COLLECTION BOX - BLUE BOX", "address": {"city": "OMAHA", "state": "NE", "street": "5023 GROVER ST", "postcode": "68106"}}},
{"geometry": {"type": "Point", "coordinates": [-95.9883922675, 41.2415850954]}, "type": "Feature", "properties": {"collection_times": [{"days": "Mon-Fri", "time": "3:56pm"}, {"days": "Sat-Sun", "time": "Closed"}], "id": "6810600021", "name": "USPS COLLECTION BOX - BLUE BOX", "address": {"city": "OMAHA", "state": "NE", "street": "4924 CENTER ST", "postcode": "68106"}}},
{"geometry": {"type": "Point", "coordinates": [-95.9806861015, 41.2470069778]}, "type": "Feature", "properties": {"collection_times": [{"days": "Mon-Sat", "time": "9:15am"}, {"days": "Sun", "time": "Closed"}], "id": "6810600024", "name": "USPS COLLECTION BOX - BLUE BOX", "address": {"city": "OMAHA", "state": "NE", "street": "1298 S 45TH ST", "postcode": "68106"}}},
{"geometry": {"type": "Point", "coordinates": [-95.9810485366, 41.2523799849]}, "type": "Feature", "properties": {"collection_times": [{"days": "Mon-Sat", "time": "9:15am"}, {"days": "Sun", "time": "Closed"}], "id": "6810600026", "name": "USPS COLLECTION BOX - BLUE BOX", "address": {"city": "OMAHA", "state": "NE", "street": "4517 LEAVENWORTH ST", "postcode": "68106"}}},
{"geometry": {"type": "Point", "coordinates": [-95.9924292734, 41.2428693301]}, "type": "Feature", "properties": {"collection_times": [{"days": "Mon-Fri", "time": "5:15pm"}, {"days": "Sat", "time": "4:30pm"}, {"days": "Sun", "time": "Closed"}], "id": "6810600027", "name": "USPS COLLECTION BOX - BLUE BOX", "address": {"city": "OMAHA", "state": "NE", "street": "1718 S 51ST ST", "postcode": "68106"}}},
{"geometry": {"type": "Point", "coordinates": [-95.9924292734, 41.2428693301]}, "type": "Feature", "properties": {"collection_times": [{"days": "Mon-Fri", "time": "5:15pm"}, {"days": "Sat", "time": "4:30pm"}, {"days": "Sun", "time": "Closed"}], "id": "6810600028", "name": "USPS COLLECTION BOX - BLUE BOX", "address": {"city": "OMAHA", "state": "NE", "street": "1718 S 51ST ST", "postcode": "68106"}}},
{"geometry": {"type": "Point", "coordinates": [-96.0168685888, 41.2269739264]}, "type": "Feature", "properties": {"collection_times": [{"days": "Mon-Sat", "time": "10:30am"}, {"days": "Sun", "time": "Closed"}], "id": "6810600036", "name": "USPS COLLECTION BOX - BLUE BOX", "address": {"city": "OMAHA", "state": "NE", "street": "6711 GROVER ST", "postcode": "68106"}}},
{"geometry": {"type": "Point", "coordinates": [-95.9924292734, 41.2428693301]}, "type": "Feature", "properties": {"collection_times": [{"days": "Mon-Fri", "time": "5:15pm"}, {"days": "Sat", "time": "4:30pm"}, {"days": "Sun", "time": "Closed"}], "id": "6810600040", "name": "USPS COLLECTION BOX - PO LOBBY", "address": {"city": "OMAHA", "state": "NE", "street": "1718 S 51ST ST", "postcode": "68106"}}},
{"geometry": {"type": "Point", "coordinates": [-95.9924292734, 41.2428693301]}, "type": "Feature", "properties": {"collection_times": [{"days": "Mon-Fri", "time": "5:15pm"}, {"days": "Sat", "time": "4:30pm"}, {"days": "Sun", "time": "Closed"}], "id": "6810600042", "name": "USPS COLLECTION BOX - PO LOBBY", "address": {"city": "OMAHA", "state": "NE", "street": "1718 S 51ST ST", "postcode": "68106"}}},
{"geometry": {"type": "Point", "coordinates": [-96.0192517472, 41.2486860782]}, "type": "Feature", "properties": {"collection_times": [{"days": "Mon-Sat", "time": "9:30am"}, {"days": "Sun", "time": "Closed"}], "id": "6810600044", "name": "USPS COLLECTION BOX - BLUE BOX", "address": {"city": "OMAHA", "state": "NE", "street": "6855 PACIFIC ST", "postcode": "68106"}}},
{"geometry": {"type": "Point", "coordinates": [-96.0016680932, 41.2388940693]}, "type": "Feature", "properties": {"collection_times": [{"days": "Mon-Fri", "time": "5:15pm"}, {"days": "Sat", "time": "4:30pm"}, {"days": "Sun", "time": "Closed"}], "id": "6810600045", "name": "USPS COLLECTION BOX - BLUE BOX", "address": {"city": "OMAHA", "state": "NE", "street": "1718 S 51ST ST", "postcode": "68106"}}},
{"geometry": {"type": "Point", "coordinates": [-96.0016680932, 41.2388940693]}, "type": "Feature", "properties": {"collection_times": [{"days": "Mon-Fri", "time": "5:00pm"}, {"days": "Sat-Sun", "time": "Closed"}], "id": "6810600052", "name": "USPS COLLECTION BOX - BLUE BOX", "address": {"city": "OMAHA", "state": "NE", "street": "2232 S 64TH ST", "postcode": "68106"}}},
{"geometry": {"type": "Point", "coordinates": [-96.0016680932, 41.2388940693]}, "type": "Feature", "properties": {"collection_times": [{"days": "Mon-Fri", "time": "5:00pm"}, {"days": "Sat-Sun", "time": "Closed"}], "id": "6810600053", "name": "USPS COLLECTION BOX - BLUE BOX", "address": {"city": "OMAHA", "state": "NE", "street": "2232 S 64TH ST", "postcode": "68106"}}},
{"geometry": {"type": "Point", "coordinates": [-95.9471082909, 41.2119156005]}, "type": "Feature", "properties": {"collection_times": [{"days": "Mon-Fri", "time": "5:25pm"}, {"days": "Sat", "time": "4:00pm"}, {"days": "Sun", "time": "Closed"}], "id": "6810700002", "name": "USPS COLLECTION BOX - BLUE BOX", "address": {"city": "OMAHA", "state": "NE", "street": "4730 S 24TH ST", "postcode": "68107"}}},
{"geometry": {"type": "Point", "coordinates": [-95.9651399459, 41.2121987292]}, "type": "Feature", "properties": {"collection_times": [{"days": "Mon-Fri", "time": "4:00pm"}, {"days": "Sat", "time": "2:15pm"}, {"days": "Sun", "time": "Closed"}], "id": "6810700032", "name": "USPS COLLECTION BOX - BLUE BOX", "address": {"city": "OMAHA", "state": "NE", "street": "3505 L ST", "postcode": "68107"}}},
{"geometry": {"type": "Point", "coordinates": [-95.9471082909, 41.2119156005]}, "type": "Feature", "properties": {"collection_times": [{"days": "Mon-Fri", "time": "5:25pm"}, {"days": "Sat", "time": "4:00pm"}, {"days": "Sun", "time": "Closed"}], "id": "6810700049", "name": "USPS COLLECTION BOX - PO LOBBY", "address": {"city": "OMAHA", "state": "NE", "street": "4730 S 24TH ST", "postcode": "68107"}}},
{"geometry": {"type": "Point", "coordinates": [-95.9338469024, 41.2395110601]}, "type": "Feature", "properties": {"collection_times": [{"days": "Mon-Sat", "time": "8:00pm"}, {"days": "Sun", "time": "Closed"}], "id": "6810800000", "name": "USPS COLLECTION BOX - EXPRESS", "address": {"city": "OMAHA", "state": "NE", "street": "1124 PACIFIC ST", "postcode": "68108"}}},
{"geometry": {"type": "Point", "coordinates": [-95.9309385203, 41.2492228295]}, "type": "Feature", "properties": {"collection_times": [{"days": "Mon-Sat", "time": "8:00pm"}, {"days": "Sun", "time": "Closed"}], "id": "6810800001", "name": "USPS COLLECTION BOX - BLUE BOX", "address": {"city": "OMAHA", "state": "NE", "street": "1124 PACIFIC ST", "postcode": "68108"}}},
{"geometry": {"type": "Point", "coordinates": [-95.9309385203, 41.2492228295]}, "type": "Feature", "properties": {"collection_times": [{"days": "Mon-Sat", "time": "8:00pm"}, {"days": "Sun", "time": "Closed"}], "id": "6810800002", "name": "USPS COLLECTION BOX - BLUE BOX", "address": {"city": "OMAHA", "state": "NE", "street": "1124 PACIFIC ST", "postcode": "68108"}}},
{"geometry": {"type": "Point", "coordinates": [-95.9471152626, 41.2315183124]}, "type": "Feature", "properties": {"collection_times": [{"days": "Mon-Sat", "time": "10:30am"}, {"days": "Sun", "time": "Closed"}], "id": "6810800016", "name": "USPS COLLECTION BOX - BLUE BOX", "address": {"city": "OMAHA", "state": "NE", "street": "3026 S 24TH ST", "postcode": "68108"}}},
{"geometry": {"type": "Point", "coordinates": [-95.9471152626, 41.2315183124]}, "type": "Feature", "properties": {"collection_times": [{"days": "Mon-Sat", "time": "10:30am"}, {"days": "Sun", "time": "Closed"}], "id": "6810800018", "name": "USPS COLLECTION BOX - BLUE BOX", "address": {"city": "OMAHA", "state": "NE", "street": "3026 S 24TH ST", "postcode": "68108"}}},
{"geometry": {"type": "Point", "coordinates": [-95.9309385203, 41.2492228295]}, "type": "Feature", "properties": {"collection_times": [{"days": "Mon-Sat", "time": "8:00pm"}, {"days": "Sun", "time": "Closed"}], "id": "6810800026", "name": "USPS COLLECTION BOX - PO LOBBY", "address": {"city": "OMAHA", "state": "NE", "street": "1124 PACIFIC ST", "postcode": "68108"}}},
{"geometry": {"type": "Point", "coordinates": [-95.9309385203, 41.2492228295]}, "type": "Feature", "properties": {"collection_times": [{"days": "Mon-Sat", "time": "8:00pm"}, {"days": "Sun", "time": "Closed"}], "id": "6810800028", "name": "USPS COLLECTION BOX - PO LOBBY", "address": {"city": "OMAHA", "state": "NE", "street": "1124 PACIFIC ST", "postcode": "68108"}}},
{"geometry": {"type": "Point", "coordinates": [-95.9309385203, 41.2492228295]}, "type": "Feature", "properties": {"collection_times": [{"days": "Mon-Sat", "time": "8:00pm"}, {"days": "Sun", "time": "Closed"}], "id": "6810800029", "name": "USPS COLLECTION BOX - PO LOBBY", "address": {"city": "OMAHA", "state": "NE", "street": "1124 PACIFIC ST", "postcode": "68108"}}},
{"geometry": {"type": "Point", "coordinates": [-95.9309385203, 41.2492228295]}, "type": "Feature", "properties": {"collection_times": [{"days": "Mon-Sat", "time": "8:00pm"}, {"days": "Sun", "time": "Closed"}], "id": "6810800030", "name": "USPS COLLECTION BOX - PO LOBBY", "address": {"city": "OMAHA", "state": "NE", "street": "1124 PACIFIC ST", "postcode": "68108"}}},
{"geometry": {"type": "Point", "coordinates": [-95.9309385203, 41.2492228295]}, "type": "Feature", "properties": {"collection_times": [{"days": "Mon-Sat", "time": "8:00pm"}, {"days": "Sun", "time": "Closed"}], "id": "6810800031", "name": "USPS COLLECTION BOX - PO LOBBY", "address": {"city": "OMAHA", "state": "NE", "street": "1124 PACIFIC ST", "postcode": "68108"}}},
{"geometry": {"type": "Point", "coordinates": [-95.9469401653, 41.2815923601]}, "type": "Feature", "properties": {"collection_times": [{"days": "Mon-Sat", "time": "10:30am"}, {"days": "Sun", "time": "Closed"}], "id": "6811000008", "name": "USPS COLLECTION BOX - BLUE BOX", "address": {"city": "OMAHA", "state": "NE", "street": "2505 N 24TH ST", "postcode": "68110"}}},
{"geometry": {"type": "Point", "coordinates": [-95.9570825731, 41.3005344073]}, "type": "Feature", "properties": {"collection_times": [{"days": "Mon-Fri", "time": "5:00pm"}, {"days": "Sat", "time": "4:15pm"}, {"days": "Sun", "time": "Closed"}], "id": "6811100001", "name": "USPS COLLECTION BOX - BLUE BOX", "address": {"city": "OMAHA", "state": "NE", "street": "3030 MEREDITH AVE", "postcode": "68111"}}},
{"geometry": {"type": "Point", "coordinates": [-95.9570825731, 41.3005344073]}, "type": "Feature", "properties": {"collection_times": [{"days": "Mon-Fri", "time": "5:00pm"}, {"days": "Sat", "time": "4:15pm"}, {"days": "Sun", "time": "Closed"}], "id": "6811100002", "name": "USPS COLLECTION BOX - BLUE BOX", "address": {"city": "OMAHA", "state": "NE", "street": "3030 MEREDITH AVE", "postcode": "68111"}}},
{"geometry": {"type": "Point", "coordinates": [-95.9570825731, 41.3005344073]}, "type": "Feature", "properties": {"collection_times": [{"days": "Mon-Fri", "time": "5:00pm"}, {"days": "Sat", "time": "4:15pm"}, {"days": "Sun", "time": "Closed"}], "id": "6811100003", "name": "USPS COLLECTION BOX - BLUE BOX", "address": {"city": "OMAHA", "state": "NE", "street": "3030 MEREDITH AVE", "postcode": "68111"}}},
{"geometry": {"type": "Point", "coordinates": [-95.9565807787, 41.2813837475]}, "type": "Feature", "properties": {"collection_times": [{"days": "Mon-Sat", "time": "9:30am"}, {"days": "Sun", "time": "Closed"}], "id": "6811100008", "name": "USPS COLLECTION BOX - BLUE BOX", "address": {"city": "OMAHA", "state": "NE", "street": "3005 LAKE ST", "postcode": "68111"}}},
{"geometry": {"type": "Point", "coordinates": [-95.9570825731, 41.3005344073]}, "type": "Feature", "properties": {"collection_times": [{"days": "Mon-Fri", "time": "5:00pm"}, {"days": "Sat", "time": "4:15pm"}, {"days": "Sun", "time": "Closed"}], "id": "6811100017", "name": "USPS COLLECTION BOX - PO LOBBY", "address": {"city": "OMAHA", "state": "NE", "street": "3030 MEREDITH AVE", "postcode": "68111"}}},
{"geometry": {"type": "Point", "coordinates": [-95.9777137031, 41.2996579116]}, "type": "Feature", "properties": {"collection_times": [{"days": "Mon-Sat", "time": "9:15am"}, {"days": "Sun", "time": "Closed"}], "id": "6811100018", "name": "USPS COLLECTION BOX - BLUE BOX", "address": {"city": "OMAHA", "state": "NE", "street": "4310 AMES AVE", "postcode": "68111"}}},
{"geometry": {"type": "Point", "coordinates": [-95.9592320347, 41.3364863408]}, "type": "Feature", "properties": {"collection_times": [{"days": "Mon-Fri", "time": "5:30pm"}, {"days": "Sat", "time": "12:00pm"}, {"days": "Sun", "time": "Closed"}], "id": "6811200000", "name": "USPS COLLECTION BOX - BLUE BOX", "address": {"city": "OMAHA", "state": "NE", "street": "2910 STATE ST", "postcode": "68112"}}},
{"geometry": {"type": "Point", "coordinates": [-95.9592320347, 41.3364863408]}, "type": "Feature", "properties": {"collection_times": [{"days": "Mon-Fri", "time": "5:30pm"}, {"days": "Sat", "time": "12:00pm"}, {"days": "Sun", "time": "Closed"}], "id": "6811200001", "name": "USPS COLLECTION BOX - BLUE BOX", "address": {"city": "OMAHA", "state": "NE", "street": "2910 STATE ST", "postcode": "68112"}}},
{"geometry": {"type": "Point", "coordinates": [-95.9592320347, 41.3364863408]}, "type": "Feature", "properties": {"collection_times": [{"days": "Mon-Fri", "time": "5:30pm"}, {"days": "Sat", "time": "12:00pm"}, {"days": "Sun", "time": "Closed"}], "id": "6811200002", "name": "USPS COLLECTION BOX - BLUE BOX", "address": {"city": "OMAHA", "state": "NE", "street": "2910 STATE ST", "postcode": "68112"}}},
{"geometry": {"type": "Point", "coordinates": [-95.9578347645, 41.326928]}, "type": "Feature", "properties": {"collection_times": [{"days": "Mon-Sat", "time": "10:15am"}, {"days": "Sun", "time": "Closed"}], "id": "6811200006", "name": "USPS COLLECTION BOX - BLUE BOX", "address": {"city": "OMAHA", "state": "NE", "street": "7400 N 30TH ST", "postcode": "68112"}}},
{"geometry": {"type": "Point", "coordinates": [-95.95716, 41.3244363067]}, "type": "Feature", "properties": {"collection_times": [{"days": "Mon-Sat", "time": "9:30am"}, {"days": "Sun", "time": "Closed"}], "id": "6811200007", "name": "USPS COLLECTION BOX - BLUE BOX", "address": {"city": "OMAHA", "state": "NE", "street": "3002 MARTIN AVE", "postcode": "68112"}}},
{"geometry": {"type": "Point", "coordinates": [-95.9592320347, 41.3364863408]}, "type": "Feature", "properties": {"collection_times": [{"days": "Mon-Fri", "time": "5:30pm"}, {"days": "Sat", "time": "12:00pm"}, {"days": "Sun", "time": "Closed"}], "id": "6811200010", "name": "USPS COLLECTION BOX - BLUE BOX", "address": {"city": "OMAHA", "state": "NE", "street": "2910 STATE ST", "postcode": "68112"}}},
{"geometry": {"type": "Point", "coordinates": [-95.9839370005, 41.3426497151]}, "type": "Feature", "properties": {"collection_times": [{"days": "Mon-Sat", "time": "10:15am"}, {"days": "Sun", "time": "Closed"}], "id": "6811200012", "name": "USPS COLLECTION BOX - BLUE BOX", "address": {"city": "OMAHA", "state": "NE", "street": "9220 MORMON BRIDGE RD", "postcode": "68112"}}},
{"geometry": {"type": "Point", "coordinates": [-95.9592320347, 41.3364863408]}, "type": "Feature", "properties": {"collection_times": [{"days": "Mon-Fri", "time": "5:30pm"}, {"days": "Sat", "time": "12:00pm"}, {"days": "Sun", "time": "Closed"}], "id": "6811200017", "name": "USPS COLLECTION BOX - PO LOBBY", "address": {"city": "OMAHA", "state": "NE", "street": "2910 STATE ST", "postcode": "68112"}}},
{"geometry": {"type": "Point", "coordinates": [-95.9169084532, 41.1231608674]}, "type": "Feature", "properties": {"collection_times": [{"days": "Mon-Fri", "time": "4:30pm"}, {"days": "Sat", "time": "1:00pm"}, {"days": "Sun", "time": "Closed"}], "id": "6811300000", "name": "USPS COLLECTION BOX - BLUE BOX", "address": {"city": "OMAHA", "state": "NE", "street": "906 GARLAND ST", "postcode": "68113"}}},
{"geometry": {"type": "Point", "coordinates": [-95.9169084532, 41.1231608674]}, "type": "Feature", "properties": {"collection_times": [{"days": "Mon-Fri", "time": "4:30pm"}, {"days": "Sat", "time": "1:00pm"}, {"days": "Sun", "time": "Closed"}], "id": "6811300011", "name": "USPS COLLECTION BOX - PO LOBBY", "address": {"city": "OMAHA", "state": "NE", "street": "906 GARLAND ST", "postcode": "68113"}}},
{"geometry": {"type": "Point", "coordinates": [-96.0314900194, 41.248827353]}, "type": "Feature", "properties": {"collection_times": [{"days": "Mon-Fri", "time": "5:00pm"}, {"days": "Sat-Sun", "time": "Closed"}], "id": "6811400017", "name": "USPS COLLECTION BOX - BLUE BOX", "address": {"city": "OMAHA", "state": "NE", "street": "7602 PACIFIC ST", "postcode": "68114"}}},
{"geometry": {"type": "Point", "coordinates": [-96.0313492125, 41.2501997195]}, "type": "Feature", "properties": {"collection_times": [{"days": "Mon-Sat", "time": "9:00am"}, {"days": "Sun", "time": "Closed"}], "id": "6811400018", "name": "USPS COLLECTION BOX - BLUE BOX", "address": {"city": "OMAHA", "state": "NE", "street": "909 S 76TH ST", "postcode": "68114"}}},
{"geometry": {"type": "Point", "coordinates": [-96.032456111, 41.2487250486]}, "type": "Feature", "properties": {"collection_times": [{"days": "Mon-Sat", "time": "10:15am"}, {"days": "Sun", "time": "Closed"}], "id": "6811400020", "name": "USPS COLLECTION BOX - BLUE BOX", "address": {"city": "OMAHA", "state": "NE", "street": "7701 PACIFIC ST", "postcode": "68114"}}},
{"geometry": {"type": "Point", "coordinates": [-96.0365289668, 41.2611983019]}, "type": "Feature", "properties": {"collection_times": [{"days": "Mon-Fri", "time": "5:00pm"}, {"days": "Sat-Sun", "time": "Closed"}], "id": "6811400024", "name": "USPS COLLECTION BOX - BLUE BOX", "address": {"city": "OMAHA", "state": "NE", "street": "7811 DAVENPORT ST", "postcode": "68114"}}},
{"geometry": {"type": "Point", "coordinates": [-96.0430170424, 41.2616886129]}, "type": "Feature", "properties": {"collection_times": [{"days": "Mon-Fri", "time": "5:10pm"}, {"days": "Sat-Sun", "time": "Closed"}], "id": "6811400030", "name": "USPS COLLECTION BOX - BLUE BOX", "address": {"city": "OMAHA", "state": "NE", "street": "8401 W DODGE RD", "postcode": "68114"}}},
{"geometry": {"type": "Point", "coordinates": [-96.0432600253, 41.2620693479]}, "type": "Feature", "properties": {"collection_times": [{"days": "Mon-Fri", "time": "4:39pm"}, {"days": "Sat-Sun", "time": "Closed"}], "id": "6811400032", "name": "USPS COLLECTION BOX - BLUE BOX", "address": {"city": "OMAHA", "state": "NE", "street": "8420 W DODGE RD", "postcode": "68114"}}},
{"geometry": {"type": "Point", "coordinates": [-96.0445555302, 41.2622671948]}, "type": "Feature", "properties": {"collection_times": [{"days": "Mon-Sat", "time": "11:00am"}, {"days": "Sun", "time": "Closed"}], "id": "6811400033", "name": "USPS COLLECTION BOX - BLUE BOX", "address": {"city": "OMAHA", "state": "NE", "street": "8501 W DODGE RD", "postcode": "68114"}}},
{"geometry": {"type": "Point", "coordinates": [-96.0482523056, 41.2633905285]}, "type": "Feature", "properties": {"collection_times": [{"days": "Mon-Fri", "time": "4:45pm"}, {"days": "Sat-Sun", "time": "Closed"}], "id": "6811400036", "name": "USPS COLLECTION BOX - BLUE BOX", "address": {"city": "OMAHA", "state": "NE", "street": "8712 W DODGE RD", "postcode": "68114"}}},
{"geometry": {"type": "Point", "coordinates": [-96.0482523056, 41.2633905285]}, "type": "Feature", "properties": {"collection_times": [{"days": "Mon-Fri", "time": "4:45pm"}, {"days": "Sat-Sun", "time": "Closed"}], "id": "6811400039", "name": "USPS COLLECTION BOX - BLUE BOX", "address": {"city": "OMAHA", "state": "NE", "street": "8712 W DODGE RD", "postcode": "68114"}}},
{"geometry": {"type": "Point", "coordinates": [-96.0480412513, 41.2488492349]}, "type": "Feature", "properties": {"collection_times": [{"days": "Mon-Sat", "time": "1:00pm"}, {"days": "Sun", "time": "Closed"}], "id": "6811400041", "name": "USPS COLLECTION BOX - BLUE BOX", "address": {"city": "OMAHA", "state": "NE", "street": "8722 PACIFIC ST", "postcode": "68114"}}},
{"geometry": {"type": "Point", "coordinates": [-96.0506020555, 41.2613351785]}, "type": "Feature", "properties": {"collection_times": [{"days": "Mon-Fri", "time": "5:28pm"}, {"days": "Sat-Sun", "time": "Closed"}], "id": "6811400043", "name": "USPS COLLECTION BOX - BLUE BOX", "address": {"city": "OMAHA", "state": "NE", "street": "251 N 89TH ST", "postcode": "68114"}}},
{"geometry": {"type": "Point", "coordinates": [-96.0506020555, 41.2613351785]}, "type": "Feature", "properties": {"collection_times": [{"days": "Mon-Fri", "time": "5:28pm"}, {"days": "Sat-Sun", "time": "Closed"}], "id": "6811400044", "name": "USPS COLLECTION BOX - BLUE BOX", "address": {"city": "OMAHA", "state": "NE", "street": "251 N 89TH ST", "postcode": "68114"}}},
{"geometry": {"type": "Point", "coordinates": [-96.0522670359, 41.2634702048]}, "type": "Feature", "properties": {"collection_times": [{"days": "Mon-Fri", "time": "4:51pm"}, {"days": "Sat-Sun", "time": "Closed"}], "id": "6811400048", "name": "USPS COLLECTION BOX - BLUE BOX", "address": {"city": "OMAHA", "state": "NE", "street": "8990 W DODGE RD", "postcode": "68114"}}},
{"geometry": {"type": "Point", "coordinates": [-96.0598073493, 41.2668977085]}, "type": "Feature", "properties": {"collection_times": [{"days": "Mon-Sat", "time": "2:30pm"}, {"days": "Sun", "time": "Closed"}], "id": "6811400049", "name": "USPS COLLECTION BOX - BLUE BOX", "address": {"city": "OMAHA", "state": "NE", "street": "9405 BURT ST", "postcode": "68114"}}},
{"geometry": {"type": "Point", "coordinates": [-96.0547320611, 41.263486602]}, "type": "Feature", "properties": {"collection_times": [{"days": "Mon-Sat", "time": "11:00am"}, {"days": "Sun", "time": "Closed"}], "id": "6811400054", "name": "USPS COLLECTION BOX - BLUE BOX", "address": {"city": "OMAHA", "state": "NE", "street": "9140 W DODGE RD", "postcode": "68114"}}},
{"geometry": {"type": "Point", "coordinates": [-96.0558225021, 41.2634934548]}, "type": "Feature", "properties": {"collection_times": [{"days": "Mon-Fri", "time": "5:20pm"}, {"days": "Sat-Sun", "time": "Closed"}], "id": "6811400056", "name": "USPS COLLECTION BOX - BLUE BOX", "address": {"city": "OMAHA", "state": "NE", "street": "9202 W DODGE RD", "postcode": "68114"}}},
{"geometry": {"type": "Point", "coordinates": [-96.056262888, 41.2634934548]}, "type": "Feature", "properties": {"collection_times": [{"days": "Mon-Fri", "time": "5:17pm"}, {"days": "Sat-Sun", "time": "Closed"}], "id": "6811400058", "name": "USPS COLLECTION BOX - BLUE BOX", "address": {"city": "OMAHA", "state": "NE", "street": "9290 W DODGE RD", "postcode": "68114"}}},
{"geometry": {"type": "Point", "coordinates": [-96.0574145914, 41.2652594803]}, "type": "Feature", "properties": {"collection_times": [{"days": "Mon-Fri", "time": "5:08pm"}, {"days": "Sat-Sun", "time": "Closed"}], "id": "6811400061", "name": "USPS COLLECTION BOX - BLUE BOX", "address": {"city": "OMAHA", "state": "NE", "street": "9300 UNDERWOOD AVE", "postcode": "68114"}}},
{"geometry": {"type": "Point", "coordinates": [-96.0574145914, 41.2652594803]}, "type": "Feature", "properties": {"collection_times": [{"days": "Mon-Fri", "time": "5:08pm"}, {"days": "Sat-Sun", "time": "Closed"}], "id": "6811400063", "name": "USPS COLLECTION BOX - BLUE BOX", "address": {"city": "OMAHA", "state": "NE", "street": "9300 UNDERWOOD AVE", "postcode": "68114"}}},
{"geometry": {"type": "Point", "coordinates": [-96.0586823086, 41.2635011111]}, "type": "Feature", "properties": {"collection_times": [{"days": "Mon-Fri", "time": "5:13pm"}, {"days": "Sat-Sun", "time": "Closed"}], "id": "6811400065", "name": "USPS COLLECTION BOX - BLUE BOX", "address": {"city": "OMAHA", "state": "NE", "street": "9394 W DODGE RD", "postcode": "68114"}}},
{"geometry": {"type": "Point", "coordinates": [-96.062069432, 41.2696199424]}, "type": "Feature", "properties": {"collection_times": [{"days": "Mon-Sat", "time": "9:45am"}, {"days": "Sun", "time": "Closed"}], "id": "6811400067", "name": "USPS COLLECTION BOX - BLUE BOX", "address": {"city": "OMAHA", "state": "NE", "street": "909 N 96TH ST", "postcode": "68114"}}},
{"geometry": {"type": "Point", "coordinates": [-96.0697600117, 41.2606515013]}, "type": "Feature", "properties": {"collection_times": [{"days": "Mon-Fri", "time": "4:15pm"}, {"days": "Sat-Sun", "time": "Closed"}], "id": "6811400068", "name": "USPS COLLECTION BOX - BLUE BOX", "address": {"city": "OMAHA", "state": "NE", "street": "10050 REGENCY CIR", "postcode": "68114"}}},
{"geometry": {"type": "Point", "coordinates": [-96.0688543911, 41.2642075094]}, "type": "Feature", "properties": {"collection_times": [{"days": "Mon-Sat", "time": "12:30pm"}, {"days": "Sun", "time": "Closed"}], "id": "6811400075", "name": "USPS COLLECTION BOX - BLUE BOX", "address": {"city": "OMAHA", "state": "NE", "street": "10000 CALIFORNIA ST", "postcode": "68114"}}},
{"geometry": {"type": "Point", "coordinates": [-96.0688543911, 41.2642075094]}, "type": "Feature", "properties": {"collection_times": [{"days": "Mon-Sat", "time": "12:30pm"}, {"days": "Sun", "time": "Closed"}], "id": "6811400076", "name": "USPS COLLECTION BOX - BLUE BOX", "address": {"city": "OMAHA", "state": "NE", "street": "10000 CALIFORNIA ST", "postcode": "68114"}}},
{"geometry": {"type": "Point", "coordinates": [-96.0696596819, 41.2606032197]}, "type": "Feature", "properties": {"collection_times": [{"days": "Mon-Fri", "time": "4:18pm"}, {"days": "Sat-Sun", "time": "Closed"}], "id": "6811400083", "name": "USPS COLLECTION BOX - BLUE BOX", "address": {"city": "OMAHA", "state": "NE", "street": "10040 REGENCY CIR", "postcode": "68114"}}},
{"geometry": {"type": "Point", "coordinates": [-96.0734420534, 41.2575678129]}, "type": "Feature", "properties": {"collection_times": [{"days": "Mon-Fri", "time": "4:29pm"}, {"days": "Sat-Sun", "time": "Closed"}], "id": "6811400084", "name": "USPS COLLECTION BOX - BLUE BOX", "address": {"city": "OMAHA", "state": "NE", "street": "10330 REGENCY PARKWAY DR", "postcode": "68114"}}},
{"geometry": {"type": "Point", "coordinates": [-96.0748339444, 41.2570993477]}, "type": "Feature", "properties": {"collection_times": [{"days": "Mon-Fri", "time": "4:39pm"}, {"days": "Sat-Sun", "time": "Closed"}], "id": "6811400085", "name": "USPS COLLECTION BOX - BLUE BOX", "address": {"city": "OMAHA", "state": "NE", "street": "400 ESSEX CT", "postcode": "68114"}}},
{"geometry": {"type": "Point", "coordinates": [-96.0797921679, 41.2487707192]}, "type": "Feature", "properties": {"collection_times": [{"days": "Mon-Fri", "time": "3:36pm"}, {"days": "Sat-Sun", "time": "Closed"}], "id": "6811400090", "name": "USPS COLLECTION BOX - BLUE BOX", "address": {"city": "OMAHA", "state": "NE", "street": "10730 PACIFIC ST", "postcode": "68114"}}},
{"geometry": {"type": "Point", "coordinates": [-96.0731018621, 41.259803607]}, "type": "Feature", "properties": {"collection_times": [{"days": "Mon-Fri", "time": "4:05pm"}, {"days": "Sat-Sun", "time": "Closed"}], "id": "6811400094", "name": "USPS COLLECTION BOX - BLUE BOX", "address": {"city": "OMAHA", "state": "NE", "street": "10235 REGENCY CIR", "postcode": "68114"}}},
{"geometry": {"type": "Point", "coordinates": [-96.0254024696, 41.254247725]}, "type": "Feature", "properties": {"collection_times": [{"days": "Mon-Fri", "time": "5:18pm"}, {"days": "Sat-Sun", "time": "Closed"}], "id": "6811400099", "name": "USPS COLLECTION BOX - BLUE BOX", "address": {"city": "OMAHA", "state": "NE", "street": "7311 JONES ST", "postcode": "68114"}}},
{"geometry": {"type": "Point", "coordinates": [-96.0507954711, 41.2631570806]}, "type": "Feature", "properties": {"collection_times": [{"days": "Mon-Fri", "time": "5:00pm"}, {"days": "Sat-Sun", "time": "Closed"}], "id": "6811400104", "name": "USPS COLLECTION BOX - BLUE BOX", "address": {"city": "OMAHA", "state": "NE", "street": "8901 W DODGE RD", "postcode": "68114"}}},
{"geometry": {"type": "Point", "coordinates": [-96.0741122922, 41.2561342426]}, "type": "Feature", "properties": {"collection_times": [{"days": "Mon-Fri", "time": "4:45pm"}, {"days": "Sat", "time": "4:04pm"}, {"days": "Sun", "time": "Closed"}], "id": "6811400109", "name": "USPS COLLECTION BOX - BLUE BOX", "address": {"city": "OMAHA", "state": "NE", "street": "440 REGENCY PARKWAY DR", "postcode": "68114"}}},
{"geometry": {"type": "Point", "coordinates": [-96.0741122922, 41.2561342426]}, "type": "Feature", "properties": {"collection_times": [{"days": "Mon-Fri", "time": "4:45pm"}, {"days": "Sat", "time": "4:04pm"}, {"days": "Sun", "time": "Closed"}], "id": "6811400112", "name": "USPS COLLECTION BOX - BLUE BOX", "address": {"city": "OMAHA", "state": "NE", "street": "440 REGENCY PARKWAY DR", "postcode": "68114"}}},
{"geometry": {"type": "Point", "coordinates": [-96.0516954857, 41.2633525661]}, "type": "Feature", "properties": {"collection_times": [{"days": "Mon-Sat", "time": "10:30am"}, {"days": "Sun", "time": "Closed"}], "id": "6811400113", "name": "USPS COLLECTION BOX - BLUE BOX", "address": {"city": "OMAHA", "state": "NE", "street": "9002 PARKER ST", "postcode": "68114"}}},
{"geometry": {"type": "Point", "coordinates": [-96.0365289668, 41.2611983019]}, "type": "Feature", "properties": {"collection_times": [{"days": "Mon-Fri", "time": "5:00pm"}, {"days": "Sat-Sun", "time": "Closed"}], "id": "6811400114", "name": "USPS COLLECTION BOX - BLUE BOX", "address": {"city": "OMAHA", "state": "NE", "street": "7811 DAVENPORT ST", "postcode": "68114"}}},
{"geometry": {"type": "Point", "coordinates": [-96.038067725, 41.2633532197]}, "type": "Feature", "properties": {"collection_times": [{"days": "Mon-Fri", "time": "5:46pm"}, {"days": "Sat", "time": "4:45pm"}, {"days": "Sun", "time": "Closed"}], "id": "6811400125", "name": "USPS COLLECTION BOX - BLUE BOX", "address": {"city": "OMAHA", "state": "NE", "street": "7910 CASS ST", "postcode": "68114"}}},
{"geometry": {"type": "Point", "coordinates": [-96.0741122922, 41.2561342426]}, "type": "Feature", "properties": {"collection_times": [{"days": "Mon-Fri", "time": "4:45pm"}, {"days": "Sat", "time": "4:04pm"}, {"days": "Sun", "time": "Closed"}], "id": "6811400132", "name": "USPS COLLECTION BOX - BLUE BOX", "address": {"city": "OMAHA", "state": "NE", "street": "440 REGENCY PARKWAY DR", "postcode": "68114"}}},
{"geometry": {"type": "Point", "coordinates": [-96.0482523056, 41.2633905285]}, "type": "Feature", "properties": {"collection_times": [{"days": "Mon-Fri", "time": "4:45pm"}, {"days": "Sat-Sun", "time": "Closed"}], "id": "6811400144", "name": "USPS COLLECTION BOX - BLUE BOX", "address": {"city": "OMAHA", "state": "NE", "street": "8712 W DODGE RD", "postcode": "68114"}}},
{"geometry": {"type": "Point", "coordinates": [-96.0506020555, 41.2613351785]}, "type": "Feature", "properties": {"collection_times": [{"days": "Mon-Fri", "time": "5:28pm"}, {"days": "Sat-Sun", "time": "Closed"}], "id": "6811400150", "name": "USPS COLLECTION BOX - BLUE BOX", "address": {"city": "OMAHA", "state": "NE", "street": "251 N 89TH ST", "postcode": "68114"}}},
{"geometry": {"type": "Point", "coordinates": [-96.0547899397, 41.2705052523]}, "type": "Feature", "properties": {"collection_times": [{"days": "Mon-Fri", "time": "5:04pm"}, {"days": "Sat-Sun", "time": "Closed"}], "id": "6811400152", "name": "USPS COLLECTION BOX - BLUE BOX", "address": {"city": "OMAHA", "state": "NE", "street": "9101 WESTERN AVE", "postcode": "68114"}}},
{"geometry": {"type": "Point", "coordinates": [-96.071622172, 41.2694213032]}, "type": "Feature", "properties": {"collection_times": [{"days": "Mon-Fri", "time": "4:47pm"}, {"days": "Sat-Sun", "time": "Closed"}], "id": "6811400154", "name": "USPS COLLECTION BOX - BLUE BOX", "address": {"city": "OMAHA", "state": "NE", "street": "1111 E 102 CT", "postcode": "68114"}}},
{"geometry": {"type": "Point", "coordinates": [-96.071622172, 41.2694213032]}, "type": "Feature", "properties": {"collection_times": [{"days": "Mon-Fri", "time": "4:47pm"}, {"days": "Sat-Sun", "time": "Closed"}], "id": "6811400155", "name": "USPS COLLECTION BOX - BLUE BOX", "address": {"city": "OMAHA", "state": "NE", "street": "1111 N 102ND CT", "postcode": "68114"}}},
{"geometry": {"type": "Point", "coordinates": [-96.1579713904, 41.2776278532]}, "type": "Feature", "properties": {"collection_times": [{"days": "Mon-Sat", "time": "10:30am"}, {"days": "Sun", "time": "Closed"}], "id": "6811600000", "name": "USPS COLLECTION BOX - BLUE BOX", "address": {"city": "OMAHA", "state": "NE", "street": "2011 N 156TH ST", "postcode": "68116"}}},
{"geometry": {"type": "Point", "coordinates": [-96.1572259715, 41.2936259133]}, "type": "Feature", "properties": {"collection_times": [{"days": "Mon-Sat", "time": "12:00pm"}, {"days": "Sun", "time": "Closed"}], "id": "6811600001", "name": "USPS COLLECTION BOX - BLUE BOX", "address": {"city": "OMAHA", "state": "NE", "street": "15525 SPAULDING PLZ", "postcode": "68116"}}},
{"geometry": {"type": "Point", "coordinates": [-96.1581965114, 41.2883214912]}, "type": "Feature", "properties": {"collection_times": [{"days": "Mon-Fri", "time": "5:08pm"}, {"days": "Sat", "time": "3:42pm"}, {"days": "Sun", "time": "Closed"}], "id": "6811600002", "name": "USPS COLLECTION BOX - BLUE BOX", "address": {"city": "OMAHA", "state": "NE", "street": "3410 N 156TH ST", "postcode": "68116"}}},
{"geometry": {"type": "Point", "coordinates": [-95.9905354729, 41.216830453]}, "type": "Feature", "properties": {"collection_times": [{"days": "Mon-Fri", "time": "5:00pm"}, {"days": "Sat-Sun", "time": "Closed"}], "id": "6811700005", "name": "USPS COLLECTION BOX - BLUE BOX", "address": {"city": "OMAHA", "state": "NE", "street": "4246 S 50TH ST", "postcode": "68117"}}},
{"geometry": {"type": "Point", "coordinates": [-95.9905354729, 41.216830453]}, "type": "Feature", "properties": {"collection_times": [{"days": "Mon-Fri", "time": "5:00pm"}, {"days": "Sat-Sun", "time": "Closed"}], "id": "6811700006", "name": "USPS COLLECTION BOX - BLUE BOX", "address": {"city": "OMAHA", "state": "NE", "street": "4246 S 50TH ST", "postcode": "68117"}}},
{"geometry": {"type": "Point", "coordinates": [-96.1773042471, 41.2630272063]}, "type": "Feature", "properties": {"collection_times": [{"days": "Mon-Fri", "time": "1:57pm"}, {"days": "Sat", "time": "3:02pm"}, {"days": "Sun", "time": "Closed"}], "id": "6811800000", "name": "USPS COLLECTION BOX - BLUE BOX", "address": {"city": "BOYSTOWN", "state": "NE", "street": "17819 PACIFIC ST", "postcode": "68118"}}},
{"geometry": {"type": "Point", "coordinates": [-95.903017302, 41.3014315731]}, "type": "Feature", "properties": {"collection_times": [{"days": "Mon-Sat", "time": "11:00am"}, {"days": "Sun", "time": "Closed"}], "id": "6811900002", "name": "USPS COLLECTION BOX - BLUE BOX", "address": {"city": "OMAHA", "state": "NE", "street": "4501 ABBOTT DR", "postcode": "68119"}}},
{"geometry": {"type": "Point", "coordinates": [-96.0237110959, 41.3218522147]}, "type": "Feature", "properties": {"collection_times": [{"days": "Mon-Sat", "time": "10:00am"}, {"days": "Sun", "time": "Closed"}], "id": "6812200000", "name": "USPS COLLECTION BOX - BLUE BOX", "address": {"city": "OMAHA", "state": "NE", "street": "6751 N 72ND ST", "postcode": "68122"}}},
{"geometry": {"type": "Point", "coordinates": [-96.0237643646, 41.3225782281]}, "type": "Feature", "properties": {"collection_times": [{"days": "Mon-Sat", "time": "10:00am"}, {"days": "Sun", "time": "Closed"}], "id": "6812200002", "name": "USPS COLLECTION BOX - BLUE BOX", "address": {"city": "OMAHA", "state": "NE", "street": "6901 N 72ND ST", "postcode": "68122"}}},
{"geometry": {"type": "Point", "coordinates": [-96.0644471857, 41.3216269813]}, "type": "Feature", "properties": {"collection_times": [{"days": "Mon-Sat", "time": "10:00am"}, {"days": "Sun", "time": "Closed"}], "id": "6812200003", "name": "USPS COLLECTION BOX - BLUE BOX", "address": {"city": "OMAHA", "state": "NE", "street": "6916 N 97TH CIR", "postcode": "68122"}}},
{"geometry": {"type": "Point", "coordinates": [-95.9532777669, 41.12097062]}, "type": "Feature", "properties": {"collection_times": [{"days": "Mon-Sat", "time": "11:30am"}, {"days": "Sun", "time": "Closed"}], "id": "6812300006", "name": "USPS COLLECTION BOX - BLUE BOX", "address": {"city": "BELLEVUE", "state": "NE", "street": "3410 GRANADA PKWY", "postcode": "68123"}}},
{"geometry": {"type": "Point", "coordinates": [-95.9598576733, 41.1372847775]}, "type": "Feature", "properties": {"collection_times": [{"days": "Mon-Sat", "time": "11:00am"}, {"days": "Sun", "time": "Closed"}], "id": "6812300007", "name": "USPS COLLECTION BOX - BLUE BOX", "address": {"city": "BELLEVUE", "state": "NE", "street": "3117 COMSTOCK AVE", "postcode": "68123"}}},
{"geometry": {"type": "Point", "coordinates": [-95.9667078558, 41.1177130631]}, "type": "Feature", "properties": {"collection_times": [{"days": "Mon-Sat", "time": "10:00am"}, {"days": "Sun", "time": "Closed"}], "id": "6812300008", "name": "USPS COLLECTION BOX - BLUE BOX", "address": {"city": "BELLEVUE", "state": "NE", "street": "3701 LEAWOOD DR", "postcode": "68123"}}},
{"geometry": {"type": "Point", "coordinates": [-95.9433609556, 41.1146999868]}, "type": "Feature", "properties": {"collection_times": [{"days": "Mon-Sat", "time": "11:00am"}, {"days": "Sun", "time": "Closed"}], "id": "6812300011", "name": "USPS COLLECTION BOX - BLUE BOX", "address": {"city": "BELLEVUE", "state": "NE", "street": "1729 SCARBOROUGH DR", "postcode": "68123"}}},
{"geometry": {"type": "Point", "coordinates": [-95.9545554074, 41.12073234]}, "type": "Feature", "properties": {"collection_times": [{"days": "Mon-Sat", "time": "3:30pm"}, {"days": "Sun", "time": "Closed"}], "id": "6812300012", "name": "USPS COLLECTION BOX - BLUE BOX", "address": {"city": "BELLEVUE", "state": "NE", "street": "2871 CAPEHART RD", "postcode": "68123"}}},
{"geometry": {"type": "Point", "coordinates": [-95.9348243607, 41.1602392188]}, "type": "Feature", "properties": {"collection_times": [{"days": "Mon-Sat", "time": "10:00am"}, {"days": "Sun", "time": "Closed"}], "id": "6812300013", "name": "USPS COLLECTION BOX - BLUE BOX", "address": {"city": "BELLEVUE", "state": "NE", "street": "2202 GREGG RD", "postcode": "68123"}}},
{"geometry": {"type": "Point", "coordinates": [-96.0376390755, 41.2341874881]}, "type": "Feature", "properties": {"collection_times": [{"days": "Mon-Sat", "time": "11:30am"}, {"days": "Sun", "time": "Closed"}], "id": "6812400013", "name": "USPS COLLECTION BOX - BLUE BOX", "address": {"city": "OMAHA", "state": "NE", "street": "8031 W CENTER RD", "postcode": "68124"}}},
{"geometry": {"type": "Point", "coordinates": [-96.045345874, 41.2341619886]}, "type": "Feature", "properties": {"collection_times": [{"days": "Mon-Fri", "time": "5:30pm"}, {"days": "Sat", "time": "4:30pm"}, {"days": "Sun", "time": "Closed"}], "id": "6812400022", "name": "USPS COLLECTION BOX - BLUE BOX", "address": {"city": "OMAHA", "state": "NE", "street": "8451 W CENTER RD", "postcode": "68124"}}},
{"geometry": {"type": "Point", "coordinates": [-96.045345874, 41.2341619886]}, "type": "Feature", "properties": {"collection_times": [{"days": "Mon-Fri", "time": "5:30pm"}, {"days": "Sat", "time": "4:30pm"}, {"days": "Sun", "time": "Closed"}], "id": "6812400023", "name": "USPS COLLECTION BOX - BLUE BOX", "address": {"city": "OMAHA", "state": "NE", "street": "8451 W CENTER RD", "postcode": "68124"}}},
{"geometry": {"type": "Point", "coordinates": [-96.049719509, 41.2349227343]}, "type": "Feature", "properties": {"collection_times": [{"days": "Mon-Fri", "time": "5:00pm"}, {"days": "Sat-Sun", "time": "Closed"}], "id": "6812400033", "name": "USPS COLLECTION BOX - BLUE BOX", "address": {"city": "OMAHA", "state": "NE", "street": "1901 S 72ND ST", "postcode": "68124"}}},
{"geometry": {"type": "Point", "coordinates": [-96.0241567608, 41.2394744498]}, "type": "Feature", "properties": {"collection_times": [{"days": "Mon-Fri", "time": "4:42pm"}, {"days": "Sat-Sun", "time": "Closed"}], "id": "6812400034", "name": "USPS COLLECTION BOX - BLUE BOX", "address": {"city": "OMAHA", "state": "NE", "street": "2120 S 72ND ST", "postcode": "68124"}}},
{"geometry": {"type": "Point", "coordinates": [-96.045345874, 41.2341619886]}, "type": "Feature", "properties": {"collection_times": [{"days": "Mon-Fri", "time": "5:30pm"}, {"days": "Sat", "time": "4:30pm"}, {"days": "Sun", "time": "Closed"}], "id": "6812400038", "name": "USPS COLLECTION BOX - PO LOBBY", "address": {"city": "OMAHA", "state": "NE", "street": "8451 W CENTER RD", "postcode": "68124"}}},
{"geometry": {"type": "Point", "coordinates": [-96.0508276826, 41.2341577992]}, "type": "Feature", "properties": {"collection_times": [{"days": "Mon-Fri", "time": "5:15pm"}, {"days": "Sat", "time": "1:51pm"}, {"days": "Sun", "time": "Closed"}], "id": "6812400039", "name": "USPS COLLECTION BOX - BLUE BOX", "address": {"city": "OMAHA", "state": "NE", "street": "8809 W CENTER RD", "postcode": "68124"}}},
{"geometry": {"type": "Point", "coordinates": [-96.0508276826, 41.2341577992]}, "type": "Feature", "properties": {"collection_times": [{"days": "Mon-Fri", "time": "5:15pm"}, {"days": "Sat", "time": "1:51pm"}, {"days": "Sun", "time": "Closed"}], "id": "6812400040", "name": "USPS COLLECTION BOX - BLUE BOX", "address": {"city": "OMAHA", "state": "NE", "street": "8809 W CENTER RD", "postcode": "68124"}}},
{"geometry": {"type": "Point", "coordinates": [-96.045345874, 41.2341619886]}, "type": "Feature", "properties": {"collection_times": [{"days": "Mon-Fri", "time": "5:30pm"}, {"days": "Sat", "time": "4:30pm"}, {"days": "Sun", "time": "Closed"}], "id": "6812400041", "name": "USPS COLLECTION BOX - PO LOBBY", "address": {"city": "OMAHA", "state": "NE", "street": "8451 W CENTER RD", "postcode": "68124"}}},
{"geometry": {"type": "Point", "coordinates": [-96.045345874, 41.2341619886]}, "type": "Feature", "properties": {"collection_times": [{"days": "Mon-Fri", "time": "5:30pm"}, {"days": "Sat", "time": "4:30pm"}, {"days": "Sun", "time": "Closed"}], "id": "6812400042", "name": "USPS COLLECTION BOX - PO LOBBY", "address": {"city": "OMAHA", "state": "NE", "street": "8451 W CENTER RD", "postcode": "68124"}}},
{"geometry": {"type": "Point", "coordinates": [-96.0241567608, 41.2394744498]}, "type": "Feature", "properties": {"collection_times": [{"days": "Mon-Fri", "time": "4:42pm"}, {"days": "Sat-Sun", "time": "Closed"}], "id": "6812400043", "name": "USPS COLLECTION BOX - BLUE BOX", "address": {"city": "OMAHA", "state": "NE", "street": "2120 S 72ND ST", "postcode": "68124"}}},
{"geometry": {"type": "Point", "coordinates": [-96.049719509, 41.2349227343]}, "type": "Feature", "properties": {"collection_times": [{"days": "Mon-Fri", "time": "4:42pm"}, {"days": "Sat-Sun", "time": "Closed"}], "id": "6812400044", "name": "USPS COLLECTION BOX - EXPRESS", "address": {"city": "OMAHA", "state": "NE", "street": "2120 S 72ND ST", "postcode": "68124"}}},
{"geometry": {"type": "Point", "coordinates": [-96.0699574083, 41.2484498002]}, "type": "Feature", "properties": {"collection_times": [{"days": "Mon-Fri", "time": "3:54pm"}, {"days": "Sat-Sun", "time": "Closed"}], "id": "6812400047", "name": "USPS COLLECTION BOX - BLUE BOX", "address": {"city": "OMAHA", "state": "NE", "street": "1120 S 101ST ST", "postcode": "68124"}}},
{"geometry": {"type": "Point", "coordinates": [-96.045345874, 41.2341619886]}, "type": "Feature", "properties": {"collection_times": [{"days": "Mon-Fri", "time": "5:30pm"}, {"days": "Sat", "time": "4:30pm"}, {"days": "Sun", "time": "Closed"}], "id": "6812400049", "name": "USPS COLLECTION BOX - APC", "address": {"city": "OMAHA", "state": "NE", "street": "8451 W CENTER RD", "postcode": "68124"}}},
{"geometry": {"type": "Point", "coordinates": [-96.045345874, 41.2341619886]}, "type": "Feature", "properties": {"collection_times": [{"days": "Mon-Fri", "time": "5:30pm"}, {"days": "Sat", "time": "4:30pm"}, {"days": "Sun", "time": "Closed"}], "id": "6812400056", "name": "USPS COLLECTION BOX - BLUE BOX", "address": {"city": "OMAHA", "state": "NE", "street": "8451 W CENTER RD", "postcode": "68124"}}},
{"geometry": {"type": "Point", "coordinates": [-96.045345874, 41.2341619886]}, "type": "Feature", "properties": {"collection_times": [{"days": "Mon-Fri", "time": "5:30pm"}, {"days": "Sat", "time": "4:30pm"}, {"days": "Sun", "time": "Closed"}], "id": "6812400057", "name": "USPS COLLECTION BOX - BLUE BOX", "address": {"city": "OMAHA", "state": "NE", "street": "8451 W CENTER RD", "postcode": "68124"}}},
{"geometry": {"type": "Point", "coordinates": [-96.045345874, 41.2341619886]}, "type": "Feature", "properties": {"collection_times": [{"days": "Mon-Fri", "time": "5:30pm"}, {"days": "Sat", "time": "4:30pm"}, {"days": "Sun", "time": "Closed"}], "id": "6812400058", "name": "USPS COLLECTION BOX - BLUE BOX", "address": {"city": "OMAHA", "state": "NE", "street": "8451 W CENTER RD", "postcode": "68124"}}},
{"geometry": {"type": "Point", "coordinates": [-96.045345874, 41.2341619886]}, "type": "Feature", "properties": {"collection_times": [{"days": "Mon-Fri", "time": "5:30pm"}, {"days": "Sat", "time": "4:30pm"}, {"days": "Sun", "time": "Closed"}], "id": "6812400059", "name": "USPS COLLECTION BOX - BLUE BOX", "address": {"city": "OMAHA", "state": "NE", "street": "8451 W CENTER RD", "postcode": "68124"}}},
{"geometry": {"type": "Point", "coordinates": [-96.0262357533, 41.2021527375]}, "type": "Feature", "properties": {"collection_times": [{"days": "Mon-Fri", "time": "5:15pm"}, {"days": "Sat", "time": "4:00pm"}, {"days": "Sun", "time": "Closed"}], "id": "6812700000", "name": "USPS COLLECTION BOX - BLUE BOX", "address": {"city": "OMAHA", "state": "NE", "street": "7300 MAIN ST", "postcode": "68127"}}},
{"geometry": {"type": "Point", "coordinates": [-96.0262357533, 41.2021527375]}, "type": "Feature", "properties": {"collection_times": [{"days": "Mon-Fri", "time": "5:15pm"}, {"days": "Sat", "time": "4:00pm"}, {"days": "Sun", "time": "Closed"}], "id": "6812700001", "name": "USPS COLLECTION BOX - BLUE BOX", "address": {"city": "OMAHA", "state": "NE", "street": "7300 MAIN ST", "postcode": "68127"}}},
{"geometry": {"type": "Point", "coordinates": [-96.029781864, 41.2166103012]}, "type": "Feature", "properties": {"collection_times": [{"days": "Mon-Sat", "time": "10:00am"}, {"days": "Sun", "time": "Closed"}], "id": "6812700009", "name": "USPS COLLECTION BOX - BLUE BOX", "address": {"city": "OMAHA", "state": "NE", "street": "4404 S 76TH CIR", "postcode": "68127"}}},
{"geometry": {"type": "Point", "coordinates": [-96.0357294395, 41.2122009075]}, "type": "Feature", "properties": {"collection_times": [{"days": "Mon-Sat", "time": "10:30am"}, {"days": "Sun", "time": "Closed"}], "id": "6812700010", "name": "USPS COLLECTION BOX - BLUE BOX", "address": {"city": "OMAHA", "state": "NE", "street": "4702 S 78TH AVE", "postcode": "68127"}}},
{"geometry": {"type": "Point", "coordinates": [-96.0489572956, 41.2162128632]}, "type": "Feature", "properties": {"collection_times": [{"days": "Mon-Fri", "time": "5:05pm"}, {"days": "Sat-Sun", "time": "Closed"}], "id": "6812700013", "name": "USPS COLLECTION BOX - BLUE BOX", "address": {"city": "OMAHA", "state": "NE", "street": "4420 S 89TH ST", "postcode": "68127"}}},
{"geometry": {"type": "Point", "coordinates": [-96.0489572956, 41.2162128632]}, "type": "Feature", "properties": {"collection_times": [{"days": "Mon-Fri", "time": "5:05pm"}, {"days": "Sat-Sun", "time": "Closed"}], "id": "6812700015", "name": "USPS COLLECTION BOX - BLUE BOX", "address": {"city": "OMAHA", "state": "NE", "street": "4420 S 89TH ST", "postcode": "68127"}}},
{"geometry": {"type": "Point", "coordinates": [-96.0489572956, 41.2162128632]}, "type": "Feature", "properties": {"collection_times": [{"days": "Mon-Fri", "time": "5:05pm"}, {"days": "Sat-Sun", "time": "Closed"}], "id": "6812700016", "name": "USPS COLLECTION BOX - BLUE BOX", "address": {"city": "OMAHA", "state": "NE", "street": "4420 S 89TH ST", "postcode": "68127"}}},
{"geometry": {"type": "Point", "coordinates": [-96.0489572956, 41.2162128632]}, "type": "Feature", "properties": {"collection_times": [{"days": "Mon-Fri", "time": "5:05pm"}, {"days": "Sat-Sun", "time": "Closed"}], "id": "6812700017", "name": "USPS COLLECTION BOX - BLUE BOX", "address": {"city": "OMAHA", "state": "NE", "street": "4420 S 89TH ST", "postcode": "68127"}}},
{"geometry": {"type": "Point", "coordinates": [-96.064865707, 41.2052832932]}, "type": "Feature", "properties": {"collection_times": [{"days": "Mon-Fri", "time": "5:32pm"}, {"days": "Sat", "time": "4:03pm"}, {"days": "Sun", "time": "Closed"}], "id": "6812700021", "name": "USPS COLLECTION BOX - BLUE BOX", "address": {"city": "OMAHA", "state": "NE", "street": "9707 Q ST", "postcode": "68127"}}},
{"geometry": {"type": "Point", "coordinates": [-96.0621693318, 41.2094490282]}, "type": "Feature", "properties": {"collection_times": [{"days": "Mon-Fri", "time": "5:00pm"}, {"days": "Sat", "time": "1:00pm"}, {"days": "Sun", "time": "Closed"}], "id": "6812700022", "name": "USPS COLLECTION BOX - BLUE BOX", "address": {"city": "OMAHA", "state": "NE", "street": "4870 S 96TH ST", "postcode": "68127"}}},
{"geometry": {"type": "Point", "coordinates": [-96.0722130653, 41.2142639193]}, "type": "Feature", "properties": {"collection_times": [{"days": "Mon-Sat", "time": "10:15am"}, {"days": "Sun", "time": "Closed"}], "id": "6812700024", "name": "USPS COLLECTION BOX - BLUE BOX", "address": {"city": "OMAHA", "state": "NE", "street": "10202 J ST", "postcode": "68127"}}},
{"geometry": {"type": "Point", "coordinates": [-96.029781864, 41.2166103012]}, "type": "Feature", "properties": {"collection_times": [{"days": "Mon-Sat", "time": "10:00am"}, {"days": "Sun", "time": "Closed"}], "id": "6812700039", "name": "USPS COLLECTION BOX - BLUE BOX", "address": {"city": "OMAHA", "state": "NE", "street": "4404 S 76TH CIR", "postcode": "68127"}}},
{"geometry": {"type": "Point", "coordinates": [-96.0262357533, 41.2021527375]}, "type": "Feature", "properties": {"collection_times": [{"days": "Mon-Fri", "time": "5:00pm"}, {"days": "Sat", "time": "4:00pm"}, {"days": "Sun", "time": "Closed"}], "id": "6812700050", "name": "USPS COLLECTION BOX - PO LOBBY", "address": {"city": "OMAHA", "state": "NE", "street": "7300 MAIN ST", "postcode": "68127"}}},
{"geometry": {"type": "Point", "coordinates": [-96.0262357533, 41.2021527375]}, "type": "Feature", "properties": {"collection_times": [{"days": "Mon-Fri", "time": "5:00pm"}, {"days": "Sat", "time": "4:00pm"}, {"days": "Sun", "time": "Closed"}], "id": "6812700052", "name": "USPS COLLECTION BOX - PO LOBBY", "address": {"city": "OMAHA", "state": "NE", "street": "7300 MAIN ST", "postcode": "68127"}}},
{"geometry": {"type": "Point", "coordinates": [-96.0431131932, 41.1796376947]}, "type": "Feature", "properties": {"collection_times": [{"days": "Mon-Sat", "time": "12:00pm"}, {"days": "Sun", "time": "Closed"}], "id": "6812800009", "name": "USPS COLLECTION BOX - BLUE BOX", "address": {"city": "PAPILLION", "state": "NE", "street": "8010 S 84TH ST", "postcode": "68128"}}},
{"geometry": {"type": "Point", "coordinates": [-96.0440081422, 41.1876068976]}, "type": "Feature", "properties": {"collection_times": [{"days": "Mon-Sat", "time": "10:30am"}, {"days": "Sun", "time": "Closed"}], "id": "6812800011", "name": "USPS COLLECTION BOX - BLUE BOX", "address": {"city": "PAPILLION", "state": "NE", "street": "8501 PARK VIEW BLVD", "postcode": "68128"}}},
{"geometry": {"type": "Point", "coordinates": [-96.0534257987, 41.1822743026]}, "type": "Feature", "properties": {"collection_times": [{"days": "Mon-Fri", "time": "4:43pm"}, {"days": "Sat", "time": "4:10pm"}, {"days": "Sun", "time": "Closed"}], "id": "6812800014", "name": "USPS COLLECTION BOX - BLUE BOX", "address": {"city": "PAPILLION", "state": "NE", "street": "8250 S 99TH ST", "postcode": "68128"}}},
{"geometry": {"type": "Point", "coordinates": [-96.0652597203, 41.1810535943]}, "type": "Feature", "properties": {"collection_times": [{"days": "Mon-Sat", "time": "12:00pm"}, {"days": "Sun", "time": "Closed"}], "id": "6812800016", "name": "USPS COLLECTION BOX - BLUE BOX", "address": {"city": "PAPILLION", "state": "NE", "street": "8525 S 71ST PLZ", "postcode": "68128"}}},
{"geometry": {"type": "Point", "coordinates": [-96.0534257987, 41.1822743026]}, "type": "Feature", "properties": {"collection_times": [{"days": "Mon-Fri", "time": "4:43pm"}, {"days": "Sat", "time": "4:10pm"}, {"days": "Sun", "time": "Closed"}], "id": "6812800018", "name": "USPS COLLECTION BOX - BLUE BOX", "address": {"city": "PAPILLION", "state": "NE", "street": "8250 S 99TH ST", "postcode": "68128"}}},
{"geometry": {"type": "Point", "coordinates": [-96.0814568485, 41.1902510959]}, "type": "Feature", "properties": {"collection_times": [{"days": "Mon-Sat", "time": "11:30am"}, {"days": "Sun", "time": "Closed"}], "id": "6812800019", "name": "USPS COLLECTION BOX - BLUE BOX", "address": {"city": "PAPILLION", "state": "NE", "street": "6910 S 108TH ST", "postcode": "68128"}}},
{"geometry": {"type": "Point", "coordinates": [-96.1876715973, 41.2356132169]}, "type": "Feature", "properties": {"collection_times": [{"days": "Mon-Fri", "time": "5:02pm"}, {"days": "Sat", "time": "2:49pm"}, {"days": "Sun", "time": "Closed"}], "id": "6813000008", "name": "USPS COLLECTION BOX - BLUE BOX", "address": {"city": "OMAHA", "state": "NE", "street": "17440 LAKESIDE HILLS PLZ", "postcode": "68130"}}},
{"geometry": {"type": "Point", "coordinates": [-96.1876715973, 41.2356132169]}, "type": "Feature", "properties": {"collection_times": [{"days": "Mon-Fri", "time": "5:02pm"}, {"days": "Sat", "time": "2:49pm"}, {"days": "Sun", "time": "Closed"}], "id": "6813000009", "name": "USPS COLLECTION BOX - BLUE BOX", "address": {"city": "OMAHA", "state": "NE", "street": "17440 LAKESIDE HILLS PLZ", "postcode": "68130"}}},
{"geometry": {"type": "Point", "coordinates": [-96.1876715973, 41.2356132169]}, "type": "Feature", "properties": {"collection_times": [{"days": "Mon-Fri", "time": "5:02pm"}, {"days": "Sat", "time": "2:49pm"}, {"days": "Sun", "time": "Closed"}], "id": "6813000010", "name": "USPS COLLECTION BOX - BLUE BOX", "address": {"city": "OMAHA", "state": "NE", "street": "17440 LAKESIDE HILLS PLZ", "postcode": "68130"}}},
{"geometry": {"type": "Point", "coordinates": [-96.1876715973, 41.2356132169]}, "type": "Feature", "properties": {"collection_times": [{"days": "Mon-Fri", "time": "5:02pm"}, {"days": "Sat", "time": "2:49pm"}, {"days": "Sun", "time": "Closed"}], "id": "6813000011", "name": "USPS COLLECTION BOX - BLUE BOX", "address": {"city": "OMAHA", "state": "NE", "street": "17440 LAKESIDE HILLS PLZ", "postcode": "68130"}}},
{"geometry": {"type": "Point", "coordinates": [-96.197767023, 41.233113675]}, "type": "Feature", "properties": {"collection_times": [{"days": "Mon-Sat", "time": "10:30am"}, {"days": "Sun", "time": "Closed"}], "id": "6813000015", "name": "USPS COLLECTION BOX - BLUE BOX", "address": {"city": "OMAHA", "state": "NE", "street": "18201 WRIGHT ST", "postcode": "68130"}}},
{"geometry": {"type": "Point", "coordinates": [-96.1805770909, 41.2389919412]}, "type": "Feature", "properties": {"collection_times": [{"days": "Mon-Sat", "time": "10:00am"}, {"days": "Sun", "time": "Closed"}], "id": "6813000018", "name": "USPS COLLECTION BOX - BLUE BOX", "address": {"city": "OMAHA", "state": "NE", "street": "16901 LAKESIDE HILLS CT", "postcode": "68130"}}},
{"geometry": {"type": "Point", "coordinates": [-95.946894305, 41.2638250357]}, "type": "Feature", "properties": {"collection_times": [{"days": "Mon-Sat", "time": "9:00am"}, {"days": "Sun", "time": "Closed"}], "id": "6813100003", "name": "USPS COLLECTION BOX - BLUE BOX", "address": {"city": "OMAHA", "state": "NE", "street": "502 N 24TH ST", "postcode": "68131"}}},
{"geometry": {"type": "Point", "coordinates": [-95.9503259503, 41.2577231684]}, "type": "Feature", "properties": {"collection_times": [{"days": "Mon-Sat", "time": "10:00am"}, {"days": "Sun", "time": "Closed"}], "id": "6813100006", "name": "USPS COLLECTION BOX - BLUE BOX", "address": {"city": "OMAHA", "state": "NE", "street": "2600 FARNAM ST", "postcode": "68131"}}},
{"geometry": {"type": "Point", "coordinates": [-95.95653, 41.26578]}, "type": "Feature", "properties": {"collection_times": [{"days": "Mon-Sat", "time": "9:15am"}, {"days": "Sun", "time": "Closed"}], "id": "6813100011", "name": "USPS COLLECTION BOX - BLUE BOX", "address": {"city": "OMAHA", "state": "NE", "street": "601 N 30TH ST", "postcode": "68131"}}},
{"geometry": {"type": "Point", "coordinates": [-95.9565567779, 41.2597224935]}, "type": "Feature", "properties": {"collection_times": [{"days": "Mon-Fri", "time": "1:15pm"}, {"days": "Sat-Sun", "time": "Closed"}], "id": "6813100014", "name": "USPS COLLECTION BOX - BLUE BOX", "address": {"city": "OMAHA", "state": "NE", "street": "3001 DODGE ST", "postcode": "68131"}}},
{"geometry": {"type": "Point", "coordinates": [-95.9568616167, 41.2567176043]}, "type": "Feature", "properties": {"collection_times": [{"days": "Mon-Fri", "time": "5:13pm"}, {"days": "Sat-Sun", "time": "Closed"}], "id": "6813100016", "name": "USPS COLLECTION BOX - BLUE BOX", "address": {"city": "OMAHA", "state": "NE", "street": "3024 HARNEY ST", "postcode": "68131"}}},
{"geometry": {"type": "Point", "coordinates": [-95.9629523722, 41.259707434]}, "type": "Feature", "properties": {"collection_times": [{"days": "Mon-Sat", "time": "9:00am"}, {"days": "Sun", "time": "Closed"}], "id": "6813100022", "name": "USPS COLLECTION BOX - BLUE BOX", "address": {"city": "OMAHA", "state": "NE", "street": "100 S 34TH ST", "postcode": "68131"}}},
{"geometry": {"type": "Point", "coordinates": [-95.9691016455, 41.2572023887]}, "type": "Feature", "properties": {"collection_times": [{"days": "Mon-Sat", "time": "1:00pm"}, {"days": "Sun", "time": "Closed"}], "id": "6813100031", "name": "USPS COLLECTION BOX - BLUE BOX", "address": {"city": "OMAHA", "state": "NE", "street": "402 S 38TH ST", "postcode": "68131"}}},
{"geometry": {"type": "Point", "coordinates": [-95.9764235785, 41.2577918933]}, "type": "Feature", "properties": {"collection_times": [{"days": "Mon-Sat", "time": "9:15am"}, {"days": "Sun", "time": "Closed"}], "id": "6813100039", "name": "USPS COLLECTION BOX - BLUE BOX", "address": {"city": "OMAHA", "state": "NE", "street": "4239 FARNAM ST", "postcode": "68131"}}},
{"geometry": {"type": "Point", "coordinates": [-95.9764764349, 41.2579015389]}, "type": "Feature", "properties": {"collection_times": [{"days": "Mon-Fri", "time": "5:00pm"}, {"days": "Sat-Sun", "time": "Closed"}], "id": "6813100042", "name": "USPS COLLECTION BOX - BLUE BOX", "address": {"city": "OMAHA", "state": "NE", "street": "4242 FARNAM ST", "postcode": "68131"}}},
{"geometry": {"type": "Point", "coordinates": [-95.9564524853, 41.2577500565]}, "type": "Feature", "properties": {"collection_times": [{"days": "Mon-Sat", "time": "1:00pm"}, {"days": "Sun", "time": "Closed"}], "id": "6813100066", "name": "USPS COLLECTION BOX - BLUE BOX", "address": {"city": "OMAHA", "state": "NE", "street": "3000 FARNAM ST", "postcode": "68131"}}},
{"geometry": {"type": "Point", "coordinates": [-95.9807732941, 41.2649750576]}, "type": "Feature", "properties": {"collection_times": [{"days": "Mon-Fri", "time": "5:15pm"}, {"days": "Sat", "time": "4:45pm"}, {"days": "Sun", "time": "Closed"}], "id": "6813200000", "name": "USPS COLLECTION BOX - BLUE BOX", "address": {"city": "OMAHA", "state": "NE", "street": "608 N SADDLE CREEK RD", "postcode": "68132"}}},
{"geometry": {"type": "Point", "coordinates": [-95.9807732941, 41.2649750576]}, "type": "Feature", "properties": {"collection_times": [{"days": "Mon-Fri", "time": "5:15pm"}, {"days": "Sat", "time": "4:45pm"}, {"days": "Sun", "time": "Closed"}], "id": "6813200001", "name": "USPS COLLECTION BOX - BLUE BOX", "address": {"city": "OMAHA", "state": "NE", "street": "608 N SADDLE CREEK RD", "postcode": "68132"}}},
{"geometry": {"type": "Point", "coordinates": [-95.9862791091, 41.2622709618]}, "type": "Feature", "properties": {"collection_times": [{"days": "Mon-Sat", "time": "1:00pm"}, {"days": "Sun", "time": "Closed"}], "id": "6813200011", "name": "USPS COLLECTION BOX - BLUE BOX", "address": {"city": "OMAHA", "state": "NE", "street": "4821 CHICAGO ST", "postcode": "68132"}}},
{"geometry": {"type": "Point", "coordinates": [-95.9957284708, 41.2651336038]}, "type": "Feature", "properties": {"collection_times": [{"days": "Mon-Fri", "time": "4:10pm"}, {"days": "Sat", "time": "2:31pm"}, {"days": "Sun", "time": "Closed"}], "id": "6813200014", "name": "USPS COLLECTION BOX - BLUE BOX", "address": {"city": "OMAHA", "state": "NE", "street": "5002 DODGE ST", "postcode": "68132"}}},
{"geometry": {"type": "Point", "coordinates": [-95.9903522963, 41.2652880626]}, "type": "Feature", "properties": {"collection_times": [{"days": "Mon-Sat", "time": "10:30am"}, {"days": "Sun", "time": "Closed"}], "id": "6813200015", "name": "USPS COLLECTION BOX - BLUE BOX", "address": {"city": "OMAHA", "state": "NE", "street": "4850 UNDERWOOD AVE", "postcode": "68132"}}},
{"geometry": {"type": "Point", "coordinates": [-96.0142304588, 41.2704669766]}, "type": "Feature", "properties": {"collection_times": [{"days": "Mon-Sat", "time": "9:00am"}, {"days": "Sun", "time": "Closed"}], "id": "6813200017", "name": "USPS COLLECTION BOX - BLUE BOX", "address": {"city": "OMAHA", "state": "NE", "street": "1199 N 66TH ST", "postcode": "68132"}}},
{"geometry": {"type": "Point", "coordinates": [-95.9807732941, 41.2649750576]}, "type": "Feature", "properties": {"collection_times": [{"days": "Mon-Fri", "time": "5:15pm"}, {"days": "Sat", "time": "4:45pm"}, {"days": "Sun", "time": "Closed"}], "id": "6813200028", "name": "USPS COLLECTION BOX - PO LOBBY", "address": {"city": "OMAHA", "state": "NE", "street": "608 N SADDLE CREEK RD", "postcode": "68132"}}},
{"geometry": {"type": "Point", "coordinates": [-95.9807732941, 41.2649750576]}, "type": "Feature", "properties": {"collection_times": [{"days": "Mon-Fri", "time": "5:15pm"}, {"days": "Sat", "time": "4:45pm"}, {"days": "Sun", "time": "Closed"}], "id": "6813200029", "name": "USPS COLLECTION BOX - PO LOBBY", "address": {"city": "OMAHA", "state": "NE", "street": "608 N SADDLE CREEK RD", "postcode": "68132"}}},
{"geometry": {"type": "Point", "coordinates": [-96.0728610249, 41.3132381842]}, "type": "Feature", "properties": {"collection_times": [{"days": "Mon-Fri", "time": "5:30pm"}, {"days": "Sat", "time": "5:00pm"}, {"days": "Sun", "time": "Closed"}], "id": "6813400000", "name": "USPS COLLECTION BOX - BLUE BOX", "address": {"city": "OMAHA", "state": "NE", "street": "6012 N 102ND ST", "postcode": "68134"}}},
{"geometry": {"type": "Point", "coordinates": [-96.0728610249, 41.3132381842]}, "type": "Feature", "properties": {"collection_times": [{"days": "Mon-Fri", "time": "5:30pm"}, {"days": "Sat", "time": "5:00pm"}, {"days": "Sun", "time": "Closed"}], "id": "6813400001", "name": "USPS COLLECTION BOX - BLUE BOX", "address": {"city": "OMAHA", "state": "NE", "street": "6012 N 102ND ST", "postcode": "68134"}}},
{"geometry": {"type": "Point", "coordinates": [-96.0278434805, 41.2841724341]}, "type": "Feature", "properties": {"collection_times": [{"days": "Mon-Sat", "time": "9:00am"}, {"days": "Sun", "time": "Closed"}], "id": "6813400007", "name": "USPS COLLECTION BOX - BLUE BOX", "address": {"city": "OMAHA", "state": "NE", "street": "2808 N 75TH ST", "postcode": "68134"}}},
{"geometry": {"type": "Point", "coordinates": [-96.0374986065, 41.2777381769]}, "type": "Feature", "properties": {"collection_times": [{"days": "Mon-Sat", "time": "10:00am"}, {"days": "Sun", "time": "Closed"}], "id": "6813400009", "name": "USPS COLLECTION BOX - BLUE BOX", "address": {"city": "OMAHA", "state": "NE", "street": "8069 BLONDO ST", "postcode": "68134"}}},
{"geometry": {"type": "Point", "coordinates": [-96.0527572302, 41.2828912036]}, "type": "Feature", "properties": {"collection_times": [{"days": "Mon-Sat", "time": "9:30am"}, {"days": "Sun", "time": "Closed"}], "id": "6813400010", "name": "USPS COLLECTION BOX - BLUE BOX", "address": {"city": "OMAHA", "state": "NE", "street": "2650 N 90TH ST", "postcode": "68134"}}},
{"geometry": {"type": "Point", "coordinates": [-96.0536926488, 41.2789682978]}, "type": "Feature", "properties": {"collection_times": [{"days": "Mon-Sat", "time": "9:30am"}, {"days": "Sun", "time": "Closed"}], "id": "6813400011", "name": "USPS COLLECTION BOX - BLUE BOX", "address": {"city": "OMAHA", "state": "NE", "street": "2245 N 91ST PLZ", "postcode": "68134"}}},
{"geometry": {"type": "Point", "coordinates": [-96.0536926488, 41.2789682978]}, "type": "Feature", "properties": {"collection_times": [{"days": "Mon-Sat", "time": "9:30am"}, {"days": "Sun", "time": "Closed"}], "id": "6813400012", "name": "USPS COLLECTION BOX - BLUE BOX", "address": {"city": "OMAHA", "state": "NE", "street": "2245 N 91ST PLZ", "postcode": "68134"}}},
{"geometry": {"type": "Point", "coordinates": [-96.0527505447, 41.2865602051]}, "type": "Feature", "properties": {"collection_times": [{"days": "Mon-Sat", "time": "8:30am"}, {"days": "Sun", "time": "Closed"}], "id": "6813400014", "name": "USPS COLLECTION BOX - BLUE BOX", "address": {"city": "OMAHA", "state": "NE", "street": "3060 N 90TH ST", "postcode": "68134"}}},
{"geometry": {"type": "Point", "coordinates": [-96.0526928439, 41.3079012578]}, "type": "Feature", "properties": {"collection_times": [{"days": "Mon-Sat", "time": "8:30am"}, {"days": "Sun", "time": "Closed"}], "id": "6813400017", "name": "USPS COLLECTION BOX - BLUE BOX", "address": {"city": "OMAHA", "state": "NE", "street": "5400 N 90TH ST", "postcode": "68134"}}},
{"geometry": {"type": "Point", "coordinates": [-96.0788829489, 41.2890484541]}, "type": "Feature", "properties": {"collection_times": [{"days": "Mon-Sat", "time": "10:00am"}, {"days": "Sun", "time": "Closed"}], "id": "6813400022", "name": "USPS COLLECTION BOX - BLUE BOX", "address": {"city": "OMAHA", "state": "NE", "street": "3300 N 106TH PLZ", "postcode": "68134"}}},
{"geometry": {"type": "Point", "coordinates": [-96.0728610249, 41.3132381842]}, "type": "Feature", "properties": {"collection_times": [{"days": "Mon-Fri", "time": "5:30pm"}, {"days": "Sat", "time": "5:00pm"}, {"days": "Sun", "time": "Closed"}], "id": "6813400038", "name": "USPS COLLECTION BOX - PO LOBBY", "address": {"city": "OMAHA", "state": "NE", "street": "6012 N 102ND ST", "postcode": "68134"}}},
{"geometry": {"type": "Point", "coordinates": [-96.0728610249, 41.3132381842]}, "type": "Feature", "properties": {"collection_times": [{"days": "Mon-Fri", "time": "5:30pm"}, {"days": "Sat", "time": "5:00pm"}, {"days": "Sun", "time": "Closed"}], "id": "6813400039", "name": "USPS COLLECTION BOX - PO LOBBY", "address": {"city": "OMAHA", "state": "NE", "street": "6012 N 102ND ST", "postcode": "68134"}}},
{"geometry": {"type": "Point", "coordinates": [-96.0728610249, 41.3132381842]}, "type": "Feature", "properties": {"collection_times": [{"days": "Mon-Fri", "time": "5:30pm"}, {"days": "Sat", "time": "5:00pm"}, {"days": "Sun", "time": "Closed"}], "id": "6813400040", "name": "USPS COLLECTION BOX - PO LOBBY", "address": {"city": "OMAHA", "state": "NE", "street": "6012 N 102ND ST", "postcode": "68134"}}},
{"geometry": {"type": "Point", "coordinates": [-96.023690048, 41.2991328696]}, "type": "Feature", "properties": {"collection_times": [{"days": "Mon-Sat", "time": "9:00am"}, {"days": "Sun", "time": "Closed"}], "id": "6813400042", "name": "USPS COLLECTION BOX - BLUE BOX", "address": {"city": "OMAHA", "state": "NE", "street": "4405 N 72ND ST", "postcode": "68134"}}},
{"geometry": {"type": "Point", "coordinates": [-96.0525284742, 41.3089233233]}, "type": "Feature", "properties": {"collection_times": [{"days": "Mon-Sat", "time": "8:30am"}, {"days": "Sun", "time": "Closed"}], "id": "6813400045", "name": "USPS COLLECTION BOX - BLUE BOX", "address": {"city": "OMAHA", "state": "NE", "street": "5555 N 90TH ST", "postcode": "68134"}}},
{"geometry": {"type": "Point", "coordinates": [-96.0728610249, 41.3132381842]}, "type": "Feature", "properties": {"collection_times": [{"days": "Mon-Fri", "time": "5:30pm"}, {"days": "Sat", "time": "5:00pm"}, {"days": "Sun", "time": "Closed"}], "id": "6813400046", "name": "USPS COLLECTION BOX - APC", "address": {"city": "OMAHA", "state": "NE", "street": "6012 N 102ND ST", "postcode": "68134"}}},
{"geometry": {"type": "Point", "coordinates": [-96.0526928439, 41.3079012578]}, "type": "Feature", "properties": {"collection_times": [{"days": "Mon-Sat", "time": "8:30am"}, {"days": "Sun", "time": "Closed"}], "id": "6813400048", "name": "USPS COLLECTION BOX - BLUE BOX", "address": {"city": "OMAHA", "state": "NE", "street": "5400 N 90TH ST", "postcode": "68134"}}},
{"geometry": {"type": "Point", "coordinates": [-96.023690048, 41.2991328696]}, "type": "Feature", "properties": {"collection_times": [{"days": "Mon-Sat", "time": "9:00am"}, {"days": "Sun", "time": "Closed"}], "id": "6813400050", "name": "USPS COLLECTION BOX - BLUE BOX", "address": {"city": "OMAHA", "state": "NE", "street": "4405 N 72ND ST", "postcode": "68134"}}},
{"geometry": {"type": "Point", "coordinates": [-96.1758161433, 41.2051248589]}, "type": "Feature", "properties": {"collection_times": [{"days": "Mon-Sat", "time": "12:30pm"}, {"days": "Sun", "time": "Closed"}], "id": "6813500000", "name": "USPS COLLECTION BOX - BLUE BOX", "address": {"city": "OMAHA", "state": "NE", "street": "16729 Q ST", "postcode": "68135"}}},
{"geometry": {"type": "Point", "coordinates": [-96.1557138375, 41.2062012969]}, "type": "Feature", "properties": {"collection_times": [{"days": "Mon-Sat", "time": "11:00am"}, {"days": "Sun", "time": "Closed"}], "id": "6813500001", "name": "USPS COLLECTION BOX - BLUE BOX", "address": {"city": "OMAHA", "state": "NE", "street": "15370 WEIR ST", "postcode": "68135"}}},
{"geometry": {"type": "Point", "coordinates": [-96.1935031145, 41.2059536137]}, "type": "Feature", "properties": {"collection_times": [{"days": "Mon-Fri", "time": "4:03pm"}, {"days": "Sat", "time": "3:35pm"}, {"days": "Sun", "time": "Closed"}], "id": "6813500003", "name": "USPS COLLECTION BOX - BLUE BOX", "address": {"city": "OMAHA", "state": "NE", "street": "17810 WELCH PLZ", "postcode": "68135"}}},
{"geometry": {"type": "Point", "coordinates": [-96.1935031145, 41.2059536137]}, "type": "Feature", "properties": {"collection_times": [{"days": "Mon-Fri", "time": "4:03pm"}, {"days": "Sat", "time": "3:35pm"}, {"days": "Sun", "time": "Closed"}], "id": "6813500004", "name": "USPS COLLECTION BOX - BLUE BOX", "address": {"city": "OMAHA", "state": "NE", "street": "17810 WELCH PLZ", "postcode": "68135"}}},
{"geometry": {"type": "Point", "coordinates": [-96.1557138375, 41.2062012969]}, "type": "Feature", "properties": {"collection_times": [{"days": "Mon-Sat", "time": "11:00am"}, {"days": "Sun", "time": "Closed"}], "id": "6813500005", "name": "USPS COLLECTION BOX - BLUE BOX", "address": {"city": "OMAHA", "state": "NE", "street": "15370 WEIR ST", "postcode": "68135"}}},
{"geometry": {"type": "Point", "coordinates": [-96.1935031145, 41.2059536137]}, "type": "Feature", "properties": {"collection_times": [{"days": "Mon-Fri", "time": "4:03pm"}, {"days": "Sat", "time": "3:35pm"}, {"days": "Sun", "time": "Closed"}], "id": "6813500006", "name": "USPS COLLECTION BOX - BLUE BOX", "address": {"city": "OMAHA", "state": "NE", "street": "17810 WELCH PLZ", "postcode": "68135"}}},
{"geometry": {"type": "Point", "coordinates": [-96.1935031145, 41.2059536137]}, "type": "Feature", "properties": {"collection_times": [{"days": "Mon-Fri", "time": "4:03pm"}, {"days": "Sat", "time": "3:35pm"}, {"days": "Sun", "time": "Closed"}], "id": "6813500007", "name": "USPS COLLECTION BOX - BLUE BOX", "address": {"city": "OMAHA", "state": "NE", "street": "17810 WELCH PLZ", "postcode": "68135"}}},
{"geometry": {"type": "Point", "coordinates": [-96.1586717961, 41.1907057171]}, "type": "Feature", "properties": {"collection_times": [{"days": "Mon-Fri", "time": "4:02pm"}, {"days": "Sat-Sun", "time": "Closed"}], "id": "6813600001", "name": "USPS COLLECTION BOX - BLUE BOX", "address": {"city": "OMAHA", "state": "NE", "street": "15615 HARRISON ST", "postcode": "68136"}}},
{"geometry": {"type": "Point", "coordinates": [-96.1213573857, 41.2163029416]}, "type": "Feature", "properties": {"collection_times": [{"days": "Mon-Fri", "time": "5:30pm"}, {"days": "Sat", "time": "4:00pm"}, {"days": "Sun", "time": "Closed"}], "id": "6813700000", "name": "USPS COLLECTION BOX - BLUE BOX", "address": {"city": "OMAHA", "state": "NE", "street": "4433 S 133RD ST", "postcode": "68137"}}},
{"geometry": {"type": "Point", "coordinates": [-96.1213573857, 41.2163029416]}, "type": "Feature", "properties": {"collection_times": [{"days": "Mon-Fri", "time": "5:30pm"}, {"days": "Sat", "time": "4:00pm"}, {"days": "Sun", "time": "Closed"}], "id": "6813700001", "name": "USPS COLLECTION BOX - BLUE BOX", "address": {"city": "OMAHA", "state": "NE", "street": "4433 S 133RD ST", "postcode": "68137"}}},
{"geometry": {"type": "Point", "coordinates": [-96.081447206, 41.215989482]}, "type": "Feature", "properties": {"collection_times": [{"days": "Mon-Sat", "time": "9:00am"}, {"days": "Sun", "time": "Closed"}], "id": "6813700005", "name": "USPS COLLECTION BOX - BLUE BOX", "address": {"city": "OMAHA", "state": "NE", "street": "4411 S 108TH ST", "postcode": "68137"}}},
{"geometry": {"type": "Point", "coordinates": [-96.1196089225, 41.2047336361]}, "type": "Feature", "properties": {"collection_times": [{"days": "Mon-Fri", "time": "5:10pm"}, {"days": "Sat", "time": "3:47pm"}, {"days": "Sun", "time": "Closed"}], "id": "6813700008", "name": "USPS COLLECTION BOX - BLUE BOX", "address": {"city": "OMAHA", "state": "NE", "street": "5110 S 108TH ST", "postcode": "68137"}}},
{"geometry": {"type": "Point", "coordinates": [-96.1196089225, 41.2047336361]}, "type": "Feature", "properties": {"collection_times": [{"days": "Mon-Fri", "time": "5:10pm"}, {"days": "Sat", "time": "3:47pm"}, {"days": "Sun", "time": "Closed"}], "id": "6813700009", "name": "USPS COLLECTION BOX - BLUE BOX", "address": {"city": "OMAHA", "state": "NE", "street": "5110 S 108TH ST", "postcode": "68137"}}},
{"geometry": {"type": "Point", "coordinates": [-96.0878482325, 41.2082703332]}, "type": "Feature", "properties": {"collection_times": [{"days": "Mon-Sat", "time": "9:00am"}, {"days": "Sun", "time": "Closed"}], "id": "6813700011", "name": "USPS COLLECTION BOX - BLUE BOX", "address": {"city": "OMAHA", "state": "NE", "street": "11128 JOHN GALT BLVD", "postcode": "68137"}}},
{"geometry": {"type": "Point", "coordinates": [-96.0878482325, 41.2082703332]}, "type": "Feature", "properties": {"collection_times": [{"days": "Mon-Sat", "time": "9:00am"}, {"days": "Sun", "time": "Closed"}], "id": "6813700012", "name": "USPS COLLECTION BOX - BLUE BOX", "address": {"city": "OMAHA", "state": "NE", "street": "11128 JOHN GALT BLVD", "postcode": "68137"}}},
{"geometry": {"type": "Point", "coordinates": [-96.0878482325, 41.2082703332]}, "type": "Feature", "properties": {"collection_times": [{"days": "Mon-Sat", "time": "9:00am"}, {"days": "Sun", "time": "Closed"}], "id": "6813700013", "name": "USPS COLLECTION BOX - BLUE BOX", "address": {"city": "OMAHA", "state": "NE", "street": "11128 JOHN GALT BLVD", "postcode": "68137"}}},
{"geometry": {"type": "Point", "coordinates": [-96.1016609193, 41.2106052479]}, "type": "Feature", "properties": {"collection_times": [{"days": "Mon-Fri", "time": "1:15pm"}, {"days": "Sat", "time": "11:30am"}, {"days": "Sun", "time": "Closed"}], "id": "6813700016", "name": "USPS COLLECTION BOX - BLUE BOX", "address": {"city": "OMAHA", "state": "NE", "street": "4854 S 121ST ST", "postcode": "68137"}}},
{"geometry": {"type": "Point", "coordinates": [-96.125765816, 41.2044571459]}, "type": "Feature", "properties": {"collection_times": [{"days": "Mon-Fri", "time": "5:15pm"}, {"days": "Sat", "time": "4:55pm"}, {"days": "Sun", "time": "Closed"}], "id": "6813700026", "name": "USPS COLLECTION BOX - BLUE BOX", "address": {"city": "OMAHA", "state": "NE", "street": "5310 S 136TH ST", "postcode": "68137"}}},
{"geometry": {"type": "Point", "coordinates": [-96.125765816, 41.2044571459]}, "type": "Feature", "properties": {"collection_times": [{"days": "Mon-Fri", "time": "5:15pm"}, {"days": "Sat", "time": "4:55pm"}, {"days": "Sun", "time": "Closed"}], "id": "6813700027", "name": "USPS COLLECTION BOX - BLUE BOX", "address": {"city": "OMAHA", "state": "NE", "street": "5310 S 136TH ST", "postcode": "68137"}}},
{"geometry": {"type": "Point", "coordinates": [-96.1292550278, 41.2035436921]}, "type": "Feature", "properties": {"collection_times": [{"days": "Mon-Sat", "time": "1:30pm"}, {"days": "Sun", "time": "Closed"}], "id": "6813700030", "name": "USPS COLLECTION BOX - BLUE BOX", "address": {"city": "OMAHA", "state": "NE", "street": "5332 S 138TH ST", "postcode": "68137"}}},
{"geometry": {"type": "Point", "coordinates": [-96.1292550278, 41.2035436921]}, "type": "Feature", "properties": {"collection_times": [{"days": "Mon-Sat", "time": "1:30pm"}, {"days": "Sun", "time": "Closed"}], "id": "6813700031", "name": "USPS COLLECTION BOX - BLUE BOX", "address": {"city": "OMAHA", "state": "NE", "street": "5332 S 138TH ST", "postcode": "68137"}}},
{"geometry": {"type": "Point", "coordinates": [-96.0878313104, 41.2066896623]}, "type": "Feature", "properties": {"collection_times": [{"days": "Mon-Sat", "time": "9:00am"}, {"days": "Sun", "time": "Closed"}], "id": "6813700050", "name": "USPS COLLECTION BOX - BLUE BOX", "address": {"city": "OMAHA", "state": "NE", "street": "11218 JOHN GALT BLVD", "postcode": "68137"}}},
{"geometry": {"type": "Point", "coordinates": [-96.0980855548, 41.2074359989]}, "type": "Feature", "properties": {"collection_times": [{"days": "Mon-Fri", "time": "5:17pm"}, {"days": "Sat", "time": "1:00pm"}, {"days": "Sun", "time": "Closed"}], "id": "6813700054", "name": "USPS COLLECTION BOX - BLUE BOX", "address": {"city": "OMAHA", "state": "NE", "street": "5010 S 118TH ST", "postcode": "68137"}}},
{"geometry": {"type": "Point", "coordinates": [-96.1353641122, 41.2006147368]}, "type": "Feature", "properties": {"collection_times": [{"days": "Mon-Fri", "time": "5:25pm"}, {"days": "Sat", "time": "4:30pm"}, {"days": "Sun", "time": "Closed"}], "id": "6813700056", "name": "USPS COLLECTION BOX - BLUE BOX", "address": {"city": "OMAHA", "state": "NE", "street": "5720 S 142ND ST", "postcode": "68137"}}},
{"geometry": {"type": "Point", "coordinates": [-96.1353641122, 41.2006147368]}, "type": "Feature", "properties": {"collection_times": [{"days": "Mon-Fri", "time": "5:25pm"}, {"days": "Sat", "time": "4:30pm"}, {"days": "Sun", "time": "Closed"}], "id": "6813700057", "name": "USPS COLLECTION BOX - BLUE BOX", "address": {"city": "OMAHA", "state": "NE", "street": "5720 S 142ND ST", "postcode": "68137"}}},
{"geometry": {"type": "Point", "coordinates": [-96.125765816, 41.2044571459]}, "type": "Feature", "properties": {"collection_times": [{"days": "Mon-Fri", "time": "5:15pm"}, {"days": "Sat", "time": "4:55pm"}, {"days": "Sun", "time": "Closed"}], "id": "6813700059", "name": "USPS COLLECTION BOX - BLUE BOX", "address": {"city": "OMAHA", "state": "NE", "street": "5310 S 136TH ST", "postcode": "68137"}}},
{"geometry": {"type": "Point", "coordinates": [-96.1353641122, 41.2006147368]}, "type": "Feature", "properties": {"collection_times": [{"days": "Mon-Fri", "time": "5:25pm"}, {"days": "Sat", "time": "4:30pm"}, {"days": "Sun", "time": "Closed"}], "id": "6813700060", "name": "USPS COLLECTION BOX - BLUE BOX", "address": {"city": "OMAHA", "state": "NE", "street": "5720 S 142ND ST", "postcode": "68137"}}},
{"geometry": {"type": "Point", "coordinates": [-96.125765816, 41.2044571459]}, "type": "Feature", "properties": {"collection_times": [{"days": "Mon-Fri", "time": "5:15pm"}, {"days": "Sat", "time": "4:55pm"}, {"days": "Sun", "time": "Closed"}], "id": "6813700066", "name": "USPS COLLECTION BOX - BLUE BOX", "address": {"city": "OMAHA", "state": "NE", "street": "5310 S 136TH ST", "postcode": "68137"}}},
{"geometry": {"type": "Point", "coordinates": [-96.1213573857, 41.2163029416]}, "type": "Feature", "properties": {"collection_times": [{"days": "Mon-Fri", "time": "5:30pm"}, {"days": "Sat", "time": "4:00pm"}, {"days": "Sun", "time": "Closed"}], "id": "6813700067", "name": "USPS COLLECTION BOX - PO LOBBY", "address": {"city": "OMAHA", "state": "NE", "street": "4433 S 133RD ST", "postcode": "68137"}}},
{"geometry": {"type": "Point", "coordinates": [-96.1213573857, 41.2163029416]}, "type": "Feature", "properties": {"collection_times": [{"days": "Mon-Fri", "time": "5:30pm"}, {"days": "Sat", "time": "4:00pm"}, {"days": "Sun", "time": "Closed"}], "id": "6813700069", "name": "USPS COLLECTION BOX - PO LOBBY", "address": {"city": "OMAHA", "state": "NE", "street": "4433 S 133RD ST", "postcode": "68137"}}},
{"geometry": {"type": "Point", "coordinates": [-96.1353641122, 41.2006147368]}, "type": "Feature", "properties": {"collection_times": [{"days": "Mon-Fri", "time": "5:25pm"}, {"days": "Sat", "time": "4:30pm"}, {"days": "Sun", "time": "Closed"}], "id": "6813700070", "name": "USPS COLLECTION BOX - BLUE BOX", "address": {"city": "OMAHA", "state": "NE", "street": "5720 S 142ND ST", "postcode": "68137"}}},
{"geometry": {"type": "Point", "coordinates": [-96.1254035511, 41.2041420898]}, "type": "Feature", "properties": {"collection_times": [{"days": "Mon-Fri", "time": "7:00pm"}, {"days": "Sat", "time": "5:05pm"}, {"days": "Sun", "time": "Closed"}], "id": "6813700071", "name": "USPS COLLECTION BOX - PO LOBBY", "address": {"city": "OMAHA", "state": "NE", "street": "5346 S 136TH ST", "postcode": "68137"}}},
{"geometry": {"type": "Point", "coordinates": [-96.1254035511, 41.2041420898]}, "type": "Feature", "properties": {"collection_times": [{"days": "Mon-Fri", "time": "7:00pm"}, {"days": "Sat", "time": "5:05pm"}, {"days": "Sun", "time": "Closed"}], "id": "6813700072", "name": "USPS COLLECTION BOX - PO LOBBY", "address": {"city": "OMAHA", "state": "NE", "street": "5346 S 136TH ST", "postcode": "68137"}}},
{"geometry": {"type": "Point", "coordinates": [-96.1213573857, 41.2163029416]}, "type": "Feature", "properties": {"collection_times": [{"days": "Mon-Fri", "time": "5:30pm"}, {"days": "Sat", "time": "4:00pm"}, {"days": "Sun", "time": "Closed"}], "id": "6813700073", "name": "USPS COLLECTION BOX - PO LOBBY", "address": {"city": "OMAHA", "state": "NE", "street": "4433 S 133RD ST", "postcode": "68137"}}},
{"geometry": {"type": "Point", "coordinates": [-96.1213573857, 41.2163029416]}, "type": "Feature", "properties": {"collection_times": [{"days": "Mon-Fri", "time": "5:30pm"}, {"days": "Sat", "time": "4:00pm"}, {"days": "Sun", "time": "Closed"}], "id": "6813700074", "name": "USPS COLLECTION BOX - PO LOBBY", "address": {"city": "OMAHA", "state": "NE", "street": "4433 S 133RD ST", "postcode": "68137"}}},
{"geometry": {"type": "Point", "coordinates": [-96.1196089225, 41.2047336361]}, "type": "Feature", "properties": {"collection_times": [{"days": "Mon-Fri", "time": "5:00pm"}, {"days": "Sat-Sun", "time": "Closed"}], "id": "6813700079", "name": "USPS COLLECTION BOX - BLUE BOX", "address": {"city": "OMAHA", "state": "NE", "street": "14217 DAYTON CIR", "postcode": "68137"}}},
{"geometry": {"type": "Point", "coordinates": [-96.1196089225, 41.2047336361]}, "type": "Feature", "properties": {"collection_times": [{"days": "Mon-Fri", "time": "5:00pm"}, {"days": "Sat-Sun", "time": "Closed"}], "id": "6813700080", "name": "USPS COLLECTION BOX - BLUE BOX", "address": {"city": "OMAHA", "state": "NE", "street": "14217 DAYTON CIR", "postcode": "68137"}}},
{"geometry": {"type": "Point", "coordinates": [-96.140276738, 41.2196149287]}, "type": "Feature", "properties": {"collection_times": [{"days": "Mon-Sat", "time": "12:30pm"}, {"days": "Sun", "time": "Closed"}], "id": "6813700090", "name": "USPS COLLECTION BOX - BLUE BOX", "address": {"city": "OMAHA", "state": "NE", "street": "14510 F ST", "postcode": "68137"}}},
{"geometry": {"type": "Point", "coordinates": [-96.1196089225, 41.2047336361]}, "type": "Feature", "properties": {"collection_times": [{"days": "Mon-Fri", "time": "5:00pm"}, {"days": "Sat", "time": "4:15pm"}, {"days": "Sun", "time": "Closed"}], "id": "6813700100", "name": "USPS COLLECTION BOX - BLUE BOX", "address": {"city": "OMAHA", "state": "NE", "street": "14591 STONEY BROOK BLVD", "postcode": "68137"}}},
{"geometry": {"type": "Point", "coordinates": [-96.1196089225, 41.2044816721]}, "type": "Feature", "properties": {"collection_times": [{"days": "Mon-Fri", "time": "5:10pm"}, {"days": "Sat", "time": "3:47pm"}, {"days": "Sun", "time": "Closed"}], "id": "6813700105", "name": "USPS COLLECTION BOX - BLUE BOX", "address": {"city": "OMAHA", "state": "NE", "street": "5110 S 108TH ST", "postcode": "68137"}}},
{"geometry": {"type": "Point", "coordinates": [-96.1428436673, 41.1615050362]}, "type": "Feature", "properties": {"collection_times": [{"days": "Mon-Sat", "time": "12:00pm"}, {"days": "Sun", "time": "Closed"}], "id": "6813800000", "name": "USPS COLLECTION BOX - BLUE BOX", "address": {"city": "OMAHA", "state": "NE", "street": "9915 SAPP BROTHERS DR", "postcode": "68138"}}},
{"geometry": {"type": "Point", "coordinates": [-96.139694884, 41.1581181073]}, "type": "Feature", "properties": {"collection_times": [{"days": "Mon-Sat", "time": "12:00pm"}, {"days": "Sun", "time": "Closed"}], "id": "6813800001", "name": "USPS COLLECTION BOX - BLUE BOX", "address": {"city": "OMAHA", "state": "NE", "street": "14403 FRONTIER RD", "postcode": "68138"}}},
{"geometry": {"type": "Point", "coordinates": [-96.0892795939, 41.2333187876]}, "type": "Feature", "properties": {"collection_times": [{"days": "Mon-Fri", "time": "4:05pm"}, {"days": "Sat", "time": "2:04pm"}, {"days": "Sun", "time": "Closed"}], "id": "6814400004", "name": "USPS COLLECTION BOX - BLUE BOX", "address": {"city": "OMAHA", "state": "NE", "street": "11212 WRIGHT CIR", "postcode": "68144"}}},
{"geometry": {"type": "Point", "coordinates": [-96.0976012719, 41.2342978096]}, "type": "Feature", "properties": {"collection_times": [{"days": "Mon-Sat", "time": "12:30pm"}, {"days": "Sun", "time": "Closed"}], "id": "6814400005", "name": "USPS COLLECTION BOX - BLUE BOX", "address": {"city": "OMAHA", "state": "NE", "street": "11808 W CENTER RD", "postcode": "68144"}}},
{"geometry": {"type": "Point", "coordinates": [-96.0988281107, 41.2473001571]}, "type": "Feature", "properties": {"collection_times": [{"days": "Mon-Fri", "time": "5:05pm"}, {"days": "Sat-Sun", "time": "Closed"}], "id": "6814400008", "name": "USPS COLLECTION BOX - BLUE BOX", "address": {"city": "OMAHA", "state": "NE", "street": "1218 S 119TH ST", "postcode": "68144"}}},
{"geometry": {"type": "Point", "coordinates": [-96.1007656057, 41.2368830187]}, "type": "Feature", "properties": {"collection_times": [{"days": "Mon-Sat", "time": "11:00am"}, {"days": "Sun", "time": "Closed"}], "id": "6814400009", "name": "USPS COLLECTION BOX - BLUE BOX", "address": {"city": "OMAHA", "state": "NE", "street": "2500 S 120TH ST", "postcode": "68144"}}},
{"geometry": {"type": "Point", "coordinates": [-96.1007656057, 41.2368830187]}, "type": "Feature", "properties": {"collection_times": [{"days": "Mon-Sat", "time": "11:00am"}, {"days": "Sun", "time": "Closed"}], "id": "6814400010", "name": "USPS COLLECTION BOX - BLUE BOX", "address": {"city": "OMAHA", "state": "NE", "street": "2500 S 120TH ST", "postcode": "68144"}}},
{"geometry": {"type": "Point", "coordinates": [-96.1047560291, 41.2339303767]}, "type": "Feature", "properties": {"collection_times": [{"days": "Mon-Fri", "time": "5:15pm"}, {"days": "Sat", "time": "2:19pm"}, {"days": "Sun", "time": "Closed"}], "id": "6814400011", "name": "USPS COLLECTION BOX - BLUE BOX", "address": {"city": "OMAHA", "state": "NE", "street": "12255 W CENTER RD", "postcode": "68144"}}},
{"geometry": {"type": "Point", "coordinates": [-96.1047560291, 41.2339303767]}, "type": "Feature", "properties": {"collection_times": [{"days": "Mon-Fri", "time": "5:15pm"}, {"days": "Sat", "time": "2:19pm"}, {"days": "Sun", "time": "Closed"}], "id": "6814400012", "name": "USPS COLLECTION BOX - BLUE BOX", "address": {"city": "OMAHA", "state": "NE", "street": "12255 W CENTER RD", "postcode": "68144"}}},
{"geometry": {"type": "Point", "coordinates": [-96.1163576524, 41.2362542448]}, "type": "Feature", "properties": {"collection_times": [{"days": "Mon-Sat", "time": "10:30am"}, {"days": "Sun", "time": "Closed"}], "id": "6814400019", "name": "USPS COLLECTION BOX - BLUE BOX", "address": {"city": "OMAHA", "state": "NE", "street": "13010 ARBOR ST", "postcode": "68144"}}},
{"geometry": {"type": "Point", "coordinates": [-96.1197378219, 41.2339807607]}, "type": "Feature", "properties": {"collection_times": [{"days": "Mon-Sat", "time": "11:00am"}, {"days": "Sun", "time": "Closed"}], "id": "6814400020", "name": "USPS COLLECTION BOX - BLUE BOX", "address": {"city": "OMAHA", "state": "NE", "street": "13215 W CENTER RD", "postcode": "68144"}}},
{"geometry": {"type": "Point", "coordinates": [-96.1197378219, 41.2339807607]}, "type": "Feature", "properties": {"collection_times": [{"days": "Mon-Sat", "time": "11:00am"}, {"days": "Sun", "time": "Closed"}], "id": "6814400021", "name": "USPS COLLECTION BOX - BLUE BOX", "address": {"city": "OMAHA", "state": "NE", "street": "13215 W CENTER RD", "postcode": "68144"}}},
{"geometry": {"type": "Point", "coordinates": [-96.1209642848, 41.2341963992]}, "type": "Feature", "properties": {"collection_times": [{"days": "Mon-Fri", "time": "1:00pm"}, {"days": "Sat", "time": "2:29pm"}, {"days": "Sun", "time": "Closed"}], "id": "6814400024", "name": "USPS COLLECTION BOX - BLUE BOX", "address": {"city": "OMAHA", "state": "NE", "street": "13304 W CENTER RD", "postcode": "68144"}}},
{"geometry": {"type": "Point", "coordinates": [-96.1310895238, 41.2350388972]}, "type": "Feature", "properties": {"collection_times": [{"days": "Mon-Fri", "time": "4:37pm"}, {"days": "Sat-Sun", "time": "Closed"}], "id": "6814400027", "name": "USPS COLLECTION BOX - BLUE BOX", "address": {"city": "OMAHA", "state": "NE", "street": "13920 GOLD CIR", "postcode": "68144"}}},
{"geometry": {"type": "Point", "coordinates": [-96.1310895238, 41.2350388972]}, "type": "Feature", "properties": {"collection_times": [{"days": "Mon-Fri", "time": "4:37pm"}, {"days": "Sat-Sun", "time": "Closed"}], "id": "6814400028", "name": "USPS COLLECTION BOX - BLUE BOX", "address": {"city": "OMAHA", "state": "NE", "street": "13920 GOLD CIR", "postcode": "68144"}}},
{"geometry": {"type": "Point", "coordinates": [-96.1333247401, 41.2270412901]}, "type": "Feature", "properties": {"collection_times": [{"days": "Mon-Fri", "time": "1:00pm"}, {"days": "Sat-Sun", "time": "Closed"}], "id": "6814400031", "name": "USPS COLLECTION BOX - BLUE BOX", "address": {"city": "OMAHA", "state": "NE", "street": "3030 OAK VIEW DR", "postcode": "68144"}}},
{"geometry": {"type": "Point", "coordinates": [-96.1413484763, 41.2339509411]}, "type": "Feature", "properties": {"collection_times": [{"days": "Mon-Sat", "time": "11:00am"}, {"days": "Sun", "time": "Closed"}], "id": "6814400032", "name": "USPS COLLECTION BOX - BLUE BOX", "address": {"city": "OMAHA", "state": "NE", "street": "14506 W CENTER RD", "postcode": "68144"}}},
{"geometry": {"type": "Point", "coordinates": [-96.1413484763, 41.2339509411]}, "type": "Feature", "properties": {"collection_times": [{"days": "Mon-Sat", "time": "11:00am"}, {"days": "Sun", "time": "Closed"}], "id": "6814400033", "name": "USPS COLLECTION BOX - BLUE BOX", "address": {"city": "OMAHA", "state": "NE", "street": "14506 W CENTER RD", "postcode": "68144"}}},
{"geometry": {"type": "Point", "coordinates": [-96.140097772, 41.233718565]}, "type": "Feature", "properties": {"collection_times": [{"days": "Mon-Sat", "time": "11:00am"}, {"days": "Sun", "time": "Closed"}], "id": "6814400034", "name": "USPS COLLECTION BOX - BLUE BOX", "address": {"city": "OMAHA", "state": "NE", "street": "14471 W CENTER RD", "postcode": "68144"}}},
{"geometry": {"type": "Point", "coordinates": [-96.1434769938, 41.2258487916]}, "type": "Feature", "properties": {"collection_times": [{"days": "Mon-Sat", "time": "11:00am"}, {"days": "Sun", "time": "Closed"}], "id": "6814400035", "name": "USPS COLLECTION BOX - BLUE BOX", "address": {"city": "OMAHA", "state": "NE", "street": "14675 GROVER ST", "postcode": "68144"}}},
{"geometry": {"type": "Point", "coordinates": [-96.1310895238, 41.2350388972]}, "type": "Feature", "properties": {"collection_times": [{"days": "Mon-Fri", "time": "4:37pm"}, {"days": "Sat-Sun", "time": "Closed"}], "id": "6814400040", "name": "USPS COLLECTION BOX - BLUE BOX", "address": {"city": "OMAHA", "state": "NE", "street": "13920 GOLD CIR", "postcode": "68144"}}},
{"geometry": {"type": "Point", "coordinates": [-96.1195695838, 41.2247313404]}, "type": "Feature", "properties": {"collection_times": [{"days": "Mon-Sat", "time": "11:00am"}, {"days": "Sun", "time": "Closed"}], "id": "6814400047", "name": "USPS COLLECTION BOX - BLUE BOX", "address": {"city": "OMAHA", "state": "NE", "street": "3616 S 132ND ST", "postcode": "68144"}}},
{"geometry": {"type": "Point", "coordinates": [-96.1384230689, 41.2301459662]}, "type": "Feature", "properties": {"collection_times": [{"days": "Mon-Sat", "time": "11:00am"}, {"days": "Sun", "time": "Closed"}], "id": "6814400049", "name": "USPS COLLECTION BOX - BLUE BOX", "address": {"city": "OMAHA", "state": "NE", "street": "2729 S 144TH ST", "postcode": "68144"}}},
{"geometry": {"type": "Point", "coordinates": [-96.1047560291, 41.2339303767]}, "type": "Feature", "properties": {"collection_times": [{"days": "Mon-Fri", "time": "5:15pm"}, {"days": "Sat", "time": "2:19pm"}, {"days": "Sun", "time": "Closed"}], "id": "6814400053", "name": "USPS COLLECTION BOX - BLUE BOX", "address": {"city": "OMAHA", "state": "NE", "street": "12255 W CENTER RD", "postcode": "68144"}}},
{"geometry": {"type": "Point", "coordinates": [-96.0815182947, 41.2333454352]}, "type": "Feature", "properties": {"collection_times": [{"days": "Mon-Fri", "time": "1:00pm"}, {"days": "Sat", "time": "1:59pm"}, {"days": "Sun", "time": "Closed"}], "id": "6814400055", "name": "USPS COLLECTION BOX - BLUE BOX", "address": {"city": "OMAHA", "state": "NE", "street": "2810 S 108TH ST", "postcode": "68144"}}},
{"geometry": {"type": "Point", "coordinates": [-96.1047560291, 41.2339303767]}, "type": "Feature", "properties": {"collection_times": [{"days": "Mon-Fri", "time": "5:15pm"}, {"days": "Sat", "time": "2:19pm"}, {"days": "Sun", "time": "Closed"}], "id": "6814400059", "name": "USPS COLLECTION BOX - BLUE BOX", "address": {"city": "OMAHA", "state": "NE", "street": "12255 W CENTER RD", "postcode": "68144"}}},
{"geometry": {"type": "Point", "coordinates": [-96.140097772, 41.233718565]}, "type": "Feature", "properties": {"collection_times": [{"days": "Mon-Sat", "time": "11:00am"}, {"days": "Sun", "time": "Closed"}], "id": "6814400060", "name": "USPS COLLECTION BOX - BLUE BOX", "address": {"city": "OMAHA", "state": "NE", "street": "14471 W CENTER RD", "postcode": "68144"}}},
{"geometry": {"type": "Point", "coordinates": [-96.0915058872, 41.2342273114]}, "type": "Feature", "properties": {"collection_times": [{"days": "Mon-Fri", "time": "4:11pm"}, {"days": "Sat-Sun", "time": "Closed"}], "id": "6814400062", "name": "USPS COLLECTION BOX - BLUE BOX", "address": {"city": "OMAHA", "state": "NE", "street": "11414 W CENTER RD", "postcode": "68144"}}},
{"geometry": {"type": "Point", "coordinates": [-96.091800883, 41.2341979723]}, "type": "Feature", "properties": {"collection_times": [{"days": "Mon-Fri", "time": "4:11pm"}, {"days": "Sat-Sun", "time": "Closed"}], "id": "6814400073", "name": "USPS COLLECTION BOX - BLUE BOX", "address": {"city": "OMAHA", "state": "NE", "street": "11414 W CENTER RD", "postcode": "68144"}}},
{"geometry": {"type": "Point", "coordinates": [-95.9673713992, 41.1908075097]}, "type": "Feature", "properties": {"collection_times": [{"days": "Mon-Sat", "time": "12:00pm"}, {"days": "Sun", "time": "Closed"}], "id": "6814700000", "name": "USPS COLLECTION BOX - BLUE BOX", "address": {"city": "BELLEVUE", "state": "NE", "street": "6905 S 36TH ST", "postcode": "68147"}}},
{"geometry": {"type": "Point", "coordinates": [-96.0217712818, 41.32013685]}, "type": "Feature", "properties": {"collection_times": [{"days": "Mon-Sat", "time": "10:15am"}, {"days": "Sun", "time": "Closed"}], "id": "6815200000", "name": "USPS COLLECTION BOX - BLUE BOX", "address": {"city": "OMAHA", "state": "NE", "street": "7101 NEWPORT AVE", "postcode": "68152"}}},
{"geometry": {"type": "Point", "coordinates": [-96.0118936971, 41.3177258873]}, "type": "Feature", "properties": {"collection_times": [{"days": "Mon-Sat", "time": "10:00am"}, {"days": "Sun", "time": "Closed"}], "id": "6815200002", "name": "USPS COLLECTION BOX - BLUE BOX", "address": {"city": "OMAHA", "state": "NE", "street": "6510 SORENSEN PKWY", "postcode": "68152"}}},
{"geometry": {"type": "Point", "coordinates": [-96.0815208603, 41.2581043222]}, "type": "Feature", "properties": {"collection_times": [{"days": "Mon-Sat", "time": "11:30am"}, {"days": "Sun", "time": "Closed"}], "id": "6815400000", "name": "USPS COLLECTION BOX - BLUE BOX", "address": {"city": "OMAHA", "state": "NE", "street": "330 S 108TH AVE", "postcode": "68154"}}},
{"geometry": {"type": "Point", "coordinates": [-96.0798881178, 41.2605842213]}, "type": "Feature", "properties": {"collection_times": [{"days": "Mon-Sat", "time": "11:25am"}, {"days": "Sun", "time": "Closed"}], "id": "6815400003", "name": "USPS COLLECTION BOX - BLUE BOX", "address": {"city": "OMAHA", "state": "NE", "street": "10840 OLD MILL RD", "postcode": "68154"}}},
{"geometry": {"type": "Point", "coordinates": [-96.0815208603, 41.2581043222]}, "type": "Feature", "properties": {"collection_times": [{"days": "Mon-Sat", "time": "11:30am"}, {"days": "Sun", "time": "Closed"}], "id": "6815400006", "name": "USPS COLLECTION BOX - BLUE BOX", "address": {"city": "OMAHA", "state": "NE", "street": "330 S 108TH AVE", "postcode": "68154"}}},
{"geometry": {"type": "Point", "coordinates": [-96.0840285153, 41.264572846]}, "type": "Feature", "properties": {"collection_times": [{"days": "Mon-Fri", "time": "12:19pm"}, {"days": "Sat-Sun", "time": "Closed"}], "id": "6815400007", "name": "USPS COLLECTION BOX - BLUE BOX", "address": {"city": "OMAHA", "state": "NE", "street": "10854 W DODGE RD", "postcode": "68154"}}},
{"geometry": {"type": "Point", "coordinates": [-96.1100064603, 41.26713226]}, "type": "Feature", "properties": {"collection_times": [{"days": "Mon-Fri", "time": "4:32pm"}, {"days": "Sat", "time": "4:17pm"}, {"days": "Sun", "time": "Closed"}], "id": "6815400008", "name": "USPS COLLECTION BOX - EXPRESS", "address": {"city": "OMAHA", "state": "NE", "street": "10902 MILL VALLEY RD", "postcode": "68154"}}},
{"geometry": {"type": "Point", "coordinates": [-96.0840545795, 41.2670558593]}, "type": "Feature", "properties": {"collection_times": [{"days": "Mon-Fri", "time": "4:32pm"}, {"days": "Sat", "time": "4:17pm"}, {"days": "Sun", "time": "Closed"}], "id": "6815400009", "name": "USPS COLLECTION BOX - BLUE BOX", "address": {"city": "OMAHA", "state": "NE", "street": "10902 MILL VALLEY RD", "postcode": "68154"}}},
{"geometry": {"type": "Point", "coordinates": [-96.0873386415, 41.2616244135]}, "type": "Feature", "properties": {"collection_times": [{"days": "Mon-Sat", "time": "11:20am"}, {"days": "Sun", "time": "Closed"}], "id": "6815400011", "name": "USPS COLLECTION BOX - BLUE BOX", "address": {"city": "OMAHA", "state": "NE", "street": "11213 DAVENPORT ST", "postcode": "68154"}}},
{"geometry": {"type": "Point", "coordinates": [-96.0902080396, 41.2615911854]}, "type": "Feature", "properties": {"collection_times": [{"days": "Mon-Sat", "time": "10:00am"}, {"days": "Sun", "time": "Closed"}], "id": "6815400012", "name": "USPS COLLECTION BOX - BLUE BOX", "address": {"city": "OMAHA", "state": "NE", "street": "11303 CHICAGO CIR", "postcode": "68154"}}},
{"geometry": {"type": "Point", "coordinates": [-96.0911935184, 41.2645931905]}, "type": "Feature", "properties": {"collection_times": [{"days": "Mon-Fri", "time": "2:16pm"}, {"days": "Sat-Sun", "time": "Closed"}], "id": "6815400014", "name": "USPS COLLECTION BOX - BLUE BOX", "address": {"city": "OMAHA", "state": "NE", "street": "11404 W DODGE RD", "postcode": "68154"}}},
{"geometry": {"type": "Point", "coordinates": [-96.091121137, 41.2665219765]}, "type": "Feature", "properties": {"collection_times": [{"days": "Mon-Fri", "time": "5:15pm"}, {"days": "Sat-Sun", "time": "Closed"}], "id": "6815400015", "name": "USPS COLLECTION BOX - BLUE BOX", "address": {"city": "OMAHA", "state": "NE", "street": "770 N 114TH ST", "postcode": "68154"}}},
{"geometry": {"type": "Point", "coordinates": [-96.091121137, 41.2665219765]}, "type": "Feature", "properties": {"collection_times": [{"days": "Mon-Fri", "time": "5:15pm"}, {"days": "Sat-Sun", "time": "Closed"}], "id": "6815400016", "name": "USPS COLLECTION BOX - BLUE BOX", "address": {"city": "OMAHA", "state": "NE", "street": "770 N 114TH ST", "postcode": "68154"}}},
{"geometry": {"type": "Point", "coordinates": [-96.0911505328, 41.2601998954]}, "type": "Feature", "properties": {"collection_times": [{"days": "Mon-Fri", "time": "5:30pm"}, {"days": "Sat", "time": "1:10pm"}, {"days": "Sun", "time": "Closed"}], "id": "6815400020", "name": "USPS COLLECTION BOX - BLUE BOX", "address": {"city": "OMAHA", "state": "NE", "street": "11421 DAVENPORT ST", "postcode": "68154"}}},
{"geometry": {"type": "Point", "coordinates": [-96.0911505328, 41.2601998954]}, "type": "Feature", "properties": {"collection_times": [{"days": "Mon-Fri", "time": "5:30pm"}, {"days": "Sat", "time": "1:10pm"}, {"days": "Sun", "time": "Closed"}], "id": "6815400022", "name": "USPS COLLECTION BOX - BLUE BOX", "address": {"city": "OMAHA", "state": "NE", "street": "11421 DAVENPORT ST", "postcode": "68154"}}},
{"geometry": {"type": "Point", "coordinates": [-96.0911505328, 41.2601998954]}, "type": "Feature", "properties": {"collection_times": [{"days": "Mon-Fri", "time": "5:30pm"}, {"days": "Sat", "time": "1:10pm"}, {"days": "Sun", "time": "Closed"}], "id": "6815400023", "name": "USPS COLLECTION BOX - BLUE BOX", "address": {"city": "OMAHA", "state": "NE", "street": "11421 DAVENPORT ST", "postcode": "68154"}}},
{"geometry": {"type": "Point", "coordinates": [-96.0929890007, 41.2680098692]}, "type": "Feature", "properties": {"collection_times": [{"days": "Mon-Fri", "time": "5:10pm"}, {"days": "Sat-Sun", "time": "Closed"}], "id": "6815400024", "name": "USPS COLLECTION BOX - BLUE BOX", "address": {"city": "OMAHA", "state": "NE", "street": "1044 N 115TH ST", "postcode": "68154"}}},
{"geometry": {"type": "Point", "coordinates": [-96.0929890007, 41.2680098692]}, "type": "Feature", "properties": {"collection_times": [{"days": "Mon-Fri", "time": "5:10pm"}, {"days": "Sat-Sun", "time": "Closed"}], "id": "6815400025", "name": "USPS COLLECTION BOX - BLUE BOX", "address": {"city": "OMAHA", "state": "NE", "street": "1044 N 115TH ST", "postcode": "68154"}}},
{"geometry": {"type": "Point", "coordinates": [-96.0956426003, 41.2657508238]}, "type": "Feature", "properties": {"collection_times": [{"days": "Mon-Sat", "time": "9:00am"}, {"days": "Sun", "time": "Closed"}], "id": "6815400027", "name": "USPS COLLECTION BOX - BLUE BOX", "address": {"city": "OMAHA", "state": "NE", "street": "11617 BURT ST", "postcode": "68154"}}},
{"geometry": {"type": "Point", "coordinates": [-96.091121137, 41.2665219765]}, "type": "Feature", "properties": {"collection_times": [{"days": "Mon-Fri", "time": "5:15pm"}, {"days": "Sat-Sun", "time": "Closed"}], "id": "6815400033", "name": "USPS COLLECTION BOX - BLUE BOX", "address": {"city": "OMAHA", "state": "NE", "street": "770 N 114TH ST", "postcode": "68154"}}},
{"geometry": {"type": "Point", "coordinates": [-96.1013457819, 41.2775553472]}, "type": "Feature", "properties": {"collection_times": [{"days": "Mon-Fri", "time": "5:31pm"}, {"days": "Sat-Sun", "time": "Closed"}], "id": "6815400035", "name": "USPS COLLECTION BOX - BLUE BOX", "address": {"city": "OMAHA", "state": "NE", "street": "12027 BLONDO ST", "postcode": "68154"}}},
{"geometry": {"type": "Point", "coordinates": [-96.1020302802, 41.2494601539]}, "type": "Feature", "properties": {"collection_times": [{"days": "Mon-Sat", "time": "10:00am"}, {"days": "Sun", "time": "Closed"}], "id": "6815400038", "name": "USPS COLLECTION BOX - BLUE BOX", "address": {"city": "OMAHA", "state": "NE", "street": "12120 SHAMROCK PLZ", "postcode": "68154"}}},
{"geometry": {"type": "Point", "coordinates": [-96.1020302802, 41.2494601539]}, "type": "Feature", "properties": {"collection_times": [{"days": "Mon-Sat", "time": "10:00am"}, {"days": "Sun", "time": "Closed"}], "id": "6815400039", "name": "USPS COLLECTION BOX - BLUE BOX", "address": {"city": "OMAHA", "state": "NE", "street": "12120 SHAMROCK PLZ", "postcode": "68154"}}},
{"geometry": {"type": "Point", "coordinates": [-96.1019463212, 41.2485835151]}, "type": "Feature", "properties": {"collection_times": [{"days": "Mon-Fri", "time": "5:05pm"}, {"days": "Sat", "time": "4:41pm"}, {"days": "Sun", "time": "Closed"}], "id": "6815400040", "name": "USPS COLLECTION BOX - BLUE BOX", "address": {"city": "OMAHA", "state": "NE", "street": "12119 PACIFIC ST", "postcode": "68154"}}},
{"geometry": {"type": "Point", "coordinates": [-96.1013206308, 41.2717004699]}, "type": "Feature", "properties": {"collection_times": [{"days": "Mon-Sat", "time": "9:00am"}, {"days": "Sun", "time": "Closed"}], "id": "6815400043", "name": "USPS COLLECTION BOX - BLUE BOX", "address": {"city": "OMAHA", "state": "NE", "street": "12101 ROSE LN", "postcode": "68154"}}},
{"geometry": {"type": "Point", "coordinates": [-96.119568735, 41.2669554792]}, "type": "Feature", "properties": {"collection_times": [{"days": "Mon-Fri", "time": "5:00pm"}, {"days": "Sat", "time": "3:15pm"}, {"days": "Sun", "time": "Closed"}], "id": "6815400045", "name": "USPS COLLECTION BOX - BLUE BOX", "address": {"city": "OMAHA", "state": "NE", "street": "747 N 132ND ST", "postcode": "68154"}}},
{"geometry": {"type": "Point", "coordinates": [-96.119572976, 41.2562985332]}, "type": "Feature", "properties": {"collection_times": [{"days": "Mon-Sat", "time": "10:00am"}, {"days": "Sun", "time": "Closed"}], "id": "6815400052", "name": "USPS COLLECTION BOX - BLUE BOX", "address": {"city": "OMAHA", "state": "NE", "street": "333 S 132ND ST", "postcode": "68154"}}},
{"geometry": {"type": "Point", "coordinates": [-96.0800491289, 41.2603914499]}, "type": "Feature", "properties": {"collection_times": [{"days": "Mon-Fri", "time": "4:20pm"}, {"days": "Sat-Sun", "time": "Closed"}], "id": "6815400054", "name": "USPS COLLECTION BOX - BLUE BOX", "address": {"city": "OMAHA", "state": "NE", "street": "10843 OLD MILL RD", "postcode": "68154"}}},
{"geometry": {"type": "Point", "coordinates": [-96.1298267769, 41.2661966648]}, "type": "Feature", "properties": {"collection_times": [{"days": "Mon-Fri", "time": "4:41pm"}, {"days": "Sat-Sun", "time": "Closed"}], "id": "6815400063", "name": "USPS COLLECTION BOX - BLUE BOX", "address": {"city": "OMAHA", "state": "NE", "street": "13710 FNB PKWY", "postcode": "68154"}}},
{"geometry": {"type": "Point", "coordinates": [-96.1361999394, 41.2641283221]}, "type": "Feature", "properties": {"collection_times": [{"days": "Mon-Sat", "time": "11:00am"}, {"days": "Sun", "time": "Closed"}], "id": "6815400068", "name": "USPS COLLECTION BOX - BLUE BOX", "address": {"city": "OMAHA", "state": "NE", "street": "14301 FNB PKWY", "postcode": "68154"}}},
{"geometry": {"type": "Point", "coordinates": [-96.0911505328, 41.2601998954]}, "type": "Feature", "properties": {"collection_times": [{"days": "Mon-Fri", "time": "5:30pm"}, {"days": "Sat", "time": "1:10pm"}, {"days": "Sun", "time": "Closed"}], "id": "6815400073", "name": "USPS COLLECTION BOX - BLUE BOX", "address": {"city": "OMAHA", "state": "NE", "street": "11421 DAVENPORT ST", "postcode": "68154"}}},
{"geometry": {"type": "Point", "coordinates": [-96.0911505328, 41.2601998954]}, "type": "Feature", "properties": {"collection_times": [{"days": "Mon-Fri", "time": "5:30pm"}, {"days": "Sat", "time": "1:10pm"}, {"days": "Sun", "time": "Closed"}], "id": "6815400074", "name": "USPS COLLECTION BOX - BLUE BOX", "address": {"city": "OMAHA", "state": "NE", "street": "11421 DAVENPORT ST", "postcode": "68154"}}},
{"geometry": {"type": "Point", "coordinates": [-96.1361999394, 41.2641283221]}, "type": "Feature", "properties": {"collection_times": [{"days": "Mon-Sat", "time": "11:00am"}, {"days": "Sun", "time": "Closed"}], "id": "6815400075", "name": "USPS COLLECTION BOX - BLUE BOX", "address": {"city": "OMAHA", "state": "NE", "street": "14301 FNB PKWY", "postcode": "68154"}}},
{"geometry": {"type": "Point", "coordinates": [-96.1568252621, 41.2653378148]}, "type": "Feature", "properties": {"collection_times": [{"days": "Mon-Fri", "time": "4:57pm"}, {"days": "Sat", "time": "3:30pm"}, {"days": "Sun", "time": "Closed"}], "id": "6815400076", "name": "USPS COLLECTION BOX - BLUE BOX", "address": {"city": "OMAHA", "state": "NE", "street": "505 N 155TH PLZ", "postcode": "68154"}}},
{"geometry": {"type": "Point", "coordinates": [-96.0840545795, 41.2670558593]}, "type": "Feature", "properties": {"collection_times": [{"days": "Mon-Fri", "time": "4:32pm"}, {"days": "Sat", "time": "4:17pm"}, {"days": "Sun", "time": "Closed"}], "id": "6815400077", "name": "USPS COLLECTION BOX - BLUE BOX", "address": {"city": "OMAHA", "state": "NE", "street": "10902 MILL VALLEY RD", "postcode": "68154"}}},
{"geometry": {"type": "Point", "coordinates": [-96.1361999394, 41.2641283221]}, "type": "Feature", "properties": {"collection_times": [{"days": "Mon-Sat", "time": "11:00am"}, {"days": "Sun", "time": "Closed"}], "id": "6815400079", "name": "USPS COLLECTION BOX - BLUE BOX", "address": {"city": "OMAHA", "state": "NE", "street": "14301 FNB PKWY", "postcode": "68154"}}},
{"geometry": {"type": "Point", "coordinates": [-96.0840545795, 41.2670558593]}, "type": "Feature", "properties": {"collection_times": [{"days": "Mon-Fri", "time": "4:32pm"}, {"days": "Sat", "time": "4:17pm"}, {"days": "Sun", "time": "Closed"}], "id": "6815400080", "name": "USPS COLLECTION BOX - BLUE BOX", "address": {"city": "OMAHA", "state": "NE", "street": "10902 MILL VALLEY RD", "postcode": "68154"}}},
{"geometry": {"type": "Point", "coordinates": [-96.1568252621, 41.2653378148]}, "type": "Feature", "properties": {"collection_times": [{"days": "Mon-Fri", "time": "4:57pm"}, {"days": "Sat", "time": "3:30pm"}, {"days": "Sun", "time": "Closed"}], "id": "6815400085", "name": "USPS COLLECTION BOX - BLUE BOX", "address": {"city": "OMAHA", "state": "NE", "street": "505 N 155TH PLZ", "postcode": "68154"}}},
{"geometry": {"type": "Point", "coordinates": [-96.0911935184, 41.2645931905]}, "type": "Feature", "properties": {"collection_times": [{"days": "Mon-Fri", "time": "2:16pm"}, {"days": "Sat-Sun", "time": "Closed"}], "id": "6815400087", "name": "USPS COLLECTION BOX - BLUE BOX", "address": {"city": "OMAHA", "state": "NE", "street": "11404 W DODGE RD", "postcode": "68154"}}},
{"geometry": {"type": "Point", "coordinates": [-96.1020302802, 41.2494601539]}, "type": "Feature", "properties": {"collection_times": [{"days": "Mon-Sat", "time": "10:00am"}, {"days": "Sun", "time": "Closed"}], "id": "6815400088", "name": "USPS COLLECTION BOX - BLUE BOX", "address": {"city": "OMAHA", "state": "NE", "street": "12120 SHAMROCK PLZ", "postcode": "68154"}}},
{"geometry": {"type": "Point", "coordinates": [-95.9852030199, 41.1761810758]}, "type": "Feature", "properties": {"collection_times": [{"days": "Mon-Sat", "time": "10:00am"}, {"days": "Sun", "time": "Closed"}], "id": "6815700000", "name": "USPS COLLECTION BOX - BLUE BOX", "address": {"city": "OMAHA", "state": "NE", "street": "4741 GILES RD", "postcode": "68157"}}},
{"geometry": {"type": "Point", "coordinates": [-95.9959504118, 41.1907033884]}, "type": "Feature", "properties": {"collection_times": [{"days": "Mon-Sat", "time": "10:00am"}, {"days": "Sun", "time": "Closed"}], "id": "6815700001", "name": "USPS COLLECTION BOX - BLUE BOX", "address": {"city": "OMAHA", "state": "NE", "street": "5101 HARRISON ST", "postcode": "68157"}}},
{"geometry": {"type": "Point", "coordinates": [-96.081293296, 41.2868914489]}, "type": "Feature", "properties": {"collection_times": [{"days": "Mon-Sat", "time": "10:30am"}, {"days": "Sun", "time": "Closed"}], "id": "6816400000", "name": "USPS COLLECTION BOX - BLUE BOX", "address": {"city": "OMAHA", "state": "NE", "street": "3117 N 108TH ST", "postcode": "68164"}}},
{"geometry": {"type": "Point", "coordinates": [-96.081293296, 41.2868914489]}, "type": "Feature", "properties": {"collection_times": [{"days": "Mon-Sat", "time": "10:30am"}, {"days": "Sun", "time": "Closed"}], "id": "6816400001", "name": "USPS COLLECTION BOX - BLUE BOX", "address": {"city": "OMAHA", "state": "NE", "street": "3117 N 108TH ST", "postcode": "68164"}}},
{"geometry": {"type": "Point", "coordinates": [-96.0815828218, 41.3067888843]}, "type": "Feature", "properties": {"collection_times": [{"days": "Mon-Fri", "time": "5:00pm"}, {"days": "Sat", "time": "3:45pm"}, {"days": "Sun", "time": "Closed"}], "id": "6816400007", "name": "USPS COLLECTION BOX - BLUE BOX", "address": {"city": "OMAHA", "state": "NE", "street": "10808 FORT ST", "postcode": "68164"}}},
{"geometry": {"type": "Point", "coordinates": [-96.1195983565, 41.2950698853]}, "type": "Feature", "properties": {"collection_times": [{"days": "Mon-Sat", "time": "10:00am"}, {"days": "Sun", "time": "Closed"}], "id": "6816400012", "name": "USPS COLLECTION BOX - BLUE BOX", "address": {"city": "OMAHA", "state": "NE", "street": "4001 N 132ND ST", "postcode": "68164"}}},
{"geometry": {"type": "Point", "coordinates": [-96.0980273386, 41.2787773781]}, "type": "Feature", "properties": {"collection_times": [{"days": "Mon-Fri", "time": "5:25pm"}, {"days": "Sat-Sun", "time": "Closed"}], "id": "6816400017", "name": "USPS COLLECTION BOX - BLUE BOX", "address": {"city": "OMAHA", "state": "NE", "street": "2125 N 117TH AVE", "postcode": "68164"}}},
{"geometry": {"type": "Point", "coordinates": [-96.0980273386, 41.2787773781]}, "type": "Feature", "properties": {"collection_times": [{"days": "Mon-Fri", "time": "5:25pm"}, {"days": "Sat-Sun", "time": "Closed"}], "id": "6816400018", "name": "USPS COLLECTION BOX - BLUE BOX", "address": {"city": "OMAHA", "state": "NE", "street": "2125 N 117TH AVE", "postcode": "68164"}}},
{"geometry": {"type": "Point", "coordinates": [-96.1212409997, 41.2923491942]}, "type": "Feature", "properties": {"collection_times": [{"days": "Mon-Fri", "time": "5:17pm"}, {"days": "Sat", "time": "3:52pm"}, {"days": "Sun", "time": "Closed"}], "id": "6816400019", "name": "USPS COLLECTION BOX - BLUE BOX", "address": {"city": "OMAHA", "state": "NE", "street": "13310 W MAPLE RD", "postcode": "68164"}}},
{"geometry": {"type": "Point", "coordinates": [-96.1020040597, 41.2903023265]}, "type": "Feature", "properties": {"collection_times": [{"days": "Mon-Sat", "time": "10:30am"}, {"days": "Sun", "time": "Closed"}], "id": "6816400022", "name": "USPS COLLECTION BOX - BLUE BOX", "address": {"city": "OMAHA", "state": "NE", "street": "12111 EMMET ST", "postcode": "68164"}}},
{"geometry": {"type": "Point", "coordinates": [-96.1212409997, 41.2923491942]}, "type": "Feature", "properties": {"collection_times": [{"days": "Mon-Fri", "time": "5:17pm"}, {"days": "Sat", "time": "3:52pm"}, {"days": "Sun", "time": "Closed"}], "id": "6816400024", "name": "USPS COLLECTION BOX - BLUE BOX", "address": {"city": "OMAHA", "state": "NE", "street": "13310 W MAPLE RD", "postcode": "68164"}}},
{"geometry": {"type": "Point", "coordinates": [-96.1212409997, 41.2923491942]}, "type": "Feature", "properties": {"collection_times": [{"days": "Mon-Fri", "time": "5:17pm"}, {"days": "Sat", "time": "3:52pm"}, {"days": "Sun", "time": "Closed"}], "id": "6816400026", "name": "USPS COLLECTION BOX - BLUE BOX", "address": {"city": "OMAHA", "state": "NE", "street": "13310 W MAPLE RD", "postcode": "68164"}}}
]}
