{"type": "FeatureCollection", "features": [
{"geometry": {"type": "Point", "coordinates": [-96.5085367484, 40.4596124532]}, "type": "Feature", "properties": {"collection_times": [{"days": "Mon-Fri", "time": "4:05pm"}, {"days": "Sat", "time": "4:00pm"}, {"days": "Sun", "time": "Closed"}], "id": "6830100001", "name": "USPS COLLECTION BOX - BLUE BOX", "address": {"city": "ADAMS", "state": "NE", "street": "615 MAIN ST", "postcode": "68301"}}},
{"geometry": {"type": "Point", "coordinates": [-96.5085367484, 40.4596124532]}, "type": "Feature", "properties": {"collection_times": [{"days": "Mon-Fri", "time": "1:30pm"}, {"days": "Sat", "time": "9:45am"}, {"days": "Sun", "time": "Closed"}], "id": "6830100002", "name": "USPS COLLECTION BOX - PO LOBBY", "address": {"city": "ADAMS", "state": "NE", "street": "615 MAIN ST", "postcode": "68301"}}},
{"geometry": {"type": "Point", "coordinates": [-97.3895233632, 40.2452363246]}, "type": "Feature", "properties": {"collection_times": [{"days": "Mon-Fri", "time": "1:35pm"}, {"days": "Sat", "time": "1:20pm"}, {"days": "Sun", "time": "Closed"}], "id": "6830300001", "name": "USPS COLLECTION BOX - BLUE BOX", "address": {"city": "ALEXANDRIA", "state": "NE", "street": "302 HARBINE ST", "postcode": "68303"}}},
{"geometry": {"type": "Point", "coordinates": [-97.3895233632, 40.2452363246]}, "type": "Feature", "properties": {"collection_times": [{"days": "Mon-Sat", "time": "1:20pm"}, {"days": "Sun", "time": "Closed"}], "id": "6830300003", "name": "USPS COLLECTION BOX - PO LOBBY", "address": {"city": "ALEXANDRIA", "state": "NE", "street": "302 HARBINE ST", "postcode": "68303"}}},
{"geometry": {"type": "Point", "coordinates": [-96.3879302302, 40.8729641898]}, "type": "Feature", "properties": {"collection_times": [{"days": "Mon-Sat", "time": "3:30pm"}, {"days": "Sun", "time": "Closed"}], "id": "6830400001", "name": "USPS COLLECTION BOX - BLUE BOX", "address": {"city": "ALVO", "state": "NE", "street": "120 MAIN ST", "postcode": "68304"}}},
{"geometry": {"type": "Point", "coordinates": [-95.84396688, 40.3864349027]}, "type": "Feature", "properties": {"collection_times": [{"days": "Mon-Fri", "time": "3:00pm"}, {"days": "Sat-Sun", "time": "Closed"}], "id": "6830500001", "name": "USPS COLLECTION BOX - BLUE BOX", "address": {"city": "AUBURN", "state": "NE", "street": "1824 N ST", "postcode": "68305"}}},
{"geometry": {"type": "Point", "coordinates": [-95.8386228146, 40.3811987289]}, "type": "Feature", "properties": {"collection_times": [{"days": "Mon-Sat", "time": "3:00pm"}, {"days": "Sun", "time": "Closed"}], "id": "6830500002", "name": "USPS COLLECTION BOX - BLUE BOX", "address": {"city": "AUBURN", "state": "NE", "street": "2301 DAHLKE AVE", "postcode": "68305"}}},
{"geometry": {"type": "Point", "coordinates": [-95.8503663117, 40.3812812287]}, "type": "Feature", "properties": {"collection_times": [{"days": "Mon-Fri", "time": "3:30pm"}, {"days": "Sat", "time": "3:15pm"}, {"days": "Sun", "time": "Closed"}], "id": "6830500003", "name": "USPS COLLECTION BOX - BLUE BOX", "address": {"city": "AUBURN", "state": "NE", "street": "1320 COURTHOUSE AVE", "postcode": "68305"}}},
{"geometry": {"type": "Point", "coordinates": [-95.8503663117, 40.3812812287]}, "type": "Feature", "properties": {"collection_times": [{"days": "Mon-Fri", "time": "3:30pm"}, {"days": "Sat", "time": "3:15pm"}, {"days": "Sun", "time": "Closed"}], "id": "6830500004", "name": "USPS COLLECTION BOX - BLUE BOX", "address": {"city": "AUBURN", "state": "NE", "street": "1320 COURTHOUSE AVE", "postcode": "68305"}}},
{"geometry": {"type": "Point", "coordinates": [-95.8503663117, 40.3812812287]}, "type": "Feature", "properties": {"collection_times": [{"days": "Mon-Fri", "time": "3:15pm"}, {"days": "Sat", "time": "10:45am"}, {"days": "Sun", "time": "Closed"}], "id": "6830500005", "name": "USPS COLLECTION BOX - PO LOBBY", "address": {"city": "AUBURN", "state": "NE", "street": "1320 COURTHOUSE AVE", "postcode": "68305"}}},
{"geometry": {"type": "Point", "coordinates": [-95.8503663117, 40.3812812287]}, "type": "Feature", "properties": {"collection_times": [{"days": "Mon-Fri", "time": "3:15pm"}, {"days": "Sat", "time": "10:45am"}, {"days": "Sun", "time": "Closed"}], "id": "6830500007", "name": "USPS COLLECTION BOX - PO LOBBY", "address": {"city": "AUBURN", "state": "NE", "street": "1320 COURTHOUSE AVE", "postcode": "68305"}}},
{"geometry": {"type": "Point", "coordinates": [-96.1184808519, 40.7958322199]}, "type": "Feature", "properties": {"collection_times": [{"days": "Mon-Sat", "time": "2:00pm"}, {"days": "Sun", "time": "Closed"}], "id": "6830700001", "name": "USPS COLLECTION BOX - BLUE BOX", "address": {"city": "AVOCA", "state": "NE", "street": "624 HOUSE ST", "postcode": "68307"}}},
{"geometry": {"type": "Point", "coordinates": [-96.1184808519, 40.7958322199]}, "type": "Feature", "properties": {"collection_times": [{"days": "Mon-Fri", "time": "10:45am"}, {"days": "Sat", "time": "8:30am"}, {"days": "Sun", "time": "Closed"}], "id": "6830700002", "name": "USPS COLLECTION BOX - PO LOBBY", "address": {"city": "AVOCA", "state": "NE", "street": "624 HOUSE ST", "postcode": "68307"}}},
{"geometry": {"type": "Point", "coordinates": [-96.5766998911, 40.048006621]}, "type": "Feature", "properties": {"collection_times": [{"days": "Mon-Sat", "time": "2:15pm"}, {"days": "Sun", "time": "Closed"}], "id": "6830900001", "name": "USPS COLLECTION BOX - BLUE BOX", "address": {"city": "BARNESTON", "state": "NE", "street": "202 1ST ST", "postcode": "68309"}}},
{"geometry": {"type": "Point", "coordinates": [-96.7469987905, 40.2884275811]}, "type": "Feature", "properties": {"collection_times": [{"days": "Mon-Sat", "time": "12:00pm"}, {"days": "Sun", "time": "Closed"}], "id": "6831000001", "name": "USPS COLLECTION BOX - BLUE BOX", "address": {"city": "BEATRICE", "state": "NE", "street": "2205 N 6TH ST", "postcode": "68310"}}},
{"geometry": {"type": "Point", "coordinates": [-96.7089194545, 40.2627212716]}, "type": "Feature", "properties": {"collection_times": [{"days": "Mon-Sat", "time": "3:00pm"}, {"days": "Sun", "time": "Closed"}], "id": "6831000007", "name": "USPS COLLECTION BOX - BLUE BOX", "address": {"city": "BEATRICE", "state": "NE", "street": "501 COURT ST", "postcode": "68310"}}},
{"geometry": {"type": "Point", "coordinates": [-96.7464874505, 40.2706882351]}, "type": "Feature", "properties": {"collection_times": [{"days": "Mon-Sat", "time": "3:00pm"}, {"days": "Sun", "time": "Closed"}], "id": "6831000009", "name": "USPS COLLECTION BOX - BLUE BOX", "address": {"city": "BEATRICE", "state": "NE", "street": "612 GRANT ST", "postcode": "68310"}}},
{"geometry": {"type": "Point", "coordinates": [-99.8111056957, 41.5272671215]}, "type": "Feature", "properties": {"collection_times": [{"days": "Mon-Sat", "time": "3:20pm"}, {"days": "Sun", "time": "Closed"}], "id": "6831000010", "name": "USPS COLLECTION BOX - BLUE BOX", "address": {"city": "BEATRICE", "state": "NE", "street": "425 N 5TH ST", "postcode": "68310"}}},
{"geometry": {"type": "Point", "coordinates": [-96.729158315, 40.2657458489]}, "type": "Feature", "properties": {"collection_times": [{"days": "Mon-Sat", "time": "11:30am"}, {"days": "Sun", "time": "Closed"}], "id": "6831000011", "name": "USPS COLLECTION BOX - BLUE BOX", "address": {"city": "BEATRICE", "state": "NE", "street": "1815 COURT ST", "postcode": "68310"}}},
{"geometry": {"type": "Point", "coordinates": [-96.7467665295, 40.2657843695]}, "type": "Feature", "properties": {"collection_times": [{"days": "Mon-Sat", "time": "12:30pm"}, {"days": "Sun", "time": "Closed"}], "id": "6831000015", "name": "USPS COLLECTION BOX - BLUE BOX", "address": {"city": "BEATRICE", "state": "NE", "street": "601 COURT ST", "postcode": "68310"}}},
{"geometry": {"type": "Point", "coordinates": [-96.7464874505, 40.2706882351]}, "type": "Feature", "properties": {"collection_times": [{"days": "Mon-Sat", "time": "3:00pm"}, {"days": "Sun", "time": "Closed"}], "id": "6831000016", "name": "USPS COLLECTION BOX - BLUE BOX", "address": {"city": "BEATRICE", "state": "NE", "street": "612 GRANT ST", "postcode": "68310"}}},
{"geometry": {"type": "Point", "coordinates": [-96.7464874505, 40.2706882351]}, "type": "Feature", "properties": {"collection_times": [{"days": "Mon-Sat", "time": "3:00pm"}, {"days": "Sun", "time": "Closed"}], "id": "6831000017", "name": "USPS COLLECTION BOX - BLUE BOX", "address": {"city": "BEATRICE", "state": "NE", "street": "612 GRANT ST", "postcode": "68310"}}},
{"geometry": {"type": "Point", "coordinates": [-99.8111056957, 41.5272671215]}, "type": "Feature", "properties": {"collection_times": [{"days": "Mon-Sat", "time": "3:20pm"}, {"days": "Sun", "time": "Closed"}], "id": "6831000020", "name": "USPS COLLECTION BOX - BLUE BOX", "address": {"city": "BEATRICE", "state": "NE", "street": "425 N 5TH ST", "postcode": "68310"}}},
{"geometry": {"type": "Point", "coordinates": [-96.7223937968, 40.2657366506]}, "type": "Feature", "properties": {"collection_times": [{"days": "Mon-Sat", "time": "12:30pm"}, {"days": "Sun", "time": "Closed"}], "id": "6831000023", "name": "USPS COLLECTION BOX - BLUE BOX", "address": {"city": "BEATRICE", "state": "NE", "street": "123 N 24TH ST", "postcode": "68310"}}},
{"geometry": {"type": "Point", "coordinates": [-96.7468495406, 40.2694170137]}, "type": "Feature", "properties": {"collection_times": [{"days": "Mon-Sat", "time": "3:20pm"}, {"days": "Sun", "time": "Closed"}], "id": "6831000024", "name": "USPS COLLECTION BOX - PO LOBBY", "address": {"city": "BEATRICE", "state": "NE", "street": "425 N 6TH ST", "postcode": "68310"}}},
{"geometry": {"type": "Point", "coordinates": [-96.7467198515, 40.3000962537]}, "type": "Feature", "properties": {"collection_times": [{"days": "Mon-Sat", "time": "12:30pm"}, {"days": "Sun", "time": "Closed"}], "id": "6831000025", "name": "USPS COLLECTION BOX - BLUE BOX", "address": {"city": "BEATRICE", "state": "NE", "street": "3620 N 6TH ST", "postcode": "68310"}}},
{"geometry": {"type": "Point", "coordinates": [-96.7752874089, 40.2659653622]}, "type": "Feature", "properties": {"collection_times": [{"days": "Mon-Sat", "time": "11:15am"}, {"days": "Sun", "time": "Closed"}], "id": "6831000026", "name": "USPS COLLECTION BOX - BLUE BOX", "address": {"city": "BEATRICE", "state": "NE", "street": "900 W COURT ST", "postcode": "68310"}}},
{"geometry": {"type": "Point", "coordinates": [-97.2810900847, 40.7783965115]}, "type": "Feature", "properties": {"collection_times": [{"days": "Mon-Sat", "time": "3:15pm"}, {"days": "Sun", "time": "Closed"}], "id": "6831300001", "name": "USPS COLLECTION BOX - BLUE BOX", "address": {"city": "BEAVER CROSSING", "state": "NE", "street": "823 DIMERY AVE", "postcode": "68313"}}},
{"geometry": {"type": "Point", "coordinates": [-97.2810900847, 40.7783965115]}, "type": "Feature", "properties": {"collection_times": [{"days": "Mon-Fri", "time": "11:45am"}, {"days": "Sat", "time": "10:45am"}, {"days": "Sun", "time": "Closed"}], "id": "6831300002", "name": "USPS COLLECTION BOX - PO LOBBY", "address": {"city": "BEAVER CROSSING", "state": "NE", "street": "823 DIMERY AVE", "postcode": "68313"}}},
{"geometry": {"type": "Point", "coordinates": [-97.0592285149, 41.0063683394]}, "type": "Feature", "properties": {"collection_times": [{"days": "Mon-Sat", "time": "1:20pm"}, {"days": "Sun", "time": "Closed"}], "id": "6831400001", "name": "USPS COLLECTION BOX - BLUE BOX", "address": {"city": "BEE", "state": "NE", "street": "185 ELM ST", "postcode": "68314"}}},
{"geometry": {"type": "Point", "coordinates": [-97.0592285149, 41.0063683394]}, "type": "Feature", "properties": {"collection_times": [{"days": "Mon-Sat", "time": "9:45am"}, {"days": "Sun", "time": "Closed"}], "id": "6831400002", "name": "USPS COLLECTION BOX - PO LOBBY", "address": {"city": "BEE", "state": "NE", "street": "185 ELM ST", "postcode": "68314"}}},
{"geometry": {"type": "Point", "coordinates": [-97.5578414122, 40.2549547398]}, "type": "Feature", "properties": {"collection_times": [{"days": "Mon-Sat", "time": "11:10am"}, {"days": "Sun", "time": "Closed"}], "id": "6831500001", "name": "USPS COLLECTION BOX - BLUE BOX", "address": {"city": "BELVIDERE", "state": "NE", "street": "400 C ST", "postcode": "68315"}}},
{"geometry": {"type": "Point", "coordinates": [-97.6050297531, 41.0057696136]}, "type": "Feature", "properties": {"collection_times": [{"days": "Mon-Sat", "time": "1:15pm"}, {"days": "Sun", "time": "Closed"}], "id": "6831600001", "name": "USPS COLLECTION BOX - BLUE BOX", "address": {"city": "BENEDICT", "state": "NE", "street": "214 SHERMAN ST", "postcode": "68316"}}},
{"geometry": {"type": "Point", "coordinates": [-97.6050297531, 41.0057696136]}, "type": "Feature", "properties": {"collection_times": [{"days": "Mon-Fri", "time": "12:45pm"}, {"days": "Sat", "time": "10:30am"}, {"days": "Sun", "time": "Closed"}], "id": "6831600002", "name": "USPS COLLECTION BOX - PO LOBBY", "address": {"city": "BENEDICT", "state": "NE", "street": "214 SHERMAN ST", "postcode": "68316"}}},
{"geometry": {"type": "Point", "coordinates": [-96.5078717092, 40.6798269368]}, "type": "Feature", "properties": {"collection_times": [{"days": "Mon-Sat", "time": "4:15pm"}, {"days": "Sun", "time": "Closed"}], "id": "6831700001", "name": "USPS COLLECTION BOX - BLUE BOX", "address": {"city": "BENNET", "state": "NE", "street": "605 MADISON ST", "postcode": "68317"}}},
{"geometry": {"type": "Point", "coordinates": [-96.5078717092, 40.6798269368]}, "type": "Feature", "properties": {"collection_times": [{"days": "Mon-Fri", "time": "1:15pm"}, {"days": "Sat", "time": "9:00am"}, {"days": "Sun", "time": "Closed"}], "id": "6831700002", "name": "USPS COLLECTION BOX - PO LOBBY", "address": {"city": "BENNET", "state": "NE", "street": "605 MADISON ST", "postcode": "68317"}}},
{"geometry": {"type": "Point", "coordinates": [-96.6597369632, 40.1395275887]}, "type": "Feature", "properties": {"collection_times": [{"days": "Mon-Sat", "time": "2:45pm"}, {"days": "Sun", "time": "Closed"}], "id": "6831800001", "name": "USPS COLLECTION BOX - BLUE BOX", "address": {"city": "BLUE SPRINGS", "state": "NE", "street": "204 E BROAD ST", "postcode": "68318"}}},
{"geometry": {"type": "Point", "coordinates": [-96.6597369632, 40.1395275887]}, "type": "Feature", "properties": {"collection_times": [{"days": "Mon-Fri", "time": "11:45am"}, {"days": "Sat", "time": "10:45am"}, {"days": "Sun", "time": "Closed"}], "id": "6831800002", "name": "USPS COLLECTION BOX - PO LOBBY", "address": {"city": "BLUE SPRINGS", "state": "NE", "street": "204 E BROAD ST", "postcode": "68318"}}},
{"geometry": {"type": "Point", "coordinates": [-97.7473672134, 40.8824225972]}, "type": "Feature", "properties": {"collection_times": [{"days": "Mon-Sat", "time": "2:10pm"}, {"days": "Sun", "time": "Closed"}], "id": "6831900001", "name": "USPS COLLECTION BOX - BLUE BOX", "address": {"city": "BRADSHAW", "state": "NE", "street": "565 LINCOLN ST", "postcode": "68319"}}},
{"geometry": {"type": "Point", "coordinates": [-97.7473672134, 40.8824225972]}, "type": "Feature", "properties": {"collection_times": [{"days": "Mon-Fri", "time": "11:45am"}, {"days": "Sat", "time": "9:00am"}, {"days": "Sun", "time": "Closed"}], "id": "6831900002", "name": "USPS COLLECTION BOX - PO LOBBY", "address": {"city": "BRADSHAW", "state": "NE", "street": "565 LINCOLN ST", "postcode": "68319"}}},
{"geometry": {"type": "Point", "coordinates": [-95.9594355074, 40.481491891]}, "type": "Feature", "properties": {"collection_times": [{"days": "Mon-Sat", "time": "2:10pm"}, {"days": "Sun", "time": "Closed"}], "id": "6832000001", "name": "USPS COLLECTION BOX - BLUE BOX", "address": {"city": "BROCK", "state": "NE", "street": "705 S MAIN ST", "postcode": "68320"}}},
{"geometry": {"type": "Point", "coordinates": [-95.657170656, 40.3974257803]}, "type": "Feature", "properties": {"collection_times": [{"days": "Mon-Sat", "time": "2:10pm"}, {"days": "Sun", "time": "Closed"}], "id": "6832100001", "name": "USPS COLLECTION BOX - BLUE BOX", "address": {"city": "BROWNVILLE", "state": "NE", "street": "217 MAIN ST", "postcode": "68321"}}},
{"geometry": {"type": "Point", "coordinates": [-95.657170656, 40.3974257803]}, "type": "Feature", "properties": {"collection_times": [{"days": "Mon-Sat", "time": "2:00pm"}, {"days": "Sun", "time": "Closed"}], "id": "6832100002", "name": "USPS COLLECTION BOX - PO LOBBY", "address": {"city": "BROWNVILLE", "state": "NE", "street": "217 MAIN ST", "postcode": "68321"}}},
{"geometry": {"type": "Point", "coordinates": [-97.5658205219, 40.3362581698]}, "type": "Feature", "properties": {"collection_times": [{"days": "Mon-Sat", "time": "1:50pm"}, {"days": "Sun", "time": "Closed"}], "id": "6832200001", "name": "USPS COLLECTION BOX - BLUE BOX", "address": {"city": "BRUNING", "state": "NE", "street": "144 E MAIN ST", "postcode": "68322"}}},
{"geometry": {"type": "Point", "coordinates": [-97.5658205219, 40.3362581698]}, "type": "Feature", "properties": {"collection_times": [{"days": "Mon-Fri", "time": "1:50pm"}, {"days": "Sat", "time": "10:00am"}, {"days": "Sun", "time": "Closed"}], "id": "6832200002", "name": "USPS COLLECTION BOX - PO LOBBY", "address": {"city": "BRUNING", "state": "NE", "street": "144 E MAIN ST", "postcode": "68322"}}},
{"geometry": {"type": "Point", "coordinates": [-96.3488895485, 40.1474039134]}, "type": "Feature", "properties": {"collection_times": [{"days": "Mon-Sat", "time": "1:30pm"}, {"days": "Sun", "time": "Closed"}], "id": "6832300001", "name": "USPS COLLECTION BOX - BLUE BOX", "address": {"city": "BURCHARD", "state": "NE", "street": "206 2ND ST", "postcode": "68323"}}},
{"geometry": {"type": "Point", "coordinates": [-96.3488895485, 40.1474039134]}, "type": "Feature", "properties": {"collection_times": [{"days": "Mon-Fri", "time": "11:30am"}, {"days": "Sat", "time": "9:00am"}, {"days": "Sun", "time": "Closed"}], "id": "6832300002", "name": "USPS COLLECTION BOX - PO LOBBY", "address": {"city": "BURCHARD", "state": "NE", "street": "206 2ND ST", "postcode": "68323"}}},
{"geometry": {"type": "Point", "coordinates": [-96.2990452509, 40.5354888774]}, "type": "Feature", "properties": {"collection_times": [{"days": "Mon-Sat", "time": "3:05pm"}, {"days": "Sun", "time": "Closed"}], "id": "6832400001", "name": "USPS COLLECTION BOX - BLUE BOX", "address": {"city": "BURR", "state": "NE", "street": "435 MAIN ST", "postcode": "68324"}}},
{"geometry": {"type": "Point", "coordinates": [-96.2990452509, 40.5354888774]}, "type": "Feature", "properties": {"collection_times": [{"days": "Mon-Fri", "time": "3:05pm"}, {"days": "Sat", "time": "10:00am"}, {"days": "Sun", "time": "Closed"}], "id": "6832400002", "name": "USPS COLLECTION BOX - PO LOBBY", "address": {"city": "BURR", "state": "NE", "street": "435 MAIN ST", "postcode": "68324"}}},
{"geometry": {"type": "Point", "coordinates": [-97.7510893353, 40.0429025027]}, "type": "Feature", "properties": {"collection_times": [{"days": "Mon-Sat", "time": "1:40pm"}, {"days": "Sun", "time": "Closed"}], "id": "6832500001", "name": "USPS COLLECTION BOX - BLUE BOX", "address": {"city": "BYRON", "state": "NE", "street": "118 KANSAS AVE", "postcode": "68325"}}},
{"geometry": {"type": "Point", "coordinates": [-97.7510893353, 40.0429025027]}, "type": "Feature", "properties": {"collection_times": [{"days": "Mon-Fri", "time": "11:30am"}, {"days": "Sat", "time": "9:15am"}, {"days": "Sun", "time": "Closed"}], "id": "6832500002", "name": "USPS COLLECTION BOX - PO LOBBY", "address": {"city": "BYRON", "state": "NE", "street": "118 KANSAS AVE", "postcode": "68325"}}},
{"geometry": {"type": "Point", "coordinates": [-97.6787482641, 40.2998666034]}, "type": "Feature", "properties": {"collection_times": [{"days": "Mon-Sat", "time": "2:15pm"}, {"days": "Sun", "time": "Closed"}], "id": "6832600001", "name": "USPS COLLECTION BOX - BLUE BOX", "address": {"city": "CARLETON", "state": "NE", "street": "320 D ST", "postcode": "68326"}}},
{"geometry": {"type": "Point", "coordinates": [-97.6787482641, 40.2998666034]}, "type": "Feature", "properties": {"collection_times": [{"days": "Mon-Fri", "time": "2:15pm"}, {"days": "Sat", "time": "11:15am"}, {"days": "Sun", "time": "Closed"}], "id": "6832600002", "name": "USPS COLLECTION BOX - PO LOBBY", "address": {"city": "CARLETON", "state": "NE", "street": "320 D ST", "postcode": "68326"}}},
{"geometry": {"type": "Point", "coordinates": [-97.6188189413, 40.0093527408]}, "type": "Feature", "properties": {"collection_times": [{"days": "Mon-Sat", "time": "2:20pm"}, {"days": "Sun", "time": "Closed"}], "id": "6832700001", "name": "USPS COLLECTION BOX - BLUE BOX", "address": {"city": "CHESTER", "state": "NE", "street": "511 THAYER AVE", "postcode": "68327"}}},
{"geometry": {"type": "Point", "coordinates": [-97.6188189413, 40.0093527408]}, "type": "Feature", "properties": {"collection_times": [{"days": "Mon-Fri", "time": "12:20pm"}, {"days": "Sat", "time": "9:20am"}, {"days": "Sun", "time": "Closed"}], "id": "6832700002", "name": "USPS COLLECTION BOX - PO LOBBY", "address": {"city": "CHESTER", "state": "NE", "street": "511 THAYER AVE", "postcode": "68327"}}},
{"geometry": {"type": "Point", "coordinates": [-96.8486010694, 40.4654552167]}, "type": "Feature", "properties": {"collection_times": [{"days": "Mon-Sat", "time": "2:35pm"}, {"days": "Sun", "time": "Closed"}], "id": "6832800001", "name": "USPS COLLECTION BOX - BLUE BOX", "address": {"city": "CLATONIA", "state": "NE", "street": "140 WASHINGTON ST", "postcode": "68328"}}},
{"geometry": {"type": "Point", "coordinates": [-96.8486010694, 40.4654552167]}, "type": "Feature", "properties": {"collection_times": [{"days": "Mon-Sat", "time": "2:30pm"}, {"days": "Sun", "time": "Closed"}], "id": "6832800002", "name": "USPS COLLECTION BOX - PO LOBBY", "address": {"city": "CLATONIA", "state": "NE", "street": "140 WASHINGTON ST", "postcode": "68328"}}},
{"geometry": {"type": "Point", "coordinates": [-96.1587311689, 40.5097633884]}, "type": "Feature", "properties": {"collection_times": [{"days": "Mon-Sat", "time": "2:50pm"}, {"days": "Sun", "time": "Closed"}], "id": "6832900001", "name": "USPS COLLECTION BOX - BLUE BOX", "address": {"city": "COOK", "state": "NE", "street": "214 W MAIN ST", "postcode": "68329"}}},
{"geometry": {"type": "Point", "coordinates": [-96.1587311689, 40.5097633884]}, "type": "Feature", "properties": {"collection_times": [{"days": "Mon-Fri", "time": "11:30am"}, {"days": "Sat", "time": "9:30am"}, {"days": "Sun", "time": "Closed"}], "id": "6832900002", "name": "USPS COLLECTION BOX - PO LOBBY", "address": {"city": "COOK", "state": "NE", "street": "214 W MAIN ST", "postcode": "68329"}}},
{"geometry": {"type": "Point", "coordinates": [-97.3513712408, 40.7173104775]}, "type": "Feature", "properties": {"collection_times": [{"days": "Mon-Fri", "time": "3:45pm"}, {"days": "Sat", "time": "3:30pm"}, {"days": "Sun", "time": "Closed"}], "id": "6833000001", "name": "USPS COLLECTION BOX - BLUE BOX", "address": {"city": "CORDOVA", "state": "NE", "street": "360 HECTOR ST", "postcode": "68330"}}},
{"geometry": {"type": "Point", "coordinates": [-97.3513712408, 40.7173104775]}, "type": "Feature", "properties": {"collection_times": [{"days": "Mon-Fri", "time": "11:45am"}, {"days": "Sat", "time": "9:30am"}, {"days": "Sun", "time": "Closed"}], "id": "6833000002", "name": "USPS COLLECTION BOX - PO LOBBY", "address": {"city": "CORDOVA", "state": "NE", "street": "360 HECTOR ST", "postcode": "68330"}}},
{"geometry": {"type": "Point", "coordinates": [-96.7075033935, 40.5057241118]}, "type": "Feature", "properties": {"collection_times": [{"days": "Mon-Sat", "time": "4:15pm"}, {"days": "Sun", "time": "Closed"}], "id": "6833100001", "name": "USPS COLLECTION BOX - BLUE BOX", "address": {"city": "CORTLAND", "state": "NE", "street": "335 W 4TH ST", "postcode": "68331"}}},
{"geometry": {"type": "Point", "coordinates": [-96.7075033935, 40.5057241118]}, "type": "Feature", "properties": {"collection_times": [{"days": "Mon-Fri", "time": "11:45am"}, {"days": "Sat", "time": "9:30am"}, {"days": "Sun", "time": "Closed"}], "id": "6833100002", "name": "USPS COLLECTION BOX - PO LOBBY", "address": {"city": "CORTLAND", "state": "NE", "street": "335 W 4TH ST", "postcode": "68331"}}},
{"geometry": {"type": "Point", "coordinates": [-96.4078783124, 40.3235621756]}, "type": "Feature", "properties": {"collection_times": [{"days": "Mon-Sat", "time": "3:00pm"}, {"days": "Sun", "time": "Closed"}], "id": "6833200001", "name": "USPS COLLECTION BOX - BLUE BOX", "address": {"city": "CRAB ORCHARD", "state": "NE", "street": "525 MAIN ST", "postcode": "68332"}}},
{"geometry": {"type": "Point", "coordinates": [-96.9603457207, 40.6248116936]}, "type": "Feature", "properties": {"collection_times": [{"days": "Mon-Fri", "time": "4:40pm"}, {"days": "Sat", "time": "4:30pm"}, {"days": "Sun", "time": "Closed"}], "id": "6833300008", "name": "USPS COLLECTION BOX - BLUE BOX", "address": {"city": "CRETE", "state": "NE", "street": "1242 LINDEN AVE", "postcode": "68333"}}},
{"geometry": {"type": "Point", "coordinates": [-96.9603457207, 40.6248116936]}, "type": "Feature", "properties": {"collection_times": [{"days": "Mon-Fri", "time": "4:40pm"}, {"days": "Sat", "time": "4:30pm"}, {"days": "Sun", "time": "Closed"}], "id": "6833300009", "name": "USPS COLLECTION BOX - BLUE BOX", "address": {"city": "CRETE", "state": "NE", "street": "1242 LINDEN AVE", "postcode": "68333"}}},
{"geometry": {"type": "Point", "coordinates": [-96.9603457207, 40.6248116936]}, "type": "Feature", "properties": {"collection_times": [{"days": "Mon-Fri", "time": "4:30pm"}, {"days": "Sat", "time": "11:00am"}, {"days": "Sun", "time": "Closed"}], "id": "6833300010", "name": "USPS COLLECTION BOX - PO LOBBY", "address": {"city": "CRETE", "state": "NE", "street": "1242 LINDEN AVE", "postcode": "68333"}}},
{"geometry": {"type": "Point", "coordinates": [-96.9603457207, 40.6248116936]}, "type": "Feature", "properties": {"collection_times": [{"days": "Mon-Fri", "time": "4:40pm"}, {"days": "Sat", "time": "4:30pm"}, {"days": "Sun", "time": "Closed"}], "id": "6833300011", "name": "USPS COLLECTION BOX - BLUE BOX", "address": {"city": "CRETE", "state": "NE", "street": "1242 LINDEN AVE", "postcode": "68333"}}},
{"geometry": {"type": "Point", "coordinates": [-97.8132641711, 40.3128759518]}, "type": "Feature", "properties": {"collection_times": [{"days": "Mon-Sat", "time": "2:00pm"}, {"days": "Sun", "time": "Closed"}], "id": "6833500001", "name": "USPS COLLECTION BOX - BLUE BOX", "address": {"city": "DAVENPORT", "state": "NE", "street": "101 S MAPLE AVE", "postcode": "68335"}}},
{"geometry": {"type": "Point", "coordinates": [-97.8132641711, 40.3128759518]}, "type": "Feature", "properties": {"collection_times": [{"days": "Mon-Fri", "time": "11:45am"}, {"days": "Sat", "time": "9:00am"}, {"days": "Sun", "time": "Closed"}], "id": "6833500002", "name": "USPS COLLECTION BOX - PO LOBBY", "address": {"city": "DAVENPORT", "state": "NE", "street": "101 S MAPLE AVE", "postcode": "68335"}}},
{"geometry": {"type": "Point", "coordinates": [-96.6688940499, 40.9851406805]}, "type": "Feature", "properties": {"collection_times": [{"days": "Mon-Sat", "time": "3:15pm"}, {"days": "Sun", "time": "Closed"}], "id": "6833600001", "name": "USPS COLLECTION BOX - BLUE BOX", "address": {"city": "DAVEY", "state": "NE", "street": "17755 N 2ND ST", "postcode": "68336"}}},
{"geometry": {"type": "Point", "coordinates": [-96.6688940499, 40.9851406805]}, "type": "Feature", "properties": {"collection_times": [{"days": "Mon-Fri", "time": "12:45pm"}, {"days": "Sat", "time": "11:45am"}, {"days": "Sun", "time": "Closed"}], "id": "6833600002", "name": "USPS COLLECTION BOX - PO LOBBY", "address": {"city": "DAVEY", "state": "NE", "street": "17755 N 2ND ST", "postcode": "68336"}}},
{"geometry": {"type": "Point", "coordinates": [-95.8305956713, 40.1313552351]}, "type": "Feature", "properties": {"collection_times": [{"days": "Mon-Sat", "time": "2:30pm"}, {"days": "Sun", "time": "Closed"}], "id": "6833700001", "name": "USPS COLLECTION BOX - BLUE BOX", "address": {"city": "DAWSON", "state": "NE", "street": "516 RIDGE ST", "postcode": "68337"}}},
{"geometry": {"type": "Point", "coordinates": [-95.8305956713, 40.1313552351]}, "type": "Feature", "properties": {"collection_times": [{"days": "Mon-Sat", "time": "1:45pm"}, {"days": "Sun", "time": "Closed"}], "id": "6833700002", "name": "USPS COLLECTION BOX - PO LOBBY", "address": {"city": "DAWSON", "state": "NE", "street": "516 RIDGE ST", "postcode": "68337"}}},
{"geometry": {"type": "Point", "coordinates": [-97.2998314728, 40.3223455538]}, "type": "Feature", "properties": {"collection_times": [{"days": "Mon-Fri", "time": "1:20pm"}, {"days": "Sat", "time": "1:00pm"}, {"days": "Sun", "time": "Closed"}], "id": "6833800001", "name": "USPS COLLECTION BOX - BLUE BOX", "address": {"city": "DAYKIN", "state": "NE", "street": "312 JEFFERSON ST", "postcode": "68338"}}},
{"geometry": {"type": "Point", "coordinates": [-97.2998314728, 40.3223455538]}, "type": "Feature", "properties": {"collection_times": [{"days": "Mon-Fri", "time": "11:15am"}, {"days": "Sat", "time": "9:30am"}, {"days": "Sun", "time": "Closed"}], "id": "6833800002", "name": "USPS COLLECTION BOX - PO LOBBY", "address": {"city": "DAYKIN", "state": "NE", "street": "312 JEFFERSON ST", "postcode": "68338"}}},
{"geometry": {"type": "Point", "coordinates": [-96.8446045589, 40.7377585055]}, "type": "Feature", "properties": {"collection_times": [{"days": "Mon-Fri", "time": "5:05pm"}, {"days": "Sat", "time": "4:45pm"}, {"days": "Sun", "time": "Closed"}], "id": "6833900001", "name": "USPS COLLECTION BOX - BLUE BOX", "address": {"city": "DENTON", "state": "NE", "street": "9345 W 3RD ST", "postcode": "68339"}}},
{"geometry": {"type": "Point", "coordinates": [-96.8446045589, 40.7377585055]}, "type": "Feature", "properties": {"collection_times": [{"days": "Mon-Fri", "time": "10:45am"}, {"days": "Sat", "time": "9:00am"}, {"days": "Sun", "time": "Closed"}], "id": "6833900002", "name": "USPS COLLECTION BOX - PO LOBBY", "address": {"city": "DENTON", "state": "NE", "street": "9345 W 3RD ST", "postcode": "68339"}}},
{"geometry": {"type": "Point", "coordinates": [-97.7230302899, 40.1428182926]}, "type": "Feature", "properties": {"collection_times": [{"days": "Mon-Sat", "time": "2:15pm"}, {"days": "Sun", "time": "Closed"}], "id": "6834000001", "name": "USPS COLLECTION BOX - BLUE BOX", "address": {"city": "DESHLER", "state": "NE", "street": "513 4TH ST", "postcode": "68340"}}},
{"geometry": {"type": "Point", "coordinates": [-97.7230302899, 40.1428182926]}, "type": "Feature", "properties": {"collection_times": [{"days": "Mon-Fri", "time": "2:15pm"}, {"days": "Sat", "time": "9:15am"}, {"days": "Sun", "time": "Closed"}], "id": "6834000002", "name": "USPS COLLECTION BOX - PO LOBBY", "address": {"city": "DESHLER", "state": "NE", "street": "513 4TH ST", "postcode": "68340"}}},
{"geometry": {"type": "Point", "coordinates": [-96.9202650896, 40.394614968]}, "type": "Feature", "properties": {"collection_times": [{"days": "Mon-Sat", "time": "2:05pm"}, {"days": "Sun", "time": "Closed"}], "id": "6834100001", "name": "USPS COLLECTION BOX - BLUE BOX", "address": {"city": "DE WITT", "state": "NE", "street": "304 E FILLMORE AVE", "postcode": "68341"}}},
{"geometry": {"type": "Point", "coordinates": [-96.9200806405, 40.3946085691]}, "type": "Feature", "properties": {"collection_times": [{"days": "Mon-Fri", "time": "11:00am"}, {"days": "Sat", "time": "8:30am"}, {"days": "Sun", "time": "Closed"}], "id": "6834100002", "name": "USPS COLLECTION BOX - PO LOBBY", "address": {"city": "DE WITT", "state": "NE", "street": "304 E FILLMORE AVE", "postcode": "68341"}}},
{"geometry": {"type": "Point", "coordinates": [-96.9350286836, 40.1087192149]}, "type": "Feature", "properties": {"collection_times": [{"days": "Mon-Fri", "time": "2:30pm"}, {"days": "Sat", "time": "8:30am"}, {"days": "Sun", "time": "Closed"}], "id": "6834200001", "name": "USPS COLLECTION BOX - BLUE BOX", "address": {"city": "DILLER", "state": "NE", "street": "408 COMMERCIAL ST", "postcode": "68342"}}},
{"geometry": {"type": "Point", "coordinates": [-96.9350286836, 40.1087192149]}, "type": "Feature", "properties": {"collection_times": [{"days": "Mon-Fri", "time": "11:45am"}, {"days": "Sat", "time": "8:30am"}, {"days": "Sun", "time": "Closed"}], "id": "6834200002", "name": "USPS COLLECTION BOX - PO LOBBY", "address": {"city": "DILLER", "state": "NE", "street": "408 COMMERCIAL ST", "postcode": "68342"}}},
{"geometry": {"type": "Point", "coordinates": [-97.1135398295, 40.6472789057]}, "type": "Feature", "properties": {"collection_times": [{"days": "Mon-Sat", "time": "4:05pm"}, {"days": "Sun", "time": "Closed"}], "id": "6834300001", "name": "USPS COLLECTION BOX - BLUE BOX", "address": {"city": "DORCHESTER", "state": "NE", "street": "713 WASHINGTON AVE", "postcode": "68343"}}},
{"geometry": {"type": "Point", "coordinates": [-97.1135398295, 40.6472789057]}, "type": "Feature", "properties": {"collection_times": [{"days": "Mon-Fri", "time": "4:00pm"}, {"days": "Sat", "time": "11:00am"}, {"days": "Sun", "time": "Closed"}], "id": "6834300002", "name": "USPS COLLECTION BOX - PO LOBBY", "address": {"city": "DORCHESTER", "state": "NE", "street": "713 WASHINGTON AVE", "postcode": "68343"}}},
{"geometry": {"type": "Point", "coordinates": [-96.3851955196, 40.590689851]}, "type": "Feature", "properties": {"collection_times": [{"days": "Mon-Sat", "time": "3:20pm"}, {"days": "Sun", "time": "Closed"}], "id": "6834400000", "name": "USPS COLLECTION BOX - BLUE BOX", "address": {"city": "DOUGLAS", "state": "NE", "street": "121 MAIN ST", "postcode": "68344"}}},
{"geometry": {"type": "Point", "coordinates": [-96.3851955196, 40.590689851]}, "type": "Feature", "properties": {"collection_times": [{"days": "Mon-Fri", "time": "10:45am"}, {"days": "Sat", "time": "8:45am"}, {"days": "Sun", "time": "Closed"}], "id": "6834400001", "name": "USPS COLLECTION BOX - PO LOBBY", "address": {"city": "DOUGLAS", "state": "NE", "street": "121 MAIN ST", "postcode": "68344"}}},
{"geometry": {"type": "Point", "coordinates": [-96.0481368006, 40.0338352132]}, "type": "Feature", "properties": {"collection_times": [{"days": "Mon-Fri", "time": "1:35pm"}, {"days": "Sat", "time": "1:30pm"}, {"days": "Sun", "time": "Closed"}], "id": "6834500001", "name": "USPS COLLECTION BOX - BLUE BOX", "address": {"city": "DUBOIS", "state": "NE", "street": "304 MINER ST", "postcode": "68345"}}},
{"geometry": {"type": "Point", "coordinates": [-96.0481368006, 40.0338352132]}, "type": "Feature", "properties": {"collection_times": [{"days": "Mon-Fri", "time": "10:45am"}, {"days": "Sat", "time": "10:00am"}, {"days": "Sun", "time": "Closed"}], "id": "6834500002", "name": "USPS COLLECTION BOX - PO LOBBY", "address": {"city": "DUBOIS", "state": "NE", "street": "304 MINER ST", "postcode": "68345"}}},
{"geometry": {"type": "Point", "coordinates": [-96.0300116671, 40.668242268]}, "type": "Feature", "properties": {"collection_times": [{"days": "Mon-Sat", "time": "2:40pm"}, {"days": "Sun", "time": "Closed"}], "id": "6834600001", "name": "USPS COLLECTION BOX - BLUE BOX", "address": {"city": "DUNBAR", "state": "NE", "street": "100 N WILSON ST", "postcode": "68346"}}},
{"geometry": {"type": "Point", "coordinates": [-96.0300056371, 40.6681604689]}, "type": "Feature", "properties": {"collection_times": [{"days": "Mon-Fri", "time": "2:40pm"}, {"days": "Sat", "time": "12:45pm"}, {"days": "Sun", "time": "Closed"}], "id": "6834600002", "name": "USPS COLLECTION BOX - PO LOBBY", "address": {"city": "DUNBAR", "state": "NE", "street": "104 E NEBRASKA ST", "postcode": "68346"}}},
{"geometry": {"type": "Point", "coordinates": [-96.4306157365, 40.8170435486]}, "type": "Feature", "properties": {"collection_times": [{"days": "Mon-Sat", "time": "3:45pm"}, {"days": "Sun", "time": "Closed"}], "id": "6834700001", "name": "USPS COLLECTION BOX - BLUE BOX", "address": {"city": "EAGLE", "state": "NE", "street": "445 S 4TH ST", "postcode": "68347"}}},
{"geometry": {"type": "Point", "coordinates": [-96.4306157365, 40.8170435486]}, "type": "Feature", "properties": {"collection_times": [{"days": "Mon-Fri", "time": "3:45pm"}, {"days": "Sat", "time": "9:45am"}, {"days": "Sun", "time": "Closed"}], "id": "6834700003", "name": "USPS COLLECTION BOX - PO LOBBY", "address": {"city": "EAGLE", "state": "NE", "street": "445 S 4TH ST", "postcode": "68347"}}},
{"geometry": {"type": "Point", "coordinates": [-96.1276209901, 40.2876314858]}, "type": "Feature", "properties": {"collection_times": [{"days": "Mon-Fri", "time": "2:50pm"}, {"days": "Sat", "time": "2:45pm"}, {"days": "Sun", "time": "Closed"}], "id": "6834800001", "name": "USPS COLLECTION BOX - BLUE BOX", "address": {"city": "ELK CREEK", "state": "NE", "street": "369 MAIN ST", "postcode": "68348"}}},
{"geometry": {"type": "Point", "coordinates": [-96.1276209901, 40.2876314858]}, "type": "Feature", "properties": {"collection_times": [{"days": "Mon-Fri", "time": "12:45pm"}, {"days": "Sat", "time": "11:45am"}, {"days": "Sun", "time": "Closed"}], "id": "6834800002", "name": "USPS COLLECTION BOX - PO LOBBY", "address": {"city": "ELK CREEK", "state": "NE", "street": "369 MAIN ST", "postcode": "68348"}}},
{"geometry": {"type": "Point", "coordinates": [-96.2939766602, 40.8416360177]}, "type": "Feature", "properties": {"collection_times": [{"days": "Mon-Sat", "time": "3:10pm"}, {"days": "Sun", "time": "Closed"}], "id": "6834900001", "name": "USPS COLLECTION BOX - BLUE BOX", "address": {"city": "ELMWOOD", "state": "NE", "street": "116 W D ST", "postcode": "68349"}}},
{"geometry": {"type": "Point", "coordinates": [-96.2939766602, 40.8416360177]}, "type": "Feature", "properties": {"collection_times": [{"days": "Mon-Fri", "time": "11:15am"}, {"days": "Sat", "time": "9:15am"}, {"days": "Sun", "time": "Closed"}], "id": "6834900002", "name": "USPS COLLECTION BOX - PO LOBBY", "address": {"city": "ELMWOOD", "state": "NE", "street": "116 W D ST", "postcode": "68349"}}},
{"geometry": {"type": "Point", "coordinates": [-97.0966748262, 40.0823075977]}, "type": "Feature", "properties": {"collection_times": [{"days": "Mon-Sat", "time": "3:00pm"}, {"days": "Sun", "time": "Closed"}], "id": "6835000001", "name": "USPS COLLECTION BOX - BLUE BOX", "address": {"city": "ENDICOTT", "state": "NE", "street": "206 N SCRIBNER ST", "postcode": "68350"}}},
{"geometry": {"type": "Point", "coordinates": [-97.0966748262, 40.0823075977]}, "type": "Feature", "properties": {"collection_times": [{"days": "Mon-Fri", "time": "3:00pm"}, {"days": "Sat", "time": "11:30am"}, {"days": "Sun", "time": "Closed"}], "id": "6835000002", "name": "USPS COLLECTION BOX - PO LOBBY", "address": {"city": "ENDICOTT", "state": "NE", "street": "206 N SCRIBNER ST", "postcode": "68350"}}},
{"geometry": {"type": "Point", "coordinates": [-97.4489921888, 40.6442400543]}, "type": "Feature", "properties": {"collection_times": [{"days": "Mon-Fri", "time": "3:25pm"}, {"days": "Sat", "time": "3:15pm"}, {"days": "Sun", "time": "Closed"}], "id": "6835100001", "name": "USPS COLLECTION BOX - BLUE BOX", "address": {"city": "EXETER", "state": "NE", "street": "189 E SENECA ST", "postcode": "68351"}}},
{"geometry": {"type": "Point", "coordinates": [-97.4489921888, 40.6442400543]}, "type": "Feature", "properties": {"collection_times": [{"days": "Mon-Fri", "time": "1:15pm"}, {"days": "Sat", "time": "9:00am"}, {"days": "Sun", "time": "Closed"}], "id": "6835100002", "name": "USPS COLLECTION BOX - PO LOBBY", "address": {"city": "EXETER", "state": "NE", "street": "189 E SENECA ST", "postcode": "68351"}}},
{"geometry": {"type": "Point", "coordinates": [-97.1712426201, 40.1468524492]}, "type": "Feature", "properties": {"collection_times": [{"days": "Mon-Sat", "time": "11:00am"}, {"days": "Sun", "time": "Closed"}], "id": "6835200004", "name": "USPS COLLECTION BOX - BLUE BOX", "address": {"city": "FAIRBURY", "state": "NE", "street": "1429 K ST", "postcode": "68352"}}},
{"geometry": {"type": "Point", "coordinates": [-97.1813424815, 40.1361994193]}, "type": "Feature", "properties": {"collection_times": [{"days": "Mon-Sat", "time": "3:30pm"}, {"days": "Sun", "time": "Closed"}], "id": "6835200005", "name": "USPS COLLECTION BOX - BLUE BOX", "address": {"city": "FAIRBURY", "state": "NE", "street": "501 D ST", "postcode": "68352"}}},
{"geometry": {"type": "Point", "coordinates": [-97.1813424815, 40.1361994193]}, "type": "Feature", "properties": {"collection_times": [{"days": "Mon-Sat", "time": "3:30pm"}, {"days": "Sun", "time": "Closed"}], "id": "6835200006", "name": "USPS COLLECTION BOX - BLUE BOX", "address": {"city": "FAIRBURY", "state": "NE", "street": "501 D ST", "postcode": "68352"}}},
{"geometry": {"type": "Point", "coordinates": [-97.1813424815, 40.1361994193]}, "type": "Feature", "properties": {"collection_times": [{"days": "Mon-Fri", "time": "3:30pm"}, {"days": "Sat", "time": "11:00am"}, {"days": "Sun", "time": "Closed"}], "id": "6835200007", "name": "USPS COLLECTION BOX - PO LOBBY", "address": {"city": "FAIRBURY", "state": "NE", "street": "501 D ST", "postcode": "68352"}}},
{"geometry": {"type": "Point", "coordinates": [-97.1813424815, 40.1361994193]}, "type": "Feature", "properties": {"collection_times": [{"days": "Mon-Sat", "time": "3:30pm"}, {"days": "Sun", "time": "Closed"}], "id": "6835200008", "name": "USPS COLLECTION BOX - BLUE BOX", "address": {"city": "FAIRBURY", "state": "NE", "street": "501 D ST", "postcode": "68352"}}},
{"geometry": {"type": "Point", "coordinates": [-97.5853322893, 40.6365209011]}, "type": "Feature", "properties": {"collection_times": [{"days": "Mon-Fri", "time": "3:10pm"}, {"days": "Sat", "time": "3:00pm"}, {"days": "Sun", "time": "Closed"}], "id": "6835400001", "name": "USPS COLLECTION BOX - BLUE BOX", "address": {"city": "FAIRMONT", "state": "NE", "street": "455 6TH AVE", "postcode": "68354"}}},
{"geometry": {"type": "Point", "coordinates": [-97.5853322893, 40.6365209011]}, "type": "Feature", "properties": {"collection_times": [{"days": "Mon-Fri", "time": "1:45pm"}, {"days": "Sat", "time": "9:30am"}, {"days": "Sun", "time": "Closed"}], "id": "6835400002", "name": "USPS COLLECTION BOX - PO LOBBY", "address": {"city": "FAIRMONT", "state": "NE", "street": "455 6TH AVE", "postcode": "68354"}}},
{"geometry": {"type": "Point", "coordinates": [-95.6017543964, 40.0599886942]}, "type": "Feature", "properties": {"collection_times": [{"days": "Mon-Fri", "time": "2:00pm"}, {"days": "Sat", "time": "11:15am"}, {"days": "Sun", "time": "Closed"}], "id": "6835500012", "name": "USPS COLLECTION BOX - BLUE BOX", "address": {"city": "FALLS CITY", "state": "NE", "street": "1520 HARLAN ST", "postcode": "68355"}}},
{"geometry": {"type": "Point", "coordinates": [-95.6030522009, 40.0618083314]}, "type": "Feature", "properties": {"collection_times": [{"days": "Mon-Fri", "time": "2:00pm"}, {"days": "Sat-Sun", "time": "Closed"}], "id": "6835500016", "name": "USPS COLLECTION BOX - BLUE BOX", "address": {"city": "FALLS CITY", "state": "NE", "street": "1701 STONE ST", "postcode": "68355"}}},
{"geometry": {"type": "Point", "coordinates": [-95.6017543964, 40.0599886942]}, "type": "Feature", "properties": {"collection_times": [{"days": "Mon-Fri", "time": "2:00pm"}, {"days": "Sat", "time": "11:15am"}, {"days": "Sun", "time": "Closed"}], "id": "6835500021", "name": "USPS COLLECTION BOX - PO LOBBY", "address": {"city": "FALLS CITY", "state": "NE", "street": "1520 HARLAN ST", "postcode": "68355"}}},
{"geometry": {"type": "Point", "coordinates": [-95.6029089461, 40.0618071713]}, "type": "Feature", "properties": {"collection_times": [{"days": "Mon-Fri", "time": "2:00pm"}, {"days": "Sat-Sun", "time": "Closed"}], "id": "6835500022", "name": "USPS COLLECTION BOX - BLUE BOX", "address": {"city": "FALLS CITY", "state": "NE", "street": "1700 STONE ST", "postcode": "68355"}}},
{"geometry": {"type": "Point", "coordinates": [-96.5352896454, 40.284205083]}, "type": "Feature", "properties": {"collection_times": [{"days": "Mon-Fri", "time": "2:10pm"}, {"days": "Sat", "time": "2:00pm"}, {"days": "Sun", "time": "Closed"}], "id": "6835700001", "name": "USPS COLLECTION BOX - BLUE BOX", "address": {"city": "FILLEY", "state": "NE", "street": "208 LIVINGSTON ST", "postcode": "68357"}}},
{"geometry": {"type": "Point", "coordinates": [-96.5352896454, 40.284205083]}, "type": "Feature", "properties": {"collection_times": [{"days": "Mon-Fri", "time": "2:10pm"}, {"days": "Sat", "time": "12:45pm"}, {"days": "Sun", "time": "Closed"}], "id": "6835700002", "name": "USPS COLLECTION BOX - PO LOBBY", "address": {"city": "FILLEY", "state": "NE", "street": "208 LIVINGSTON ST", "postcode": "68357"}}},
{"geometry": {"type": "Point", "coordinates": [-96.6072503536, 40.5327547257]}, "type": "Feature", "properties": {"collection_times": [{"days": "Mon-Fri", "time": "4:25pm"}, {"days": "Sat", "time": "4:15pm"}, {"days": "Sun", "time": "Closed"}], "id": "6835800001", "name": "USPS COLLECTION BOX - BLUE BOX", "address": {"city": "FIRTH", "state": "NE", "street": "104 W 3RD ST", "postcode": "68358"}}},
{"geometry": {"type": "Point", "coordinates": [-96.6072503536, 40.5327547257]}, "type": "Feature", "properties": {"collection_times": [{"days": "Mon-Fri", "time": "1:15pm"}, {"days": "Sat", "time": "8:45am"}, {"days": "Sun", "time": "Closed"}], "id": "6835800002", "name": "USPS COLLECTION BOX - PO LOBBY", "address": {"city": "FIRTH", "state": "NE", "street": "104 W 3RD ST", "postcode": "68358"}}},
{"geometry": {"type": "Point", "coordinates": [-97.2848892354, 40.6550780342]}, "type": "Feature", "properties": {"collection_times": [{"days": "Mon-Fri", "time": "4:00pm"}, {"days": "Sat", "time": "3:45pm"}, {"days": "Sun", "time": "Closed"}], "id": "6835900001", "name": "USPS COLLECTION BOX - BLUE BOX", "address": {"city": "FRIEND", "state": "NE", "street": "119 S CHESTNUT ST", "postcode": "68359"}}},
{"geometry": {"type": "Point", "coordinates": [-97.2848892354, 40.6550780342]}, "type": "Feature", "properties": {"collection_times": [{"days": "Mon-Fri", "time": "1:45pm"}, {"days": "Sat", "time": "9:15am"}, {"days": "Sun", "time": "Closed"}], "id": "6835900004", "name": "USPS COLLECTION BOX - PO LOBBY", "address": {"city": "FRIEND", "state": "NE", "street": "119 S CHESTNUT ST", "postcode": "68359"}}},
{"geometry": {"type": "Point", "coordinates": [-96.9867588439, 40.9445627449]}, "type": "Feature", "properties": {"collection_times": [{"days": "Mon-Sat", "time": "2:10pm"}, {"days": "Sun", "time": "Closed"}], "id": "6836000001", "name": "USPS COLLECTION BOX - BLUE BOX", "address": {"city": "GARLAND", "state": "NE", "street": "117 4TH ST", "postcode": "68360"}}},
{"geometry": {"type": "Point", "coordinates": [-96.9867588439, 40.9445627449]}, "type": "Feature", "properties": {"collection_times": [{"days": "Mon-Fri", "time": "12:15pm"}, {"days": "Sat", "time": "11:45am"}, {"days": "Sun", "time": "Closed"}], "id": "6836000002", "name": "USPS COLLECTION BOX - PO LOBBY", "address": {"city": "GARLAND", "state": "NE", "street": "117 4TH ST", "postcode": "68360"}}},
{"geometry": {"type": "Point", "coordinates": [-97.6029248823, 40.527090006]}, "type": "Feature", "properties": {"collection_times": [{"days": "Mon-Sat", "time": "3:35pm"}, {"days": "Sun", "time": "Closed"}], "id": "6836100001", "name": "USPS COLLECTION BOX - BLUE BOX", "address": {"city": "GENEVA", "state": "NE", "street": "212 N 9TH ST", "postcode": "68361"}}},
{"geometry": {"type": "Point", "coordinates": [-97.6029248823, 40.527090006]}, "type": "Feature", "properties": {"collection_times": [{"days": "Mon-Sat", "time": "3:35pm"}, {"days": "Sun", "time": "Closed"}], "id": "6836100002", "name": "USPS COLLECTION BOX - BLUE BOX", "address": {"city": "GENEVA", "state": "NE", "street": "212 N 9TH ST", "postcode": "68361"}}},
{"geometry": {"type": "Point", "coordinates": [-97.6029248823, 40.527090006]}, "type": "Feature", "properties": {"collection_times": [{"days": "Mon-Fri", "time": "3:35pm"}, {"days": "Sat", "time": "10:30am"}, {"days": "Sun", "time": "Closed"}], "id": "6836100003", "name": "USPS COLLECTION BOX - PO LOBBY", "address": {"city": "GENEVA", "state": "NE", "street": "212 N 9TH ST", "postcode": "68361"}}},
{"geometry": {"type": "Point", "coordinates": [-97.6029248823, 40.527090006]}, "type": "Feature", "properties": {"collection_times": [{"days": "Mon-Fri", "time": "3:35pm"}, {"days": "Sat", "time": "10:30am"}, {"days": "Sun", "time": "Closed"}], "id": "6836100004", "name": "USPS COLLECTION BOX - PO LOBBY", "address": {"city": "GENEVA", "state": "NE", "street": "212 N 9TH ST", "postcode": "68361"}}},
{"geometry": {"type": "Point", "coordinates": [-97.2208236553, 40.8328846234]}, "type": "Feature", "properties": {"collection_times": [{"days": "Mon-Sat", "time": "3:35pm"}, {"days": "Sun", "time": "Closed"}], "id": "6836400001", "name": "USPS COLLECTION BOX - BLUE BOX", "address": {"city": "GOEHNER", "state": "NE", "street": "1254 MAY ST", "postcode": "68364"}}},
{"geometry": {"type": "Point", "coordinates": [-97.2208236553, 40.8328846234]}, "type": "Feature", "properties": {"collection_times": [{"days": "Mon-Fri", "time": "11:00am"}, {"days": "Sat", "time": "9:15am"}, {"days": "Sun", "time": "Closed"}], "id": "6836400002", "name": "USPS COLLECTION BOX - PO LOBBY", "address": {"city": "GOEHNER", "state": "NE", "street": "1254 MAY ST", "postcode": "68364"}}},
{"geometry": {"type": "Point", "coordinates": [-97.7456207338, 40.6553560357]}, "type": "Feature", "properties": {"collection_times": [{"days": "Mon-Fri", "time": "2:55pm"}, {"days": "Sat", "time": "2:45pm"}, {"days": "Sun", "time": "Closed"}], "id": "6836500001", "name": "USPS COLLECTION BOX - BLUE BOX", "address": {"city": "GRAFTON", "state": "NE", "street": "275 N WASHINGTON AVE", "postcode": "68365"}}},
{"geometry": {"type": "Point", "coordinates": [-97.7456207338, 40.6553560357]}, "type": "Feature", "properties": {"collection_times": [{"days": "Mon-Fri", "time": "11:15am"}, {"days": "Sat", "time": "9:15am"}, {"days": "Sun", "time": "Closed"}], "id": "6836500002", "name": "USPS COLLECTION BOX - PO LOBBY", "address": {"city": "GRAFTON", "state": "NE", "street": "275 N WASHINGTON AVE", "postcode": "68365"}}},
{"geometry": {"type": "Point", "coordinates": [-96.4413350926, 40.9627875102]}, "type": "Feature", "properties": {"collection_times": [{"days": "Mon-Sat", "time": "4:00pm"}, {"days": "Sun", "time": "Closed"}], "id": "6836600001", "name": "USPS COLLECTION BOX - BLUE BOX", "address": {"city": "GREENWOOD", "state": "NE", "street": "614 MAIN ST", "postcode": "68366"}}},
{"geometry": {"type": "Point", "coordinates": [-96.4413350926, 40.9627875102]}, "type": "Feature", "properties": {"collection_times": [{"days": "Mon-Fri", "time": "1:45pm"}, {"days": "Sat", "time": "12:45pm"}, {"days": "Sun", "time": "Closed"}], "id": "6836600003", "name": "USPS COLLECTION BOX - PO LOBBY", "address": {"city": "GREENWOOD", "state": "NE", "street": "614 MAIN ST", "postcode": "68366"}}},
{"geometry": {"type": "Point", "coordinates": [-97.4028598688, 41.0284094279]}, "type": "Feature", "properties": {"collection_times": [{"days": "Mon-Sat", "time": "1:45pm"}, {"days": "Sun", "time": "Closed"}], "id": "6836700001", "name": "USPS COLLECTION BOX - BLUE BOX", "address": {"city": "GRESHAM", "state": "NE", "street": "350 ELM ST", "postcode": "68367"}}},
{"geometry": {"type": "Point", "coordinates": [-97.4028598688, 41.0284094279]}, "type": "Feature", "properties": {"collection_times": [{"days": "Mon-Fri", "time": "12:45pm"}, {"days": "Sat", "time": "9:00am"}, {"days": "Sun", "time": "Closed"}], "id": "6836700002", "name": "USPS COLLECTION BOX - PO LOBBY", "address": {"city": "GRESHAM", "state": "NE", "street": "350 ELM ST", "postcode": "68367"}}},
{"geometry": {"type": "Point", "coordinates": [-96.7883272801, 40.5377003511]}, "type": "Feature", "properties": {"collection_times": [{"days": "Mon-Sat", "time": "2:50pm"}, {"days": "Sun", "time": "Closed"}], "id": "6836800001", "name": "USPS COLLECTION BOX - BLUE BOX", "address": {"city": "HALLAM", "state": "NE", "street": "336 MAIN ST", "postcode": "68368"}}},
{"geometry": {"type": "Point", "coordinates": [-96.7883272801, 40.5377003511]}, "type": "Feature", "properties": {"collection_times": [{"days": "Mon-Fri", "time": "11:45am"}, {"days": "Sat", "time": "9:15am"}, {"days": "Sun", "time": "Closed"}], "id": "6836800003", "name": "USPS COLLECTION BOX - PO LOBBY", "address": {"city": "HALLAM", "state": "NE", "street": "336 MAIN ST", "postcode": "68368"}}},
{"geometry": {"type": "Point", "coordinates": [-97.5889064025, 40.1671465219]}, "type": "Feature", "properties": {"collection_times": [{"days": "Mon-Sat", "time": "2:30pm"}, {"days": "Sun", "time": "Closed"}], "id": "6837000002", "name": "USPS COLLECTION BOX - BLUE BOX", "address": {"city": "HEBRON", "state": "NE", "street": "145 N 5TH ST", "postcode": "68370"}}},
{"geometry": {"type": "Point", "coordinates": [-97.5889064025, 40.1671465219]}, "type": "Feature", "properties": {"collection_times": [{"days": "Mon-Fri", "time": "2:30pm"}, {"days": "Sat", "time": "10:15am"}, {"days": "Sun", "time": "Closed"}], "id": "6837000003", "name": "USPS COLLECTION BOX - PO LOBBY", "address": {"city": "HEBRON", "state": "NE", "street": "145 N 5TH ST", "postcode": "68370"}}},
{"geometry": {"type": "Point", "coordinates": [-97.584705672, 40.1694926256]}, "type": "Feature", "properties": {"collection_times": [{"days": "Mon-Sat", "time": "3:00pm"}, {"days": "Sun", "time": "Closed"}], "id": "6837000004", "name": "USPS COLLECTION BOX - BLUE BOX", "address": {"city": "HEBRON", "state": "NE", "street": "225 S MAIN ST", "postcode": "68370"}}},
{"geometry": {"type": "Point", "coordinates": [-97.8125689895, 40.780235151]}, "type": "Feature", "properties": {"collection_times": [{"days": "Mon-Sat", "time": "1:50pm"}, {"days": "Sun", "time": "Closed"}], "id": "6837100001", "name": "USPS COLLECTION BOX - BLUE BOX", "address": {"city": "HENDERSON", "state": "NE", "street": "1049 N MAIN ST", "postcode": "68371"}}},
{"geometry": {"type": "Point", "coordinates": [-97.8125689895, 40.780235151]}, "type": "Feature", "properties": {"collection_times": [{"days": "Mon-Fri", "time": "1:50pm"}, {"days": "Sat", "time": "10:00am"}, {"days": "Sun", "time": "Closed"}], "id": "6837100002", "name": "USPS COLLECTION BOX - PO LOBBY", "address": {"city": "HENDERSON", "state": "NE", "street": "1049 N MAIN ST", "postcode": "68371"}}},
{"geometry": {"type": "Point", "coordinates": [-96.6323519531, 40.6191573827]}, "type": "Feature", "properties": {"collection_times": [{"days": "Mon-Sat", "time": "4:00pm"}, {"days": "Sun", "time": "Closed"}], "id": "6837200001", "name": "USPS COLLECTION BOX - BLUE BOX", "address": {"city": "HICKMAN", "state": "NE", "street": "116 LOCUST ST", "postcode": "68372"}}},
{"geometry": {"type": "Point", "coordinates": [-96.5926495076, 40.5960385704]}, "type": "Feature", "properties": {"collection_times": [{"days": "Mon-Sat", "time": "4:00pm"}, {"days": "Sun", "time": "Closed"}], "id": "6837200002", "name": "USPS COLLECTION BOX - BLUE BOX", "address": {"city": "HICKMAN", "state": "NE", "street": "9525 PANAMA RD", "postcode": "68372"}}},
{"geometry": {"type": "Point", "coordinates": [-96.6323519531, 40.6191573827]}, "type": "Feature", "properties": {"collection_times": [{"days": "Mon-Fri", "time": "4:00pm"}, {"days": "Sat", "time": "10:15am"}, {"days": "Sun", "time": "Closed"}], "id": "6837200003", "name": "USPS COLLECTION BOX - PO LOBBY", "address": {"city": "HICKMAN", "state": "NE", "street": "116 LOCUST ST", "postcode": "68372"}}},
{"geometry": {"type": "Point", "coordinates": [-97.4975946901, 40.0072978625]}, "type": "Feature", "properties": {"collection_times": [{"days": "Mon-Sat", "time": "2:35pm"}, {"days": "Sun", "time": "Closed"}], "id": "6837500001", "name": "USPS COLLECTION BOX - BLUE BOX", "address": {"city": "HUBBELL", "state": "NE", "street": "208 JOHNSON ST", "postcode": "68375"}}},
{"geometry": {"type": "Point", "coordinates": [-95.9478196448, 40.1632214978]}, "type": "Feature", "properties": {"collection_times": [{"days": "Mon-Sat", "time": "2:45pm"}, {"days": "Sun", "time": "Closed"}], "id": "6837600001", "name": "USPS COLLECTION BOX - BLUE BOX", "address": {"city": "HUMBOLDT", "state": "NE", "street": "335 W SQUARE ST", "postcode": "68376"}}},
{"geometry": {"type": "Point", "coordinates": [-95.9478196448, 40.1632214978]}, "type": "Feature", "properties": {"collection_times": [{"days": "Mon-Fri", "time": "2:45pm"}, {"days": "Sat", "time": "10:00am"}, {"days": "Sun", "time": "Closed"}], "id": "6837600002", "name": "USPS COLLECTION BOX - PO LOBBY", "address": {"city": "HUMBOLDT", "state": "NE", "street": "335 W SQUARE ST", "postcode": "68376"}}},
{"geometry": {"type": "Point", "coordinates": [-97.083633719, 40.1841817591]}, "type": "Feature", "properties": {"collection_times": [{"days": "Mon-Sat", "time": "3:45pm"}, {"days": "Sun", "time": "Closed"}], "id": "6837700001", "name": "USPS COLLECTION BOX - BLUE BOX", "address": {"city": "JANSEN", "state": "NE", "street": "305 BROAD ST", "postcode": "68377"}}},
{"geometry": {"type": "Point", "coordinates": [-97.083633719, 40.1841817591]}, "type": "Feature", "properties": {"collection_times": [{"days": "Mon-Fri", "time": "11:45am"}, {"days": "Sat", "time": "9:15am"}, {"days": "Sun", "time": "Closed"}], "id": "6837700002", "name": "USPS COLLECTION BOX - PO LOBBY", "address": {"city": "JANSEN", "state": "NE", "street": "305 BROAD ST", "postcode": "68377"}}},
{"geometry": {"type": "Point", "coordinates": [-95.9980275744, 40.4098843156]}, "type": "Feature", "properties": {"collection_times": [{"days": "Mon-Sat", "time": "1:50pm"}, {"days": "Sun", "time": "Closed"}], "id": "6837800001", "name": "USPS COLLECTION BOX - BLUE BOX", "address": {"city": "JOHNSON", "state": "NE", "street": "123 MAIN ST", "postcode": "68378"}}},
{"geometry": {"type": "Point", "coordinates": [-95.9980275744, 40.4098843156]}, "type": "Feature", "properties": {"collection_times": [{"days": "Mon-Fri", "time": "11:30am"}, {"days": "Sat", "time": "9:00am"}, {"days": "Sun", "time": "Closed"}], "id": "6837800003", "name": "USPS COLLECTION BOX - PO LOBBY", "address": {"city": "JOHNSON", "state": "NE", "street": "123 MAIN ST", "postcode": "68378"}}},
{"geometry": {"type": "Point", "coordinates": [-96.4827949249, 40.0846784695]}, "type": "Feature", "properties": {"collection_times": [{"days": "Mon-Sat", "time": "2:00pm"}, {"days": "Sun", "time": "Closed"}], "id": "6838100000", "name": "USPS COLLECTION BOX - BLUE BOX", "address": {"city": "LIBERTY", "state": "NE", "street": "501 WEBSTER ST", "postcode": "68381"}}}
]}
