{"type": "FeatureCollection", "features": [
{"geometry": {"type": "Point", "coordinates": [-97.5935061837, 40.7441019741]}, "type": "Feature", "properties": {"collection_times": [{"days": "Mon-Sat", "time": "1:15pm"}, {"days": "Sun", "time": "Closed"}], "id": "6840100001", "name": "USPS COLLECTION BOX - BLUE BOX", "address": {"city": "MC COOL JCT", "state": "NE", "street": "403 E M ST", "postcode": "68401"}}},
{"geometry": {"type": "Point", "coordinates": [-97.5935061837, 40.7441019741]}, "type": "Feature", "properties": {"collection_times": [{"days": "Mon-Fri", "time": "1:00pm"}, {"days": "Sat", "time": "11:00am"}, {"days": "Sun", "time": "Closed"}], "id": "6840100002", "name": "USPS COLLECTION BOX - PO LOBBY", "address": {"city": "MC COOL JCT", "state": "NE", "street": "403 E M ST", "postcode": "68401"}}},
{"geometry": {"type": "Point", "coordinates": [-96.865226431, 40.9073693395]}, "type": "Feature", "properties": {"collection_times": [{"days": "Mon-Sat", "time": "2:45pm"}, {"days": "Sun", "time": "Closed"}], "id": "6840200001", "name": "USPS COLLECTION BOX - BLUE BOX", "address": {"city": "MALCOLM", "state": "NE", "street": "226 S LINCOLN ST", "postcode": "68402"}}},
{"geometry": {"type": "Point", "coordinates": [-96.865226431, 40.9073693395]}, "type": "Feature", "properties": {"collection_times": [{"days": "Mon-Fri", "time": "2:15pm"}, {"days": "Sat", "time": "9:30am"}, {"days": "Sun", "time": "Closed"}], "id": "6840200002", "name": "USPS COLLECTION BOX - PO LOBBY", "address": {"city": "MALCOLM", "state": "NE", "street": "226 S LINCOLN ST", "postcode": "68402"}}},
{"geometry": {"type": "Point", "coordinates": [-96.1645008259, 40.9197212192]}, "type": "Feature", "properties": {"collection_times": [{"days": "Mon-Sat", "time": "2:30pm"}, {"days": "Sun", "time": "Closed"}], "id": "6840300001", "name": "USPS COLLECTION BOX - BLUE BOX", "address": {"city": "MANLEY", "state": "NE", "street": "107 MAIN ST", "postcode": "68403"}}},
{"geometry": {"type": "Point", "coordinates": [-96.1645008259, 40.9197212192]}, "type": "Feature", "properties": {"collection_times": [{"days": "Mon-Fri", "time": "2:30pm"}, {"days": "Sat", "time": "10:00am"}, {"days": "Sun", "time": "Closed"}], "id": "6840300002", "name": "USPS COLLECTION BOX - PO LOBBY", "address": {"city": "MANLEY", "state": "NE", "street": "107 MAIN ST", "postcode": "68403"}}},
{"geometry": {"type": "Point", "coordinates": [-96.7562173083, 40.6201177258]}, "type": "Feature", "properties": {"collection_times": [{"days": "Mon-Sat", "time": "3:40pm"}, {"days": "Sun", "time": "Closed"}], "id": "6840400001", "name": "USPS COLLECTION BOX - BLUE BOX", "address": {"city": "MARTELL", "state": "NE", "street": "17615 SW 25TH ST", "postcode": "68404"}}},
{"geometry": {"type": "Point", "coordinates": [-96.7562173083, 40.6201177258]}, "type": "Feature", "properties": {"collection_times": [{"days": "Mon-Fri", "time": "11:30am"}, {"days": "Sat", "time": "9:00am"}, {"days": "Sun", "time": "Closed"}], "id": "6840400002", "name": "USPS COLLECTION BOX - PO LOBBY", "address": {"city": "MARTELL", "state": "NE", "street": "17615 SW 25TH ST", "postcode": "68404"}}},
{"geometry": {"type": "Point", "coordinates": [-97.0516501023, 40.7742879229]}, "type": "Feature", "properties": {"collection_times": [{"days": "Mon-Fri", "time": "3:00pm"}, {"days": "Sat", "time": "10:30am"}, {"days": "Sun", "time": "Closed"}], "id": "6840500002", "name": "USPS COLLECTION BOX - PO LOBBY", "address": {"city": "MILFORD", "state": "NE", "street": "602 1ST ST", "postcode": "68405"}}},
{"geometry": {"type": "Point", "coordinates": [-97.0516501023, 40.7742879229]}, "type": "Feature", "properties": {"collection_times": [{"days": "Mon-Sat", "time": "3:25pm"}, {"days": "Sun", "time": "Closed"}], "id": "6840500003", "name": "USPS COLLECTION BOX - BLUE BOX", "address": {"city": "MILFORD", "state": "NE", "street": "602 1ST ST", "postcode": "68405"}}},
{"geometry": {"type": "Point", "coordinates": [-97.3888896097, 40.5005836945]}, "type": "Feature", "properties": {"collection_times": [{"days": "Mon-Fri", "time": "3:00pm"}, {"days": "Sat", "time": "2:40pm"}, {"days": "Sun", "time": "Closed"}], "id": "6840600001", "name": "USPS COLLECTION BOX - BLUE BOX", "address": {"city": "MILLIGAN", "state": "NE", "street": "616 MAIN ST", "postcode": "68406"}}},
{"geometry": {"type": "Point", "coordinates": [-97.3888896097, 40.5005836945]}, "type": "Feature", "properties": {"collection_times": [{"days": "Mon-Fri", "time": "2:15pm"}, {"days": "Sat", "time": "1:00pm"}, {"days": "Sun", "time": "Closed"}], "id": "6840600002", "name": "USPS COLLECTION BOX - PO LOBBY", "address": {"city": "MILLIGAN", "state": "NE", "street": "616 MAIN ST", "postcode": "68406"}}},
{"geometry": {"type": "Point", "coordinates": [-96.2799126057, 40.9264569653]}, "type": "Feature", "properties": {"collection_times": [{"days": "Mon-Sat", "time": "2:45pm"}, {"days": "Sun", "time": "Closed"}], "id": "6840700001", "name": "USPS COLLECTION BOX - BLUE BOX", "address": {"city": "MURDOCK", "state": "NE", "street": "304 NEBRASKA ST", "postcode": "68407"}}},
{"geometry": {"type": "Point", "coordinates": [-96.2799126057, 40.9264569653]}, "type": "Feature", "properties": {"collection_times": [{"days": "Mon-Fri", "time": "11:15am"}, {"days": "Sat", "time": "8:45am"}, {"days": "Sun", "time": "Closed"}], "id": "6840700002", "name": "USPS COLLECTION BOX - PO LOBBY", "address": {"city": "MURDOCK", "state": "NE", "street": "304 NEBRASKA ST", "postcode": "68407"}}},
{"geometry": {"type": "Point", "coordinates": [-95.9273570229, 40.9151445556]}, "type": "Feature", "properties": {"collection_times": [{"days": "Mon-Sat", "time": "1:15pm"}, {"days": "Sun", "time": "Closed"}], "id": "6840900001", "name": "USPS COLLECTION BOX - BLUE BOX", "address": {"city": "MURRAY", "state": "NE", "street": "105 N LATTA AVE", "postcode": "68409"}}},
{"geometry": {"type": "Point", "coordinates": [-95.9273570229, 40.9151445556]}, "type": "Feature", "properties": {"collection_times": [{"days": "Mon-Fri", "time": "1:15pm"}, {"days": "Sat", "time": "9:30am"}, {"days": "Sun", "time": "Closed"}], "id": "6840900002", "name": "USPS COLLECTION BOX - PO LOBBY", "address": {"city": "MURRAY", "state": "NE", "street": "105 N LATTA AVE", "postcode": "68409"}}},
{"geometry": {"type": "Point", "coordinates": [-95.8551151988, 40.6766778976]}, "type": "Feature", "properties": {"collection_times": [{"days": "Mon-Fri", "time": "2:30pm"}, {"days": "Sat", "time": "1:00pm"}, {"days": "Sun", "time": "Closed"}], "id": "6841000002", "name": "USPS COLLECTION BOX - BLUE BOX", "address": {"city": "NEBRASKA CITY", "state": "NE", "street": "800 CENTRAL AVE", "postcode": "68410"}}},
{"geometry": {"type": "Point", "coordinates": [-95.8577085731, 40.6767352298]}, "type": "Feature", "properties": {"collection_times": [{"days": "Mon-Fri", "time": "2:30pm"}, {"days": "Sat", "time": "1:00pm"}, {"days": "Sun", "time": "Closed"}], "id": "6841000004", "name": "USPS COLLECTION BOX - BLUE BOX", "address": {"city": "NEBRASKA CITY", "state": "NE", "street": "1000 CENTRAL AVE", "postcode": "68410"}}},
{"geometry": {"type": "Point", "coordinates": [-95.8629228756, 40.6766884425]}, "type": "Feature", "properties": {"collection_times": [{"days": "Mon-Fri", "time": "2:30pm"}, {"days": "Sat", "time": "1:00pm"}, {"days": "Sun", "time": "Closed"}], "id": "6841000005", "name": "USPS COLLECTION BOX - BLUE BOX", "address": {"city": "NEBRASKA CITY", "state": "NE", "street": "1409 CENTRAL AVE", "postcode": "68410"}}},
{"geometry": {"type": "Point", "coordinates": [-95.8589790283, 40.6758036266]}, "type": "Feature", "properties": {"collection_times": [{"days": "Mon-Fri", "time": "2:30pm"}, {"days": "Sat", "time": "1:00pm"}, {"days": "Sun", "time": "Closed"}], "id": "6841000006", "name": "USPS COLLECTION BOX - BLUE BOX", "address": {"city": "NEBRASKA CITY", "state": "NE", "street": "1100 1ST CORSO", "postcode": "68410"}}},
{"geometry": {"type": "Point", "coordinates": [-95.8514124725, 40.6766295764]}, "type": "Feature", "properties": {"collection_times": [{"days": "Mon-Fri", "time": "4:15pm"}, {"days": "Sat", "time": "4:00pm"}, {"days": "Sun", "time": "Closed"}], "id": "6841000011", "name": "USPS COLLECTION BOX - BLUE BOX", "address": {"city": "NEBRASKA CITY", "state": "NE", "street": "508 CENTRAL AVE", "postcode": "68410"}}},
{"geometry": {"type": "Point", "coordinates": [-95.8514124725, 40.6766295764]}, "type": "Feature", "properties": {"collection_times": [{"days": "Mon-Fri", "time": "4:15pm"}, {"days": "Sat", "time": "4:00pm"}, {"days": "Sun", "time": "Closed"}], "id": "6841000012", "name": "USPS COLLECTION BOX - BLUE BOX", "address": {"city": "NEBRASKA CITY", "state": "NE", "street": "508 CENTRAL AVE", "postcode": "68410"}}},
{"geometry": {"type": "Point", "coordinates": [-95.8514124725, 40.6766295764]}, "type": "Feature", "properties": {"collection_times": [{"days": "Mon-Fri", "time": "4:00pm"}, {"days": "Sat", "time": "11:00am"}, {"days": "Sun", "time": "Closed"}], "id": "6841000013", "name": "USPS COLLECTION BOX - PO LOBBY", "address": {"city": "NEBRASKA CITY", "state": "NE", "street": "508 CENTRAL AVE", "postcode": "68410"}}},
{"geometry": {"type": "Point", "coordinates": [-95.9912779876, 40.8292925946]}, "type": "Feature", "properties": {"collection_times": [{"days": "Mon-Sat", "time": "1:45pm"}, {"days": "Sun", "time": "Closed"}], "id": "6841300001", "name": "USPS COLLECTION BOX - BLUE BOX", "address": {"city": "NEHAWKA", "state": "NE", "street": "418 ELM ST", "postcode": "68413"}}},
{"geometry": {"type": "Point", "coordinates": [-95.9912779876, 40.8292925946]}, "type": "Feature", "properties": {"collection_times": [{"days": "Mon-Fri", "time": "10:45am"}, {"days": "Sat", "time": "8:45am"}, {"days": "Sun", "time": "Closed"}], "id": "6841300002", "name": "USPS COLLECTION BOX - PO LOBBY", "address": {"city": "NEHAWKA", "state": "NE", "street": "418 ELM ST", "postcode": "68413"}}},
{"geometry": {"type": "Point", "coordinates": [-95.6730849627, 40.3381888279]}, "type": "Feature", "properties": {"collection_times": [{"days": "Mon-Sat", "time": "2:00pm"}, {"days": "Sun", "time": "Closed"}], "id": "6841400001", "name": "USPS COLLECTION BOX - BLUE BOX", "address": {"city": "NEMAHA", "state": "NE", "street": "504 1ST ST", "postcode": "68414"}}},
{"geometry": {"type": "Point", "coordinates": [-95.6730849627, 40.3381888279]}, "type": "Feature", "properties": {"collection_times": [{"days": "Mon-Sat", "time": "1:50pm"}, {"days": "Sun", "time": "Closed"}], "id": "6841400002", "name": "USPS COLLECTION BOX - PO LOBBY", "address": {"city": "NEMAHA", "state": "NE", "street": "504 1ST ST", "postcode": "68414"}}},
{"geometry": {"type": "Point", "coordinates": [-96.8018853303, 40.0488816091]}, "type": "Feature", "properties": {"collection_times": [{"days": "Mon-Sat", "time": "2:15pm"}, {"days": "Sun", "time": "Closed"}], "id": "6841500001", "name": "USPS COLLECTION BOX - BLUE BOX", "address": {"city": "ODELL", "state": "NE", "street": "205 MAIN ST", "postcode": "68415"}}},
{"geometry": {"type": "Point", "coordinates": [-96.8018853303, 40.0488816091]}, "type": "Feature", "properties": {"collection_times": [{"days": "Mon-Fri", "time": "11:45am"}, {"days": "Sat", "time": "9:45am"}, {"days": "Sun", "time": "Closed"}], "id": "6841500002", "name": "USPS COLLECTION BOX - PO LOBBY", "address": {"city": "ODELL", "state": "NE", "street": "205 MAIN ST", "postcode": "68415"}}},
{"geometry": {"type": "Point", "coordinates": [-97.453137683, 40.4145694363]}, "type": "Feature", "properties": {"collection_times": [{"days": "Mon-Fri", "time": "2:25pm"}, {"days": "Sat", "time": "2:00pm"}, {"days": "Sun", "time": "Closed"}], "id": "6841600001", "name": "USPS COLLECTION BOX - BLUE BOX", "address": {"city": "OHIOWA", "state": "NE", "street": "602 S MAIN ST", "postcode": "68416"}}},
{"geometry": {"type": "Point", "coordinates": [-97.453137683, 40.4145694363]}, "type": "Feature", "properties": {"collection_times": [{"days": "Mon-Fri", "time": "10:45am"}, {"days": "Sat", "time": "8:45am"}, {"days": "Sun", "time": "Closed"}], "id": "6841600002", "name": "USPS COLLECTION BOX - PO LOBBY", "address": {"city": "OHIOWA", "state": "NE", "street": "602 S MAIN ST", "postcode": "68416"}}},
{"geometry": {"type": "Point", "coordinates": [-96.1200445811, 40.7231507481]}, "type": "Feature", "properties": {"collection_times": [{"days": "Mon-Sat", "time": "3:00pm"}, {"days": "Sun", "time": "Closed"}], "id": "6841700001", "name": "USPS COLLECTION BOX - BLUE BOX", "address": {"city": "OTOE", "state": "NE", "street": "422 MAIN ST", "postcode": "68417"}}},
{"geometry": {"type": "Point", "coordinates": [-96.1200445811, 40.7231507481]}, "type": "Feature", "properties": {"collection_times": [{"days": "Mon-Fri", "time": "2:45pm"}, {"days": "Sat", "time": "11:15am"}, {"days": "Sun", "time": "Closed"}], "id": "6841700002", "name": "USPS COLLECTION BOX - PO LOBBY", "address": {"city": "OTOE", "state": "NE", "street": "422 MAIN ST", "postcode": "68417"}}},
{"geometry": {"type": "Point", "coordinates": [-96.3898843718, 40.7026445045]}, "type": "Feature", "properties": {"collection_times": [{"days": "Mon-Sat", "time": "3:55pm"}, {"days": "Sun", "time": "Closed"}], "id": "6841800001", "name": "USPS COLLECTION BOX - BLUE BOX", "address": {"city": "PALMYRA", "state": "NE", "street": "320 C ST", "postcode": "68418"}}},
{"geometry": {"type": "Point", "coordinates": [-96.3898843718, 40.7026445045]}, "type": "Feature", "properties": {"collection_times": [{"days": "Mon-Fri", "time": "10:45am"}, {"days": "Sat", "time": "9:15am"}, {"days": "Sun", "time": "Closed"}], "id": "6841800002", "name": "USPS COLLECTION BOX - PO LOBBY", "address": {"city": "PALMYRA", "state": "NE", "street": "320 C ST", "postcode": "68418"}}},
{"geometry": {"type": "Point", "coordinates": [-96.5110758816, 40.5978735483]}, "type": "Feature", "properties": {"collection_times": [{"days": "Mon-Sat", "time": "3:45pm"}, {"days": "Sun", "time": "Closed"}], "id": "6841900001", "name": "USPS COLLECTION BOX - BLUE BOX", "address": {"city": "PANAMA", "state": "NE", "street": "302 LOCUST ST", "postcode": "68419"}}},
{"geometry": {"type": "Point", "coordinates": [-96.5110758816, 40.5978735483]}, "type": "Feature", "properties": {"collection_times": [{"days": "Mon-Fri", "time": "3:45pm"}, {"days": "Sat", "time": "11:15am"}, {"days": "Sun", "time": "Closed"}], "id": "6841900002", "name": "USPS COLLECTION BOX - PO LOBBY", "address": {"city": "PANAMA", "state": "NE", "street": "302 LOCUST ST", "postcode": "68419"}}},
{"geometry": {"type": "Point", "coordinates": [-96.1530871899, 40.1119908228]}, "type": "Feature", "properties": {"collection_times": [{"days": "Mon-Sat", "time": "1:55pm"}, {"days": "Sun", "time": "Closed"}], "id": "6842000001", "name": "USPS COLLECTION BOX - BLUE BOX", "address": {"city": "PAWNEE CITY", "state": "NE", "street": "715 G ST", "postcode": "68420"}}},
{"geometry": {"type": "Point", "coordinates": [-96.1530871899, 40.1119908228]}, "type": "Feature", "properties": {"collection_times": [{"days": "Mon-Fri", "time": "1:55pm"}, {"days": "Sat", "time": "10:30am"}, {"days": "Sun", "time": "Closed"}], "id": "6842000003", "name": "USPS COLLECTION BOX - PO LOBBY", "address": {"city": "PAWNEE CITY", "state": "NE", "street": "715 G ST", "postcode": "68420"}}},
{"geometry": {"type": "Point", "coordinates": [-96.1529243643, 40.1098311899]}, "type": "Feature", "properties": {"collection_times": [{"days": "Mon-Sat", "time": "1:55pm"}, {"days": "Sun", "time": "Closed"}], "id": "6842000004", "name": "USPS COLLECTION BOX - BLUE BOX", "address": {"city": "PAWNEE CITY", "state": "NE", "street": "730 G ST", "postcode": "68420"}}},
{"geometry": {"type": "Point", "coordinates": [-96.1530871899, 40.1119908228]}, "type": "Feature", "properties": {"collection_times": [{"days": "Mon-Fri", "time": "1:55pm"}, {"days": "Sat", "time": "10:30am"}, {"days": "Sun", "time": "Closed"}], "id": "6842000005", "name": "USPS COLLECTION BOX - PO LOBBY", "address": {"city": "PAWNEE CITY", "state": "NE", "street": "715 G ST", "postcode": "68420"}}},
{"geometry": {"type": "Point", "coordinates": [-95.730582267, 40.4824810578]}, "type": "Feature", "properties": {"collection_times": [{"days": "Mon-Sat", "time": "2:25pm"}, {"days": "Sun", "time": "Closed"}], "id": "6842100001", "name": "USPS COLLECTION BOX - BLUE BOX", "address": {"city": "PERU", "state": "NE", "street": "609 5TH ST", "postcode": "68421"}}},
{"geometry": {"type": "Point", "coordinates": [-95.730582267, 40.4824810578]}, "type": "Feature", "properties": {"collection_times": [{"days": "Mon-Fri", "time": "11:45am"}, {"days": "Sat", "time": "10:00am"}, {"days": "Sun", "time": "Closed"}], "id": "6842100002", "name": "USPS COLLECTION BOX - PO LOBBY", "address": {"city": "PERU", "state": "NE", "street": "609 5TH ST", "postcode": "68421"}}},
{"geometry": {"type": "Point", "coordinates": [-96.7272889139, 40.3785583923]}, "type": "Feature", "properties": {"collection_times": [{"days": "Mon-Sat", "time": "3:45pm"}, {"days": "Sun", "time": "Closed"}], "id": "6842200001", "name": "USPS COLLECTION BOX - BLUE BOX", "address": {"city": "PICKRELL", "state": "NE", "street": "222 AUSTIN ST", "postcode": "68422"}}},
{"geometry": {"type": "Point", "coordinates": [-96.7272889139, 40.3785583923]}, "type": "Feature", "properties": {"collection_times": [{"days": "Mon-Fri", "time": "12:00pm"}, {"days": "Sat", "time": "9:15am"}, {"days": "Sun", "time": "Closed"}], "id": "6842200002", "name": "USPS COLLECTION BOX - PO LOBBY", "address": {"city": "PICKRELL", "state": "NE", "street": "222 AUSTIN ST", "postcode": "68422"}}},
{"geometry": {"type": "Point", "coordinates": [-96.9352308732, 40.7913907597]}, "type": "Feature", "properties": {"collection_times": [{"days": "Mon-Sat", "time": "3:50pm"}, {"days": "Sun", "time": "Closed"}], "id": "6842300001", "name": "USPS COLLECTION BOX - BLUE BOX", "address": {"city": "PLEASANT DALE", "state": "NE", "street": "206 ASH ST", "postcode": "68423"}}},
{"geometry": {"type": "Point", "coordinates": [-96.9352308732, 40.7913907597]}, "type": "Feature", "properties": {"collection_times": [{"days": "Mon-Fri", "time": "11:15am"}, {"days": "Sat", "time": "8:30am"}, {"days": "Sun", "time": "Closed"}], "id": "6842300002", "name": "USPS COLLECTION BOX - PO LOBBY", "address": {"city": "PLEASANT DALE", "state": "NE", "street": "206 ASH ST", "postcode": "68423"}}},
{"geometry": {"type": "Point", "coordinates": [-96.9877078157, 40.3030426921]}, "type": "Feature", "properties": {"collection_times": [{"days": "Mon-Sat", "time": "1:50pm"}, {"days": "Sun", "time": "Closed"}], "id": "6842400001", "name": "USPS COLLECTION BOX - BLUE BOX", "address": {"city": "PLYMOUTH", "state": "NE", "street": "321 E MAIN ST", "postcode": "68424"}}},
{"geometry": {"type": "Point", "coordinates": [-96.9887151469, 40.3029601225]}, "type": "Feature", "properties": {"collection_times": [{"days": "Mon-Fri", "time": "11:45am"}, {"days": "Sat-Sun", "time": "Closed"}], "id": "6842400002", "name": "USPS COLLECTION BOX - PO LOBBY", "address": {"city": "PLYMOUTH", "state": "NE", "street": "321 E MAIN ST", "postcode": "68424"}}},
{"geometry": {"type": "Point", "coordinates": [-96.719550736, 40.9552177526]}, "type": "Feature", "properties": {"collection_times": [{"days": "Mon-Sat", "time": "3:00pm"}, {"days": "Sun", "time": "Closed"}], "id": "6842800001", "name": "USPS COLLECTION BOX - BLUE BOX", "address": {"city": "RAYMOND", "state": "NE", "street": "14700 N 1ST ST", "postcode": "68428"}}},
{"geometry": {"type": "Point", "coordinates": [-96.719550736, 40.9552177526]}, "type": "Feature", "properties": {"collection_times": [{"days": "Mon-Fri", "time": "10:45am"}, {"days": "Sat", "time": "9:15am"}, {"days": "Sun", "time": "Closed"}], "id": "6842800002", "name": "USPS COLLECTION BOX - PO LOBBY", "address": {"city": "RAYMOND", "state": "NE", "street": "14700 N 1ST ST", "postcode": "68428"}}},
{"geometry": {"type": "Point", "coordinates": [-97.3355957474, 40.0588398139]}, "type": "Feature", "properties": {"collection_times": [{"days": "Mon-Sat", "time": "2:50pm"}, {"days": "Sun", "time": "Closed"}], "id": "6842900001", "name": "USPS COLLECTION BOX - BLUE BOX", "address": {"city": "REYNOLDS", "state": "NE", "street": "128 COMMERCIAL ST", "postcode": "68429"}}},
{"geometry": {"type": "Point", "coordinates": [-97.3355957474, 40.0588398139]}, "type": "Feature", "properties": {"collection_times": [{"days": "Mon-Fri", "time": "2:50pm"}, {"days": "Sat", "time": "10:00am"}, {"days": "Sun", "time": "Closed"}], "id": "6842900002", "name": "USPS COLLECTION BOX - PO LOBBY", "address": {"city": "REYNOLDS", "state": "NE", "street": "128 COMMERCIAL ST", "postcode": "68429"}}},
{"geometry": {"type": "Point", "coordinates": [-96.6624912876, 40.6575158064]}, "type": "Feature", "properties": {"collection_times": [{"days": "Mon-Sat", "time": "4:10pm"}, {"days": "Sun", "time": "Closed"}], "id": "6843000001", "name": "USPS COLLECTION BOX - BLUE BOX", "address": {"city": "ROCA", "state": "NE", "street": "4200 MAIN ST", "postcode": "68430"}}},
{"geometry": {"type": "Point", "coordinates": [-96.6624912876, 40.6575158064]}, "type": "Feature", "properties": {"collection_times": [{"days": "Mon-Fri", "time": "11:00am"}, {"days": "Sat", "time": "9:15am"}, {"days": "Sun", "time": "Closed"}], "id": "6843000002", "name": "USPS COLLECTION BOX - PO LOBBY", "address": {"city": "ROCA", "state": "NE", "street": "4200 MAIN ST", "postcode": "68430"}}},
{"geometry": {"type": "Point", "coordinates": [-95.386205469, 40.0135561883]}, "type": "Feature", "properties": {"collection_times": [{"days": "Mon-Sat", "time": "1:40pm"}, {"days": "Sun", "time": "Closed"}], "id": "6843100001", "name": "USPS COLLECTION BOX - BLUE BOX", "address": {"city": "RULO", "state": "NE", "street": "101 S 1ST ST", "postcode": "68431"}}},
{"geometry": {"type": "Point", "coordinates": [-95.386205469, 40.0135561883]}, "type": "Feature", "properties": {"collection_times": [{"days": "Mon-Fri", "time": "12:15pm"}, {"days": "Sat", "time": "11:15am"}, {"days": "Sun", "time": "Closed"}], "id": "6843100002", "name": "USPS COLLECTION BOX - PO LOBBY", "address": {"city": "RULO", "state": "NE", "street": "101 S 1ST ST", "postcode": "68431"}}},
{"geometry": {"type": "Point", "coordinates": [-97.0918477538, 40.9089349804]}, "type": "Feature", "properties": {"collection_times": [{"days": "Mon-Fri", "time": "12:00pm"}, {"days": "Sat-Sun", "time": "Closed"}], "id": "6843400005", "name": "USPS COLLECTION BOX - BLUE BOX", "address": {"city": "SEWARD", "state": "NE", "street": "250 N COLUMBIA AVE", "postcode": "68434"}}},
{"geometry": {"type": "Point", "coordinates": [-97.0979781732, 40.9068171708]}, "type": "Feature", "properties": {"collection_times": [{"days": "Mon-Sat", "time": "3:00pm"}, {"days": "Sun", "time": "Closed"}], "id": "6843400008", "name": "USPS COLLECTION BOX - BLUE BOX", "address": {"city": "SEWARD", "state": "NE", "street": "507 MAIN ST", "postcode": "68434"}}},
{"geometry": {"type": "Point", "coordinates": [-97.0978225579, 40.907755921]}, "type": "Feature", "properties": {"collection_times": [{"days": "Mon-Fri", "time": "2:45pm"}, {"days": "Sat-Sun", "time": "Closed"}], "id": "6843400009", "name": "USPS COLLECTION BOX - BLUE BOX", "address": {"city": "SEWARD", "state": "NE", "street": "104 S 5TH ST", "postcode": "68434"}}},
{"geometry": {"type": "Point", "coordinates": [-97.0979781732, 40.9068171708]}, "type": "Feature", "properties": {"collection_times": [{"days": "Mon-Fri", "time": "2:55pm"}, {"days": "Sat", "time": "11:30am"}, {"days": "Sun", "time": "Closed"}], "id": "6843400010", "name": "USPS COLLECTION BOX - PO LOBBY", "address": {"city": "SEWARD", "state": "NE", "street": "507 MAIN ST", "postcode": "68434"}}},
{"geometry": {"type": "Point", "coordinates": [-97.7231814072, 40.4157777927]}, "type": "Feature", "properties": {"collection_times": [{"days": "Mon-Fri", "time": "2:35pm"}, {"days": "Sat", "time": "2:30pm"}, {"days": "Sun", "time": "Closed"}], "id": "6843600001", "name": "USPS COLLECTION BOX - BLUE BOX", "address": {"city": "SHICKLEY", "state": "NE", "street": "206 N MARKET ST", "postcode": "68436"}}},
{"geometry": {"type": "Point", "coordinates": [-97.7231814072, 40.4157777927]}, "type": "Feature", "properties": {"collection_times": [{"days": "Mon-Fri", "time": "2:15pm"}, {"days": "Sat", "time": "8:45am"}, {"days": "Sun", "time": "Closed"}], "id": "6843600002", "name": "USPS COLLECTION BOX - PO LOBBY", "address": {"city": "SHICKLEY", "state": "NE", "street": "206 N MARKET ST", "postcode": "68436"}}},
{"geometry": {"type": "Point", "coordinates": [-95.6829494065, 40.2362064078]}, "type": "Feature", "properties": {"collection_times": [{"days": "Mon-Sat", "time": "1:35pm"}, {"days": "Sun", "time": "Closed"}], "id": "6843700001", "name": "USPS COLLECTION BOX - BLUE BOX", "address": {"city": "SHUBERT", "state": "NE", "street": "401 MAIN ST", "postcode": "68437"}}},
{"geometry": {"type": "Point", "coordinates": [-95.6829494065, 40.2362064078]}, "type": "Feature", "properties": {"collection_times": [{"days": "Mon-Fri", "time": "1:35pm"}, {"days": "Sat", "time": "12:20pm"}, {"days": "Sun", "time": "Closed"}], "id": "6843700002", "name": "USPS COLLECTION BOX - PO LOBBY", "address": {"city": "SHUBERT", "state": "NE", "street": "401 MAIN ST", "postcode": "68437"}}},
{"geometry": {"type": "Point", "coordinates": [-96.7448435485, 40.6257719598]}, "type": "Feature", "properties": {"collection_times": [{"days": "Mon-Sat", "time": "3:15pm"}, {"days": "Sun", "time": "Closed"}], "id": "6843800001", "name": "USPS COLLECTION BOX - BLUE BOX", "address": {"city": "SPRAGUE", "state": "NE", "street": "18905 MARKET ST", "postcode": "68438"}}},
{"geometry": {"type": "Point", "coordinates": [-96.7448435485, 40.6257719598]}, "type": "Feature", "properties": {"collection_times": [{"days": "Mon-Fri", "time": "11:45am"}, {"days": "Sat", "time": "10:00am"}, {"days": "Sun", "time": "Closed"}], "id": "6843800002", "name": "USPS COLLECTION BOX - PO LOBBY", "address": {"city": "SPRAGUE", "state": "NE", "street": "18905 MARKET ST", "postcode": "68438"}}},
{"geometry": {"type": "Point", "coordinates": [-97.1716635414, 40.9742944741]}, "type": "Feature", "properties": {"collection_times": [{"days": "Mon-Sat", "time": "1:35pm"}, {"days": "Sun", "time": "Closed"}], "id": "6843900001", "name": "USPS COLLECTION BOX - BLUE BOX", "address": {"city": "STAPLEHURST", "state": "NE", "street": "390 A ST", "postcode": "68439"}}},
{"geometry": {"type": "Point", "coordinates": [-97.1716635414, 40.9742944741]}, "type": "Feature", "properties": {"collection_times": [{"days": "Mon-Fri", "time": "1:35pm"}, {"days": "Sat", "time": "11:00am"}, {"days": "Sun", "time": "Closed"}], "id": "6843900002", "name": "USPS COLLECTION BOX - PO LOBBY", "address": {"city": "STAPLEHURST", "state": "NE", "street": "390 A ST", "postcode": "68439"}}},
{"geometry": {"type": "Point", "coordinates": [-97.0220665648, 40.039450956]}, "type": "Feature", "properties": {"collection_times": [{"days": "Mon-Sat", "time": "2:50pm"}, {"days": "Sun", "time": "Closed"}], "id": "6844000001", "name": "USPS COLLECTION BOX - BLUE BOX", "address": {"city": "STEELE CITY", "state": "NE", "street": "201 W MAIN ST", "postcode": "68440"}}},
{"geometry": {"type": "Point", "coordinates": [-97.0220665648, 40.039450956]}, "type": "Feature", "properties": {"collection_times": [{"days": "Mon-Fri", "time": "11:45am"}, {"days": "Sat", "time": "8:30am"}, {"days": "Sun", "time": "Closed"}], "id": "6844000002", "name": "USPS COLLECTION BOX - PO LOBBY", "address": {"city": "STEELE CITY", "state": "NE", "street": "201 W MAIN ST", "postcode": "68440"}}},
{"geometry": {"type": "Point", "coordinates": [-96.2366220214, 40.2187289104]}, "type": "Feature", "properties": {"collection_times": [{"days": "Mon-Sat", "time": "2:15pm"}, {"days": "Sun", "time": "Closed"}], "id": "6844100000", "name": "USPS COLLECTION BOX - BLUE BOX", "address": {"city": "STEINAUER", "state": "NE", "street": "602 2ND ST", "postcode": "68441"}}},
{"geometry": {"type": "Point", "coordinates": [-95.7735323465, 40.2293981041]}, "type": "Feature", "properties": {"collection_times": [{"days": "Mon-Sat", "time": "1:20pm"}, {"days": "Sun", "time": "Closed"}], "id": "6844200001", "name": "USPS COLLECTION BOX - BLUE BOX", "address": {"city": "STELLA", "state": "NE", "street": "107 N MAIN ST", "postcode": "68442"}}},
{"geometry": {"type": "Point", "coordinates": [-95.7735323465, 40.2293981041]}, "type": "Feature", "properties": {"collection_times": [{"days": "Mon-Fri", "time": "12:45pm"}, {"days": "Sat", "time": "12:20pm"}, {"days": "Sun", "time": "Closed"}], "id": "6844200002", "name": "USPS COLLECTION BOX - PO LOBBY", "address": {"city": "STELLA", "state": "NE", "street": "107 N MAIN ST", "postcode": "68442"}}},
{"geometry": {"type": "Point", "coordinates": [-96.3768340313, 40.4588313649]}, "type": "Feature", "properties": {"collection_times": [{"days": "Mon-Sat", "time": "3:45pm"}, {"days": "Sun", "time": "Closed"}], "id": "6844300001", "name": "USPS COLLECTION BOX - BLUE BOX", "address": {"city": "STERLING", "state": "NE", "street": "155 BROADWAY ST", "postcode": "68443"}}},
{"geometry": {"type": "Point", "coordinates": [-96.376830785, 40.458881015]}, "type": "Feature", "properties": {"collection_times": [{"days": "Mon-Fri", "time": "11:15am"}, {"days": "Sat", "time": "9:15am"}, {"days": "Sun", "time": "Closed"}], "id": "6844300002", "name": "USPS COLLECTION BOX - PO LOBBY", "address": {"city": "STERLING", "state": "NE", "street": "155 BROADWAY ST", "postcode": "68443"}}},
{"geometry": {"type": "Point", "coordinates": [-97.5640446566, 40.3362684523]}, "type": "Feature", "properties": {"collection_times": [{"days": "Mon-Sat", "time": "2:50pm"}, {"days": "Sun", "time": "Closed"}], "id": "6844400001", "name": "USPS COLLECTION BOX - BLUE BOX", "address": {"city": "STRANG", "state": "NE", "street": "308 MAIN ST", "postcode": "68444"}}},
{"geometry": {"type": "Point", "coordinates": [-97.5640446566, 40.3362684523]}, "type": "Feature", "properties": {"collection_times": [{"days": "Mon-Fri", "time": "10:15am"}, {"days": "Sat", "time": "9:15am"}, {"days": "Sun", "time": "Closed"}], "id": "6844400002", "name": "USPS COLLECTION BOX - PO LOBBY", "address": {"city": "STRANG", "state": "NE", "street": "308 MAIN ST", "postcode": "68444"}}},
{"geometry": {"type": "Point", "coordinates": [-97.0797485247, 40.3796105865]}, "type": "Feature", "properties": {"collection_times": [{"days": "Mon-Fri", "time": "12:45pm"}, {"days": "Sat", "time": "12:25pm"}, {"days": "Sun", "time": "Closed"}], "id": "6844500001", "name": "USPS COLLECTION BOX - BLUE BOX", "address": {"city": "SWANTON", "state": "NE", "street": "107 MAIN ST", "postcode": "68445"}}},
{"geometry": {"type": "Point", "coordinates": [-97.0797485247, 40.3796105865]}, "type": "Feature", "properties": {"collection_times": [{"days": "Mon-Fri", "time": "10:45am"}, {"days": "Sat", "time": "10:15am"}, {"days": "Sun", "time": "Closed"}], "id": "6844500002", "name": "USPS COLLECTION BOX - PO LOBBY", "address": {"city": "SWANTON", "state": "NE", "street": "107 MAIN ST", "postcode": "68445"}}},
{"geometry": {"type": "Point", "coordinates": [-96.1840124675, 40.6579021878]}, "type": "Feature", "properties": {"collection_times": [{"days": "Mon-Sat", "time": "3:20pm"}, {"days": "Sun", "time": "Closed"}], "id": "6844600001", "name": "USPS COLLECTION BOX - BLUE BOX", "address": {"city": "SYRACUSE", "state": "NE", "street": "578 PLUM ST", "postcode": "68446"}}},
{"geometry": {"type": "Point", "coordinates": [-96.1840124675, 40.6579021878]}, "type": "Feature", "properties": {"collection_times": [{"days": "Mon-Fri", "time": "3:20pm"}, {"days": "Sat", "time": "9:45am"}, {"days": "Sun", "time": "Closed"}], "id": "6844600003", "name": "USPS COLLECTION BOX - PO LOBBY", "address": {"city": "SYRACUSE", "state": "NE", "street": "578 PLUM ST", "postcode": "68446"}}},
{"geometry": {"type": "Point", "coordinates": [-96.091055566, 40.1782608387]}, "type": "Feature", "properties": {"collection_times": [{"days": "Mon-Fri", "time": "2:10pm"}, {"days": "Sat", "time": "2:00pm"}, {"days": "Sun", "time": "Closed"}], "id": "6844700001", "name": "USPS COLLECTION BOX - BLUE BOX", "address": {"city": "TABLE ROCK", "state": "NE", "street": "416 LUZERNE ST", "postcode": "68447"}}},
{"geometry": {"type": "Point", "coordinates": [-96.091055566, 40.1782608387]}, "type": "Feature", "properties": {"collection_times": [{"days": "Mon-Fri", "time": "12:45pm"}, {"days": "Sat", "time": "11:00am"}, {"days": "Sun", "time": "Closed"}], "id": "6844700002", "name": "USPS COLLECTION BOX - PO LOBBY", "address": {"city": "TABLE ROCK", "state": "NE", "street": "416 LUZERNE ST", "postcode": "68447"}}},
{"geometry": {"type": "Point", "coordinates": [-96.0220010881, 40.5321465227]}, "type": "Feature", "properties": {"collection_times": [{"days": "Mon-Sat", "time": "2:20pm"}, {"days": "Sun", "time": "Closed"}], "id": "6844800001", "name": "USPS COLLECTION BOX - BLUE BOX", "address": {"city": "TALMAGE", "state": "NE", "street": "302 MAIN ST", "postcode": "68448"}}},
{"geometry": {"type": "Point", "coordinates": [-96.1928398034, 40.3682339678]}, "type": "Feature", "properties": {"collection_times": [{"days": "Mon-Fri", "time": "3:10pm"}, {"days": "Sat", "time": "3:00pm"}, {"days": "Sun", "time": "Closed"}], "id": "6845000001", "name": "USPS COLLECTION BOX - BLUE BOX", "address": {"city": "TECUMSEH", "state": "NE", "street": "484 BROADWAY ST", "postcode": "68450"}}},
{"geometry": {"type": "Point", "coordinates": [-96.1928398034, 40.3682339678]}, "type": "Feature", "properties": {"collection_times": [{"days": "Mon-Fri", "time": "3:10pm"}, {"days": "Sat", "time": "3:00pm"}, {"days": "Sun", "time": "Closed"}], "id": "6845000002", "name": "USPS COLLECTION BOX - BLUE BOX", "address": {"city": "TECUMSEH", "state": "NE", "street": "484 BROADWAY ST", "postcode": "68450"}}},
{"geometry": {"type": "Point", "coordinates": [-96.1928398034, 40.3682339678]}, "type": "Feature", "properties": {"collection_times": [{"days": "Mon-Fri", "time": "3:10pm"}, {"days": "Sat", "time": "3:00pm"}, {"days": "Sun", "time": "Closed"}], "id": "6845000003", "name": "USPS COLLECTION BOX - BLUE BOX", "address": {"city": "TECUMSEH", "state": "NE", "street": "484 BROADWAY ST", "postcode": "68450"}}},
{"geometry": {"type": "Point", "coordinates": [-96.1929909566, 40.3681774699]}, "type": "Feature", "properties": {"collection_times": [{"days": "Mon-Fri", "time": "3:00pm"}, {"days": "Sat", "time": "10:30am"}, {"days": "Sun", "time": "Closed"}], "id": "6845000004", "name": "USPS COLLECTION BOX - PO LOBBY", "address": {"city": "TECUMSEH", "state": "NE", "street": "484 BROADWAY ST", "postcode": "68450"}}},
{"geometry": {"type": "Point", "coordinates": [-97.3362770869, 40.4144343122]}, "type": "Feature", "properties": {"collection_times": [{"days": "Mon-Fri", "time": "2:35pm"}, {"days": "Sat", "time": "2:15pm"}, {"days": "Sun", "time": "Closed"}], "id": "6845300001", "name": "USPS COLLECTION BOX - BLUE BOX", "address": {"city": "TOBIAS", "state": "NE", "street": "100 MAIN ST", "postcode": "68453"}}},
{"geometry": {"type": "Point", "coordinates": [-97.3362770869, 40.4144343122]}, "type": "Feature", "properties": {"collection_times": [{"days": "Mon-Fri", "time": "12:45pm"}, {"days": "Sat", "time": "10:45am"}, {"days": "Sun", "time": "Closed"}], "id": "6845300002", "name": "USPS COLLECTION BOX - PO LOBBY", "address": {"city": "TOBIAS", "state": "NE", "street": "100 MAIN ST", "postcode": "68453"}}},
{"geometry": {"type": "Point", "coordinates": [-96.2676097824, 40.6800615254]}, "type": "Feature", "properties": {"collection_times": [{"days": "Mon-Sat", "time": "3:40pm"}, {"days": "Sun", "time": "Closed"}], "id": "6845400001", "name": "USPS COLLECTION BOX - BLUE BOX", "address": {"city": "UNADILLA", "state": "NE", "street": "315 MAIN ST", "postcode": "68454"}}},
{"geometry": {"type": "Point", "coordinates": [-96.2676097824, 40.6800615254]}, "type": "Feature", "properties": {"collection_times": [{"days": "Mon-Fri", "time": "11:45am"}, {"days": "Sat", "time": "8:45am"}, {"days": "Sun", "time": "Closed"}], "id": "6845400002", "name": "USPS COLLECTION BOX - PO LOBBY", "address": {"city": "UNADILLA", "state": "NE", "street": "315 MAIN ST", "postcode": "68454"}}},
{"geometry": {"type": "Point", "coordinates": [-95.9231517355, 40.8132435006]}, "type": "Feature", "properties": {"collection_times": [{"days": "Mon-Sat", "time": "1:30pm"}, {"days": "Sun", "time": "Closed"}], "id": "6845500001", "name": "USPS COLLECTION BOX - BLUE BOX", "address": {"city": "UNION", "state": "NE", "street": "129 MAIN ST", "postcode": "68455"}}},
{"geometry": {"type": "Point", "coordinates": [-95.9231517355, 40.8132435006]}, "type": "Feature", "properties": {"collection_times": [{"days": "Mon-Fri", "time": "10:45am"}, {"days": "Sat", "time": "8:45am"}, {"days": "Sun", "time": "Closed"}], "id": "6845500002", "name": "USPS COLLECTION BOX - PO LOBBY", "address": {"city": "UNION", "state": "NE", "street": "129 MAIN ST", "postcode": "68455"}}},
{"geometry": {"type": "Point", "coordinates": [-97.34479076, 40.895655386]}, "type": "Feature", "properties": {"collection_times": [{"days": "Mon-Sat", "time": "2:30pm"}, {"days": "Sun", "time": "Closed"}], "id": "6845600000", "name": "USPS COLLECTION BOX - BLUE BOX", "address": {"city": "UTICA", "state": "NE", "street": "740 D ST", "postcode": "68456"}}},
{"geometry": {"type": "Point", "coordinates": [-97.34479076, 40.895655386]}, "type": "Feature", "properties": {"collection_times": [{"days": "Mon-Fri", "time": "1:45pm"}, {"days": "Sat", "time": "9:00am"}, {"days": "Sun", "time": "Closed"}], "id": "6845600002", "name": "USPS COLLECTION BOX - PO LOBBY", "address": {"city": "UTICA", "state": "NE", "street": "740 D ST", "postcode": "68456"}}},
{"geometry": {"type": "Point", "coordinates": [-95.7128400193, 40.1482624722]}, "type": "Feature", "properties": {"collection_times": [{"days": "Mon-Sat", "time": "2:15pm"}, {"days": "Sun", "time": "Closed"}], "id": "6845700001", "name": "USPS COLLECTION BOX - BLUE BOX", "address": {"city": "VERDON", "state": "NE", "street": "400 MAIN ST", "postcode": "68457"}}},
{"geometry": {"type": "Point", "coordinates": [-95.7128400193, 40.1482624722]}, "type": "Feature", "properties": {"collection_times": [{"days": "Mon-Sat", "time": "11:15am"}, {"days": "Sun", "time": "Closed"}], "id": "6845700002", "name": "USPS COLLECTION BOX - PO LOBBY", "address": {"city": "VERDON", "state": "NE", "street": "400 MAIN ST", "postcode": "68457"}}},
{"geometry": {"type": "Point", "coordinates": [-97.4623127891, 40.8951543912]}, "type": "Feature", "properties": {"collection_times": [{"days": "Mon-Sat", "time": "2:10pm"}, {"days": "Sun", "time": "Closed"}], "id": "6846000001", "name": "USPS COLLECTION BOX - BLUE BOX", "address": {"city": "WACO", "state": "NE", "street": "401 MIDLAND ST", "postcode": "68460"}}},
{"geometry": {"type": "Point", "coordinates": [-97.4623127891, 40.8951543912]}, "type": "Feature", "properties": {"collection_times": [{"days": "Mon-Fri", "time": "12:15pm"}, {"days": "Sat", "time": "9:45am"}, {"days": "Sun", "time": "Closed"}], "id": "6846000003", "name": "USPS COLLECTION BOX - PO LOBBY", "address": {"city": "WACO", "state": "NE", "street": "401 MIDLAND ST", "postcode": "68460"}}},
{"geometry": {"type": "Point", "coordinates": [-96.5677057918, 40.7966876146]}, "type": "Feature", "properties": {"collection_times": [{"days": "Mon-Sat", "time": "4:35pm"}, {"days": "Sun", "time": "Closed"}], "id": "6846100001", "name": "USPS COLLECTION BOX - BLUE BOX", "address": {"city": "WALTON", "state": "NE", "street": "1500 S 112TH ST", "postcode": "68461"}}},
{"geometry": {"type": "Point", "coordinates": [-96.5677057918, 40.7966876146]}, "type": "Feature", "properties": {"collection_times": [{"days": "Mon-Fri", "time": "12:45pm"}, {"days": "Sat", "time": "11:45am"}, {"days": "Sun", "time": "Closed"}], "id": "6846100002", "name": "USPS COLLECTION BOX - PO LOBBY", "address": {"city": "WALTON", "state": "NE", "street": "1500 S 112TH ST", "postcode": "68461"}}},
{"geometry": {"type": "Point", "coordinates": [-96.5282679368, 40.9179635093]}, "type": "Feature", "properties": {"collection_times": [{"days": "Mon-Sat", "time": "3:45pm"}, {"days": "Sun", "time": "Closed"}], "id": "6846200001", "name": "USPS COLLECTION BOX - BLUE BOX", "address": {"city": "WAVERLY", "state": "NE", "street": "10850 N 142ND ST", "postcode": "68462"}}},
{"geometry": {"type": "Point", "coordinates": [-96.5282679368, 40.9179635093]}, "type": "Feature", "properties": {"collection_times": [{"days": "Mon-Sat", "time": "3:45pm"}, {"days": "Sun", "time": "Closed"}], "id": "6846200002", "name": "USPS COLLECTION BOX - BLUE BOX", "address": {"city": "WAVERLY", "state": "NE", "street": "10850 N 142ND ST", "postcode": "68462"}}},
{"geometry": {"type": "Point", "coordinates": [-96.5282679368, 40.9179635093]}, "type": "Feature", "properties": {"collection_times": [{"days": "Mon-Fri", "time": "3:30pm"}, {"days": "Sat", "time": "10:00am"}, {"days": "Sun", "time": "Closed"}], "id": "6846200003", "name": "USPS COLLECTION BOX - PO LOBBY", "address": {"city": "WAVERLY", "state": "NE", "street": "10850 N 142ND ST", "postcode": "68462"}}},
{"geometry": {"type": "Point", "coordinates": [-96.5331470827, 40.9133490208]}, "type": "Feature", "properties": {"collection_times": [{"days": "Mon-Sat", "time": "10:45am"}, {"days": "Sun", "time": "Closed"}], "id": "6846200004", "name": "USPS COLLECTION BOX - BLUE BOX", "address": {"city": "WAVERLY", "state": "NE", "street": "13901 GUILDFORD ST", "postcode": "68462"}}},
{"geometry": {"type": "Point", "coordinates": [-96.1366001773, 40.8849108494]}, "type": "Feature", "properties": {"collection_times": [{"days": "Mon-Sat", "time": "2:20pm"}, {"days": "Sun", "time": "Closed"}], "id": "6846300001", "name": "USPS COLLECTION BOX - BLUE BOX", "address": {"city": "WEEPING WATER", "state": "NE", "street": "107 N COMMERCIAL ST", "postcode": "68463"}}},
{"geometry": {"type": "Point", "coordinates": [-96.1366001773, 40.8849108494]}, "type": "Feature", "properties": {"collection_times": [{"days": "Mon-Fri", "time": "2:15pm"}, {"days": "Sat", "time": "9:45am"}, {"days": "Sun", "time": "Closed"}], "id": "6846300002", "name": "USPS COLLECTION BOX - PO LOBBY", "address": {"city": "WEEPING WATER", "state": "NE", "street": "107 N COMMERCIAL ST", "postcode": "68463"}}},
{"geometry": {"type": "Point", "coordinates": [-97.1978994587, 40.3934663141]}, "type": "Feature", "properties": {"collection_times": [{"days": "Mon-Fri", "time": "1:00pm"}, {"days": "Sat", "time": "12:40pm"}, {"days": "Sun", "time": "Closed"}], "id": "6846400001", "name": "USPS COLLECTION BOX - BLUE BOX", "address": {"city": "WESTERN", "state": "NE", "street": "100 N WEST AVE", "postcode": "68464"}}},
{"geometry": {"type": "Point", "coordinates": [-97.1978994587, 40.3934663141]}, "type": "Feature", "properties": {"collection_times": [{"days": "Mon-Fri", "time": "11:45am"}, {"days": "Sat", "time": "10:00am"}, {"days": "Sun", "time": "Closed"}], "id": "6846400002", "name": "USPS COLLECTION BOX - PO LOBBY", "address": {"city": "WESTERN", "state": "NE", "street": "100 N WEST AVE", "postcode": "68464"}}},
{"geometry": {"type": "Point", "coordinates": [-96.9621347227, 40.4814034639]}, "type": "Feature", "properties": {"collection_times": [{"days": "Mon-Sat", "time": "2:20pm"}, {"days": "Sun", "time": "Closed"}], "id": "6846500001", "name": "USPS COLLECTION BOX - BLUE BOX", "address": {"city": "WILBER", "state": "NE", "street": "224 W 3RD ST", "postcode": "68465"}}},
{"geometry": {"type": "Point", "coordinates": [-96.9621347227, 40.4814034639]}, "type": "Feature", "properties": {"collection_times": [{"days": "Mon-Fri", "time": "2:20pm"}, {"days": "Sat", "time": "10:30am"}, {"days": "Sun", "time": "Closed"}], "id": "6846500002", "name": "USPS COLLECTION BOX - PO LOBBY", "address": {"city": "WILBER", "state": "NE", "street": "224 W 3RD ST", "postcode": "68465"}}},
{"geometry": {"type": "Point", "coordinates": [-96.9621347227, 40.4814034639]}, "type": "Feature", "properties": {"collection_times": [{"days": "Mon-Sat", "time": "2:20pm"}, {"days": "Sun", "time": "Closed"}], "id": "6846500003", "name": "USPS COLLECTION BOX - BLUE BOX", "address": {"city": "WILBER", "state": "NE", "street": "224 W 3RD ST", "postcode": "68465"}}},
{"geometry": {"type": "Point", "coordinates": [-96.6629645249, 40.1212944414]}, "type": "Feature", "properties": {"collection_times": [{"days": "Mon-Sat", "time": "2:40pm"}, {"days": "Sun", "time": "Closed"}], "id": "6846600007", "name": "USPS COLLECTION BOX - BLUE BOX", "address": {"city": "WYMORE", "state": "NE", "street": "119 W F ST", "postcode": "68466"}}},
{"geometry": {"type": "Point", "coordinates": [-96.6629645249, 40.1212944414]}, "type": "Feature", "properties": {"collection_times": [{"days": "Mon-Fri", "time": "2:40pm"}, {"days": "Sat", "time": "9:30am"}, {"days": "Sun", "time": "Closed"}], "id": "6846600008", "name": "USPS COLLECTION BOX - PO LOBBY", "address": {"city": "WYMORE", "state": "NE", "street": "119 W F ST", "postcode": "68466"}}},
{"geometry": {"type": "Point", "coordinates": [-97.5977637949, 40.8266527886]}, "type": "Feature", "properties": {"collection_times": [{"days": "Mon-Sat", "time": "9:00am"}, {"days": "Sun", "time": "Closed"}], "id": "6846700011", "name": "USPS COLLECTION BOX - BLUE BOX", "address": {"city": "YORK", "state": "NE", "street": "101 E DAVID DR", "postcode": "68467"}}},
{"geometry": {"type": "Point", "coordinates": [-97.5930591015, 40.8637391507]}, "type": "Feature", "properties": {"collection_times": [{"days": "Mon-Sat", "time": "10:45am"}, {"days": "Sun", "time": "Closed"}], "id": "6846700012", "name": "USPS COLLECTION BOX - BLUE BOX", "address": {"city": "YORK", "state": "NE", "street": "301 N LINCOLN AVE", "postcode": "68467"}}},
{"geometry": {"type": "Point", "coordinates": [-97.5930198882, 40.8664399959]}, "type": "Feature", "properties": {"collection_times": [{"days": "Mon-Sat", "time": "9:45am"}, {"days": "Sun", "time": "Closed"}], "id": "6846700013", "name": "USPS COLLECTION BOX - BLUE BOX", "address": {"city": "YORK", "state": "NE", "street": "601 N LINCOLN AVE", "postcode": "68467"}}},
{"geometry": {"type": "Point", "coordinates": [-97.591701377, 40.8665956503]}, "type": "Feature", "properties": {"collection_times": [{"days": "Mon-Sat", "time": "2:40pm"}, {"days": "Sun", "time": "Closed"}], "id": "6846700017", "name": "USPS COLLECTION BOX - BLUE BOX", "address": {"city": "YORK", "state": "NE", "street": "626 N GRANT AVE", "postcode": "68467"}}},
{"geometry": {"type": "Point", "coordinates": [-97.591701377, 40.8665956503]}, "type": "Feature", "properties": {"collection_times": [{"days": "Mon-Sat", "time": "2:40pm"}, {"days": "Sun", "time": "Closed"}], "id": "6846700018", "name": "USPS COLLECTION BOX - BLUE BOX", "address": {"city": "YORK", "state": "NE", "street": "626 N GRANT AVE", "postcode": "68467"}}},
{"geometry": {"type": "Point", "coordinates": [-97.5978206868, 40.8179551766]}, "type": "Feature", "properties": {"collection_times": [{"days": "Mon-Sat", "time": "9:00am"}, {"days": "Sun", "time": "Closed"}], "id": "6846700020", "name": "USPS COLLECTION BOX - BLUE BOX", "address": {"city": "YORK", "state": "NE", "street": "4700 S LINCOLN AVE", "postcode": "68467"}}},
{"geometry": {"type": "Point", "coordinates": [-97.591701377, 40.8665956503]}, "type": "Feature", "properties": {"collection_times": [{"days": "Mon-Fri", "time": "2:40pm"}, {"days": "Sat", "time": "11:30am"}, {"days": "Sun", "time": "Closed"}], "id": "6846700021", "name": "USPS COLLECTION BOX - PO LOBBY", "address": {"city": "YORK", "state": "NE", "street": "626 N GRANT AVE", "postcode": "68467"}}}
]}
