{"type": "FeatureCollection", "features": [
{"geometry": {"type": "Point", "coordinates": [-96.710916376, 40.8169810002]}, "type": "Feature", "properties": {"collection_times": [{"days": "Mon-Sat", "time": "6:00pm"}, {"days": "Sun", "time": "Closed"}], "id": "6850100000", "name": "USPS COLLECTION BOX - EXPRESS", "address": {"city": "LINCOLN", "state": "NE", "street": "700 R ST", "postcode": "68501"}}},
{"geometry": {"type": "Point", "coordinates": [-96.7109595528, 40.8169796835]}, "type": "Feature", "properties": {"collection_times": [{"days": "Mon-Sat", "time": "6:00pm"}, {"days": "Sun", "time": "Closed"}], "id": "6850100001", "name": "USPS COLLECTION BOX - BLUE BOX", "address": {"city": "LINCOLN", "state": "NE", "street": "700 R ST", "postcode": "68501"}}},
{"geometry": {"type": "Point", "coordinates": [-96.7109595528, 40.8169796835]}, "type": "Feature", "properties": {"collection_times": [{"days": "Mon-Sat", "time": "6:00pm"}, {"days": "Sun", "time": "Closed"}], "id": "6850100003", "name": "USPS COLLECTION BOX - PO LOBBY", "address": {"city": "LINCOLN", "state": "NE", "street": "700 R ST", "postcode": "68501"}}},
{"geometry": {"type": "Point", "coordinates": [-96.710916376, 40.8169810002]}, "type": "Feature", "properties": {"collection_times": [{"days": "Mon-Sat", "time": "6:00pm"}, {"days": "Sun", "time": "Closed"}], "id": "6850100004", "name": "USPS COLLECTION BOX - EXPRESS", "address": {"city": "LINCOLN", "state": "NE", "street": "700 R ST", "postcode": "68501"}}},
{"geometry": {"type": "Point", "coordinates": [-96.7109595528, 40.8169796835]}, "type": "Feature", "properties": {"collection_times": [{"days": "Mon-Sat", "time": "6:00pm"}, {"days": "Sun", "time": "Closed"}], "id": "6850100005", "name": "USPS COLLECTION BOX - APC", "address": {"city": "LINCOLN", "state": "NE", "street": "700 R ST", "postcode": "68501"}}},
{"geometry": {"type": "Point", "coordinates": [-96.7109595528, 40.8169796835]}, "type": "Feature", "properties": {"collection_times": [{"days": "Mon-Sat", "time": "6:00pm"}, {"days": "Sun", "time": "Closed"}], "id": "6850100006", "name": "USPS COLLECTION BOX - PO LOBBY", "address": {"city": "LINCOLN", "state": "NE", "street": "700 R ST", "postcode": "68501"}}},
{"geometry": {"type": "Point", "coordinates": [-96.6850302206, 40.7903841489]}, "type": "Feature", "properties": {"collection_times": [{"days": "Mon-Sat", "time": "10:15am"}, {"days": "Sun", "time": "Closed"}], "id": "6850200004", "name": "USPS COLLECTION BOX - BLUE BOX", "address": {"city": "LINCOLN", "state": "NE", "street": "2241 SHERIDAN BLVD", "postcode": "68502"}}},
{"geometry": {"type": "Point", "coordinates": [-96.6756233993, 40.7914416128]}, "type": "Feature", "properties": {"collection_times": [{"days": "Mon-Fri", "time": "4:15pm"}, {"days": "Sat-Sun", "time": "Closed"}], "id": "6850200007", "name": "USPS COLLECTION BOX - BLUE BOX", "address": {"city": "LINCOLN", "state": "NE", "street": "2121 WINTHROP RD", "postcode": "68502"}}},
{"geometry": {"type": "Point", "coordinates": [-96.6961172872, 40.790763237]}, "type": "Feature", "properties": {"collection_times": [{"days": "Mon-Fri", "time": "5:15pm"}, {"days": "Sat", "time": "3:45pm"}, {"days": "Sun", "time": "Closed"}], "id": "6850200017", "name": "USPS COLLECTION BOX - BLUE BOX", "address": {"city": "LINCOLN", "state": "NE", "street": "2800 WOODS BLVD", "postcode": "68502"}}},
{"geometry": {"type": "Point", "coordinates": [-96.6836504025, 40.7751830249]}, "type": "Feature", "properties": {"collection_times": [{"days": "Mon-Sat", "time": "11:15am"}, {"days": "Sun", "time": "Closed"}], "id": "6850200019", "name": "USPS COLLECTION BOX - BLUE BOX", "address": {"city": "LINCOLN", "state": "NE", "street": "2629 STOCKWELL ST", "postcode": "68502"}}},
{"geometry": {"type": "Point", "coordinates": [-96.6967412974, 40.7961991265]}, "type": "Feature", "properties": {"collection_times": [{"days": "Mon-Fri", "time": "5:00pm"}, {"days": "Sat", "time": "2:45pm"}, {"days": "Sun", "time": "Closed"}], "id": "6850200023", "name": "USPS COLLECTION BOX - BLUE BOX", "address": {"city": "LINCOLN", "state": "NE", "street": "1701 S 17TH ST", "postcode": "68502"}}},
{"geometry": {"type": "Point", "coordinates": [-96.7042775658, 40.777295869]}, "type": "Feature", "properties": {"collection_times": [{"days": "Mon-Sat", "time": "5:45pm"}, {"days": "Sun", "time": "Closed"}], "id": "6850200033", "name": "USPS COLLECTION BOX - BLUE BOX", "address": {"city": "LINCOLN", "state": "NE", "street": "1201 CALVERT ST", "postcode": "68502"}}},
{"geometry": {"type": "Point", "coordinates": [-96.7042775658, 40.777295869]}, "type": "Feature", "properties": {"collection_times": [{"days": "Mon-Sat", "time": "5:45pm"}, {"days": "Sun", "time": "Closed"}], "id": "6850200034", "name": "USPS COLLECTION BOX - BLUE BOX", "address": {"city": "LINCOLN", "state": "NE", "street": "1201 CALVERT ST", "postcode": "68502"}}},
{"geometry": {"type": "Point", "coordinates": [-96.6984739635, 40.7914256391]}, "type": "Feature", "properties": {"collection_times": [{"days": "Mon-Fri", "time": "4:10pm"}, {"days": "Sat-Sun", "time": "Closed"}], "id": "6850200035", "name": "USPS COLLECTION BOX - BLUE BOX", "address": {"city": "LINCOLN", "state": "NE", "street": "2222 S 16TH ST", "postcode": "68502"}}},
{"geometry": {"type": "Point", "coordinates": [-96.7042775658, 40.777295869]}, "type": "Feature", "properties": {"collection_times": [{"days": "Mon-Fri", "time": "5:00pm"}, {"days": "Sat", "time": "4:00pm"}, {"days": "Sun", "time": "Closed"}], "id": "6850200045", "name": "USPS COLLECTION BOX - PO LOBBY", "address": {"city": "LINCOLN", "state": "NE", "street": "1201 CALVERT ST", "postcode": "68502"}}},
{"geometry": {"type": "Point", "coordinates": [-96.7042775658, 40.777295869]}, "type": "Feature", "properties": {"collection_times": [{"days": "Mon-Fri", "time": "5:00pm"}, {"days": "Sat", "time": "4:00pm"}, {"days": "Sun", "time": "Closed"}], "id": "6850200046", "name": "USPS COLLECTION BOX - APC", "address": {"city": "LINCOLN", "state": "NE", "street": "1201 CALVERT ST", "postcode": "68502"}}},
{"geometry": {"type": "Point", "coordinates": [-96.7048580407, 40.7917671014]}, "type": "Feature", "properties": {"collection_times": [{"days": "Mon-Sat", "time": "9:15am"}, {"days": "Sun", "time": "Closed"}], "id": "6850200047", "name": "USPS COLLECTION BOX - BLUE BOX", "address": {"city": "LINCOLN", "state": "NE", "street": "1101 SOUTH ST", "postcode": "68502"}}},
{"geometry": {"type": "Point", "coordinates": [-96.7042775658, 40.777295869]}, "type": "Feature", "properties": {"collection_times": [{"days": "Mon-Fri", "time": "5:00pm"}, {"days": "Sat", "time": "4:00pm"}, {"days": "Sun", "time": "Closed"}], "id": "6850200049", "name": "USPS COLLECTION BOX - PO LOBBY", "address": {"city": "LINCOLN", "state": "NE", "street": "1201 CALVERT ST", "postcode": "68502"}}},
{"geometry": {"type": "Point", "coordinates": [-96.677238711, 40.8239364398]}, "type": "Feature", "properties": {"collection_times": [{"days": "Mon-Sat", "time": "12:00pm"}, {"days": "Sun", "time": "Closed"}], "id": "6850300012", "name": "USPS COLLECTION BOX - BLUE BOX", "address": {"city": "LINCOLN", "state": "NE", "street": "3901 E CAMPUS LOOP", "postcode": "68503"}}},
{"geometry": {"type": "Point", "coordinates": [-96.669661454, 40.8277904408]}, "type": "Feature", "properties": {"collection_times": [{"days": "Mon-Sat", "time": "12:30pm"}, {"days": "Sun", "time": "Closed"}], "id": "6850300017", "name": "USPS COLLECTION BOX - BLUE BOX", "address": {"city": "LINCOLN", "state": "NE", "street": "1701 N 35TH ST", "postcode": "68503"}}},
{"geometry": {"type": "Point", "coordinates": [-96.6558665303, 40.8206503365]}, "type": "Feature", "properties": {"collection_times": [{"days": "Mon-Sat", "time": "10:00am"}, {"days": "Sun", "time": "Closed"}], "id": "6850300021", "name": "USPS COLLECTION BOX - BLUE BOX", "address": {"city": "LINCOLN", "state": "NE", "street": "4615 VINE ST", "postcode": "68503"}}},
{"geometry": {"type": "Point", "coordinates": [-96.6824400252, 40.8212432261]}, "type": "Feature", "properties": {"collection_times": [{"days": "Mon-Fri", "time": "5:10pm"}, {"days": "Sat", "time": "5:15pm"}, {"days": "Sun", "time": "Closed"}], "id": "6850300023", "name": "USPS COLLECTION BOX - BLUE BOX", "address": {"city": "LINCOLN", "state": "NE", "street": "815 N 27TH ST", "postcode": "68503"}}},
{"geometry": {"type": "Point", "coordinates": [-96.6928506658, 40.8244534725]}, "type": "Feature", "properties": {"collection_times": [{"days": "Mon-Sat", "time": "10:00am"}, {"days": "Sun", "time": "Closed"}], "id": "6850300024", "name": "USPS COLLECTION BOX - BLUE BOX", "address": {"city": "LINCOLN", "state": "NE", "street": "1901 Y ST", "postcode": "68503"}}},
{"geometry": {"type": "Point", "coordinates": [-96.6537718052, 40.8367670499]}, "type": "Feature", "properties": {"collection_times": [{"days": "Mon-Fri", "time": "5:35pm"}, {"days": "Sat", "time": "5:25pm"}, {"days": "Sun", "time": "Closed"}], "id": "6850400001", "name": "USPS COLLECTION BOX - BLUE BOX", "address": {"city": "LINCOLN", "state": "NE", "street": "2427 N 48TH ST", "postcode": "68504"}}},
{"geometry": {"type": "Point", "coordinates": [-96.6506590957, 40.8164076073]}, "type": "Feature", "properties": {"collection_times": [{"days": "Mon-Fri", "time": "5:15pm"}, {"days": "Sat-Sun", "time": "Closed"}], "id": "6850400010", "name": "USPS COLLECTION BOX - BLUE BOX", "address": {"city": "LINCOLN", "state": "NE", "street": "5000 CENTRAL PARK DR", "postcode": "68504"}}},
{"geometry": {"type": "Point", "coordinates": [-96.6758904475, 40.8592337014]}, "type": "Feature", "properties": {"collection_times": [{"days": "Mon-Fri", "time": "5:10pm"}, {"days": "Sat", "time": "5:55pm"}, {"days": "Sun", "time": "Closed"}], "id": "6850400021", "name": "USPS COLLECTION BOX - BLUE BOX", "address": {"city": "LINCOLN", "state": "NE", "street": "3120 BAIR AVE", "postcode": "68504"}}},
{"geometry": {"type": "Point", "coordinates": [-96.6537718052, 40.8367670499]}, "type": "Feature", "properties": {"collection_times": [{"days": "Mon-Fri", "time": "4:40pm"}, {"days": "Sat-Sun", "time": "Closed"}], "id": "6850400022", "name": "USPS COLLECTION BOX - PO LOBBY", "address": {"city": "LINCOLN", "state": "NE", "street": "2427 N 48TH ST", "postcode": "68504"}}},
{"geometry": {"type": "Point", "coordinates": [-96.6534734715, 40.8573214798]}, "type": "Feature", "properties": {"collection_times": [{"days": "Mon-Fri", "time": "5:15pm"}, {"days": "Sat-Sun", "time": "Closed"}], "id": "6850400023", "name": "USPS COLLECTION BOX - BLUE BOX", "address": {"city": "LINCOLN", "state": "NE", "street": "4800 SUPERIOR ST", "postcode": "68504"}}},
{"geometry": {"type": "Point", "coordinates": [-96.631740614, 40.8163235535]}, "type": "Feature", "properties": {"collection_times": [{"days": "Mon-Fri", "time": "5:45pm"}, {"days": "Sat", "time": "4:35pm"}, {"days": "Sun", "time": "Closed"}], "id": "6850500002", "name": "USPS COLLECTION BOX - BLUE BOX", "address": {"city": "LINCOLN", "state": "NE", "street": "6401 Q ST STE 100", "postcode": "68505"}}},
{"geometry": {"type": "Point", "coordinates": [-96.631740614, 40.8163235535]}, "type": "Feature", "properties": {"collection_times": [{"days": "Mon-Fri", "time": "5:45pm"}, {"days": "Sat", "time": "4:35pm"}, {"days": "Sun", "time": "Closed"}], "id": "6850500003", "name": "USPS COLLECTION BOX - BLUE BOX", "address": {"city": "LINCOLN", "state": "NE", "street": "6401 Q ST STE 100", "postcode": "68505"}}},
{"geometry": {"type": "Point", "coordinates": [-96.6305564452, 40.8277025287]}, "type": "Feature", "properties": {"collection_times": [{"days": "Mon-Sat", "time": "9:30am"}, {"days": "Sun", "time": "Closed"}], "id": "6850500011", "name": "USPS COLLECTION BOX - BLUE BOX", "address": {"city": "LINCOLN", "state": "NE", "street": "1441 N COTNER BLVD", "postcode": "68505"}}},
{"geometry": {"type": "Point", "coordinates": [-96.6248871638, 40.8220547578]}, "type": "Feature", "properties": {"collection_times": [{"days": "Mon-Fri", "time": "4:35pm"}, {"days": "Sat", "time": "4:20pm"}, {"days": "Sun", "time": "Closed"}], "id": "6850500014", "name": "USPS COLLECTION BOX - BLUE BOX", "address": {"city": "LINCOLN", "state": "NE", "street": "950 N 70TH ST", "postcode": "68505"}}},
{"geometry": {"type": "Point", "coordinates": [-96.6305375893, 40.8152491901]}, "type": "Feature", "properties": {"collection_times": [{"days": "Mon-Sat", "time": "10:30am"}, {"days": "Sun", "time": "Closed"}], "id": "6850500017", "name": "USPS COLLECTION BOX - BLUE BOX", "address": {"city": "LINCOLN", "state": "NE", "street": "200 N 66TH ST", "postcode": "68505"}}},
{"geometry": {"type": "Point", "coordinates": [-96.6384082671, 40.8185629838]}, "type": "Feature", "properties": {"collection_times": [{"days": "Mon-Sat", "time": "9:15am"}, {"days": "Sun", "time": "Closed"}], "id": "6850500019", "name": "USPS COLLECTION BOX - BLUE BOX", "address": {"city": "LINCOLN", "state": "NE", "street": "600 N COTNER BLVD", "postcode": "68505"}}},
{"geometry": {"type": "Point", "coordinates": [-96.6361986408, 40.8199824234]}, "type": "Feature", "properties": {"collection_times": [{"days": "Mon-Sat", "time": "9:30am"}, {"days": "Sun", "time": "Closed"}], "id": "6850500025", "name": "USPS COLLECTION BOX - BLUE BOX", "address": {"city": "LINCOLN", "state": "NE", "street": "770 N COTNER BLVD", "postcode": "68505"}}},
{"geometry": {"type": "Point", "coordinates": [-96.6082800943, 40.8270334313]}, "type": "Feature", "properties": {"collection_times": [{"days": "Mon-Fri", "time": "5:05pm"}, {"days": "Sat", "time": "4:15pm"}, {"days": "Sun", "time": "Closed"}], "id": "6850500033", "name": "USPS COLLECTION BOX - BLUE BOX", "address": {"city": "LINCOLN", "state": "NE", "street": "8251 NORTHWOODS DR", "postcode": "68505"}}},
{"geometry": {"type": "Point", "coordinates": [-96.631740614, 40.816323553]}, "type": "Feature", "properties": {"collection_times": [{"days": "Mon-Fri", "time": "5:45pm"}, {"days": "Sat", "time": "1:00pm"}, {"days": "Sun", "time": "Closed"}], "id": "6850500034", "name": "USPS COLLECTION BOX - APC", "address": {"city": "LINCOLN", "state": "NE", "street": "6401 Q ST STE 100", "postcode": "68505"}}},
{"geometry": {"type": "Point", "coordinates": [-96.631740614, 40.8163230903]}, "type": "Feature", "properties": {"collection_times": [{"days": "Mon-Fri", "time": "5:45pm"}, {"days": "Sat", "time": "1:00pm"}, {"days": "Sun", "time": "Closed"}], "id": "6850500041", "name": "USPS COLLECTION BOX - PO LOBBY", "address": {"city": "LINCOLN", "state": "NE", "street": "6401 Q ST STE 100", "postcode": "68505"}}},
{"geometry": {"type": "Point", "coordinates": [-96.6513381247, 40.7844971204]}, "type": "Feature", "properties": {"collection_times": [{"days": "Mon-Fri", "time": "5:40pm"}, {"days": "Sat", "time": "5:00pm"}, {"days": "Sun", "time": "Closed"}], "id": "6850600003", "name": "USPS COLLECTION BOX - BLUE BOX", "address": {"city": "LINCOLN", "state": "NE", "street": "5100 VAN DORN ST", "postcode": "68506"}}},
{"geometry": {"type": "Point", "coordinates": [-96.6513381247, 40.7844971204]}, "type": "Feature", "properties": {"collection_times": [{"days": "Mon-Fri", "time": "5:40pm"}, {"days": "Sat", "time": "5:00pm"}, {"days": "Sun", "time": "Closed"}], "id": "6850600004", "name": "USPS COLLECTION BOX - BLUE BOX", "address": {"city": "LINCOLN", "state": "NE", "street": "5100 VAN DORN ST", "postcode": "68506"}}},
{"geometry": {"type": "Point", "coordinates": [-96.6535733613, 40.7978222245]}, "type": "Feature", "properties": {"collection_times": [{"days": "Mon-Fri", "time": "4:50pm"}, {"days": "Sat-Sun", "time": "Closed"}], "id": "6850600005", "name": "USPS COLLECTION BOX - BLUE BOX", "address": {"city": "LINCOLN", "state": "NE", "street": "1500 S 48TH ST", "postcode": "68506"}}},
{"geometry": {"type": "Point", "coordinates": [-96.6248923544, 40.7968719211]}, "type": "Feature", "properties": {"collection_times": [{"days": "Mon-Fri", "time": "5:10pm"}, {"days": "Sat", "time": "4:40pm"}, {"days": "Sun", "time": "Closed"}], "id": "6850600009", "name": "USPS COLLECTION BOX - BLUE BOX", "address": {"city": "LINCOLN", "state": "NE", "street": "1530 S 70TH ST", "postcode": "68506"}}},
{"geometry": {"type": "Point", "coordinates": [-96.6259656487, 40.7843388269]}, "type": "Feature", "properties": {"collection_times": [{"days": "Mon-Sat", "time": "10:00am"}, {"days": "Sun", "time": "Closed"}], "id": "6850600014", "name": "USPS COLLECTION BOX - BLUE BOX", "address": {"city": "LINCOLN", "state": "NE", "street": "6940 VAN DORN ST", "postcode": "68506"}}},
{"geometry": {"type": "Point", "coordinates": [-96.626472051, 40.7843373634]}, "type": "Feature", "properties": {"collection_times": [{"days": "Mon-Sat", "time": "9:00am"}, {"days": "Sun", "time": "Closed"}], "id": "6850600015", "name": "USPS COLLECTION BOX - BLUE BOX", "address": {"city": "LINCOLN", "state": "NE", "street": "6900 VAN DORN ST", "postcode": "68506"}}},
{"geometry": {"type": "Point", "coordinates": [-96.65433, 40.77291]}, "type": "Feature", "properties": {"collection_times": [{"days": "Mon-Sat", "time": "10:00am"}, {"days": "Sun", "time": "Closed"}], "id": "6850600018", "name": "USPS COLLECTION BOX - BLUE BOX", "address": {"city": "LINCOLN", "state": "NE", "street": "4745 PRESCOTT AVE", "postcode": "68506"}}},
{"geometry": {"type": "Point", "coordinates": [-96.6465401467, 40.7915825683]}, "type": "Feature", "properties": {"collection_times": [{"days": "Mon-Sat", "time": "9:30am"}, {"days": "Sun", "time": "Closed"}], "id": "6850600029", "name": "USPS COLLECTION BOX - BLUE BOX", "address": {"city": "LINCOLN", "state": "NE", "street": "5401 SOUTH ST", "postcode": "68506"}}},
{"geometry": {"type": "Point", "coordinates": [-96.6513381247, 40.7844971204]}, "type": "Feature", "properties": {"collection_times": [{"days": "Mon-Fri", "time": "5:40pm"}, {"days": "Sat", "time": "5:00pm"}, {"days": "Sun", "time": "Closed"}], "id": "6850600032", "name": "USPS COLLECTION BOX - BLUE BOX", "address": {"city": "LINCOLN", "state": "NE", "street": "5100 VAN DORN ST", "postcode": "68506"}}},
{"geometry": {"type": "Point", "coordinates": [-96.6644228576, 40.7917822735]}, "type": "Feature", "properties": {"collection_times": [{"days": "Mon-Sat", "time": "9:45am"}, {"days": "Sun", "time": "Closed"}], "id": "6850600036", "name": "USPS COLLECTION BOX - BLUE BOX", "address": {"city": "LINCOLN", "state": "NE", "street": "3930 SOUTH ST", "postcode": "68506"}}},
{"geometry": {"type": "Point", "coordinates": [-96.6549278219, 40.777096273]}, "type": "Feature", "properties": {"collection_times": [{"days": "Mon-Sat", "time": "10:00am"}, {"days": "Sun", "time": "Closed"}], "id": "6850600037", "name": "USPS COLLECTION BOX - BLUE BOX", "address": {"city": "LINCOLN", "state": "NE", "street": "4732 CALVERT ST", "postcode": "68506"}}},
{"geometry": {"type": "Point", "coordinates": [-96.6251514322, 40.7860176264]}, "type": "Feature", "properties": {"collection_times": [{"days": "Mon-Fri", "time": "5:05pm"}, {"days": "Sat", "time": "5:00pm"}, {"days": "Sun", "time": "Closed"}], "id": "6850600048", "name": "USPS COLLECTION BOX - BLUE BOX", "address": {"city": "LINCOLN", "state": "NE", "street": "2631 S 70TH ST", "postcode": "68506"}}},
{"geometry": {"type": "Point", "coordinates": [-96.6513381247, 40.7844971204]}, "type": "Feature", "properties": {"collection_times": [{"days": "Mon-Fri", "time": "5:40pm"}, {"days": "Sat", "time": "5:00pm"}, {"days": "Sun", "time": "Closed"}], "id": "6850600054", "name": "USPS COLLECTION BOX - APC", "address": {"city": "LINCOLN", "state": "NE", "street": "5100 VAN DORN ST", "postcode": "68506"}}},
{"geometry": {"type": "Point", "coordinates": [-96.6365997077, 40.8571108152]}, "type": "Feature", "properties": {"collection_times": [{"days": "Mon-Fri", "time": "5:25pm"}, {"days": "Sat", "time": "4:00pm"}, {"days": "Sun", "time": "Closed"}], "id": "6850700004", "name": "USPS COLLECTION BOX - BLUE BOX", "address": {"city": "LINCOLN", "state": "NE", "street": "6140 HAVELOCK AVE", "postcode": "68507"}}},
{"geometry": {"type": "Point", "coordinates": [-96.6401895764, 40.8424783071]}, "type": "Feature", "properties": {"collection_times": [{"days": "Mon-Sat", "time": "10:00am"}, {"days": "Sun", "time": "Closed"}], "id": "6850700008", "name": "USPS COLLECTION BOX - BLUE BOX", "address": {"city": "LINCOLN", "state": "NE", "street": "5901 ADAMS ST", "postcode": "68507"}}},
{"geometry": {"type": "Point", "coordinates": [-96.6402428917, 40.8497075866]}, "type": "Feature", "properties": {"collection_times": [{"days": "Mon-Fri", "time": "5:25pm"}, {"days": "Sat-Sun", "time": "Closed"}], "id": "6850700010", "name": "USPS COLLECTION BOX - BLUE BOX", "address": {"city": "LINCOLN", "state": "NE", "street": "3701 TOUZALIN AVE", "postcode": "68507"}}},
{"geometry": {"type": "Point", "coordinates": [-96.7026184148, 40.8141201605]}, "type": "Feature", "properties": {"collection_times": [{"days": "Mon-Fri", "time": "2:30pm"}, {"days": "Sat", "time": "1:30pm"}, {"days": "Sun", "time": "Closed"}], "id": "6850800003", "name": "USPS COLLECTION BOX - BLUE BOX", "address": {"city": "LINCOLN", "state": "NE", "street": "145 N 13TH ST", "postcode": "68508"}}},
{"geometry": {"type": "Point", "coordinates": [-96.7026799337, 40.8133560573]}, "type": "Feature", "properties": {"collection_times": [{"days": "Mon-Fri", "time": "5:40pm"}, {"days": "Sat-Sun", "time": "Closed"}], "id": "6850800006", "name": "USPS COLLECTION BOX - BLUE BOX", "address": {"city": "LINCOLN", "state": "NE", "street": "121 S 13TH ST", "postcode": "68508"}}},
{"geometry": {"type": "Point", "coordinates": [-96.7099874012, 40.8151107718]}, "type": "Feature", "properties": {"collection_times": [{"days": "Mon-Fri", "time": "5:00pm"}, {"days": "Sat-Sun", "time": "Closed"}], "id": "6850800007", "name": "USPS COLLECTION BOX - EXPRESS", "address": {"city": "LINCOLN", "state": "NE", "street": "201 N 8TH ST", "postcode": "68508"}}},
{"geometry": {"type": "Point", "coordinates": [-96.7100037345, 40.814767321]}, "type": "Feature", "properties": {"collection_times": [{"days": "Mon-Fri", "time": "5:00pm"}, {"days": "Sat-Sun", "time": "Closed"}], "id": "6850800008", "name": "USPS COLLECTION BOX - BLUE BOX", "address": {"city": "LINCOLN", "state": "NE", "street": "201 N 8TH ST", "postcode": "68508"}}},
{"geometry": {"type": "Point", "coordinates": [-96.6982261275, 40.820090004]}, "type": "Feature", "properties": {"collection_times": [{"days": "Mon-Sat", "time": "11:00am"}, {"days": "Sun", "time": "Closed"}], "id": "6850800013", "name": "USPS COLLECTION BOX - BLUE BOX", "address": {"city": "LINCOLN", "state": "NE", "street": "715 N 16TH ST", "postcode": "68508"}}},
{"geometry": {"type": "Point", "coordinates": [-96.7026899215, 40.8110266236]}, "type": "Feature", "properties": {"collection_times": [{"days": "Mon-Sat", "time": "8:45am"}, {"days": "Sun", "time": "Closed"}], "id": "6850800014", "name": "USPS COLLECTION BOX - BLUE BOX", "address": {"city": "LINCOLN", "state": "NE", "street": "333 S 13TH ST", "postcode": "68508"}}},
{"geometry": {"type": "Point", "coordinates": [-96.7064045757, 40.8146631976]}, "type": "Feature", "properties": {"collection_times": [{"days": "Mon-Sat", "time": "10:00am"}, {"days": "Sun", "time": "Closed"}], "id": "6850800018", "name": "USPS COLLECTION BOX - BLUE BOX", "address": {"city": "LINCOLN", "state": "NE", "street": "1039 P ST", "postcode": "68508"}}},
{"geometry": {"type": "Point", "coordinates": [-96.701136422, 40.8125369668]}, "type": "Feature", "properties": {"collection_times": [{"days": "Mon-Fri", "time": "5:45pm"}, {"days": "Sat-Sun", "time": "Closed"}], "id": "6850800027", "name": "USPS COLLECTION BOX - BLUE BOX", "address": {"city": "LINCOLN", "state": "NE", "street": "1400 N ST", "postcode": "68508"}}},
{"geometry": {"type": "Point", "coordinates": [-96.7033125705, 40.8125504788]}, "type": "Feature", "properties": {"collection_times": [{"days": "Mon-Sat", "time": "9:30am"}, {"days": "Sun", "time": "Closed"}], "id": "6850800029", "name": "USPS COLLECTION BOX - BLUE BOX", "address": {"city": "LINCOLN", "state": "NE", "street": "1250 N ST", "postcode": "68508"}}},
{"geometry": {"type": "Point", "coordinates": [-96.7065391431, 40.8125549381]}, "type": "Feature", "properties": {"collection_times": [{"days": "Mon-Sat", "time": "9:30am"}, {"days": "Sun", "time": "Closed"}], "id": "6850800034", "name": "USPS COLLECTION BOX - BLUE BOX", "address": {"city": "LINCOLN", "state": "NE", "street": "1030 N ST", "postcode": "68508"}}},
{"geometry": {"type": "Point", "coordinates": [-96.7056077299, 40.8113363636]}, "type": "Feature", "properties": {"collection_times": [{"days": "Mon-Sat", "time": "10:00am"}, {"days": "Sun", "time": "Closed"}], "id": "6850800037", "name": "USPS COLLECTION BOX - BLUE BOX", "address": {"city": "LINCOLN", "state": "NE", "street": "303 S 11TH ST", "postcode": "68508"}}},
{"geometry": {"type": "Point", "coordinates": [-96.7001007151, 40.8169081812]}, "type": "Feature", "properties": {"collection_times": [{"days": "Mon-Fri", "time": "5:30pm"}, {"days": "Sat-Sun", "time": "Closed"}], "id": "6850800044", "name": "USPS COLLECTION BOX - BLUE BOX", "address": {"city": "LINCOLN", "state": "NE", "street": "1400 R ST", "postcode": "68508"}}},
{"geometry": {"type": "Point", "coordinates": [-96.6996597793, 40.818016485]}, "type": "Feature", "properties": {"collection_times": [{"days": "Mon-Sat", "time": "11:15am"}, {"days": "Sun", "time": "Closed"}], "id": "6850800045", "name": "USPS COLLECTION BOX - BLUE BOX", "address": {"city": "LINCOLN", "state": "NE", "street": "1505 S ST", "postcode": "68508"}}},
{"geometry": {"type": "Point", "coordinates": [-96.7037711223, 40.8081794113]}, "type": "Feature", "properties": {"collection_times": [{"days": "Mon-Fri", "time": "5:20pm"}, {"days": "Sat-Sun", "time": "Closed"}], "id": "6850800050", "name": "USPS COLLECTION BOX - BLUE BOX", "address": {"city": "LINCOLN", "state": "NE", "street": "1220 LINCOLN MALL", "postcode": "68508"}}},
{"geometry": {"type": "Point", "coordinates": [-96.7056363849, 40.8055433756]}, "type": "Feature", "properties": {"collection_times": [{"days": "Mon-Fri", "time": "5:25pm"}, {"days": "Sat-Sun", "time": "Closed"}], "id": "6850800058", "name": "USPS COLLECTION BOX - BLUE BOX", "address": {"city": "LINCOLN", "state": "NE", "street": "801 S 11TH ST", "postcode": "68508"}}},
{"geometry": {"type": "Point", "coordinates": [-96.7026799337, 40.8133560573]}, "type": "Feature", "properties": {"collection_times": [{"days": "Mon-Fri", "time": "5:40pm"}, {"days": "Sat-Sun", "time": "Closed"}], "id": "6850800062", "name": "USPS COLLECTION BOX - BLUE BOX", "address": {"city": "LINCOLN", "state": "NE", "street": "121 S 13TH ST", "postcode": "68508"}}},
{"geometry": {"type": "Point", "coordinates": [-96.7026799337, 40.8133560573]}, "type": "Feature", "properties": {"collection_times": [{"days": "Mon-Fri", "time": "5:40pm"}, {"days": "Sat-Sun", "time": "Closed"}], "id": "6850800063", "name": "USPS COLLECTION BOX - BLUE BOX", "address": {"city": "LINCOLN", "state": "NE", "street": "121 S 13TH ST", "postcode": "68508"}}},
{"geometry": {"type": "Point", "coordinates": [-96.7025348301, 40.8123978675]}, "type": "Feature", "properties": {"collection_times": [{"days": "Mon-Sat", "time": "9:15am"}, {"days": "Sun", "time": "Closed"}], "id": "6850800072", "name": "USPS COLLECTION BOX - BLUE BOX", "address": {"city": "LINCOLN", "state": "NE", "street": "206 S 13TH ST", "postcode": "68508"}}},
{"geometry": {"type": "Point", "coordinates": [-96.7040773373, 40.8111717279]}, "type": "Feature", "properties": {"collection_times": [{"days": "Mon-Fri", "time": "5:20pm"}, {"days": "Sat-Sun", "time": "Closed"}], "id": "6850800074", "name": "USPS COLLECTION BOX - EXPRESS", "address": {"city": "LINCOLN", "state": "NE", "street": "233 S 13TH ST", "postcode": "68508"}}},
{"geometry": {"type": "Point", "coordinates": [-96.7026736281, 40.8138941568]}, "type": "Feature", "properties": {"collection_times": [{"days": "Mon-Fri", "time": "5:30pm"}, {"days": "Sat-Sun", "time": "Closed"}], "id": "6850800075", "name": "USPS COLLECTION BOX - BLUE BOX", "address": {"city": "LINCOLN", "state": "NE", "street": "115 N 13TH ST", "postcode": "68508"}}},
{"geometry": {"type": "Point", "coordinates": [-96.7063582727, 40.8091641376]}, "type": "Feature", "properties": {"collection_times": [{"days": "Mon-Sat", "time": "10:30am"}, {"days": "Sun", "time": "Closed"}], "id": "6850800095", "name": "USPS COLLECTION BOX - BLUE BOX", "address": {"city": "LINCOLN", "state": "NE", "street": "1045 K ST", "postcode": "68508"}}},
{"geometry": {"type": "Point", "coordinates": [-96.7085732734, 40.8090714998]}, "type": "Feature", "properties": {"collection_times": [{"days": "Mon-Sat", "time": "9:00am"}, {"days": "Sun", "time": "Closed"}], "id": "6850800096", "name": "USPS COLLECTION BOX - BLUE BOX", "address": {"city": "LINCOLN", "state": "NE", "street": "421 S 9TH ST", "postcode": "68508"}}},
{"geometry": {"type": "Point", "coordinates": [-96.7025348301, 40.8123978675]}, "type": "Feature", "properties": {"collection_times": [{"days": "Mon-Sat", "time": "9:15am"}, {"days": "Sun", "time": "Closed"}], "id": "6850800099", "name": "USPS COLLECTION BOX - BLUE BOX", "address": {"city": "LINCOLN", "state": "NE", "street": "206 S 13TH ST", "postcode": "68508"}}},
{"geometry": {"type": "Point", "coordinates": [-96.7025348301, 40.8123978675]}, "type": "Feature", "properties": {"collection_times": [{"days": "Mon-Sat", "time": "9:15am"}, {"days": "Sun", "time": "Closed"}], "id": "6850800100", "name": "USPS COLLECTION BOX - BLUE BOX", "address": {"city": "LINCOLN", "state": "NE", "street": "206 S 13TH ST", "postcode": "68508"}}},
{"geometry": {"type": "Point", "coordinates": [-96.7026736281, 40.8138941568]}, "type": "Feature", "properties": {"collection_times": [{"days": "Mon-Fri", "time": "5:30pm"}, {"days": "Sat-Sun", "time": "Closed"}], "id": "6850800103", "name": "USPS COLLECTION BOX - BLUE BOX", "address": {"city": "LINCOLN", "state": "NE", "street": "115 N 13TH ST", "postcode": "68508"}}},
{"geometry": {"type": "Point", "coordinates": [-96.7026736281, 40.8138941568]}, "type": "Feature", "properties": {"collection_times": [{"days": "Mon-Fri", "time": "5:30pm"}, {"days": "Sat-Sun", "time": "Closed"}], "id": "6850800104", "name": "USPS COLLECTION BOX - BLUE BOX", "address": {"city": "LINCOLN", "state": "NE", "street": "115 N 13TH ST", "postcode": "68508"}}},
{"geometry": {"type": "Point", "coordinates": [-96.6997593718, 40.81230036]}, "type": "Feature", "properties": {"collection_times": [{"days": "Mon-Sat", "time": "9:00am"}, {"days": "Sun", "time": "Closed"}], "id": "6850800108", "name": "USPS COLLECTION BOX - BLUE BOX", "address": {"city": "LINCOLN", "state": "NE", "street": "215 CENTENNIAL MALL S", "postcode": "68508"}}},
{"geometry": {"type": "Point", "coordinates": [-96.702695195, 40.810171703]}, "type": "Feature", "properties": {"collection_times": [{"days": "Mon-Sat", "time": "12:00pm"}, {"days": "Sun", "time": "Closed"}], "id": "6850800114", "name": "USPS COLLECTION BOX - BLUE BOX", "address": {"city": "LINCOLN", "state": "NE", "street": "411 S 13TH ST", "postcode": "68508"}}},
{"geometry": {"type": "Point", "coordinates": [-96.7019571521, 40.8068914948]}, "type": "Feature", "properties": {"collection_times": [{"days": "Mon-Fri", "time": "5:20pm"}, {"days": "Sat-Sun", "time": "Closed"}], "id": "6850800124", "name": "USPS COLLECTION BOX - BLUE BOX", "address": {"city": "LINCOLN", "state": "NE", "street": "1345 H ST", "postcode": "68508"}}},
{"geometry": {"type": "Point", "coordinates": [-96.701764905, 40.8081615318]}, "type": "Feature", "properties": {"collection_times": [{"days": "Mon-Fri", "time": "5:20pm"}, {"days": "Sat-Sun", "time": "Closed"}], "id": "6850800125", "name": "USPS COLLECTION BOX - BLUE BOX", "address": {"city": "LINCOLN", "state": "NE", "street": "1340 LINCOLN MALL", "postcode": "68508"}}},
{"geometry": {"type": "Point", "coordinates": [-96.710916376, 40.8169810002]}, "type": "Feature", "properties": {"collection_times": [{"days": "Mon-Fri", "time": "4:00pm"}, {"days": "Sat-Sun", "time": "Closed"}], "id": "6850900002", "name": "USPS COLLECTION BOX - PO LOBBY", "address": {"city": "LINCOLN", "state": "NE", "street": "301 CENTENNIAL MALL S", "postcode": "68509"}}},
{"geometry": {"type": "Point", "coordinates": [-96.6252533477, 40.8032501053]}, "type": "Feature", "properties": {"collection_times": [{"days": "Mon-Fri", "time": "4:30pm"}, {"days": "Sat", "time": "4:45pm"}, {"days": "Sun", "time": "Closed"}], "id": "6851000003", "name": "USPS COLLECTION BOX - BLUE BOX", "address": {"city": "LINCOLN", "state": "NE", "street": "1001 S 70TH ST", "postcode": "68510"}}},
{"geometry": {"type": "Point", "coordinates": [-96.624001603, 40.8132051515]}, "type": "Feature", "properties": {"collection_times": [{"days": "Mon-Sat", "time": "10:30am"}, {"days": "Sun", "time": "Closed"}], "id": "6851000007", "name": "USPS COLLECTION BOX - BLUE BOX", "address": {"city": "LINCOLN", "state": "NE", "street": "7045 O ST", "postcode": "68510"}}},
{"geometry": {"type": "Point", "coordinates": [-96.6437990105, 40.8133150271]}, "type": "Feature", "properties": {"collection_times": [{"days": "Mon-Sat", "time": "9:30am"}, {"days": "Sun", "time": "Closed"}], "id": "6851000009", "name": "USPS COLLECTION BOX - BLUE BOX", "address": {"city": "LINCOLN", "state": "NE", "street": "5625 O ST", "postcode": "68510"}}},
{"geometry": {"type": "Point", "coordinates": [-96.6176966063, 40.8132529595]}, "type": "Feature", "properties": {"collection_times": [{"days": "Mon-Sat", "time": "11:00am"}, {"days": "Sun", "time": "Closed"}], "id": "6851000012", "name": "USPS COLLECTION BOX - BLUE BOX", "address": {"city": "LINCOLN", "state": "NE", "street": "7501 O ST", "postcode": "68510"}}},
{"geometry": {"type": "Point", "coordinates": [-96.6252426944, 40.8083578687]}, "type": "Feature", "properties": {"collection_times": [{"days": "Mon-Fri", "time": "4:25pm"}, {"days": "Sat-Sun", "time": "Closed"}], "id": "6851000015", "name": "USPS COLLECTION BOX - BLUE BOX", "address": {"city": "LINCOLN", "state": "NE", "street": "575 S 70TH ST", "postcode": "68510"}}},
{"geometry": {"type": "Point", "coordinates": [-96.6727107326, 40.7989987784]}, "type": "Feature", "properties": {"collection_times": [{"days": "Mon-Fri", "time": "5:05pm"}, {"days": "Sat", "time": "3:30pm"}, {"days": "Sun", "time": "Closed"}], "id": "6851000019", "name": "USPS COLLECTION BOX - BLUE BOX", "address": {"city": "LINCOLN", "state": "NE", "street": "3306 A ST", "postcode": "68510"}}},
{"geometry": {"type": "Point", "coordinates": [-96.6822500889, 40.8048310078]}, "type": "Feature", "properties": {"collection_times": [{"days": "Mon-Sat", "time": "10:00am"}, {"days": "Sun", "time": "Closed"}], "id": "6851000023", "name": "USPS COLLECTION BOX - BLUE BOX", "address": {"city": "LINCOLN", "state": "NE", "street": "900 S 27TH ST", "postcode": "68510"}}},
{"geometry": {"type": "Point", "coordinates": [-96.6938611603, 40.8092237311]}, "type": "Feature", "properties": {"collection_times": [{"days": "Mon-Fri", "time": "5:00pm"}, {"days": "Sat", "time": "3:20pm"}, {"days": "Sun", "time": "Closed"}], "id": "6851000026", "name": "USPS COLLECTION BOX - BLUE BOX", "address": {"city": "LINCOLN", "state": "NE", "street": "1900 K ST", "postcode": "68510"}}},
{"geometry": {"type": "Point", "coordinates": [-96.6545964147, 40.8062531816]}, "type": "Feature", "properties": {"collection_times": [{"days": "Mon-Fri", "time": "5:05pm"}, {"days": "Sat-Sun", "time": "Closed"}], "id": "6851000029", "name": "USPS COLLECTION BOX - BLUE BOX", "address": {"city": "LINCOLN", "state": "NE", "street": "2535 O ST", "postcode": "68510"}}},
{"geometry": {"type": "Point", "coordinates": [-96.6061022027, 40.811667125]}, "type": "Feature", "properties": {"collection_times": [{"days": "Mon-Sat", "time": "10:45am"}, {"days": "Sun", "time": "Closed"}], "id": "6851000036", "name": "USPS COLLECTION BOX - BLUE BOX", "address": {"city": "LINCOLN", "state": "NE", "street": "245 S 84TH ST", "postcode": "68510"}}},
{"geometry": {"type": "Point", "coordinates": [-96.6260572032, 40.8134594175]}, "type": "Feature", "properties": {"collection_times": [{"days": "Mon-Fri", "time": "4:15pm"}, {"days": "Sat-Sun", "time": "Closed"}], "id": "6851000037", "name": "USPS COLLECTION BOX - BLUE BOX", "address": {"city": "LINCOLN", "state": "NE", "street": "6940 O ST", "postcode": "68510"}}},
{"geometry": {"type": "Point", "coordinates": [-96.6252544717, 40.8119020515]}, "type": "Feature", "properties": {"collection_times": [{"days": "Mon-Sat", "time": "8:45am"}, {"days": "Sun", "time": "Closed"}], "id": "6851000040", "name": "USPS COLLECTION BOX - BLUE BOX", "address": {"city": "LINCOLN", "state": "NE", "street": "237 S 70TH ST", "postcode": "68510"}}},
{"geometry": {"type": "Point", "coordinates": [-96.6260572032, 40.8134594175]}, "type": "Feature", "properties": {"collection_times": [{"days": "Mon-Fri", "time": "4:15pm"}, {"days": "Sat-Sun", "time": "Closed"}], "id": "6851000042", "name": "USPS COLLECTION BOX - BLUE BOX", "address": {"city": "LINCOLN", "state": "NE", "street": "6940 O ST", "postcode": "68510"}}},
{"geometry": {"type": "Point", "coordinates": [-96.6254771755, 40.7987426838]}, "type": "Feature", "properties": {"collection_times": [{"days": "Mon-Sat", "time": "9:30am"}, {"days": "Sun", "time": "Closed"}], "id": "6851000044", "name": "USPS COLLECTION BOX - BLUE BOX", "address": {"city": "LINCOLN", "state": "NE", "street": "6981 A ST", "postcode": "68510"}}},
{"geometry": {"type": "Point", "coordinates": [-96.6260572032, 40.8134594175]}, "type": "Feature", "properties": {"collection_times": [{"days": "Mon-Fri", "time": "4:15pm"}, {"days": "Sat-Sun", "time": "Closed"}], "id": "6851000051", "name": "USPS COLLECTION BOX - BLUE BOX", "address": {"city": "LINCOLN", "state": "NE", "street": "6940 O ST", "postcode": "68510"}}},
{"geometry": {"type": "Point", "coordinates": [-96.6061022027, 40.811667125]}, "type": "Feature", "properties": {"collection_times": [{"days": "Mon-Sat", "time": "10:45am"}, {"days": "Sun", "time": "Closed"}], "id": "6851000055", "name": "USPS COLLECTION BOX - BLUE BOX", "address": {"city": "LINCOLN", "state": "NE", "street": "245 S 84TH ST", "postcode": "68510"}}},
{"geometry": {"type": "Point", "coordinates": [-96.6545964147, 40.8062531816]}, "type": "Feature", "properties": {"collection_times": [{"days": "Mon-Fri", "time": "5:05pm"}, {"days": "Sat", "time": "5:10pm"}, {"days": "Sun", "time": "Closed"}], "id": "6851000061", "name": "USPS COLLECTION BOX - BLUE BOX", "address": {"city": "LINCOLN", "state": "NE", "street": "401 S 33RD ST", "postcode": "68510"}}},
{"geometry": {"type": "Point", "coordinates": [-96.7004635634, 40.7662187357]}, "type": "Feature", "properties": {"collection_times": [{"days": "Mon-Fri", "time": "5:30pm"}, {"days": "Sat", "time": "5:40pm"}, {"days": "Sun", "time": "Closed"}], "id": "6851200002", "name": "USPS COLLECTION BOX - BLUE BOX", "address": {"city": "LINCOLN", "state": "NE", "street": "1500 CENTER PARK RD", "postcode": "68512"}}},
{"geometry": {"type": "Point", "coordinates": [-96.7004635634, 40.7662187357]}, "type": "Feature", "properties": {"collection_times": [{"days": "Mon-Fri", "time": "5:30pm"}, {"days": "Sat", "time": "5:40pm"}, {"days": "Sun", "time": "Closed"}], "id": "6851200004", "name": "USPS COLLECTION BOX - BLUE BOX", "address": {"city": "LINCOLN", "state": "NE", "street": "1500 CENTER PARK RD", "postcode": "68512"}}},
{"geometry": {"type": "Point", "coordinates": [-96.682634324, 40.7580163657]}, "type": "Feature", "properties": {"collection_times": [{"days": "Mon-Fri", "time": "5:40pm"}, {"days": "Sat", "time": "4:00pm"}, {"days": "Sun", "time": "Closed"}], "id": "6851200007", "name": "USPS COLLECTION BOX - BLUE BOX", "address": {"city": "LINCOLN", "state": "NE", "street": "5533 S 27TH ST", "postcode": "68512"}}},
{"geometry": {"type": "Point", "coordinates": [-96.7028763388, 40.7321699034]}, "type": "Feature", "properties": {"collection_times": [{"days": "Mon-Fri", "time": "4:25pm"}, {"days": "Sat-Sun", "time": "Closed"}], "id": "6851200010", "name": "USPS COLLECTION BOX - BLUE BOX", "address": {"city": "LINCOLN", "state": "NE", "street": "1233 INFINITY CT", "postcode": "68512"}}},
{"geometry": {"type": "Point", "coordinates": [-96.6419062013, 40.7528187938]}, "type": "Feature", "properties": {"collection_times": [{"days": "Mon-Fri", "time": "5:05pm"}, {"days": "Sat", "time": "4:20pm"}, {"days": "Sun", "time": "Closed"}], "id": "6851600001", "name": "USPS COLLECTION BOX - BLUE BOX", "address": {"city": "LINCOLN", "state": "NE", "street": "5930 S 58TH ST", "postcode": "68516"}}},
{"geometry": {"type": "Point", "coordinates": [-96.6419062013, 40.7528187938]}, "type": "Feature", "properties": {"collection_times": [{"days": "Mon-Fri", "time": "5:05pm"}, {"days": "Sat", "time": "4:20pm"}, {"days": "Sun", "time": "Closed"}], "id": "6851600002", "name": "USPS COLLECTION BOX - BLUE BOX", "address": {"city": "LINCOLN", "state": "NE", "street": "5930 S 58TH ST", "postcode": "68516"}}},
{"geometry": {"type": "Point", "coordinates": [-96.6441748929, 40.7574423685]}, "type": "Feature", "properties": {"collection_times": [{"days": "Mon-Fri", "time": "5:15pm"}, {"days": "Sat-Sun", "time": "Closed"}], "id": "6851600003", "name": "USPS COLLECTION BOX - BLUE BOX", "address": {"city": "LINCOLN", "state": "NE", "street": "5500 S 56TH ST", "postcode": "68516"}}},
{"geometry": {"type": "Point", "coordinates": [-96.6645800588, 40.7512921434]}, "type": "Feature", "properties": {"collection_times": [{"days": "Mon-Fri", "time": "4:35pm"}, {"days": "Sat", "time": "5:25pm"}, {"days": "Sun", "time": "Closed"}], "id": "6851600007", "name": "USPS COLLECTION BOX - BLUE BOX", "address": {"city": "LINCOLN", "state": "NE", "street": "6040 VILLAGE DR", "postcode": "68516"}}},
{"geometry": {"type": "Point", "coordinates": [-96.65383, 40.758156]}, "type": "Feature", "properties": {"collection_times": [{"days": "Mon-Fri", "time": "5:20pm"}, {"days": "Sat", "time": "5:10pm"}, {"days": "Sun", "time": "Closed"}], "id": "6851600010", "name": "USPS COLLECTION BOX - BLUE BOX", "address": {"city": "LINCOLN", "state": "NE", "street": "5551 S 48TH ST", "postcode": "68516"}}},
{"geometry": {"type": "Point", "coordinates": [-96.6253714117, 40.7679862224]}, "type": "Feature", "properties": {"collection_times": [{"days": "Mon-Sat", "time": "5:00pm"}, {"days": "Sun", "time": "Closed"}], "id": "6851600021", "name": "USPS COLLECTION BOX - BLUE BOX", "address": {"city": "LINCOLN", "state": "NE", "street": "4501 S 70TH ST", "postcode": "68516"}}},
{"geometry": {"type": "Point", "coordinates": [-96.6779274643, 40.7388172931]}, "type": "Feature", "properties": {"collection_times": [{"days": "Mon-Fri", "time": "4:30pm"}, {"days": "Sat", "time": "4:05pm"}, {"days": "Sun", "time": "Closed"}], "id": "6851600023", "name": "USPS COLLECTION BOX - BLUE BOX", "address": {"city": "LINCOLN", "state": "NE", "street": "7120 S 29TH ST", "postcode": "68516"}}},
{"geometry": {"type": "Point", "coordinates": [-96.6464274121, 40.7384076165]}, "type": "Feature", "properties": {"collection_times": [{"days": "Mon-Fri", "time": "5:00pm"}, {"days": "Sat", "time": "5:15pm"}, {"days": "Sun", "time": "Closed"}], "id": "6851600024", "name": "USPS COLLECTION BOX - BLUE BOX", "address": {"city": "LINCOLN", "state": "NE", "street": "5301 RED ROCK LN", "postcode": "68516"}}},
{"geometry": {"type": "Point", "coordinates": [-96.6645800588, 40.7512921434]}, "type": "Feature", "properties": {"collection_times": [{"days": "Mon-Fri", "time": "4:35pm"}, {"days": "Sat", "time": "5:25pm"}, {"days": "Sun", "time": "Closed"}], "id": "6851600025", "name": "USPS COLLECTION BOX - BLUE BOX", "address": {"city": "LINCOLN", "state": "NE", "street": "6040 VILLAGE DR", "postcode": "68516"}}},
{"geometry": {"type": "Point", "coordinates": [-96.6779274643, 40.7388172931]}, "type": "Feature", "properties": {"collection_times": [{"days": "Mon-Fri", "time": "4:30pm"}, {"days": "Sat", "time": "4:05pm"}, {"days": "Sun", "time": "Closed"}], "id": "6851600026", "name": "USPS COLLECTION BOX - BLUE BOX", "address": {"city": "LINCOLN", "state": "NE", "street": "7120 S 29TH ST", "postcode": "68516"}}},
{"geometry": {"type": "Point", "coordinates": [-96.6727996149, 40.7681370354]}, "type": "Feature", "properties": {"collection_times": [{"days": "Mon-Fri", "time": "2:35pm"}, {"days": "Sat", "time": "3:50pm"}, {"days": "Sun", "time": "Closed"}], "id": "6851600030", "name": "USPS COLLECTION BOX - BLUE BOX", "address": {"city": "LINCOLN", "state": "NE", "street": "4400 S 33RD STREET CT", "postcode": "68516"}}},
{"geometry": {"type": "Point", "coordinates": [-96.7011310887, 40.8433483193]}, "type": "Feature", "properties": {"collection_times": [{"days": "Mon-Fri", "time": "5:20pm"}, {"days": "Sat-Sun", "time": "Closed"}], "id": "6852100004", "name": "USPS COLLECTION BOX - BLUE BOX", "address": {"city": "LINCOLN", "state": "NE", "street": "3100 N 14TH ST", "postcode": "68521"}}},
{"geometry": {"type": "Point", "coordinates": [-96.739864907, 40.8416158987]}, "type": "Feature", "properties": {"collection_times": [{"days": "Mon-Fri", "time": "5:00pm"}, {"days": "Sat-Sun", "time": "Closed"}], "id": "6852100005", "name": "USPS COLLECTION BOX - BLUE BOX", "address": {"city": "LINCOLN", "state": "NE", "street": "2925 NW 12TH ST", "postcode": "68521"}}},
{"geometry": {"type": "Point", "coordinates": [-96.6826245425, 40.8427074351]}, "type": "Feature", "properties": {"collection_times": [{"days": "Mon-Fri", "time": "5:40pm"}, {"days": "Sat-Sun", "time": "Closed"}], "id": "6852100011", "name": "USPS COLLECTION BOX - BLUE BOX", "address": {"city": "LINCOLN", "state": "NE", "street": "2662 CORNHUSKER HWY", "postcode": "68521"}}},
{"geometry": {"type": "Point", "coordinates": [-96.7060328837, 40.8391998842]}, "type": "Feature", "properties": {"collection_times": [{"days": "Mon-Fri", "time": "5:25pm"}, {"days": "Sat", "time": "3:10pm"}, {"days": "Sun", "time": "Closed"}], "id": "6852100013", "name": "USPS COLLECTION BOX - BLUE BOX", "address": {"city": "LINCOLN", "state": "NE", "street": "2601 N 11TH ST", "postcode": "68521"}}},
{"geometry": {"type": "Point", "coordinates": [-96.7009731844, 40.8573344184]}, "type": "Feature", "properties": {"collection_times": [{"days": "Mon-Fri", "time": "5:15pm"}, {"days": "Sat", "time": "3:15pm"}, {"days": "Sun", "time": "Closed"}], "id": "6852100023", "name": "USPS COLLECTION BOX - BLUE BOX", "address": {"city": "LINCOLN", "state": "NE", "street": "1401 SUPERIOR ST", "postcode": "68521"}}},
{"geometry": {"type": "Point", "coordinates": [-96.6836534335, 40.8604540554]}, "type": "Feature", "properties": {"collection_times": [{"days": "Mon-Fri", "time": "4:45pm"}, {"days": "Sat-Sun", "time": "Closed"}], "id": "6852100025", "name": "USPS COLLECTION BOX - BLUE BOX", "address": {"city": "LINCOLN", "state": "NE", "street": "4911 N 26TH ST", "postcode": "68521"}}},
{"geometry": {"type": "Point", "coordinates": [-96.6897536749, 40.8425108096]}, "type": "Feature", "properties": {"collection_times": [{"days": "Mon-Fri", "time": "5:40pm"}, {"days": "Sat-Sun", "time": "Closed"}], "id": "6852100026", "name": "USPS COLLECTION BOX - BLUE BOX", "address": {"city": "LINCOLN", "state": "NE", "street": "2135 CORNHUSKER HWY", "postcode": "68521"}}},
{"geometry": {"type": "Point", "coordinates": [-96.7222433402, 40.8701834264]}, "type": "Feature", "properties": {"collection_times": [{"days": "Mon-Fri", "time": "5:15pm"}, {"days": "Sat", "time": "3:30pm"}, {"days": "Sun", "time": "Closed"}], "id": "6852100027", "name": "USPS COLLECTION BOX - BLUE BOX", "address": {"city": "LINCOLN", "state": "NE", "street": "100 W FLETCHER AVE", "postcode": "68521"}}},
{"geometry": {"type": "Point", "coordinates": [-96.682050436, 40.8807649033]}, "type": "Feature", "properties": {"collection_times": [{"days": "Mon-Fri", "time": "4:40pm"}, {"days": "Sat", "time": "3:30pm"}, {"days": "Sun", "time": "Closed"}], "id": "6852100032", "name": "USPS COLLECTION BOX - BLUE BOX", "address": {"city": "LINCOLN", "state": "NE", "street": "6835 N 27TH ST", "postcode": "68521"}}},
{"geometry": {"type": "Point", "coordinates": [-96.7268778928, 40.7990452071]}, "type": "Feature", "properties": {"collection_times": [{"days": "Mon-Fri", "time": "4:35pm"}, {"days": "Sat", "time": "2:55pm"}, {"days": "Sun", "time": "Closed"}], "id": "6852200002", "name": "USPS COLLECTION BOX - BLUE BOX", "address": {"city": "LINCOLN", "state": "NE", "street": "501 W A ST", "postcode": "68522"}}},
{"geometry": {"type": "Point", "coordinates": [-96.7492936028, 40.7982068282]}, "type": "Feature", "properties": {"collection_times": [{"days": "Mon-Fri", "time": "4:30pm"}, {"days": "Sat", "time": "3:00pm"}, {"days": "Sun", "time": "Closed"}], "id": "6852200004", "name": "USPS COLLECTION BOX - BLUE BOX", "address": {"city": "LINCOLN", "state": "NE", "street": "1550 S CODDINGTON AVE", "postcode": "68522"}}},
{"geometry": {"type": "Point", "coordinates": [-96.787460463, 40.840040995]}, "type": "Feature", "properties": {"collection_times": [{"days": "Mon-Sat", "time": "2:00pm"}, {"days": "Sun", "time": "Closed"}], "id": "6852400001", "name": "USPS COLLECTION BOX - BLUE BOX", "address": {"city": "LINCOLN", "state": "NE", "street": "2805 NW 48TH ST", "postcode": "68524"}}},
{"geometry": {"type": "Point", "coordinates": [-96.7461879278, 40.8469364031]}, "type": "Feature", "properties": {"collection_times": [{"days": "Mon-Fri", "time": "5:00pm"}, {"days": "Sat-Sun", "time": "Closed"}], "id": "6852400002", "name": "USPS COLLECTION BOX - BLUE BOX", "address": {"city": "LINCOLN", "state": "NE", "street": "3431 AVIATION RD", "postcode": "68524"}}},
{"geometry": {"type": "Point", "coordinates": [-96.7529439295, 40.8442602722]}, "type": "Feature", "properties": {"collection_times": [{"days": "Mon-Fri", "time": "5:00pm"}, {"days": "Sat-Sun", "time": "Closed"}], "id": "6852400008", "name": "USPS COLLECTION BOX - BLUE BOX", "address": {"city": "LINCOLN", "state": "NE", "street": "2400 W ADAMS ST", "postcode": "68524"}}},
{"geometry": {"type": "Point", "coordinates": [-96.5998234984, 40.734047746]}, "type": "Feature", "properties": {"collection_times": [{"days": "Mon-Fri", "time": "5:25pm"}, {"days": "Sat", "time": "4:30pm"}, {"days": "Sun", "time": "Closed"}], "id": "6852600001", "name": "USPS COLLECTION BOX - BLUE BOX", "address": {"city": "LINCOLN", "state": "NE", "street": "8700 ANDERMATT DR", "postcode": "68526"}}},
{"geometry": {"type": "Point", "coordinates": [-96.6035182983, 40.7689824302]}, "type": "Feature", "properties": {"collection_times": [{"days": "Mon-Fri", "time": "5:25pm"}, {"days": "Sat-Sun", "time": "Closed"}], "id": "6852600002", "name": "USPS COLLECTION BOX - BLUE BOX", "address": {"city": "LINCOLN", "state": "NE", "street": "4400 S 86TH ST", "postcode": "68526"}}},
{"geometry": {"type": "Point", "coordinates": [-96.5998234984, 40.734047746]}, "type": "Feature", "properties": {"collection_times": [{"days": "Mon-Fri", "time": "5:25pm"}, {"days": "Sat", "time": "4:30pm"}, {"days": "Sun", "time": "Closed"}], "id": "6852600004", "name": "USPS COLLECTION BOX - BLUE BOX", "address": {"city": "LINCOLN", "state": "NE", "street": "8700 ANDERMATT DR", "postcode": "68526"}}},
{"geometry": {"type": "Point", "coordinates": [-96.7402721592, 40.8138212169]}, "type": "Feature", "properties": {"collection_times": [{"days": "Mon-Fri", "time": "5:35pm"}, {"days": "Sat", "time": "3:05pm"}, {"days": "Sun", "time": "Closed"}], "id": "6852800002", "name": "USPS COLLECTION BOX - BLUE BOX", "address": {"city": "LINCOLN", "state": "NE", "street": "1240 W O ST", "postcode": "68528"}}},
{"geometry": {"type": "Point", "coordinates": [-96.7397697157, 40.8138796045]}, "type": "Feature", "properties": {"collection_times": [{"days": "Mon-Fri", "time": "5:35pm"}, {"days": "Sat", "time": "3:05pm"}, {"days": "Sun", "time": "Closed"}], "id": "6852800003", "name": "USPS COLLECTION BOX - BLUE BOX", "address": {"city": "LINCOLN", "state": "NE", "street": "1240 W O ST", "postcode": "68528"}}},
{"geometry": {"type": "Point", "coordinates": [-96.7241540167, 40.8191781611]}, "type": "Feature", "properties": {"collection_times": [{"days": "Mon-Fri", "time": "5:30pm"}, {"days": "Sat-Sun", "time": "Closed"}], "id": "6852800010", "name": "USPS COLLECTION BOX - BLUE BOX", "address": {"city": "LINCOLN", "state": "NE", "street": "621 WESTGATE BLVD", "postcode": "68528"}}},
{"geometry": {"type": "Point", "coordinates": [-96.6352036473, 40.8581881086]}, "type": "Feature", "properties": {"collection_times": [{"days": "Mon-Fri", "time": "5:20pm"}, {"days": "Sat", "time": "3:55pm"}, {"days": "Sun", "time": "Closed"}], "id": "6852900001", "name": "USPS COLLECTION BOX - BLUE BOX", "address": {"city": "LINCOLN", "state": "NE", "street": "6240 PLATTE AVE", "postcode": "68529"}}},
{"geometry": {"type": "Point", "coordinates": [-96.6352036473, 40.8581881086]}, "type": "Feature", "properties": {"collection_times": [{"days": "Mon-Fri", "time": "4:35pm"}, {"days": "Sat-Sun", "time": "Closed"}], "id": "6852900003", "name": "USPS COLLECTION BOX - PO LOBBY", "address": {"city": "LINCOLN", "state": "NE", "street": "6240 PLATTE AVE", "postcode": "68529"}}}
]}
