{"type": "FeatureCollection", "features": [
{"geometry": {"type": "Point", "coordinates": [-97.3572409075, 41.4292056836]}, "type": "Feature", "properties": {"collection_times": [{"days": "Mon-Sat", "time": "2:00pm"}, {"days": "Sun", "time": "Closed"}], "id": "6860100006", "name": "USPS COLLECTION BOX - BLUE BOX", "address": {"city": "COLUMBUS", "state": "NE", "street": "2423 13TH ST", "postcode": "68601"}}},
{"geometry": {"type": "Point", "coordinates": [-97.3623202263, 41.429270889]}, "type": "Feature", "properties": {"collection_times": [{"days": "Mon-Sat", "time": "2:00pm"}, {"days": "Sun", "time": "Closed"}], "id": "6860100009", "name": "USPS COLLECTION BOX - BLUE BOX", "address": {"city": "COLUMBUS", "state": "NE", "street": "2827 13TH ST", "postcode": "68601"}}},
{"geometry": {"type": "Point", "coordinates": [-97.3288316616, 41.4385195904]}, "type": "Feature", "properties": {"collection_times": [{"days": "Mon-Fri", "time": "2:00pm"}, {"days": "Sat", "time": "12:00pm"}, {"days": "Sun", "time": "Closed"}], "id": "6860100020", "name": "USPS COLLECTION BOX - BLUE BOX", "address": {"city": "COLUMBUS", "state": "NE", "street": "220 23RD ST", "postcode": "68601"}}},
{"geometry": {"type": "Point", "coordinates": [-97.351556065, 41.4521024342]}, "type": "Feature", "properties": {"collection_times": [{"days": "Mon-Fri", "time": "2:00pm"}, {"days": "Sat", "time": "4:00pm"}, {"days": "Sun", "time": "Closed"}], "id": "6860100021", "name": "USPS COLLECTION BOX - BLUE BOX", "address": {"city": "COLUMBUS", "state": "NE", "street": "100 MAIN ST", "postcode": "68601"}}},
{"geometry": {"type": "Point", "coordinates": [-97.3569325179, 41.4317515647]}, "type": "Feature", "properties": {"collection_times": [{"days": "Mon-Fri", "time": "4:25pm"}, {"days": "Sat", "time": "4:00pm"}, {"days": "Sun", "time": "Closed"}], "id": "6860100022", "name": "USPS COLLECTION BOX - BLUE BOX", "address": {"city": "COLUMBUS", "state": "NE", "street": "1555 24TH AVE", "postcode": "68601"}}},
{"geometry": {"type": "Point", "coordinates": [-97.351556065, 41.4521024342]}, "type": "Feature", "properties": {"collection_times": [{"days": "Mon-Sat", "time": "2:00pm"}, {"days": "Sun", "time": "Closed"}], "id": "6860100026", "name": "USPS COLLECTION BOX - BLUE BOX", "address": {"city": "COLUMBUS", "state": "NE", "street": "3423 21ST ST", "postcode": "68601"}}},
{"geometry": {"type": "Point", "coordinates": [-97.3493135895, 41.4386389078]}, "type": "Feature", "properties": {"collection_times": [{"days": "Mon-Sat", "time": "2:00pm"}, {"days": "Sun", "time": "Closed"}], "id": "6860100027", "name": "USPS COLLECTION BOX - BLUE BOX", "address": {"city": "COLUMBUS", "state": "NE", "street": "1810 23RD ST", "postcode": "68601"}}},
{"geometry": {"type": "Point", "coordinates": [-97.3569325179, 41.4317515647]}, "type": "Feature", "properties": {"collection_times": [{"days": "Mon-Fri", "time": "4:25pm"}, {"days": "Sat", "time": "4:00pm"}, {"days": "Sun", "time": "Closed"}], "id": "6860100028", "name": "USPS COLLECTION BOX - BLUE BOX", "address": {"city": "COLUMBUS", "state": "NE", "street": "1555 24TH AVE", "postcode": "68601"}}},
{"geometry": {"type": "Point", "coordinates": [-97.3410495167, 41.4239476754]}, "type": "Feature", "properties": {"collection_times": [{"days": "Mon-Sat", "time": "2:00pm"}, {"days": "Sun", "time": "Closed"}], "id": "6860100035", "name": "USPS COLLECTION BOX - BLUE BOX", "address": {"city": "COLUMBUS", "state": "NE", "street": "1118 8TH ST", "postcode": "68601"}}},
{"geometry": {"type": "Point", "coordinates": [-97.3799860416, 41.4388568367]}, "type": "Feature", "properties": {"collection_times": [{"days": "Mon-Sat", "time": "2:00pm"}, {"days": "Sun", "time": "Closed"}], "id": "6860100039", "name": "USPS COLLECTION BOX - BLUE BOX", "address": {"city": "COLUMBUS", "state": "NE", "street": "4320 23RD ST", "postcode": "68601"}}},
{"geometry": {"type": "Point", "coordinates": [-97.3569325179, 41.4317515647]}, "type": "Feature", "properties": {"collection_times": [{"days": "Mon-Fri", "time": "4:15pm"}, {"days": "Sat", "time": "4:00pm"}, {"days": "Sun", "time": "Closed"}], "id": "6860100040", "name": "USPS COLLECTION BOX - PO LOBBY", "address": {"city": "COLUMBUS", "state": "NE", "street": "1555 24TH AVE", "postcode": "68601"}}},
{"geometry": {"type": "Point", "coordinates": [-97.3669827457, 41.4386016322]}, "type": "Feature", "properties": {"collection_times": [{"days": "Mon-Sat", "time": "2:00pm"}, {"days": "Sun", "time": "Closed"}], "id": "6860100042", "name": "USPS COLLECTION BOX - BLUE BOX", "address": {"city": "COLUMBUS", "state": "NE", "street": "3225 23RD ST", "postcode": "68601"}}},
{"geometry": {"type": "Point", "coordinates": [-97.3595180157, 41.4303249123]}, "type": "Feature", "properties": {"collection_times": [{"days": "Mon-Fri", "time": "2:00pm"}, {"days": "Sat-Sun", "time": "Closed"}], "id": "6860100044", "name": "USPS COLLECTION BOX - BLUE BOX", "address": {"city": "COLUMBUS", "state": "NE", "street": "2610 14TH ST", "postcode": "68601"}}},
{"geometry": {"type": "Point", "coordinates": [-97.3597627204, 41.4292413582]}, "type": "Feature", "properties": {"collection_times": [{"days": "Mon-Sat", "time": "2:00pm"}, {"days": "Sun", "time": "Closed"}], "id": "6860100045", "name": "USPS COLLECTION BOX - BLUE BOX", "address": {"city": "COLUMBUS", "state": "NE", "street": "2623 13TH ST", "postcode": "68601"}}},
{"geometry": {"type": "Point", "coordinates": [-97.3184298947, 41.4383793033]}, "type": "Feature", "properties": {"collection_times": [{"days": "Mon-Sat", "time": "2:00pm"}, {"days": "Sun", "time": "Closed"}], "id": "6860100048", "name": "USPS COLLECTION BOX - BLUE BOX", "address": {"city": "COLUMBUS", "state": "NE", "street": "818 E 23RD ST", "postcode": "68601"}}},
{"geometry": {"type": "Point", "coordinates": [-97.3217388632, 41.4385997962]}, "type": "Feature", "properties": {"collection_times": [{"days": "Mon-Sat", "time": "10:00am"}, {"days": "Sun", "time": "Closed"}], "id": "6860100049", "name": "USPS COLLECTION BOX - BLUE BOX", "address": {"city": "COLUMBUS", "state": "NE", "street": "517 E 23RD ST", "postcode": "68601"}}},
{"geometry": {"type": "Point", "coordinates": [-98.0001073009, 41.6919566837]}, "type": "Feature", "properties": {"collection_times": [{"days": "Mon-Sat", "time": "2:20pm"}, {"days": "Sun", "time": "Closed"}], "id": "6862000002", "name": "USPS COLLECTION BOX - BLUE BOX", "address": {"city": "ALBION", "state": "NE", "street": "310 W CHURCH ST", "postcode": "68620"}}},
{"geometry": {"type": "Point", "coordinates": [-98.0001073009, 41.6919566837]}, "type": "Feature", "properties": {"collection_times": [{"days": "Mon-Fri", "time": "2:20pm"}, {"days": "Sat", "time": "9:45am"}, {"days": "Sun", "time": "Closed"}], "id": "6862000003", "name": "USPS COLLECTION BOX - PO LOBBY", "address": {"city": "ALBION", "state": "NE", "street": "310 W CHURCH ST", "postcode": "68620"}}},
{"geometry": {"type": "Point", "coordinates": [-96.6360487327, 41.4785006198]}, "type": "Feature", "properties": {"collection_times": [{"days": "Mon-Fri", "time": "12:15pm"}, {"days": "Sat", "time": "10:45am"}, {"days": "Sun", "time": "Closed"}], "id": "6862100000", "name": "USPS COLLECTION BOX - BLUE BOX", "address": {"city": "AMES", "state": "NE", "street": "210 N MAIN ST", "postcode": "68621"}}},
{"geometry": {"type": "Point", "coordinates": [-96.6360487327, 41.4785006198]}, "type": "Feature", "properties": {"collection_times": [{"days": "Mon-Fri", "time": "12:15pm"}, {"days": "Sat", "time": "10:45am"}, {"days": "Sun", "time": "Closed"}], "id": "6862100001", "name": "USPS COLLECTION BOX - PO LOBBY", "address": {"city": "AMES", "state": "NE", "street": "210 N MAIN ST", "postcode": "68621"}}},
{"geometry": {"type": "Point", "coordinates": [-98.5573322608, 41.8708234061]}, "type": "Feature", "properties": {"collection_times": [{"days": "Mon-Sat", "time": "12:45pm"}, {"days": "Sun", "time": "Closed"}], "id": "6862200001", "name": "USPS COLLECTION BOX - BLUE BOX", "address": {"city": "BARTLETT", "state": "NE", "street": "300 3RD ST", "postcode": "68622"}}},
{"geometry": {"type": "Point", "coordinates": [-98.5573322608, 41.8708234061]}, "type": "Feature", "properties": {"collection_times": [{"days": "Mon-Fri", "time": "12:45pm"}, {"days": "Sat", "time": "11:00am"}, {"days": "Sun", "time": "Closed"}], "id": "6862200002", "name": "USPS COLLECTION BOX - PO LOBBY", "address": {"city": "BARTLETT", "state": "NE", "street": "300 3RD ST", "postcode": "68622"}}},
{"geometry": {"type": "Point", "coordinates": [-98.0680812946, 41.4706945396]}, "type": "Feature", "properties": {"collection_times": [{"days": "Mon-Fri", "time": "1:15pm"}, {"days": "Sat", "time": "2:15pm"}, {"days": "Sun", "time": "Closed"}], "id": "6862300001", "name": "USPS COLLECTION BOX - BLUE BOX", "address": {"city": "BELGRADE", "state": "NE", "street": "212 C ST", "postcode": "68623"}}},
{"geometry": {"type": "Point", "coordinates": [-98.0680812946, 41.4706945396]}, "type": "Feature", "properties": {"collection_times": [{"days": "Mon-Fri", "time": "1:15pm"}, {"days": "Sat", "time": "11:45am"}, {"days": "Sun", "time": "Closed"}], "id": "6862300002", "name": "USPS COLLECTION BOX - PO LOBBY", "address": {"city": "BELGRADE", "state": "NE", "street": "212 C ST", "postcode": "68623"}}},
{"geometry": {"type": "Point", "coordinates": [-97.2388236012, 41.3416603018]}, "type": "Feature", "properties": {"collection_times": [{"days": "Mon-Sat", "time": "3:00pm"}, {"days": "Sun", "time": "Closed"}], "id": "6862400001", "name": "USPS COLLECTION BOX - BLUE BOX", "address": {"city": "BELLWOOD", "state": "NE", "street": "502 ESPLANADE ST", "postcode": "68624"}}},
{"geometry": {"type": "Point", "coordinates": [-97.2388236012, 41.3416603018]}, "type": "Feature", "properties": {"collection_times": [{"days": "Mon-Fri", "time": "11:45am"}, {"days": "Sat", "time": "8:45am"}, {"days": "Sun", "time": "Closed"}], "id": "6862400002", "name": "USPS COLLECTION BOX - PO LOBBY", "address": {"city": "BELLWOOD", "state": "NE", "street": "502 ESPLANADE ST", "postcode": "68624"}}},
{"geometry": {"type": "Point", "coordinates": [-96.9903811486, 41.1664465035]}, "type": "Feature", "properties": {"collection_times": [{"days": "Mon-Sat", "time": "2:10pm"}, {"days": "Sun", "time": "Closed"}], "id": "6862600000", "name": "USPS COLLECTION BOX - BLUE BOX", "address": {"city": "BRAINARD", "state": "NE", "street": "101 W HAMILTON ST", "postcode": "68626"}}},
{"geometry": {"type": "Point", "coordinates": [-97.0021379548, 41.1832784824]}, "type": "Feature", "properties": {"collection_times": [{"days": "Mon-Fri", "time": "2:10pm"}, {"days": "Sat", "time": "10:45am"}, {"days": "Sun", "time": "Closed"}], "id": "6862600001", "name": "USPS COLLECTION BOX - PO LOBBY", "address": {"city": "BRAINARD", "state": "NE", "street": "100 N MADISON ST", "postcode": "68626"}}},
{"geometry": {"type": "Point", "coordinates": [-98.1444948915, 41.560070854]}, "type": "Feature", "properties": {"collection_times": [{"days": "Mon-Fri", "time": "1:50pm"}, {"days": "Sat", "time": "1:45pm"}, {"days": "Sun", "time": "Closed"}], "id": "6862700001", "name": "USPS COLLECTION BOX - BLUE BOX", "address": {"city": "CEDAR RAPIDS", "state": "NE", "street": "214 W MAIN ST", "postcode": "68627"}}},
{"geometry": {"type": "Point", "coordinates": [-98.1444948915, 41.560070854]}, "type": "Feature", "properties": {"collection_times": [{"days": "Mon-Fri", "time": "1:45pm"}, {"days": "Sat", "time": "9:30am"}, {"days": "Sun", "time": "Closed"}], "id": "6862700002", "name": "USPS COLLECTION BOX - PO LOBBY", "address": {"city": "CEDAR RAPIDS", "state": "NE", "street": "214 W MAIN ST", "postcode": "68627"}}},
{"geometry": {"type": "Point", "coordinates": [-97.8377108052, 41.21676914]}, "type": "Feature", "properties": {"collection_times": [{"days": "Mon-Sat", "time": "1:45pm"}, {"days": "Sun", "time": "Closed"}], "id": "6862800001", "name": "USPS COLLECTION BOX - BLUE BOX", "address": {"city": "CLARKS", "state": "NE", "street": "303 N GREEN ST", "postcode": "68628"}}},
{"geometry": {"type": "Point", "coordinates": [-97.8377108052, 41.21676914]}, "type": "Feature", "properties": {"collection_times": [{"days": "Mon-Fri", "time": "12:15pm"}, {"days": "Sat", "time": "10:45am"}, {"days": "Sun", "time": "Closed"}], "id": "6862800002", "name": "USPS COLLECTION BOX - PO LOBBY", "address": {"city": "CLARKS", "state": "NE", "street": "303 N GREEN ST", "postcode": "68628"}}},
{"geometry": {"type": "Point", "coordinates": [-97.1222374016, 41.7249598568]}, "type": "Feature", "properties": {"collection_times": [{"days": "Mon-Fri", "time": "1:50pm"}, {"days": "Sat", "time": "1:45pm"}, {"days": "Sun", "time": "Closed"}], "id": "6862900001", "name": "USPS COLLECTION BOX - BLUE BOX", "address": {"city": "CLARKSON", "state": "NE", "street": "321 PINE ST", "postcode": "68629"}}},
{"geometry": {"type": "Point", "coordinates": [-97.1222374016, 41.7249598568]}, "type": "Feature", "properties": {"collection_times": [{"days": "Mon-Fri", "time": "1:45pm"}, {"days": "Sat", "time": "9:45am"}, {"days": "Sun", "time": "Closed"}], "id": "6862900002", "name": "USPS COLLECTION BOX - PO LOBBY", "address": {"city": "CLARKSON", "state": "NE", "street": "321 PINE ST", "postcode": "68629"}}},
{"geometry": {"type": "Point", "coordinates": [-97.3643160731, 41.7065015814]}, "type": "Feature", "properties": {"collection_times": [{"days": "Mon-Sat", "time": "2:30pm"}, {"days": "Sun", "time": "Closed"}], "id": "6863100001", "name": "USPS COLLECTION BOX - BLUE BOX", "address": {"city": "CRESTON", "state": "NE", "street": "215 PINE ST", "postcode": "68631"}}},
{"geometry": {"type": "Point", "coordinates": [-97.3643160731, 41.7065015814]}, "type": "Feature", "properties": {"collection_times": [{"days": "Mon-Fri", "time": "11:45am"}, {"days": "Sat", "time": "9:00am"}, {"days": "Sun", "time": "Closed"}], "id": "6863100002", "name": "USPS COLLECTION BOX - PO LOBBY", "address": {"city": "CRESTON", "state": "NE", "street": "215 PINE ST", "postcode": "68631"}}},
{"geometry": {"type": "Point", "coordinates": [-97.1302373876, 41.2529378448]}, "type": "Feature", "properties": {"collection_times": [{"days": "Mon-Sat", "time": "2:30pm"}, {"days": "Sun", "time": "Closed"}], "id": "6863200002", "name": "USPS COLLECTION BOX - BLUE BOX", "address": {"city": "DAVID CITY", "state": "NE", "street": "411 N 4TH ST", "postcode": "68632"}}},
{"geometry": {"type": "Point", "coordinates": [-97.1302373876, 41.2529378448]}, "type": "Feature", "properties": {"collection_times": [{"days": "Mon-Fri", "time": "2:30pm"}, {"days": "Sat", "time": "9:15am"}, {"days": "Sun", "time": "Closed"}], "id": "6863200003", "name": "USPS COLLECTION BOX - PO LOBBY", "address": {"city": "DAVID CITY", "state": "NE", "street": "411 N 4TH ST", "postcode": "68632"}}},
{"geometry": {"type": "Point", "coordinates": [-96.8860334895, 41.7211241934]}, "type": "Feature", "properties": {"collection_times": [{"days": "Mon-Sat", "time": "1:15pm"}, {"days": "Sun", "time": "Closed"}], "id": "6863300001", "name": "USPS COLLECTION BOX - BLUE BOX", "address": {"city": "DODGE", "state": "NE", "street": "246 2ND ST", "postcode": "68633"}}},
{"geometry": {"type": "Point", "coordinates": [-96.8860334895, 41.7211241934]}, "type": "Feature", "properties": {"collection_times": [{"days": "Mon-Fri", "time": "12:45pm"}, {"days": "Sat", "time": "10:00am"}, {"days": "Sun", "time": "Closed"}], "id": "6863300002", "name": "USPS COLLECTION BOX - PO LOBBY", "address": {"city": "DODGE", "state": "NE", "street": "246 2ND ST", "postcode": "68633"}}},
{"geometry": {"type": "Point", "coordinates": [-97.3568428061, 41.4318647725]}, "type": "Feature", "properties": {"collection_times": [{"days": "Mon-Fri", "time": "1:05pm"}, {"days": "Sat", "time": "1:00pm"}, {"days": "Sun", "time": "Closed"}], "id": "6863400001", "name": "USPS COLLECTION BOX - BLUE BOX", "address": {"city": "DUNCAN", "state": "NE", "street": "902 8TH ST", "postcode": "68634"}}},
{"geometry": {"type": "Point", "coordinates": [-97.3568428061, 41.4318647725]}, "type": "Feature", "properties": {"collection_times": [{"days": "Mon-Fri", "time": "12:45pm"}, {"days": "Sat", "time": "9:45am"}, {"days": "Sun", "time": "Closed"}], "id": "6863400002", "name": "USPS COLLECTION BOX - PO LOBBY", "address": {"city": "DUNCAN", "state": "NE", "street": "902 8TH ST", "postcode": "68634"}}},
{"geometry": {"type": "Point", "coordinates": [-97.0201045301, 41.0840211951]}, "type": "Feature", "properties": {"collection_times": [{"days": "Mon-Sat", "time": "1:50pm"}, {"days": "Sun", "time": "Closed"}], "id": "6863500001", "name": "USPS COLLECTION BOX - BLUE BOX", "address": {"city": "DWIGHT", "state": "NE", "street": "147 N 2ND ST", "postcode": "68635"}}},
{"geometry": {"type": "Point", "coordinates": [-97.0201045301, 41.0840211951]}, "type": "Feature", "properties": {"collection_times": [{"days": "Mon-Fri", "time": "11:45am"}, {"days": "Sat", "time": "9:30am"}, {"days": "Sun", "time": "Closed"}], "id": "6863500002", "name": "USPS COLLECTION BOX - PO LOBBY", "address": {"city": "DWIGHT", "state": "NE", "street": "147 N 2ND ST", "postcode": "68635"}}},
{"geometry": {"type": "Point", "coordinates": [-98.0855049433, 41.9831548119]}, "type": "Feature", "properties": {"collection_times": [{"days": "Mon-Sat", "time": "1:15pm"}, {"days": "Sun", "time": "Closed"}], "id": "6863600001", "name": "USPS COLLECTION BOX - BLUE BOX", "address": {"city": "ELGIN", "state": "NE", "street": "103 PINE ST", "postcode": "68636"}}},
{"geometry": {"type": "Point", "coordinates": [-98.0855049433, 41.9831548119]}, "type": "Feature", "properties": {"collection_times": [{"days": "Mon-Fri", "time": "1:15pm"}, {"days": "Sat", "time": "8:45am"}, {"days": "Sun", "time": "Closed"}], "id": "6863600002", "name": "USPS COLLECTION BOX - PO LOBBY", "address": {"city": "ELGIN", "state": "NE", "street": "103 PINE ST", "postcode": "68636"}}},
{"geometry": {"type": "Point", "coordinates": [-98.6439887803, 41.783668191]}, "type": "Feature", "properties": {"collection_times": [{"days": "Mon-Sat", "time": "12:45pm"}, {"days": "Sun", "time": "Closed"}], "id": "6863700001", "name": "USPS COLLECTION BOX - BLUE BOX", "address": {"city": "ERICSON", "state": "NE", "street": "605 CENTRAL AVE", "postcode": "68637"}}},
{"geometry": {"type": "Point", "coordinates": [-98.6439887803, 41.783668191]}, "type": "Feature", "properties": {"collection_times": [{"days": "Mon-Fri", "time": "12:45pm"}, {"days": "Sat", "time": "11:00am"}, {"days": "Sun", "time": "Closed"}], "id": "6863700002", "name": "USPS COLLECTION BOX - PO LOBBY", "address": {"city": "ERICSON", "state": "NE", "street": "605 CENTRAL AVE", "postcode": "68637"}}},
{"geometry": {"type": "Point", "coordinates": [-97.9688098998, 41.3615431483]}, "type": "Feature", "properties": {"collection_times": [{"days": "Mon-Fri", "time": "2:40pm"}, {"days": "Sat", "time": "2:30pm"}, {"days": "Sun", "time": "Closed"}], "id": "6863800001", "name": "USPS COLLECTION BOX - BLUE BOX", "address": {"city": "FULLERTON", "state": "NE", "street": "420 BROADWAY ST", "postcode": "68638"}}},
{"geometry": {"type": "Point", "coordinates": [-97.9688098998, 41.3615431483]}, "type": "Feature", "properties": {"collection_times": [{"days": "Mon-Fri", "time": "2:30pm"}, {"days": "Sat", "time": "9:45am"}, {"days": "Sun", "time": "Closed"}], "id": "6863800002", "name": "USPS COLLECTION BOX - PO LOBBY", "address": {"city": "FULLERTON", "state": "NE", "street": "420 BROADWAY ST", "postcode": "68638"}}},
{"geometry": {"type": "Point", "coordinates": [-97.7307409491, 41.4484704579]}, "type": "Feature", "properties": {"collection_times": [{"days": "Mon-Sat", "time": "3:10pm"}, {"days": "Sun", "time": "Closed"}], "id": "6864000001", "name": "USPS COLLECTION BOX - BLUE BOX", "address": {"city": "GENOA", "state": "NE", "street": "509 WILLARD AVE", "postcode": "68640"}}},
{"geometry": {"type": "Point", "coordinates": [-97.7307409491, 41.4484704579]}, "type": "Feature", "properties": {"collection_times": [{"days": "Mon-Fri", "time": "3:10pm"}, {"days": "Sat", "time": "9:45am"}, {"days": "Sun", "time": "Closed"}], "id": "6864000002", "name": "USPS COLLECTION BOX - PO LOBBY", "address": {"city": "GENOA", "state": "NE", "street": "509 WILLARD AVE", "postcode": "68640"}}},
{"geometry": {"type": "Point", "coordinates": [-97.0029270896, 41.7252454301]}, "type": "Feature", "properties": {"collection_times": [{"days": "Mon-Sat", "time": "1:30pm"}, {"days": "Sun", "time": "Closed"}], "id": "6864100001", "name": "USPS COLLECTION BOX - BLUE BOX", "address": {"city": "HOWELLS", "state": "NE", "street": "120 N 3RD ST", "postcode": "68641"}}},
{"geometry": {"type": "Point", "coordinates": [-97.0029270896, 41.7252454301]}, "type": "Feature", "properties": {"collection_times": [{"days": "Mon-Fri", "time": "1:30pm"}, {"days": "Sat", "time": "10:15am"}, {"days": "Sun", "time": "Closed"}], "id": "6864100002", "name": "USPS COLLECTION BOX - PO LOBBY", "address": {"city": "HOWELLS", "state": "NE", "street": "120 N 3RD ST", "postcode": "68641"}}},
{"geometry": {"type": "Point", "coordinates": [-97.4846493363, 41.6917725748]}, "type": "Feature", "properties": {"collection_times": [{"days": "Mon-Sat", "time": "2:45pm"}, {"days": "Sun", "time": "Closed"}], "id": "6864200001", "name": "USPS COLLECTION BOX - BLUE BOX", "address": {"city": "HUMPHREY", "state": "NE", "street": "312 MAIN ST", "postcode": "68642"}}},
{"geometry": {"type": "Point", "coordinates": [-97.4846493363, 41.6917725748]}, "type": "Feature", "properties": {"collection_times": [{"days": "Mon-Fri", "time": "2:45pm"}, {"days": "Sat", "time": "9:15am"}, {"days": "Sun", "time": "Closed"}], "id": "6864200002", "name": "USPS COLLECTION BOX - PO LOBBY", "address": {"city": "HUMPHREY", "state": "NE", "street": "312 MAIN ST", "postcode": "68642"}}},
{"geometry": {"type": "Point", "coordinates": [-97.2376998354, 41.7000428177]}, "type": "Feature", "properties": {"collection_times": [{"days": "Mon-Sat", "time": "2:10pm"}, {"days": "Sun", "time": "Closed"}], "id": "6864300001", "name": "USPS COLLECTION BOX - BLUE BOX", "address": {"city": "LEIGH", "state": "NE", "street": "167 N MAIN ST", "postcode": "68643"}}},
{"geometry": {"type": "Point", "coordinates": [-97.2376998354, 41.7000428177]}, "type": "Feature", "properties": {"collection_times": [{"days": "Mon-Fri", "time": "2:00pm"}, {"days": "Sat", "time": "10:00am"}, {"days": "Sun", "time": "Closed"}], "id": "6864300002", "name": "USPS COLLECTION BOX - PO LOBBY", "address": {"city": "LEIGH", "state": "NE", "street": "167 N MAIN ST", "postcode": "68643"}}},
{"geometry": {"type": "Point", "coordinates": [-97.6938717066, 41.6986738721]}, "type": "Feature", "properties": {"collection_times": [{"days": "Mon-Sat", "time": "3:25pm"}, {"days": "Sun", "time": "Closed"}], "id": "6864400001", "name": "USPS COLLECTION BOX - BLUE BOX", "address": {"city": "LINDSAY", "state": "NE", "street": "105 PINE ST", "postcode": "68644"}}},
{"geometry": {"type": "Point", "coordinates": [-97.6938717066, 41.6986738721]}, "type": "Feature", "properties": {"collection_times": [{"days": "Mon-Fri", "time": "1:45pm"}, {"days": "Sat", "time": "9:45am"}, {"days": "Sun", "time": "Closed"}], "id": "6864400002", "name": "USPS COLLECTION BOX - PO LOBBY", "address": {"city": "LINDSAY", "state": "NE", "street": "105 PINE ST", "postcode": "68644"}}},
{"geometry": {"type": "Point", "coordinates": [-97.5995229434, 41.4742046633]}, "type": "Feature", "properties": {"collection_times": [{"days": "Mon-Sat", "time": "3:30pm"}, {"days": "Sun", "time": "Closed"}], "id": "6864700001", "name": "USPS COLLECTION BOX - BLUE BOX", "address": {"city": "MONROE", "state": "NE", "street": "406 GERRARD AVE", "postcode": "68647"}}},
{"geometry": {"type": "Point", "coordinates": [-97.5995229434, 41.4742046633]}, "type": "Feature", "properties": {"collection_times": [{"days": "Mon-Fri", "time": "11:45am"}, {"days": "Sat", "time": "11:15am"}, {"days": "Sun", "time": "Closed"}], "id": "6864700002", "name": "USPS COLLECTION BOX - PO LOBBY", "address": {"city": "MONROE", "state": "NE", "street": "406 GERRARD AVE", "postcode": "68647"}}},
{"geometry": {"type": "Point", "coordinates": [-96.7689213946, 41.4319950268]}, "type": "Feature", "properties": {"collection_times": [{"days": "Mon-Fri", "time": "3:00pm"}, {"days": "Sat", "time": "2:55pm"}, {"days": "Sun", "time": "Closed"}], "id": "6864800001", "name": "USPS COLLECTION BOX - BLUE BOX", "address": {"city": "MORSE BLUFF", "state": "NE", "street": "251 2ND ST", "postcode": "68648"}}},
{"geometry": {"type": "Point", "coordinates": [-96.7689213946, 41.4319950268]}, "type": "Feature", "properties": {"collection_times": [{"days": "Mon-Fri", "time": "12:45pm"}, {"days": "Sat", "time": "11:00am"}, {"days": "Sun", "time": "Closed"}], "id": "6864800002", "name": "USPS COLLECTION BOX - PO LOBBY", "address": {"city": "MORSE BLUFF", "state": "NE", "street": "251 2ND ST", "postcode": "68648"}}},
{"geometry": {"type": "Point", "coordinates": [-96.7804881936, 41.4628519356]}, "type": "Feature", "properties": {"collection_times": [{"days": "Mon-Sat", "time": "3:00pm"}, {"days": "Sun", "time": "Closed"}], "id": "6864900000", "name": "USPS COLLECTION BOX - BLUE BOX", "address": {"city": "NORTH BEND", "state": "NE", "street": "134 W 7TH ST", "postcode": "68649"}}},
{"geometry": {"type": "Point", "coordinates": [-96.7804881936, 41.4628519356]}, "type": "Feature", "properties": {"collection_times": [{"days": "Mon-Fri", "time": "3:00pm"}, {"days": "Sat", "time": "9:45am"}, {"days": "Sun", "time": "Closed"}], "id": "6864900001", "name": "USPS COLLECTION BOX - PO LOBBY", "address": {"city": "NORTH BEND", "state": "NE", "street": "134 W 7TH ST", "postcode": "68649"}}},
{"geometry": {"type": "Point", "coordinates": [-97.5468792699, 41.1790018555]}, "type": "Feature", "properties": {"collection_times": [{"days": "Mon-Sat", "time": "2:45pm"}, {"days": "Sun", "time": "Closed"}], "id": "6865100001", "name": "USPS COLLECTION BOX - BLUE BOX", "address": {"city": "OSCEOLA", "state": "NE", "street": "241 N MAIN ST", "postcode": "68651"}}},
{"geometry": {"type": "Point", "coordinates": [-97.5468792699, 41.1790018555]}, "type": "Feature", "properties": {"collection_times": [{"days": "Mon-Fri", "time": "2:45pm"}, {"days": "Sat", "time": "10:15am"}, {"days": "Sun", "time": "Closed"}], "id": "6865100002", "name": "USPS COLLECTION BOX - PO LOBBY", "address": {"city": "OSCEOLA", "state": "NE", "street": "241 N MAIN ST", "postcode": "68651"}}},
{"geometry": {"type": "Point", "coordinates": [-98.080759274, 41.8534761115]}, "type": "Feature", "properties": {"collection_times": [{"days": "Mon-Sat", "time": "1:20pm"}, {"days": "Sun", "time": "Closed"}], "id": "6865200001", "name": "USPS COLLECTION BOX - BLUE BOX", "address": {"city": "PETERSBURG", "state": "NE", "street": "120 MAIN ST", "postcode": "68652"}}},
{"geometry": {"type": "Point", "coordinates": [-98.080759274, 41.8534761115]}, "type": "Feature", "properties": {"collection_times": [{"days": "Mon-Fri", "time": "12:45pm"}, {"days": "Sat", "time": "9:45am"}, {"days": "Sun", "time": "Closed"}], "id": "6865200002", "name": "USPS COLLECTION BOX - PO LOBBY", "address": {"city": "PETERSBURG", "state": "NE", "street": "120 MAIN ST", "postcode": "68652"}}},
{"geometry": {"type": "Point", "coordinates": [-97.4861666619, 41.5384910055]}, "type": "Feature", "properties": {"collection_times": [{"days": "Mon-Sat", "time": "4:00pm"}, {"days": "Sun", "time": "Closed"}], "id": "6865300001", "name": "USPS COLLECTION BOX - BLUE BOX", "address": {"city": "PLATTE CENTER", "state": "NE", "street": "221 3RD ST", "postcode": "68653"}}},
{"geometry": {"type": "Point", "coordinates": [-97.4861666619, 41.5384910055]}, "type": "Feature", "properties": {"collection_times": [{"days": "Mon-Fri", "time": "1:45pm"}, {"days": "Sat", "time": "10:45am"}, {"days": "Sun", "time": "Closed"}], "id": "6865300002", "name": "USPS COLLECTION BOX - PO LOBBY", "address": {"city": "PLATTE CENTER", "state": "NE", "street": "221 3RD ST", "postcode": "68653"}}},
{"geometry": {"type": "Point", "coordinates": [-97.7840179473, 41.0769793147]}, "type": "Feature", "properties": {"collection_times": [{"days": "Mon-Sat", "time": "2:00pm"}, {"days": "Sun", "time": "Closed"}], "id": "6865400001", "name": "USPS COLLECTION BOX - BLUE BOX", "address": {"city": "POLK", "state": "NE", "street": "210 N MAIN ST", "postcode": "68654"}}},
{"geometry": {"type": "Point", "coordinates": [-97.7840179473, 41.0769793147]}, "type": "Feature", "properties": {"collection_times": [{"days": "Mon-Fri", "time": "12:45pm"}, {"days": "Sat", "time": "12:30pm"}, {"days": "Sun", "time": "Closed"}], "id": "6865400002", "name": "USPS COLLECTION BOX - PO LOBBY", "address": {"city": "POLK", "state": "NE", "street": "210 N MAIN ST", "postcode": "68654"}}},
{"geometry": {"type": "Point", "coordinates": [-97.2963576872, 41.1997539514]}, "type": "Feature", "properties": {"collection_times": [{"days": "Mon-Sat", "time": "3:20pm"}, {"days": "Sun", "time": "Closed"}], "id": "6865800001", "name": "USPS COLLECTION BOX - BLUE BOX", "address": {"city": "RISING CITY", "state": "NE", "street": "750 MAIN ST", "postcode": "68658"}}},
{"geometry": {"type": "Point", "coordinates": [-97.2963576872, 41.1997539514]}, "type": "Feature", "properties": {"collection_times": [{"days": "Mon-Fri", "time": "11:45am"}, {"days": "Sat", "time": "8:45am"}, {"days": "Sun", "time": "Closed"}], "id": "6865800002", "name": "USPS COLLECTION BOX - PO LOBBY", "address": {"city": "RISING CITY", "state": "NE", "street": "750 MAIN ST", "postcode": "68658"}}},
{"geometry": {"type": "Point", "coordinates": [-97.8669253515, 41.5699623196]}, "type": "Feature", "properties": {"collection_times": [{"days": "Mon-Sat", "time": "2:00pm"}, {"days": "Sun", "time": "Closed"}], "id": "6866000001", "name": "USPS COLLECTION BOX - BLUE BOX", "address": {"city": "SAINT EDWARD", "state": "NE", "street": "207 BEAVER ST", "postcode": "68660"}}},
{"geometry": {"type": "Point", "coordinates": [-97.8669253515, 41.5699623196]}, "type": "Feature", "properties": {"collection_times": [{"days": "Mon-Fri", "time": "2:00pm"}, {"days": "Sat", "time": "9:15am"}, {"days": "Sun", "time": "Closed"}], "id": "6866000002", "name": "USPS COLLECTION BOX - PO LOBBY", "address": {"city": "SAINT EDWARD", "state": "NE", "street": "207 BEAVER ST", "postcode": "68660"}}},
{"geometry": {"type": "Point", "coordinates": [-97.0600636271, 41.4527122687]}, "type": "Feature", "properties": {"collection_times": [{"days": "Mon-Sat", "time": "1:00pm"}, {"days": "Sun", "time": "Closed"}], "id": "6866100001", "name": "USPS COLLECTION BOX - BLUE BOX", "address": {"city": "SCHUYLER", "state": "NE", "street": "122 W 16TH ST", "postcode": "68661"}}},
{"geometry": {"type": "Point", "coordinates": [-97.059401263, 41.4472937235]}, "type": "Feature", "properties": {"collection_times": [{"days": "Mon-Fri", "time": "3:45pm"}, {"days": "Sat", "time": "3:37pm"}, {"days": "Sun", "time": "Closed"}], "id": "6866100002", "name": "USPS COLLECTION BOX - BLUE BOX", "address": {"city": "SCHUYLER", "state": "NE", "street": "119 E 11TH ST", "postcode": "68661"}}},
{"geometry": {"type": "Point", "coordinates": [-97.059401263, 41.4472937235]}, "type": "Feature", "properties": {"collection_times": [{"days": "Mon-Fri", "time": "3:45pm"}, {"days": "Sat", "time": "9:15am"}, {"days": "Sun", "time": "Closed"}], "id": "6866100006", "name": "USPS COLLECTION BOX - PO LOBBY", "address": {"city": "SCHUYLER", "state": "NE", "street": "119 E 11TH ST", "postcode": "68661"}}},
{"geometry": {"type": "Point", "coordinates": [-97.4258955352, 41.1938448107]}, "type": "Feature", "properties": {"collection_times": [{"days": "Mon-Sat", "time": "3:00pm"}, {"days": "Sun", "time": "Closed"}], "id": "6866200001", "name": "USPS COLLECTION BOX - BLUE BOX", "address": {"city": "SHELBY", "state": "NE", "street": "210 N WALNUT ST", "postcode": "68662"}}},
{"geometry": {"type": "Point", "coordinates": [-97.4258955352, 41.1938448107]}, "type": "Feature", "properties": {"collection_times": [{"days": "Mon-Fri", "time": "3:00pm"}, {"days": "Sat", "time": "11:45am"}, {"days": "Sun", "time": "Closed"}], "id": "6866200002", "name": "USPS COLLECTION BOX - PO LOBBY", "address": {"city": "SHELBY", "state": "NE", "street": "210 N WALNUT ST", "postcode": "68662"}}},
{"geometry": {"type": "Point", "coordinates": [-97.6632639391, 41.315017684]}, "type": "Feature", "properties": {"collection_times": [{"days": "Mon-Sat", "time": "1:30pm"}, {"days": "Sun", "time": "Closed"}], "id": "6866300001", "name": "USPS COLLECTION BOX - BLUE BOX", "address": {"city": "SILVER CREEK", "state": "NE", "street": "215 VINE ST", "postcode": "68663"}}},
{"geometry": {"type": "Point", "coordinates": [-97.6632639391, 41.315017684]}, "type": "Feature", "properties": {"collection_times": [{"days": "Mon-Fri", "time": "12:15pm"}, {"days": "Sat", "time": "10:00am"}, {"days": "Sun", "time": "Closed"}], "id": "6866300002", "name": "USPS COLLECTION BOX - PO LOBBY", "address": {"city": "SILVER CREEK", "state": "NE", "street": "215 VINE ST", "postcode": "68663"}}},
{"geometry": {"type": "Point", "coordinates": [-96.7886240355, 41.7073383506]}, "type": "Feature", "properties": {"collection_times": [{"days": "Mon-Sat", "time": "1:00pm"}, {"days": "Sun", "time": "Closed"}], "id": "6866400001", "name": "USPS COLLECTION BOX - BLUE BOX", "address": {"city": "SNYDER", "state": "NE", "street": "119 ASH ST", "postcode": "68664"}}},
{"geometry": {"type": "Point", "coordinates": [-96.7886240355, 41.7073383506]}, "type": "Feature", "properties": {"collection_times": [{"days": "Mon-Fri", "time": "1:00pm"}, {"days": "Sat", "time": "10:45am"}, {"days": "Sun", "time": "Closed"}], "id": "6866400002", "name": "USPS COLLECTION BOX - PO LOBBY", "address": {"city": "SNYDER", "state": "NE", "street": "119 ASH ST", "postcode": "68664"}}},
{"geometry": {"type": "Point", "coordinates": [-98.3615985308, 41.6887811649]}, "type": "Feature", "properties": {"collection_times": [{"days": "Mon-Sat", "time": "1:30pm"}, {"days": "Sun", "time": "Closed"}], "id": "6866500001", "name": "USPS COLLECTION BOX - BLUE BOX", "address": {"city": "SPALDING", "state": "NE", "street": "210 E ST JOSEPH ST", "postcode": "68665"}}},
{"geometry": {"type": "Point", "coordinates": [-98.3615985308, 41.6887811649]}, "type": "Feature", "properties": {"collection_times": [{"days": "Mon-Fri", "time": "1:30pm"}, {"days": "Sat", "time": "10:15am"}, {"days": "Sun", "time": "Closed"}], "id": "6866500002", "name": "USPS COLLECTION BOX - PO LOBBY", "address": {"city": "SPALDING", "state": "NE", "street": "210 E ST JOSEPH ST", "postcode": "68665"}}},
{"geometry": {"type": "Point", "coordinates": [-97.5981975565, 41.1141403072]}, "type": "Feature", "properties": {"collection_times": [{"days": "Mon-Sat", "time": "2:30pm"}, {"days": "Sun", "time": "Closed"}], "id": "6866600001", "name": "USPS COLLECTION BOX - BLUE BOX", "address": {"city": "STROMSBURG", "state": "NE", "street": "109 E 4TH ST", "postcode": "68666"}}},
{"geometry": {"type": "Point", "coordinates": [-97.5981975565, 41.1141403072]}, "type": "Feature", "properties": {"collection_times": [{"days": "Mon-Fri", "time": "2:30pm"}, {"days": "Sat", "time": "10:15am"}, {"days": "Sun", "time": "Closed"}], "id": "6866600002", "name": "USPS COLLECTION BOX - PO LOBBY", "address": {"city": "STROMSBURG", "state": "NE", "street": "109 E 4TH ST", "postcode": "68666"}}},
{"geometry": {"type": "Point", "coordinates": [-97.2408882788, 41.0820575569]}, "type": "Feature", "properties": {"collection_times": [{"days": "Mon-Sat", "time": "1:30pm"}, {"days": "Sun", "time": "Closed"}], "id": "6866900001", "name": "USPS COLLECTION BOX - BLUE BOX", "address": {"city": "ULYSSES", "state": "NE", "street": "210 N 4TH ST", "postcode": "68669"}}},
{"geometry": {"type": "Point", "coordinates": [-97.2408882788, 41.0820575569]}, "type": "Feature", "properties": {"collection_times": [{"days": "Mon-Fri", "time": "12:45pm"}, {"days": "Sat", "time": "11:00am"}, {"days": "Sun", "time": "Closed"}], "id": "6866900002", "name": "USPS COLLECTION BOX - PO LOBBY", "address": {"city": "ULYSSES", "state": "NE", "street": "210 N 4TH ST", "postcode": "68669"}}},
{"geometry": {"type": "Point", "coordinates": [-97.2408882788, 41.0820575569]}, "type": "Feature", "properties": {"collection_times": [{"days": "Mon-Sat", "time": "10:00am"}, {"days": "Sun", "time": "Closed"}], "id": "6866900003", "name": "USPS COLLECTION BOX - BLUE BOX", "address": {"city": "ULYSSES", "state": "NE", "street": "345 CENTER ST", "postcode": "68669"}}}
]}
