{"type": "FeatureCollection", "features": [
{"geometry": {"type": "Point", "coordinates": [-97.3952010012, 42.0328629343]}, "type": "Feature", "properties": {"collection_times": [{"days": "Mon-Sat", "time": "2:30pm"}, {"days": "Sun", "time": "Closed"}], "id": "6870100000", "name": "USPS COLLECTION BOX - BLUE BOX", "address": {"city": "NORFOLK", "state": "NE", "street": "720 E NORFOLK AVE", "postcode": "68701"}}},
{"geometry": {"type": "Point", "coordinates": [-97.4065944307, 42.0328963272]}, "type": "Feature", "properties": {"collection_times": [{"days": "Mon-Sat", "time": "2:00pm"}, {"days": "Sun", "time": "Closed"}], "id": "6870100008", "name": "USPS COLLECTION BOX - BLUE BOX", "address": {"city": "NORFOLK", "state": "NE", "street": "120 E NORFOLK AVE", "postcode": "68701"}}},
{"geometry": {"type": "Point", "coordinates": [-97.4397424905, 42.0259244914]}, "type": "Feature", "properties": {"collection_times": [{"days": "Mon-Sat", "time": "2:00pm"}, {"days": "Sun", "time": "Closed"}], "id": "6870100018", "name": "USPS COLLECTION BOX - BLUE BOX", "address": {"city": "NORFOLK", "state": "NE", "street": "2107 TAYLOR AVE", "postcode": "68701"}}},
{"geometry": {"type": "Point", "coordinates": [-97.4372674609, 42.0209565794]}, "type": "Feature", "properties": {"collection_times": [{"days": "Mon-Sat", "time": "2:00pm"}, {"days": "Sun", "time": "Closed"}], "id": "6870100019", "name": "USPS COLLECTION BOX - BLUE BOX", "address": {"city": "NORFOLK", "state": "NE", "street": "2005 KRENZIEN DR", "postcode": "68701"}}},
{"geometry": {"type": "Point", "coordinates": [-97.4325276106, 42.0189658739]}, "type": "Feature", "properties": {"collection_times": [{"days": "Mon-Sat", "time": "2:00pm"}, {"days": "Sun", "time": "Closed"}], "id": "6870100020", "name": "USPS COLLECTION BOX - BLUE BOX", "address": {"city": "NORFOLK", "state": "NE", "street": "1700 MARKET LN", "postcode": "68701"}}},
{"geometry": {"type": "Point", "coordinates": [-97.4265942165, 42.0224965537]}, "type": "Feature", "properties": {"collection_times": [{"days": "Mon-Sat", "time": "2:00pm"}, {"days": "Sun", "time": "Closed"}], "id": "6870100021", "name": "USPS COLLECTION BOX - BLUE BOX", "address": {"city": "NORFOLK", "state": "NE", "street": "1303 CENTER DR", "postcode": "68701"}}},
{"geometry": {"type": "Point", "coordinates": [-97.4263280376, 42.0194471697]}, "type": "Feature", "properties": {"collection_times": [{"days": "Mon-Sat", "time": "2:30pm"}, {"days": "Sun", "time": "Closed"}], "id": "6870100023", "name": "USPS COLLECTION BOX - BLUE BOX", "address": {"city": "NORFOLK", "state": "NE", "street": "1201 S 13TH ST", "postcode": "68701"}}},
{"geometry": {"type": "Point", "coordinates": [-97.4153389758, 42.0472907961]}, "type": "Feature", "properties": {"collection_times": [{"days": "Mon-Sat", "time": "2:30pm"}, {"days": "Sun", "time": "Closed"}], "id": "6870100030", "name": "USPS COLLECTION BOX - BLUE BOX", "address": {"city": "NORFOLK", "state": "NE", "street": "710 W BENJAMIN AVE", "postcode": "68701"}}},
{"geometry": {"type": "Point", "coordinates": [-97.409057964, 42.0326703612]}, "type": "Feature", "properties": {"collection_times": [{"days": "Mon-Sat", "time": "2:30pm"}, {"days": "Sun", "time": "Closed"}], "id": "6870100033", "name": "USPS COLLECTION BOX - BLUE BOX", "address": {"city": "NORFOLK", "state": "NE", "street": "227 W NORFOLK AVE", "postcode": "68701"}}},
{"geometry": {"type": "Point", "coordinates": [-97.4307718322, 42.0327548626]}, "type": "Feature", "properties": {"collection_times": [{"days": "Mon-Sat", "time": "2:00pm"}, {"days": "Sun", "time": "Closed"}], "id": "6870100039", "name": "USPS COLLECTION BOX - BLUE BOX", "address": {"city": "NORFOLK", "state": "NE", "street": "109 N 15TH ST", "postcode": "68701"}}},
{"geometry": {"type": "Point", "coordinates": [-97.4429240081, 42.0236421342]}, "type": "Feature", "properties": {"collection_times": [{"days": "Mon-Sat", "time": "2:00pm"}, {"days": "Sun", "time": "Closed"}], "id": "6870100042", "name": "USPS COLLECTION BOX - BLUE BOX", "address": {"city": "NORFOLK", "state": "NE", "street": "2400 W PASEWALK AVE", "postcode": "68701"}}},
{"geometry": {"type": "Point", "coordinates": [-97.4224411747, 42.0472200434]}, "type": "Feature", "properties": {"collection_times": [{"days": "Mon-Sat", "time": "2:30pm"}, {"days": "Sun", "time": "Closed"}], "id": "6870100050", "name": "USPS COLLECTION BOX - BLUE BOX", "address": {"city": "NORFOLK", "state": "NE", "street": "1106 BENJAMIN AVE", "postcode": "68701"}}},
{"geometry": {"type": "Point", "coordinates": [-97.4010305578, 42.0195797309]}, "type": "Feature", "properties": {"collection_times": [{"days": "Mon-Fri", "time": "4:15pm"}, {"days": "Sat", "time": "12:00pm"}, {"days": "Sun", "time": "Closed"}], "id": "6870100053", "name": "USPS COLLECTION BOX - PO LOBBY", "address": {"city": "NORFOLK", "state": "NE", "street": "1100 S PINE ST", "postcode": "68701"}}},
{"geometry": {"type": "Point", "coordinates": [-97.3951342333, 42.0472735281]}, "type": "Feature", "properties": {"collection_times": [{"days": "Mon-Fri", "time": "2:00pm"}, {"days": "Sat-Sun", "time": "Closed"}], "id": "6870100054", "name": "USPS COLLECTION BOX - BLUE BOX", "address": {"city": "NORFOLK", "state": "NE", "street": "601 E BENJAMIN AVE", "postcode": "68701"}}},
{"geometry": {"type": "Point", "coordinates": [-97.4010305578, 42.0195797309]}, "type": "Feature", "properties": {"collection_times": [{"days": "Mon-Fri", "time": "4:25pm"}, {"days": "Sat", "time": "4:15pm"}, {"days": "Sun", "time": "Closed"}], "id": "6870100058", "name": "USPS COLLECTION BOX - BLUE BOX", "address": {"city": "NORFOLK", "state": "NE", "street": "1100 S PINE ST", "postcode": "68701"}}},
{"geometry": {"type": "Point", "coordinates": [-97.3549597346, 42.0568120719]}, "type": "Feature", "properties": {"collection_times": [{"days": "Mon-Sat", "time": "2:00pm"}, {"days": "Sun", "time": "Closed"}], "id": "6870100061", "name": "USPS COLLECTION BOX - BLUE BOX", "address": {"city": "NORFOLK", "state": "NE", "street": "99 WOODLAND DR", "postcode": "68701"}}},
{"geometry": {"type": "Point", "coordinates": [-97.4497726809, 42.105309235]}, "type": "Feature", "properties": {"collection_times": [{"days": "Mon-Fri", "time": "2:00pm"}, {"days": "Sat", "time": "4:15pm"}, {"days": "Sun", "time": "Closed"}], "id": "6870100063", "name": "USPS COLLECTION BOX - BLUE BOX", "address": {"city": "NORFOLK", "state": "NE", "street": "210 E MAIN ST", "postcode": "68701"}}},
{"geometry": {"type": "Point", "coordinates": [-96.848189217, 42.4160383315]}, "type": "Feature", "properties": {"collection_times": [{"days": "Mon-Sat", "time": "12:45pm"}, {"days": "Sun", "time": "Closed"}], "id": "6871000001", "name": "USPS COLLECTION BOX - BLUE BOX", "address": {"city": "ALLEN", "state": "NE", "street": "104 E 2ND ST", "postcode": "68710"}}},
{"geometry": {"type": "Point", "coordinates": [-96.848189217, 42.4160383315]}, "type": "Feature", "properties": {"collection_times": [{"days": "Mon-Fri", "time": "11:30am"}, {"days": "Sat", "time": "10:15am"}, {"days": "Sun", "time": "Closed"}], "id": "6871000002", "name": "USPS COLLECTION BOX - PO LOBBY", "address": {"city": "ALLEN", "state": "NE", "street": "104 E 2ND ST", "postcode": "68710"}}},
{"geometry": {"type": "Point", "coordinates": [-98.912393831, 42.23477123]}, "type": "Feature", "properties": {"collection_times": [{"days": "Mon-Fri", "time": "1:45pm"}, {"days": "Sat", "time": "1:30pm"}, {"days": "Sun", "time": "Closed"}], "id": "6871100001", "name": "USPS COLLECTION BOX - BLUE BOX", "address": {"city": "AMELIA", "state": "NE", "street": "85614 IRIS ST", "postcode": "68711"}}},
{"geometry": {"type": "Point", "coordinates": [-98.912393831, 42.23477123]}, "type": "Feature", "properties": {"collection_times": [{"days": "Mon-Fri", "time": "1:45pm"}, {"days": "Sat", "time": "1:30pm"}, {"days": "Sun", "time": "Closed"}], "id": "6871100002", "name": "USPS COLLECTION BOX - PO LOBBY", "address": {"city": "AMELIA", "state": "NE", "street": "85614 IRIS ST", "postcode": "68711"}}},
{"geometry": {"type": "Point", "coordinates": [-98.978121742, 42.5323346221]}, "type": "Feature", "properties": {"collection_times": [{"days": "Mon-Sat", "time": "1:25pm"}, {"days": "Sun", "time": "Closed"}], "id": "6871300001", "name": "USPS COLLECTION BOX - BLUE BOX", "address": {"city": "ATKINSON", "state": "NE", "street": "202 N MAIN ST", "postcode": "68713"}}},
{"geometry": {"type": "Point", "coordinates": [-98.978121742, 42.5323346221]}, "type": "Feature", "properties": {"collection_times": [{"days": "Mon-Fri", "time": "1:25pm"}, {"days": "Sat", "time": "10:15am"}, {"days": "Sun", "time": "Closed"}], "id": "6871300003", "name": "USPS COLLECTION BOX - PO LOBBY", "address": {"city": "ATKINSON", "state": "NE", "street": "202 N MAIN ST", "postcode": "68713"}}},
{"geometry": {"type": "Point", "coordinates": [-99.5378642885, 42.585525186]}, "type": "Feature", "properties": {"collection_times": [{"days": "Mon-Sat", "time": "12:10pm"}, {"days": "Sun", "time": "Closed"}], "id": "6871400001", "name": "USPS COLLECTION BOX - BLUE BOX", "address": {"city": "BASSETT", "state": "NE", "street": "201 CLARK ST", "postcode": "68714"}}},
{"geometry": {"type": "Point", "coordinates": [-99.5378642885, 42.585525186]}, "type": "Feature", "properties": {"collection_times": [{"days": "Mon-Fri", "time": "12:10pm"}, {"days": "Sat", "time": "9:45am"}, {"days": "Sun", "time": "Closed"}], "id": "6871400002", "name": "USPS COLLECTION BOX - PO LOBBY", "address": {"city": "BASSETT", "state": "NE", "street": "201 CLARK ST", "postcode": "68714"}}},
{"geometry": {"type": "Point", "coordinates": [-97.5982887991, 41.9994066837]}, "type": "Feature", "properties": {"collection_times": [{"days": "Mon-Sat", "time": "3:30pm"}, {"days": "Sun", "time": "Closed"}], "id": "6871500001", "name": "USPS COLLECTION BOX - BLUE BOX", "address": {"city": "BATTLE CREEK", "state": "NE", "street": "106 S 2ND ST", "postcode": "68715"}}},
{"geometry": {"type": "Point", "coordinates": [-97.5982887991, 41.9994066837]}, "type": "Feature", "properties": {"collection_times": [{"days": "Mon-Fri", "time": "3:30pm"}, {"days": "Sat", "time": "8:45am"}, {"days": "Sun", "time": "Closed"}], "id": "6871500002", "name": "USPS COLLECTION BOX - PO LOBBY", "address": {"city": "BATTLE CREEK", "state": "NE", "street": "106 S 2ND ST", "postcode": "68715"}}},
{"geometry": {"type": "Point", "coordinates": [-96.8118802223, 41.9283748106]}, "type": "Feature", "properties": {"collection_times": [{"days": "Mon-Sat", "time": "2:30pm"}, {"days": "Sun", "time": "Closed"}], "id": "6871600001", "name": "USPS COLLECTION BOX - BLUE BOX", "address": {"city": "BEEMER", "state": "NE", "street": "314 MAIN ST", "postcode": "68716"}}},
{"geometry": {"type": "Point", "coordinates": [-96.8118802223, 41.9283748106]}, "type": "Feature", "properties": {"collection_times": [{"days": "Mon-Fri", "time": "2:30pm"}, {"days": "Sat", "time": "11:15am"}, {"days": "Sun", "time": "Closed"}], "id": "6871600002", "name": "USPS COLLECTION BOX - PO LOBBY", "address": {"city": "BEEMER", "state": "NE", "street": "314 MAIN ST", "postcode": "68716"}}},
{"geometry": {"type": "Point", "coordinates": [-97.2071493998, 42.4130779221]}, "type": "Feature", "properties": {"collection_times": [{"days": "Mon-Sat", "time": "2:05pm"}, {"days": "Sun", "time": "Closed"}], "id": "6871700001", "name": "USPS COLLECTION BOX - BLUE BOX", "address": {"city": "BELDEN", "state": "NE", "street": "205 NEBRASKA ST", "postcode": "68717"}}},
{"geometry": {"type": "Point", "coordinates": [-97.2071493998, 42.4130779221]}, "type": "Feature", "properties": {"collection_times": [{"days": "Mon-Fri", "time": "10:15am"}, {"days": "Sat", "time": "10:00am"}, {"days": "Sun", "time": "Closed"}], "id": "6871700002", "name": "USPS COLLECTION BOX - PO LOBBY", "address": {"city": "BELDEN", "state": "NE", "street": "205 NEBRASKA ST", "postcode": "68717"}}},
{"geometry": {"type": "Point", "coordinates": [-97.6455296449, 42.5989704289]}, "type": "Feature", "properties": {"collection_times": [{"days": "Mon-Fri", "time": "1:40pm"}, {"days": "Sat", "time": "1:35pm"}, {"days": "Sun", "time": "Closed"}], "id": "6871800001", "name": "USPS COLLECTION BOX - BLUE BOX", "address": {"city": "BLOOMFIELD", "state": "NE", "street": "105 W MAIN ST", "postcode": "68718"}}},
{"geometry": {"type": "Point", "coordinates": [-97.6455296449, 42.5989704289]}, "type": "Feature", "properties": {"collection_times": [{"days": "Mon-Fri", "time": "1:40pm"}, {"days": "Sat", "time": "9:15am"}, {"days": "Sun", "time": "Closed"}], "id": "6871800002", "name": "USPS COLLECTION BOX - PO LOBBY", "address": {"city": "BLOOMFIELD", "state": "NE", "street": "105 W MAIN ST", "postcode": "68718"}}},
{"geometry": {"type": "Point", "coordinates": [-98.5848170857, 42.8464182908]}, "type": "Feature", "properties": {"collection_times": [{"days": "Mon-Sat", "time": "1:05pm"}, {"days": "Sun", "time": "Closed"}], "id": "6871900001", "name": "USPS COLLECTION BOX - BLUE BOX", "address": {"city": "BRISTOW", "state": "NE", "street": "100 PRAIRIE ST", "postcode": "68719"}}},
{"geometry": {"type": "Point", "coordinates": [-98.5848170857, 42.8464182908]}, "type": "Feature", "properties": {"collection_times": [{"days": "Mon-Fri", "time": "1:00pm"}, {"days": "Sat", "time": "10:30am"}, {"days": "Sun", "time": "Closed"}], "id": "6871900002", "name": "USPS COLLECTION BOX - PO LOBBY", "address": {"city": "BRISTOW", "state": "NE", "street": "100 PRAIRIE ST", "postcode": "68719"}}},
{"geometry": {"type": "Point", "coordinates": [-97.9687613863, 42.3375527836]}, "type": "Feature", "properties": {"collection_times": [{"days": "Mon-Sat", "time": "1:50pm"}, {"days": "Sun", "time": "Closed"}], "id": "6872000001", "name": "USPS COLLECTION BOX - BLUE BOX", "address": {"city": "BRUNSWICK", "state": "NE", "street": "222 2ND ST", "postcode": "68720"}}},
{"geometry": {"type": "Point", "coordinates": [-97.9687613863, 42.3375527836]}, "type": "Feature", "properties": {"collection_times": [{"days": "Mon-Fri", "time": "12:45pm"}, {"days": "Sat", "time": "9:45am"}, {"days": "Sun", "time": "Closed"}], "id": "6872000002", "name": "USPS COLLECTION BOX - PO LOBBY", "address": {"city": "BRUNSWICK", "state": "NE", "street": "222 2ND ST", "postcode": "68720"}}},
{"geometry": {"type": "Point", "coordinates": [-98.8491443014, 42.9124271528]}, "type": "Feature", "properties": {"collection_times": [{"days": "Mon-Fri", "time": "11:50am"}, {"days": "Sat", "time": "12:10pm"}, {"days": "Sun", "time": "Closed"}], "id": "6872200001", "name": "USPS COLLECTION BOX - BLUE BOX", "address": {"city": "BUTTE", "state": "NE", "street": "518 THAYER ST", "postcode": "68722"}}},
{"geometry": {"type": "Point", "coordinates": [-98.8491443014, 42.9124271528]}, "type": "Feature", "properties": {"collection_times": [{"days": "Mon-Fri", "time": "11:50am"}, {"days": "Sat", "time": "11:45am"}, {"days": "Sun", "time": "Closed"}], "id": "6872200002", "name": "USPS COLLECTION BOX - PO LOBBY", "address": {"city": "BUTTE", "state": "NE", "street": "518 THAYER ST", "postcode": "68722"}}},
{"geometry": {"type": "Point", "coordinates": [-97.1892426389, 42.2761060002]}, "type": "Feature", "properties": {"collection_times": [{"days": "Mon-Sat", "time": "2:30pm"}, {"days": "Sun", "time": "Closed"}], "id": "6872300001", "name": "USPS COLLECTION BOX - BLUE BOX", "address": {"city": "CARROLL", "state": "NE", "street": "520 MAIN ST", "postcode": "68723"}}},
{"geometry": {"type": "Point", "coordinates": [-97.1892426389, 42.2761060002]}, "type": "Feature", "properties": {"collection_times": [{"days": "Mon-Fri", "time": "11:15am"}, {"days": "Sat", "time": "8:15am"}, {"days": "Sun", "time": "Closed"}], "id": "6872300002", "name": "USPS COLLECTION BOX - PO LOBBY", "address": {"city": "CARROLL", "state": "NE", "street": "520 MAIN ST", "postcode": "68723"}}},
{"geometry": {"type": "Point", "coordinates": [-97.8767036567, 42.6092894723]}, "type": "Feature", "properties": {"collection_times": [{"days": "Mon-Sat", "time": "1:15pm"}, {"days": "Sun", "time": "Closed"}], "id": "6872400001", "name": "USPS COLLECTION BOX - BLUE BOX", "address": {"city": "CENTER", "state": "NE", "street": "211 MAIN ST", "postcode": "68724"}}},
{"geometry": {"type": "Point", "coordinates": [-97.8767036567, 42.6092894723]}, "type": "Feature", "properties": {"collection_times": [{"days": "Mon-Fri", "time": "12:45pm"}, {"days": "Sat", "time": "9:45am"}, {"days": "Sun", "time": "Closed"}], "id": "6872400002", "name": "USPS COLLECTION BOX - PO LOBBY", "address": {"city": "CENTER", "state": "NE", "street": "211 MAIN ST", "postcode": "68724"}}},
{"geometry": {"type": "Point", "coordinates": [-98.748647305, 42.2046760499]}, "type": "Feature", "properties": {"collection_times": [{"days": "Mon-Fri", "time": "12:45pm"}, {"days": "Sat", "time": "12:15pm"}, {"days": "Sun", "time": "Closed"}], "id": "6872500001", "name": "USPS COLLECTION BOX - BLUE BOX", "address": {"city": "CHAMBERS", "state": "NE", "street": "102 E MAIN ST", "postcode": "68725"}}},
{"geometry": {"type": "Point", "coordinates": [-98.748647305, 42.2046760499]}, "type": "Feature", "properties": {"collection_times": [{"days": "Mon-Fri", "time": "12:45pm"}, {"days": "Sat", "time": "12:15pm"}, {"days": "Sun", "time": "Closed"}], "id": "6872500002", "name": "USPS COLLECTION BOX - PO LOBBY", "address": {"city": "CHAMBERS", "state": "NE", "street": "102 E MAIN ST", "postcode": "68725"}}},
{"geometry": {"type": "Point", "coordinates": [-98.1900735429, 42.1326300395]}, "type": "Feature", "properties": {"collection_times": [{"days": "Mon-Sat", "time": "2:00pm"}, {"days": "Sun", "time": "Closed"}], "id": "6872600001", "name": "USPS COLLECTION BOX - BLUE BOX", "address": {"city": "CLEARWATER", "state": "NE", "street": "517 MAIN ST", "postcode": "68726"}}},
{"geometry": {"type": "Point", "coordinates": [-98.1900735429, 42.1326300395]}, "type": "Feature", "properties": {"collection_times": [{"days": "Mon-Fri", "time": "12:45pm"}, {"days": "Sat", "time": "10:15am"}, {"days": "Sun", "time": "Closed"}], "id": "6872600002", "name": "USPS COLLECTION BOX - PO LOBBY", "address": {"city": "CLEARWATER", "state": "NE", "street": "517 MAIN ST", "postcode": "68726"}}},
{"geometry": {"type": "Point", "coordinates": [-97.2034408924, 42.5062071314]}, "type": "Feature", "properties": {"collection_times": [{"days": "Mon-Sat", "time": "1:50pm"}, {"days": "Sun", "time": "Closed"}], "id": "6872700001", "name": "USPS COLLECTION BOX - BLUE BOX", "address": {"city": "COLERIDGE", "state": "NE", "street": "114 E BROADWAY ST", "postcode": "68727"}}},
{"geometry": {"type": "Point", "coordinates": [-97.2034408924, 42.5062071314]}, "type": "Feature", "properties": {"collection_times": [{"days": "Mon-Fri", "time": "11:45am"}, {"days": "Sat", "time": "9:15am"}, {"days": "Sun", "time": "Closed"}], "id": "6872700002", "name": "USPS COLLECTION BOX - PO LOBBY", "address": {"city": "COLERIDGE", "state": "NE", "street": "114 E BROADWAY ST", "postcode": "68727"}}},
{"geometry": {"type": "Point", "coordinates": [-96.9488018752, 42.3757689787]}, "type": "Feature", "properties": {"collection_times": [{"days": "Mon-Fri", "time": "1:00pm"}, {"days": "Sat", "time": "10:15am"}, {"days": "Sun", "time": "Closed"}], "id": "6872800001", "name": "USPS COLLECTION BOX - BLUE BOX", "address": {"city": "CONCORD", "state": "NE", "street": "207 LINCOLN ST", "postcode": "68728"}}},
{"geometry": {"type": "Point", "coordinates": [-96.9488018752, 42.3757689787]}, "type": "Feature", "properties": {"collection_times": [{"days": "Mon-Fri", "time": "11:45am"}, {"days": "Sat", "time": "10:15am"}, {"days": "Sun", "time": "Closed"}], "id": "6872800002", "name": "USPS COLLECTION BOX - PO LOBBY", "address": {"city": "CONCORD", "state": "NE", "street": "207 LINCOLN ST", "postcode": "68728"}}},
{"geometry": {"type": "Point", "coordinates": [-97.9067495327, 42.4667283558]}, "type": "Feature", "properties": {"collection_times": [{"days": "Mon-Sat", "time": "2:00pm"}, {"days": "Sun", "time": "Closed"}], "id": "6872900001", "name": "USPS COLLECTION BOX - BLUE BOX", "address": {"city": "CREIGHTON", "state": "NE", "street": "819 MAIN ST", "postcode": "68729"}}},
{"geometry": {"type": "Point", "coordinates": [-97.9067495327, 42.4667283558]}, "type": "Feature", "properties": {"collection_times": [{"days": "Mon-Fri", "time": "2:00pm"}, {"days": "Sat", "time": "8:45am"}, {"days": "Sun", "time": "Closed"}], "id": "6872900002", "name": "USPS COLLECTION BOX - PO LOBBY", "address": {"city": "CREIGHTON", "state": "NE", "street": "819 MAIN ST", "postcode": "68729"}}},
{"geometry": {"type": "Point", "coordinates": [-97.4960237764, 42.7279654042]}, "type": "Feature", "properties": {"collection_times": [{"days": "Mon-Sat", "time": "12:45pm"}, {"days": "Sun", "time": "Closed"}], "id": "6873000001", "name": "USPS COLLECTION BOX - BLUE BOX", "address": {"city": "CROFTON", "state": "NE", "street": "1116 W 2ND ST", "postcode": "68730"}}},
{"geometry": {"type": "Point", "coordinates": [-97.4960237764, 42.7279654042]}, "type": "Feature", "properties": {"collection_times": [{"days": "Mon-Fri", "time": "12:45pm"}, {"days": "Sat", "time": "9:45am"}, {"days": "Sun", "time": "Closed"}], "id": "6873000002", "name": "USPS COLLECTION BOX - PO LOBBY", "address": {"city": "CROFTON", "state": "NE", "street": "1116 W 2ND ST", "postcode": "68730"}}},
{"geometry": {"type": "Point", "coordinates": [-96.4187171302, 42.415488032]}, "type": "Feature", "properties": {"collection_times": [{"days": "Mon-Sat", "time": "1:30pm"}, {"days": "Sun", "time": "Closed"}], "id": "6873100001", "name": "USPS COLLECTION BOX - BLUE BOX", "address": {"city": "DAKOTA CITY", "state": "NE", "street": "110 N 16TH ST", "postcode": "68731"}}},
{"geometry": {"type": "Point", "coordinates": [-96.4187171302, 42.415488032]}, "type": "Feature", "properties": {"collection_times": [{"days": "Mon-Fri", "time": "1:30pm"}, {"days": "Sat", "time": "9:45am"}, {"days": "Sun", "time": "Closed"}], "id": "6873100002", "name": "USPS COLLECTION BOX - PO LOBBY", "address": {"city": "DAKOTA CITY", "state": "NE", "street": "110 N 16TH ST", "postcode": "68731"}}},
{"geometry": {"type": "Point", "coordinates": [-96.995395724, 42.4160219559]}, "type": "Feature", "properties": {"collection_times": [{"days": "Mon-Fri", "time": "1:10pm"}, {"days": "Sat", "time": "1:00pm"}, {"days": "Sun", "time": "Closed"}], "id": "6873200001", "name": "USPS COLLECTION BOX - BLUE BOX", "address": {"city": "DIXON", "state": "NE", "street": "302 2ND ST", "postcode": "68732"}}},
{"geometry": {"type": "Point", "coordinates": [-96.995395724, 42.4160219559]}, "type": "Feature", "properties": {"collection_times": [{"days": "Mon-Fri", "time": "12:45pm"}, {"days": "Sat", "time": "11:00am"}, {"days": "Sun", "time": "Closed"}], "id": "6873200002", "name": "USPS COLLECTION BOX - PO LOBBY", "address": {"city": "DIXON", "state": "NE", "street": "302 2ND ST", "postcode": "68732"}}},
{"geometry": {"type": "Point", "coordinates": [-96.7265462204, 42.2784642203]}, "type": "Feature", "properties": {"collection_times": [{"days": "Mon-Sat", "time": "2:10pm"}, {"days": "Sun", "time": "Closed"}], "id": "6873300001", "name": "USPS COLLECTION BOX - BLUE BOX", "address": {"city": "EMERSON", "state": "NE", "street": "103 N MAIN ST", "postcode": "68733"}}},
{"geometry": {"type": "Point", "coordinates": [-96.7265462204, 42.2784642203]}, "type": "Feature", "properties": {"collection_times": [{"days": "Mon-Fri", "time": "2:10pm"}, {"days": "Sat", "time": "9:15am"}, {"days": "Sun", "time": "Closed"}], "id": "6873300002", "name": "USPS COLLECTION BOX - PO LOBBY", "address": {"city": "EMERSON", "state": "NE", "street": "103 N MAIN ST", "postcode": "68733"}}},
{"geometry": {"type": "Point", "coordinates": [-98.3462947652, 42.2578836166]}, "type": "Feature", "properties": {"collection_times": [{"days": "Mon-Sat", "time": "1:30pm"}, {"days": "Sun", "time": "Closed"}], "id": "6873500001", "name": "USPS COLLECTION BOX - BLUE BOX", "address": {"city": "EWING", "state": "NE", "street": "100 NEBRASKA ST", "postcode": "68735"}}},
{"geometry": {"type": "Point", "coordinates": [-98.3462947652, 42.2578836166]}, "type": "Feature", "properties": {"collection_times": [{"days": "Mon-Fri", "time": "1:30pm"}, {"days": "Sat", "time": "9:45am"}, {"days": "Sun", "time": "Closed"}], "id": "6873500002", "name": "USPS COLLECTION BOX - PO LOBBY", "address": {"city": "EWING", "state": "NE", "street": "100 NEBRASKA ST", "postcode": "68735"}}},
{"geometry": {"type": "Point", "coordinates": [-97.3623418669, 42.6994925834]}, "type": "Feature", "properties": {"collection_times": [{"days": "Mon-Sat", "time": "1:05pm"}, {"days": "Sun", "time": "Closed"}], "id": "6873600002", "name": "USPS COLLECTION BOX - BLUE BOX", "address": {"city": "FORDYCE", "state": "NE", "street": "119 MAIN ST", "postcode": "68736"}}},
{"geometry": {"type": "Point", "coordinates": [-97.3623418669, 42.6994925834]}, "type": "Feature", "properties": {"collection_times": [{"days": "Mon-Fri", "time": "11:45am"}, {"days": "Sat", "time": "8:45am"}, {"days": "Sun", "time": "Closed"}], "id": "6873600003", "name": "USPS COLLECTION BOX - PO LOBBY", "address": {"city": "FORDYCE", "state": "NE", "street": "119 MAIN ST", "postcode": "68736"}}},
{"geometry": {"type": "Point", "coordinates": [-97.2644787667, 42.6264802657]}, "type": "Feature", "properties": {"collection_times": [{"days": "Mon-Sat", "time": "1:30pm"}, {"days": "Sun", "time": "Closed"}], "id": "6873900001", "name": "USPS COLLECTION BOX - BLUE BOX", "address": {"city": "HARTINGTON", "state": "NE", "street": "105 W STATE ST", "postcode": "68739"}}},
{"geometry": {"type": "Point", "coordinates": [-97.2644787667, 42.6264802657]}, "type": "Feature", "properties": {"collection_times": [{"days": "Mon-Fri", "time": "1:30pm"}, {"days": "Sat", "time": "10:45am"}, {"days": "Sun", "time": "Closed"}], "id": "6873900002", "name": "USPS COLLECTION BOX - PO LOBBY", "address": {"city": "HARTINGTON", "state": "NE", "street": "105 W STATE ST", "postcode": "68739"}}},
{"geometry": {"type": "Point", "coordinates": [-97.3062681016, 42.1134311159]}, "type": "Feature", "properties": {"collection_times": [{"days": "Mon-Sat", "time": "3:00pm"}, {"days": "Sun", "time": "Closed"}], "id": "6874000001", "name": "USPS COLLECTION BOX - BLUE BOX", "address": {"city": "HOSKINS", "state": "NE", "street": "107 S MAIN ST", "postcode": "68740"}}},
{"geometry": {"type": "Point", "coordinates": [-97.3062681016, 42.1134311159]}, "type": "Feature", "properties": {"collection_times": [{"days": "Mon-Fri", "time": "11:45am"}, {"days": "Sat", "time": "9:30am"}, {"days": "Sun", "time": "Closed"}], "id": "6874000002", "name": "USPS COLLECTION BOX - PO LOBBY", "address": {"city": "HOSKINS", "state": "NE", "street": "107 S MAIN ST", "postcode": "68740"}}},
{"geometry": {"type": "Point", "coordinates": [-96.5914369317, 42.3856641808]}, "type": "Feature", "properties": {"collection_times": [{"days": "Mon-Sat", "time": "1:45pm"}, {"days": "Sun", "time": "Closed"}], "id": "6874100001", "name": "USPS COLLECTION BOX - BLUE BOX", "address": {"city": "HUBBARD", "state": "NE", "street": "211 CHERRY ST", "postcode": "68741"}}},
{"geometry": {"type": "Point", "coordinates": [-96.5914369317, 42.3856641808]}, "type": "Feature", "properties": {"collection_times": [{"days": "Mon-Fri", "time": "11:15am"}, {"days": "Sat", "time": "9:00am"}, {"days": "Sun", "time": "Closed"}], "id": "6874100002", "name": "USPS COLLECTION BOX - PO LOBBY", "address": {"city": "HUBBARD", "state": "NE", "street": "211 CHERRY ST", "postcode": "68741"}}},
{"geometry": {"type": "Point", "coordinates": [-98.5285980284, 42.3819358994]}, "type": "Feature", "properties": {"collection_times": [{"days": "Mon-Sat", "time": "1:10pm"}, {"days": "Sun", "time": "Closed"}], "id": "6874200001", "name": "USPS COLLECTION BOX - BLUE BOX", "address": {"city": "INMAN", "state": "NE", "street": "190 MAIN ST", "postcode": "68742"}}},
{"geometry": {"type": "Point", "coordinates": [-98.5285980284, 42.3819358994]}, "type": "Feature", "properties": {"collection_times": [{"days": "Mon-Fri", "time": "12:45pm"}, {"days": "Sat", "time": "9:45am"}, {"days": "Sun", "time": "Closed"}], "id": "6874200002", "name": "USPS COLLECTION BOX - PO LOBBY", "address": {"city": "INMAN", "state": "NE", "street": "190 MAIN ST", "postcode": "68742"}}},
{"geometry": {"type": "Point", "coordinates": [-96.5640705969, 42.4482902683]}, "type": "Feature", "properties": {"collection_times": [{"days": "Mon-Sat", "time": "1:45pm"}, {"days": "Sun", "time": "Closed"}], "id": "6874300001", "name": "USPS COLLECTION BOX - BLUE BOX", "address": {"city": "JACKSON", "state": "NE", "street": "112 W ELK ST", "postcode": "68743"}}},
{"geometry": {"type": "Point", "coordinates": [-96.5640705969, 42.4482902683]}, "type": "Feature", "properties": {"collection_times": [{"days": "Mon-Fri", "time": "1:45pm"}, {"days": "Sat", "time": "12:45pm"}, {"days": "Sun", "time": "Closed"}], "id": "6874300002", "name": "USPS COLLECTION BOX - PO LOBBY", "address": {"city": "JACKSON", "state": "NE", "street": "112 W ELK ST", "postcode": "68743"}}},
{"geometry": {"type": "Point", "coordinates": [-97.0895729733, 42.4296187262]}, "type": "Feature", "properties": {"collection_times": [{"days": "Mon-Sat", "time": "1:30pm"}, {"days": "Sun", "time": "Closed"}], "id": "6874500001", "name": "USPS COLLECTION BOX - BLUE BOX", "address": {"city": "LAUREL", "state": "NE", "street": "205 E 2ND ST", "postcode": "68745"}}},
{"geometry": {"type": "Point", "coordinates": [-97.0895729733, 42.4296187262]}, "type": "Feature", "properties": {"collection_times": [{"days": "Mon-Fri", "time": "1:30pm"}, {"days": "Sat", "time": "9:45am"}, {"days": "Sun", "time": "Closed"}], "id": "6874500002", "name": "USPS COLLECTION BOX - PO LOBBY", "address": {"city": "LAUREL", "state": "NE", "street": "205 E 2ND ST", "postcode": "68745"}}},
{"geometry": {"type": "Point", "coordinates": [-98.441183086, 42.8593317369]}, "type": "Feature", "properties": {"collection_times": [{"days": "Mon-Sat", "time": "1:00pm"}, {"days": "Sun", "time": "Closed"}], "id": "6874600001", "name": "USPS COLLECTION BOX - BLUE BOX", "address": {"city": "LYNCH", "state": "NE", "street": "203 N 4TH ST", "postcode": "68746"}}},
{"geometry": {"type": "Point", "coordinates": [-98.441183086, 42.8593317369]}, "type": "Feature", "properties": {"collection_times": [{"days": "Mon-Fri", "time": "1:00pm"}, {"days": "Sat", "time": "11:15am"}, {"days": "Sun", "time": "Closed"}], "id": "6874600002", "name": "USPS COLLECTION BOX - PO LOBBY", "address": {"city": "LYNCH", "state": "NE", "street": "203 N 4TH ST", "postcode": "68746"}}},
{"geometry": {"type": "Point", "coordinates": [-97.4551818213, 41.8368651692]}, "type": "Feature", "properties": {"collection_times": [{"days": "Mon-Sat", "time": "3:10pm"}, {"days": "Sun", "time": "Closed"}], "id": "6874800001", "name": "USPS COLLECTION BOX - BLUE BOX", "address": {"city": "MADISON", "state": "NE", "street": "103 W 6TH ST N", "postcode": "68748"}}},
{"geometry": {"type": "Point", "coordinates": [-97.4551818213, 41.8368651692]}, "type": "Feature", "properties": {"collection_times": [{"days": "Mon-Fri", "time": "3:10pm"}, {"days": "Sat", "time": "10:00am"}, {"days": "Sun", "time": "Closed"}], "id": "6874800002", "name": "USPS COLLECTION BOX - PO LOBBY", "address": {"city": "MADISON", "state": "NE", "street": "103 W 6TH ST N", "postcode": "68748"}}},
{"geometry": {"type": "Point", "coordinates": [-97.4713109944, 42.4549109134]}, "type": "Feature", "properties": {"collection_times": [{"days": "Mon-Fri", "time": "12:45pm"}, {"days": "Sat", "time": "2:00pm"}, {"days": "Sun", "time": "Closed"}], "id": "6874900000", "name": "USPS COLLECTION BOX - BLUE BOX", "address": {"city": "MAGNET", "state": "NE", "street": "209 MAIN ST", "postcode": "68749"}}},
{"geometry": {"type": "Point", "coordinates": [-97.4713109944, 42.4549109134]}, "type": "Feature", "properties": {"collection_times": [{"days": "Mon-Fri", "time": "11:45am"}, {"days": "Sat", "time": "11:15am"}, {"days": "Sun", "time": "Closed"}], "id": "6874900001", "name": "USPS COLLECTION BOX - PO LOBBY", "address": {"city": "MAGNET", "state": "NE", "street": "209 MAIN ST", "postcode": "68749"}}},
{"geometry": {"type": "Point", "coordinates": [-97.7344920573, 42.0288716344]}, "type": "Feature", "properties": {"collection_times": [{"days": "Mon-Fri", "time": "2:50pm"}, {"days": "Sat", "time": "2:45pm"}, {"days": "Sun", "time": "Closed"}], "id": "6875200001", "name": "USPS COLLECTION BOX - BLUE BOX", "address": {"city": "MEADOW GROVE", "state": "NE", "street": "214 MAIN ST", "postcode": "68752"}}},
{"geometry": {"type": "Point", "coordinates": [-97.7344920573, 42.0288716344]}, "type": "Feature", "properties": {"collection_times": [{"days": "Mon-Fri", "time": "11:15am"}, {"days": "Sat", "time": "8:45am"}, {"days": "Sun", "time": "Closed"}], "id": "6875200002", "name": "USPS COLLECTION BOX - PO LOBBY", "address": {"city": "MEADOW GROVE", "state": "NE", "street": "214 MAIN ST", "postcode": "68752"}}},
{"geometry": {"type": "Point", "coordinates": [-99.0885140495, 42.9263871064]}, "type": "Feature", "properties": {"collection_times": [{"days": "Mon-Sat", "time": "11:45am"}, {"days": "Sun", "time": "Closed"}], "id": "6875500001", "name": "USPS COLLECTION BOX - BLUE BOX", "address": {"city": "NAPER", "state": "NE", "street": "201 MAIN ST", "postcode": "68755"}}},
{"geometry": {"type": "Point", "coordinates": [-99.0885140495, 42.9263871064]}, "type": "Feature", "properties": {"collection_times": [{"days": "Mon-Fri", "time": "11:45am"}, {"days": "Sat", "time": "11:15am"}, {"days": "Sun", "time": "Closed"}], "id": "6875500002", "name": "USPS COLLECTION BOX - PO LOBBY", "address": {"city": "NAPER", "state": "NE", "street": "201 MAIN ST", "postcode": "68755"}}},
{"geometry": {"type": "Point", "coordinates": [-98.0301652113, 42.1276000961]}, "type": "Feature", "properties": {"collection_times": [{"days": "Mon-Sat", "time": "2:35pm"}, {"days": "Sun", "time": "Closed"}], "id": "6875600005", "name": "USPS COLLECTION BOX - BLUE BOX", "address": {"city": "NELIGH", "state": "NE", "street": "116 W 3RD ST", "postcode": "68756"}}},
{"geometry": {"type": "Point", "coordinates": [-98.0299826004, 42.1276354957]}, "type": "Feature", "properties": {"collection_times": [{"days": "Mon-Fri", "time": "2:35pm"}, {"days": "Sat", "time": "10:15am"}, {"days": "Sun", "time": "Closed"}], "id": "6875600007", "name": "USPS COLLECTION BOX - PO LOBBY", "address": {"city": "NELIGH", "state": "NE", "street": "116 W 3RD ST", "postcode": "68756"}}},
{"geometry": {"type": "Point", "coordinates": [-96.8721469803, 42.6512491668]}, "type": "Feature", "properties": {"collection_times": [{"days": "Mon-Sat", "time": "1:00pm"}, {"days": "Sun", "time": "Closed"}], "id": "6875700001", "name": "USPS COLLECTION BOX - BLUE BOX", "address": {"city": "NEWCASTLE", "state": "NE", "street": "308 MAIN ST", "postcode": "68757"}}},
{"geometry": {"type": "Point", "coordinates": [-96.8721469803, 42.6512491668]}, "type": "Feature", "properties": {"collection_times": [{"days": "Mon-Fri", "time": "12:45pm"}, {"days": "Sat", "time": "10:15am"}, {"days": "Sun", "time": "Closed"}], "id": "6875700002", "name": "USPS COLLECTION BOX - PO LOBBY", "address": {"city": "NEWCASTLE", "state": "NE", "street": "308 MAIN ST", "postcode": "68757"}}},
{"geometry": {"type": "Point", "coordinates": [-97.7764918507, 41.7467310665]}, "type": "Feature", "properties": {"collection_times": [{"days": "Mon-Sat", "time": "2:50pm"}, {"days": "Sun", "time": "Closed"}], "id": "6875800001", "name": "USPS COLLECTION BOX - BLUE BOX", "address": {"city": "NEWMAN GROVE", "state": "NE", "street": "602 HALE AVE", "postcode": "68758"}}},
{"geometry": {"type": "Point", "coordinates": [-97.7764918507, 41.7467310665]}, "type": "Feature", "properties": {"collection_times": [{"days": "Mon-Fri", "time": "1:45pm"}, {"days": "Sat", "time": "9:15am"}, {"days": "Sun", "time": "Closed"}], "id": "6875800002", "name": "USPS COLLECTION BOX - PO LOBBY", "address": {"city": "NEWMAN GROVE", "state": "NE", "street": "602 HALE AVE", "postcode": "68758"}}},
{"geometry": {"type": "Point", "coordinates": [-99.330091787, 42.6011398987]}, "type": "Feature", "properties": {"collection_times": [{"days": "Mon-Sat", "time": "1:00pm"}, {"days": "Sun", "time": "Closed"}], "id": "6875900001", "name": "USPS COLLECTION BOX - BLUE BOX", "address": {"city": "NEWPORT", "state": "NE", "street": "100 W MAIN ST", "postcode": "68759"}}},
{"geometry": {"type": "Point", "coordinates": [-98.1628697723, 42.7742494472]}, "type": "Feature", "properties": {"collection_times": [{"days": "Mon-Fri", "time": "12:35pm"}, {"days": "Sat", "time": "12:30pm"}, {"days": "Sun", "time": "Closed"}], "id": "6876000001", "name": "USPS COLLECTION BOX - BLUE BOX", "address": {"city": "NIOBRARA", "state": "NE", "street": "25410 PARK AVE APT F", "postcode": "68760"}}},
{"geometry": {"type": "Point", "coordinates": [-98.1628697723, 42.7742494472]}, "type": "Feature", "properties": {"collection_times": [{"days": "Mon-Sat", "time": "11:25am"}, {"days": "Sun", "time": "Closed"}], "id": "6876000002", "name": "USPS COLLECTION BOX - BLUE BOX", "address": {"city": "NIOBRARA", "state": "NE", "street": "105 E VERDEL MAIN ST", "postcode": "68760"}}},
{"geometry": {"type": "Point", "coordinates": [-98.1628697723, 42.7742494472]}, "type": "Feature", "properties": {"collection_times": [{"days": "Mon-Fri", "time": "12:30pm"}, {"days": "Sat", "time": "9:45am"}, {"days": "Sun", "time": "Closed"}], "id": "6876000004", "name": "USPS COLLECTION BOX - PO LOBBY", "address": {"city": "NIOBRARA", "state": "NE", "street": "25410 PARK AVE APT F", "postcode": "68760"}}},
{"geometry": {"type": "Point", "coordinates": [-97.9977091977, 42.0459394212]}, "type": "Feature", "properties": {"collection_times": [{"days": "Mon-Sat", "time": "2:30pm"}, {"days": "Sun", "time": "Closed"}], "id": "6876100001", "name": "USPS COLLECTION BOX - BLUE BOX", "address": {"city": "OAKDALE", "state": "NE", "street": "500 HOHMAN ST", "postcode": "68761"}}},
{"geometry": {"type": "Point", "coordinates": [-97.9977091977, 42.0459394212]}, "type": "Feature", "properties": {"collection_times": [{"days": "Mon-Fri", "time": "11:45am"}, {"days": "Sat", "time": "10:15am"}, {"days": "Sun", "time": "Closed"}], "id": "6876100002", "name": "USPS COLLECTION BOX - PO LOBBY", "address": {"city": "OAKDALE", "state": "NE", "street": "500 HOHMAN ST", "postcode": "68761"}}},
{"geometry": {"type": "Point", "coordinates": [-98.6477520399, 42.4583125352]}, "type": "Feature", "properties": {"collection_times": [{"days": "Mon-Sat", "time": "2:00pm"}, {"days": "Sun", "time": "Closed"}], "id": "6876300004", "name": "USPS COLLECTION BOX - BLUE BOX", "address": {"city": "O' NEILL", "state": "NE", "street": "201 N 4TH ST", "postcode": "68763"}}},
{"geometry": {"type": "Point", "coordinates": [-98.6477520399, 42.4583125352]}, "type": "Feature", "properties": {"collection_times": [{"days": "Mon-Sat", "time": "2:00pm"}, {"days": "Sun", "time": "Closed"}], "id": "6876300005", "name": "USPS COLLECTION BOX - BLUE BOX", "address": {"city": "O' NEILL", "state": "NE", "street": "201 N 4TH ST", "postcode": "68763"}}},
{"geometry": {"type": "Point", "coordinates": [-98.6477520399, 42.4583125352]}, "type": "Feature", "properties": {"collection_times": [{"days": "Mon-Fri", "time": "2:00pm"}, {"days": "Sat", "time": "10:45am"}, {"days": "Sun", "time": "Closed"}], "id": "6876300007", "name": "USPS COLLECTION BOX - PO LOBBY", "address": {"city": "O' NEILL", "state": "NE", "street": "201 N 4TH ST", "postcode": "68763"}}},
{"geometry": {"type": "Point", "coordinates": [-98.2383816541, 42.4118256608]}, "type": "Feature", "properties": {"collection_times": [{"days": "Mon-Sat", "time": "1:15pm"}, {"days": "Sun", "time": "Closed"}], "id": "6876400001", "name": "USPS COLLECTION BOX - BLUE BOX", "address": {"city": "ORCHARD", "state": "NE", "street": "141 E 2ND ST", "postcode": "68764"}}},
{"geometry": {"type": "Point", "coordinates": [-98.2383816541, 42.4118256608]}, "type": "Feature", "properties": {"collection_times": [{"days": "Mon-Fri", "time": "1:00pm"}, {"days": "Sat", "time": "9:45am"}, {"days": "Sun", "time": "Closed"}], "id": "6876400002", "name": "USPS COLLECTION BOX - PO LOBBY", "address": {"city": "ORCHARD", "state": "NE", "street": "141 E 2ND ST", "postcode": "68764"}}},
{"geometry": {"type": "Point", "coordinates": [-97.5968974721, 42.3577607663]}, "type": "Feature", "properties": {"collection_times": [{"days": "Mon-Sat", "time": "2:45pm"}, {"days": "Sun", "time": "Closed"}], "id": "6876500001", "name": "USPS COLLECTION BOX - BLUE BOX", "address": {"city": "OSMOND", "state": "NE", "street": "209 N STATE ST", "postcode": "68765"}}},
{"geometry": {"type": "Point", "coordinates": [-97.5968974721, 42.3577607663]}, "type": "Feature", "properties": {"collection_times": [{"days": "Mon-Fri", "time": "2:45pm"}, {"days": "Sat", "time": "9:15am"}, {"days": "Sun", "time": "Closed"}], "id": "6876500002", "name": "USPS COLLECTION BOX - PO LOBBY", "address": {"city": "OSMOND", "state": "NE", "street": "209 N STATE ST", "postcode": "68765"}}},
{"geometry": {"type": "Point", "coordinates": [-98.4171891047, 42.4009300702]}, "type": "Feature", "properties": {"collection_times": [{"days": "Mon-Sat", "time": "12:50pm"}, {"days": "Sun", "time": "Closed"}], "id": "6876600001", "name": "USPS COLLECTION BOX - BLUE BOX", "address": {"city": "PAGE", "state": "NE", "street": "107 N 5TH ST", "postcode": "68766"}}},
{"geometry": {"type": "Point", "coordinates": [-98.4171891047, 42.4009300702]}, "type": "Feature", "properties": {"collection_times": [{"days": "Mon-Fri", "time": "12:45pm"}, {"days": "Sat", "time": "10:30am"}, {"days": "Sun", "time": "Closed"}], "id": "6876600002", "name": "USPS COLLECTION BOX - PO LOBBY", "address": {"city": "PAGE", "state": "NE", "street": "107 N 5TH ST", "postcode": "68766"}}},
{"geometry": {"type": "Point", "coordinates": [-97.5285304264, 42.1992826888]}, "type": "Feature", "properties": {"collection_times": [{"days": "Mon-Sat", "time": "2:55pm"}, {"days": "Sun", "time": "Closed"}], "id": "6876700002", "name": "USPS COLLECTION BOX - BLUE BOX", "address": {"city": "PIERCE", "state": "NE", "street": "122 N LUCAS ST", "postcode": "68767"}}},
{"geometry": {"type": "Point", "coordinates": [-97.5285304264, 42.1992826888]}, "type": "Feature", "properties": {"collection_times": [{"days": "Mon-Fri", "time": "2:55pm"}, {"days": "Sat", "time": "8:45am"}, {"days": "Sun", "time": "Closed"}], "id": "6876700003", "name": "USPS COLLECTION BOX - PO LOBBY", "address": {"city": "PIERCE", "state": "NE", "street": "122 N LUCAS ST", "postcode": "68767"}}},
{"geometry": {"type": "Point", "coordinates": [-97.7909155265, 42.3496762988]}, "type": "Feature", "properties": {"collection_times": [{"days": "Mon-Sat", "time": "2:30pm"}, {"days": "Sun", "time": "Closed"}], "id": "6876900001", "name": "USPS COLLECTION BOX - BLUE BOX", "address": {"city": "PLAINVIEW", "state": "NE", "street": "311 W LOCUST AVE", "postcode": "68769"}}},
{"geometry": {"type": "Point", "coordinates": [-97.7909155265, 42.3496762988]}, "type": "Feature", "properties": {"collection_times": [{"days": "Mon-Fri", "time": "2:30pm"}, {"days": "Sat", "time": "10:15am"}, {"days": "Sun", "time": "Closed"}], "id": "6876900002", "name": "USPS COLLECTION BOX - PO LOBBY", "address": {"city": "PLAINVIEW", "state": "NE", "street": "311 W LOCUST AVE", "postcode": "68769"}}},
{"geometry": {"type": "Point", "coordinates": [-96.7053983562, 42.562416181]}, "type": "Feature", "properties": {"collection_times": [{"days": "Mon-Sat", "time": "1:30pm"}, {"days": "Sun", "time": "Closed"}], "id": "6877000002", "name": "USPS COLLECTION BOX - BLUE BOX", "address": {"city": "PONCA", "state": "NE", "street": "112 W 3RD ST", "postcode": "68770"}}},
{"geometry": {"type": "Point", "coordinates": [-96.7053983562, 42.562416181]}, "type": "Feature", "properties": {"collection_times": [{"days": "Mon-Fri", "time": "1:30pm"}, {"days": "Sat", "time": "10:15am"}, {"days": "Sun", "time": "Closed"}], "id": "6877000003", "name": "USPS COLLECTION BOX - PO LOBBY", "address": {"city": "PONCA", "state": "NE", "street": "112 W 3RD ST", "postcode": "68770"}}},
{"geometry": {"type": "Point", "coordinates": [-97.3569918583, 42.3789734398]}, "type": "Feature", "properties": {"collection_times": [{"days": "Mon-Sat", "time": "2:20pm"}, {"days": "Sun", "time": "Closed"}], "id": "6877100003", "name": "USPS COLLECTION BOX - BLUE BOX", "address": {"city": "RANDOLPH", "state": "NE", "street": "120 N MAIN ST", "postcode": "68771"}}},
{"geometry": {"type": "Point", "coordinates": [-97.3569918583, 42.3789734398]}, "type": "Feature", "properties": {"collection_times": [{"days": "Mon-Fri", "time": "2:20pm"}, {"days": "Sat", "time": "9:45am"}, {"days": "Sun", "time": "Closed"}], "id": "6877100005", "name": "USPS COLLECTION BOX - PO LOBBY", "address": {"city": "RANDOLPH", "state": "NE", "street": "120 N MAIN ST", "postcode": "68771"}}},
{"geometry": {"type": "Point", "coordinates": [-98.1262990085, 42.3327535554]}, "type": "Feature", "properties": {"collection_times": [{"days": "Mon-Sat", "time": "1:30pm"}, {"days": "Sun", "time": "Closed"}], "id": "6877300001", "name": "USPS COLLECTION BOX - BLUE BOX", "address": {"city": "ROYAL", "state": "NE", "street": "1000 W HIGHWAY 20", "postcode": "68773"}}},
{"geometry": {"type": "Point", "coordinates": [-97.3135003385, 42.7937099396]}, "type": "Feature", "properties": {"collection_times": [{"days": "Mon-Sat", "time": "10:45am"}, {"days": "Sun", "time": "Closed"}], "id": "6877400000", "name": "USPS COLLECTION BOX - BLUE BOX", "address": {"city": "SAINT HELENA", "state": "NE", "street": "110 W 9TH ST", "postcode": "68774"}}},
{"geometry": {"type": "Point", "coordinates": [-97.3135003385, 42.7937099396]}, "type": "Feature", "properties": {"collection_times": [{"days": "Mon-Sat", "time": "10:45am"}, {"days": "Sun", "time": "Closed"}], "id": "6877400001", "name": "USPS COLLECTION BOX - PO LOBBY", "address": {"city": "SAINT HELENA", "state": "NE", "street": "110 W 9TH ST", "postcode": "68774"}}},
{"geometry": {"type": "Point", "coordinates": [-96.4209376028, 42.4626502085]}, "type": "Feature", "properties": {"collection_times": [{"days": "Mon-Sat", "time": "2:15pm"}, {"days": "Sun", "time": "Closed"}], "id": "6877600005", "name": "USPS COLLECTION BOX - BLUE BOX", "address": {"city": "S SIOUX CITY", "state": "NE", "street": "801 W 29TH ST", "postcode": "68776"}}},
{"geometry": {"type": "Point", "coordinates": [-96.413967342, 42.4744923708]}, "type": "Feature", "properties": {"collection_times": [{"days": "Mon-Sat", "time": "2:00pm"}, {"days": "Sun", "time": "Closed"}], "id": "6877600015", "name": "USPS COLLECTION BOX - BLUE BOX", "address": {"city": "S SIOUX CITY", "state": "NE", "street": "1615 1ST AVE", "postcode": "68776"}}},
{"geometry": {"type": "Point", "coordinates": [-96.4209376028, 42.4626502085]}, "type": "Feature", "properties": {"collection_times": [{"days": "Mon-Sat", "time": "2:15pm"}, {"days": "Sun", "time": "Closed"}], "id": "6877600020", "name": "USPS COLLECTION BOX - PO LOBBY", "address": {"city": "S SIOUX CITY", "state": "NE", "street": "801 W 29TH ST", "postcode": "68776"}}},
{"geometry": {"type": "Point", "coordinates": [-96.4138984707, 42.4705644696]}, "type": "Feature", "properties": {"collection_times": [{"days": "Mon-Sat", "time": "2:00pm"}, {"days": "Sun", "time": "Closed"}], "id": "6877600022", "name": "USPS COLLECTION BOX - BLUE BOX", "address": {"city": "S SIOUX CITY", "state": "NE", "street": "2024 DAKOTA AVE", "postcode": "68776"}}},
{"geometry": {"type": "Point", "coordinates": [-98.7011438985, 42.8739847055]}, "type": "Feature", "properties": {"collection_times": [{"days": "Mon-Sat", "time": "12:30pm"}, {"days": "Sun", "time": "Closed"}], "id": "6877700001", "name": "USPS COLLECTION BOX - BLUE BOX", "address": {"city": "SPENCER", "state": "NE", "street": "110 S THAYER ST", "postcode": "68777"}}},
{"geometry": {"type": "Point", "coordinates": [-98.7011438985, 42.8739847055]}, "type": "Feature", "properties": {"collection_times": [{"days": "Mon-Fri", "time": "12:30pm"}, {"days": "Sat", "time": "11:15am"}, {"days": "Sun", "time": "Closed"}], "id": "6877700002", "name": "USPS COLLECTION BOX - PO LOBBY", "address": {"city": "SPENCER", "state": "NE", "street": "110 S THAYER ST", "postcode": "68777"}}},
{"geometry": {"type": "Point", "coordinates": [-99.7488413652, 42.8243950115]}, "type": "Feature", "properties": {"collection_times": [{"days": "Mon-Fri", "time": "11:20am"}, {"days": "Sat", "time": "11:45am"}, {"days": "Sun", "time": "Closed"}], "id": "6877800001", "name": "USPS COLLECTION BOX - BLUE BOX", "address": {"city": "SPRINGVIEW", "state": "NE", "street": "130 MAIN ST", "postcode": "68778"}}},
{"geometry": {"type": "Point", "coordinates": [-99.7488413652, 42.8243950115]}, "type": "Feature", "properties": {"collection_times": [{"days": "Mon-Fri", "time": "11:20am"}, {"days": "Sat", "time": "10:00am"}, {"days": "Sun", "time": "Closed"}], "id": "6877800002", "name": "USPS COLLECTION BOX - PO LOBBY", "address": {"city": "SPRINGVIEW", "state": "NE", "street": "130 MAIN ST", "postcode": "68778"}}},
{"geometry": {"type": "Point", "coordinates": [-97.2239785832, 41.9504295498]}, "type": "Feature", "properties": {"collection_times": [{"days": "Mon-Sat", "time": "3:30pm"}, {"days": "Sun", "time": "Closed"}], "id": "6877900001", "name": "USPS COLLECTION BOX - BLUE BOX", "address": {"city": "STANTON", "state": "NE", "street": "1018 IVY ST", "postcode": "68779"}}},
{"geometry": {"type": "Point", "coordinates": [-97.2239785832, 41.9504295498]}, "type": "Feature", "properties": {"collection_times": [{"days": "Mon-Fri", "time": "3:30pm"}, {"days": "Sat", "time": "9:15am"}, {"days": "Sun", "time": "Closed"}], "id": "6877900002", "name": "USPS COLLECTION BOX - PO LOBBY", "address": {"city": "STANTON", "state": "NE", "street": "1018 IVY ST", "postcode": "68779"}}},
{"geometry": {"type": "Point", "coordinates": [-99.1425738953, 42.5987576514]}, "type": "Feature", "properties": {"collection_times": [{"days": "Mon-Sat", "time": "1:00pm"}, {"days": "Sun", "time": "Closed"}], "id": "6878000001", "name": "USPS COLLECTION BOX - BLUE BOX", "address": {"city": "STUART", "state": "NE", "street": "121 N MAIN ST", "postcode": "68780"}}},
{"geometry": {"type": "Point", "coordinates": [-99.1425738953, 42.5987576514]}, "type": "Feature", "properties": {"collection_times": [{"days": "Mon-Fri", "time": "1:00pm"}, {"days": "Sat", "time": "9:15am"}, {"days": "Sun", "time": "Closed"}], "id": "6878000002", "name": "USPS COLLECTION BOX - PO LOBBY", "address": {"city": "STUART", "state": "NE", "street": "121 N MAIN ST", "postcode": "68780"}}},
{"geometry": {"type": "Point", "coordinates": [-97.8327538159, 42.0479173317]}, "type": "Feature", "properties": {"collection_times": [{"days": "Mon-Sat", "time": "2:40pm"}, {"days": "Sun", "time": "Closed"}], "id": "6878100001", "name": "USPS COLLECTION BOX - BLUE BOX", "address": {"city": "TILDEN", "state": "NE", "street": "101 S MADISON ST", "postcode": "68781"}}},
{"geometry": {"type": "Point", "coordinates": [-97.8327538159, 42.0479173317]}, "type": "Feature", "properties": {"collection_times": [{"days": "Mon-Fri", "time": "2:30pm"}, {"days": "Sat", "time": "9:15am"}, {"days": "Sun", "time": "Closed"}], "id": "6878100002", "name": "USPS COLLECTION BOX - PO LOBBY", "address": {"city": "TILDEN", "state": "NE", "street": "101 S MADISON ST", "postcode": "68781"}}},
{"geometry": {"type": "Point", "coordinates": [-98.0334753196, 42.5968299447]}, "type": "Feature", "properties": {"collection_times": [{"days": "Mon-Sat", "time": "1:00pm"}, {"days": "Sun", "time": "Closed"}], "id": "6878300001", "name": "USPS COLLECTION BOX - BLUE BOX", "address": {"city": "VERDIGRE", "state": "NE", "street": "408 S MAIN ST", "postcode": "68783"}}},
{"geometry": {"type": "Point", "coordinates": [-98.0334753196, 42.5968299447]}, "type": "Feature", "properties": {"collection_times": [{"days": "Mon-Fri", "time": "1:00pm"}, {"days": "Sat", "time": "11:45am"}, {"days": "Sun", "time": "Closed"}], "id": "6878300002", "name": "USPS COLLECTION BOX - PO LOBBY", "address": {"city": "VERDIGRE", "state": "NE", "street": "408 S MAIN ST", "postcode": "68783"}}},
{"geometry": {"type": "Point", "coordinates": [-96.8649889114, 42.2689158952]}, "type": "Feature", "properties": {"collection_times": [{"days": "Mon-Sat", "time": "2:30pm"}, {"days": "Sun", "time": "Closed"}], "id": "6878400001", "name": "USPS COLLECTION BOX - BLUE BOX", "address": {"city": "WAKEFIELD", "state": "NE", "street": "319 MAIN ST", "postcode": "68784"}}},
{"geometry": {"type": "Point", "coordinates": [-96.8649889114, 42.2689158952]}, "type": "Feature", "properties": {"collection_times": [{"days": "Mon-Fri", "time": "2:30pm"}, {"days": "Sat", "time": "9:45am"}, {"days": "Sun", "time": "Closed"}], "id": "6878400002", "name": "USPS COLLECTION BOX - PO LOBBY", "address": {"city": "WAKEFIELD", "state": "NE", "street": "319 MAIN ST", "postcode": "68784"}}},
{"geometry": {"type": "Point", "coordinates": [-96.736307823, 42.456827745]}, "type": "Feature", "properties": {"collection_times": [{"days": "Mon-Sat", "time": "12:00pm"}, {"days": "Sun", "time": "Closed"}], "id": "6878500001", "name": "USPS COLLECTION BOX - BLUE BOX", "address": {"city": "WATERBURY", "state": "NE", "street": "301 LOGAN ST", "postcode": "68785"}}},
{"geometry": {"type": "Point", "coordinates": [-96.736307823, 42.456827745]}, "type": "Feature", "properties": {"collection_times": [{"days": "Mon-Sat", "time": "11:45am"}, {"days": "Sun", "time": "Closed"}], "id": "6878500002", "name": "USPS COLLECTION BOX - PO LOBBY", "address": {"city": "WATERBURY", "state": "NE", "street": "301 LOGAN ST", "postcode": "68785"}}},
{"geometry": {"type": "Point", "coordinates": [-97.5376713104, 42.4993086969]}, "type": "Feature", "properties": {"collection_times": [{"days": "Mon-Fri", "time": "1:55pm"}, {"days": "Sat", "time": "1:50pm"}, {"days": "Sun", "time": "Closed"}], "id": "6878600001", "name": "USPS COLLECTION BOX - BLUE BOX", "address": {"city": "WAUSA", "state": "NE", "street": "612 E BROADWAY ST", "postcode": "68786"}}},
{"geometry": {"type": "Point", "coordinates": [-97.5376713104, 42.4993086969]}, "type": "Feature", "properties": {"collection_times": [{"days": "Mon-Fri", "time": "1:55pm"}, {"days": "Sat", "time": "9:45am"}, {"days": "Sun", "time": "Closed"}], "id": "6878600002", "name": "USPS COLLECTION BOX - PO LOBBY", "address": {"city": "WAUSA", "state": "NE", "street": "612 E BROADWAY ST", "postcode": "68786"}}},
{"geometry": {"type": "Point", "coordinates": [-97.019859302, 42.2303330793]}, "type": "Feature", "properties": {"collection_times": [{"days": "Mon-Sat", "time": "9:30am"}, {"days": "Sun", "time": "Closed"}], "id": "6878700004", "name": "USPS COLLECTION BOX - BLUE BOX", "address": {"city": "WAYNE", "state": "NE", "street": "1111 MAIN ST", "postcode": "68787"}}},
{"geometry": {"type": "Point", "coordinates": [-97.0102553369, 42.2346108188]}, "type": "Feature", "properties": {"collection_times": [{"days": "Mon-Sat", "time": "12:00pm"}, {"days": "Sun", "time": "Closed"}], "id": "6878700006", "name": "USPS COLLECTION BOX - BLUE BOX", "address": {"city": "WAYNE", "state": "NE", "street": "615 DEARBORN ST", "postcode": "68787"}}},
{"geometry": {"type": "Point", "coordinates": [-97.0192071037, 42.2294373376]}, "type": "Feature", "properties": {"collection_times": [{"days": "Mon-Fri", "time": "2:10pm"}, {"days": "Sat", "time": "2:00pm"}, {"days": "Sun", "time": "Closed"}], "id": "6878700007", "name": "USPS COLLECTION BOX - BLUE BOX", "address": {"city": "WAYNE", "state": "NE", "street": "120 N PEARL ST", "postcode": "68787"}}},
{"geometry": {"type": "Point", "coordinates": [-97.0192071037, 42.2294373376]}, "type": "Feature", "properties": {"collection_times": [{"days": "Mon-Fri", "time": "2:10pm"}, {"days": "Sat", "time": "2:00pm"}, {"days": "Sun", "time": "Closed"}], "id": "6878700008", "name": "USPS COLLECTION BOX - BLUE BOX", "address": {"city": "WAYNE", "state": "NE", "street": "120 N PEARL ST", "postcode": "68787"}}},
{"geometry": {"type": "Point", "coordinates": [-97.0192071037, 42.2294373376]}, "type": "Feature", "properties": {"collection_times": [{"days": "Mon-Fri", "time": "2:00pm"}, {"days": "Sat", "time": "11:30am"}, {"days": "Sun", "time": "Closed"}], "id": "6878700010", "name": "USPS COLLECTION BOX - PO LOBBY", "address": {"city": "WAYNE", "state": "NE", "street": "120 N PEARL ST", "postcode": "68787"}}},
{"geometry": {"type": "Point", "coordinates": [-96.7107054992, 41.8392457362]}, "type": "Feature", "properties": {"collection_times": [{"days": "Mon-Sat", "time": "12:00pm"}, {"days": "Sun", "time": "Closed"}], "id": "6878800002", "name": "USPS COLLECTION BOX - BLUE BOX", "address": {"city": "WEST POINT", "state": "NE", "street": "200 S LINCOLN ST", "postcode": "68788"}}},
{"geometry": {"type": "Point", "coordinates": [-96.7117658079, 41.8410566681]}, "type": "Feature", "properties": {"collection_times": [{"days": "Mon-Fri", "time": "2:15pm"}, {"days": "Sat", "time": "11:00am"}, {"days": "Sun", "time": "Closed"}], "id": "6878800005", "name": "USPS COLLECTION BOX - PO LOBBY", "address": {"city": "WEST POINT", "state": "NE", "street": "127 E BRIDGE ST", "postcode": "68788"}}},
{"geometry": {"type": "Point", "coordinates": [-96.7117658079, 41.8410566681]}, "type": "Feature", "properties": {"collection_times": [{"days": "Mon-Sat", "time": "2:15pm"}, {"days": "Sun", "time": "Closed"}], "id": "6878800006", "name": "USPS COLLECTION BOX - BLUE BOX", "address": {"city": "WEST POINT", "state": "NE", "street": "127 E BRIDGE ST", "postcode": "68788"}}},
{"geometry": {"type": "Point", "coordinates": [-96.7108556529, 41.841082505]}, "type": "Feature", "properties": {"collection_times": [{"days": "Mon-Fri", "time": "2:15pm"}, {"days": "Sat", "time": "10:45am"}, {"days": "Sun", "time": "Closed"}], "id": "6878800007", "name": "USPS COLLECTION BOX - BLUE BOX", "address": {"city": "WEST POINT", "state": "NE", "street": "203 N LINCOLN ST", "postcode": "68788"}}},
{"geometry": {"type": "Point", "coordinates": [-98.0137043954, 42.5100530534]}, "type": "Feature", "properties": {"collection_times": [{"days": "Mon-Fri", "time": "1:00pm"}, {"days": "Sat", "time": "10:45am"}, {"days": "Sun", "time": "Closed"}], "id": "6878900001", "name": "USPS COLLECTION BOX - PO LOBBY", "address": {"city": "WINNETOON", "state": "NE", "street": "312 MAIN AVE", "postcode": "68789"}}},
{"geometry": {"type": "Point", "coordinates": [-97.1755001763, 42.1757713255]}, "type": "Feature", "properties": {"collection_times": [{"days": "Mon-Sat", "time": "2:45pm"}, {"days": "Sun", "time": "Closed"}], "id": "6879000001", "name": "USPS COLLECTION BOX - BLUE BOX", "address": {"city": "WINSIDE", "state": "NE", "street": "410 MAIN ST", "postcode": "68790"}}},
{"geometry": {"type": "Point", "coordinates": [-97.1755001763, 42.1757713255]}, "type": "Feature", "properties": {"collection_times": [{"days": "Mon-Fri", "time": "12:15pm"}, {"days": "Sat", "time": "10:15am"}, {"days": "Sun", "time": "Closed"}], "id": "6879000002", "name": "USPS COLLECTION BOX - PO LOBBY", "address": {"city": "WINSIDE", "state": "NE", "street": "410 MAIN ST", "postcode": "68790"}}},
{"geometry": {"type": "Point", "coordinates": [-96.9156539092, 41.9880286415]}, "type": "Feature", "properties": {"collection_times": [{"days": "Mon-Sat", "time": "2:45pm"}, {"days": "Sun", "time": "Closed"}], "id": "6879100001", "name": "USPS COLLECTION BOX - BLUE BOX", "address": {"city": "WISNER", "state": "NE", "street": "1120 AVENUE E", "postcode": "68791"}}},
{"geometry": {"type": "Point", "coordinates": [-96.9156539092, 41.9880286415]}, "type": "Feature", "properties": {"collection_times": [{"days": "Mon-Fri", "time": "2:45pm"}, {"days": "Sat", "time": "9:45am"}, {"days": "Sun", "time": "Closed"}], "id": "6879100002", "name": "USPS COLLECTION BOX - PO LOBBY", "address": {"city": "WISNER", "state": "NE", "street": "1120 AVENUE E", "postcode": "68791"}}},
{"geometry": {"type": "Point", "coordinates": [-97.1692332795, 42.7393792794]}, "type": "Feature", "properties": {"collection_times": [{"days": "Mon-Sat", "time": "12:45pm"}, {"days": "Sun", "time": "Closed"}], "id": "6879200001", "name": "USPS COLLECTION BOX - BLUE BOX", "address": {"city": "WYNOT", "state": "NE", "street": "418 SAINT JAMES AVE", "postcode": "68792"}}},
{"geometry": {"type": "Point", "coordinates": [-97.1692332795, 42.7393792794]}, "type": "Feature", "properties": {"collection_times": [{"days": "Mon-Fri", "time": "12:45pm"}, {"days": "Sat", "time": "10:45am"}, {"days": "Sun", "time": "Closed"}], "id": "6879200002", "name": "USPS COLLECTION BOX - PO LOBBY", "address": {"city": "WYNOT", "state": "NE", "street": "418 SAINT JAMES AVE", "postcode": "68792"}}}
]}
