{"type": "FeatureCollection", "features": [
{"geometry": {"type": "Point", "coordinates": [-98.3588422651, 40.9402752585]}, "type": "Feature", "properties": {"collection_times": [{"days": "Mon-Fri", "time": "2:25pm"}, {"days": "Sat", "time": "2:50pm"}, {"days": "Sun", "time": "Closed"}], "id": "6880100045", "name": "USPS COLLECTION BOX - BLUE BOX", "address": {"city": "GRAND ISLAND", "state": "NE", "street": "2015 N BROADWELL AVE", "postcode": "68801"}}},
{"geometry": {"type": "Point", "coordinates": [-98.3396980457, 40.9056122556]}, "type": "Feature", "properties": {"collection_times": [{"days": "Mon-Fri", "time": "1:45pm"}, {"days": "Sat", "time": "1:10pm"}, {"days": "Sun", "time": "Closed"}], "id": "6880100047", "name": "USPS COLLECTION BOX - BLUE BOX", "address": {"city": "GRAND ISLAND", "state": "NE", "street": "1607 S LOCUST ST", "postcode": "68801"}}},
{"geometry": {"type": "Point", "coordinates": [-98.3396980457, 40.9056122556]}, "type": "Feature", "properties": {"collection_times": [{"days": "Mon-Fri", "time": "1:45pm"}, {"days": "Sat", "time": "1:10pm"}, {"days": "Sun", "time": "Closed"}], "id": "6880100048", "name": "USPS COLLECTION BOX - BLUE BOX", "address": {"city": "GRAND ISLAND", "state": "NE", "street": "1607 S LOCUST ST", "postcode": "68801"}}},
{"geometry": {"type": "Point", "coordinates": [-98.3396980457, 40.9056122556]}, "type": "Feature", "properties": {"collection_times": [{"days": "Mon-Fri", "time": "1:45pm"}, {"days": "Sat", "time": "1:10pm"}, {"days": "Sun", "time": "Closed"}], "id": "6880100049", "name": "USPS COLLECTION BOX - BLUE BOX", "address": {"city": "GRAND ISLAND", "state": "NE", "street": "1607 S LOCUST ST", "postcode": "68801"}}},
{"geometry": {"type": "Point", "coordinates": [-98.3427980017, 40.9257221168]}, "type": "Feature", "properties": {"collection_times": [{"days": "Mon-Fri", "time": "3:35pm"}, {"days": "Sat", "time": "3:15pm"}, {"days": "Sun", "time": "Closed"}], "id": "6880100052", "name": "USPS COLLECTION BOX - BLUE BOX", "address": {"city": "GRAND ISLAND", "state": "NE", "street": "203 W SOUTH FRONT ST", "postcode": "68801"}}},
{"geometry": {"type": "Point", "coordinates": [-98.3427980017, 40.9257221168]}, "type": "Feature", "properties": {"collection_times": [{"days": "Mon-Fri", "time": "3:35pm"}, {"days": "Sat", "time": "3:15pm"}, {"days": "Sun", "time": "Closed"}], "id": "6880100053", "name": "USPS COLLECTION BOX - BLUE BOX", "address": {"city": "GRAND ISLAND", "state": "NE", "street": "203 W SOUTH FRONT ST", "postcode": "68801"}}},
{"geometry": {"type": "Point", "coordinates": [-98.3417921086, 40.9262702276]}, "type": "Feature", "properties": {"collection_times": [{"days": "Mon-Fri", "time": "3:35pm"}, {"days": "Sat", "time": "3:25pm"}, {"days": "Sun", "time": "Closed"}], "id": "6880100069", "name": "USPS COLLECTION BOX - BLUE BOX", "address": {"city": "GRAND ISLAND", "state": "NE", "street": "204 W SOUTH FRONT ST", "postcode": "68801"}}},
{"geometry": {"type": "Point", "coordinates": [-98.3417921086, 40.9262702276]}, "type": "Feature", "properties": {"collection_times": [{"days": "Mon-Fri", "time": "3:35pm"}, {"days": "Sat", "time": "3:25pm"}, {"days": "Sun", "time": "Closed"}], "id": "6880100070", "name": "USPS COLLECTION BOX - BLUE BOX", "address": {"city": "GRAND ISLAND", "state": "NE", "street": "204 W SOUTH FRONT ST", "postcode": "68801"}}},
{"geometry": {"type": "Point", "coordinates": [-98.3417921086, 40.9262702276]}, "type": "Feature", "properties": {"collection_times": [{"days": "Mon-Sat", "time": "3:20pm"}, {"days": "Sun", "time": "Closed"}], "id": "6880100074", "name": "USPS COLLECTION BOX - PO LOBBY", "address": {"city": "GRAND ISLAND", "state": "NE", "street": "204 W SOUTH FRONT ST", "postcode": "68801"}}},
{"geometry": {"type": "Point", "coordinates": [-98.3417921086, 40.9262702276]}, "type": "Feature", "properties": {"collection_times": [{"days": "Mon-Sat", "time": "3:20pm"}, {"days": "Sun", "time": "Closed"}], "id": "6880100075", "name": "USPS COLLECTION BOX - PO LOBBY", "address": {"city": "GRAND ISLAND", "state": "NE", "street": "204 W SOUTH FRONT ST", "postcode": "68801"}}},
{"geometry": {"type": "Point", "coordinates": [-98.3625532624, 40.9242023245]}, "type": "Feature", "properties": {"collection_times": [{"days": "Mon-Fri", "time": "12:35pm"}, {"days": "Sat", "time": "12:30pm"}, {"days": "Sun", "time": "Closed"}], "id": "6880100076", "name": "USPS COLLECTION BOX - BLUE BOX", "address": {"city": "GRAND ISLAND", "state": "NE", "street": "2116 W FAIDLEY AVE", "postcode": "68801"}}},
{"geometry": {"type": "Point", "coordinates": [-98.3417921086, 40.9262702276]}, "type": "Feature", "properties": {"collection_times": [{"days": "Mon-Fri", "time": "3:35pm"}, {"days": "Sat", "time": "3:15pm"}, {"days": "Sun", "time": "Closed"}], "id": "6880100078", "name": "USPS COLLECTION BOX - BLUE BOX", "address": {"city": "GRAND ISLAND", "state": "NE", "street": "204 W SOUTH FRONT ST", "postcode": "68801"}}},
{"geometry": {"type": "Point", "coordinates": [-98.3580593654, 40.9172354095]}, "type": "Feature", "properties": {"collection_times": [{"days": "Mon-Fri", "time": "2:45pm"}, {"days": "Sat", "time": "3:30pm"}, {"days": "Sun", "time": "Closed"}], "id": "6880300001", "name": "USPS COLLECTION BOX - BLUE BOX", "address": {"city": "GRAND ISLAND", "state": "NE", "street": "1811 W 2ND ST", "postcode": "68803"}}},
{"geometry": {"type": "Point", "coordinates": [-98.3580593654, 40.9172354095]}, "type": "Feature", "properties": {"collection_times": [{"days": "Mon-Fri", "time": "2:45pm"}, {"days": "Sat", "time": "3:30pm"}, {"days": "Sun", "time": "Closed"}], "id": "6880300002", "name": "USPS COLLECTION BOX - BLUE BOX", "address": {"city": "GRAND ISLAND", "state": "NE", "street": "1811 W 2ND ST", "postcode": "68803"}}},
{"geometry": {"type": "Point", "coordinates": [-98.3580593654, 40.9172354095]}, "type": "Feature", "properties": {"collection_times": [{"days": "Mon-Fri", "time": "2:45pm"}, {"days": "Sat", "time": "3:30pm"}, {"days": "Sun", "time": "Closed"}], "id": "6880300003", "name": "USPS COLLECTION BOX - BLUE BOX", "address": {"city": "GRAND ISLAND", "state": "NE", "street": "1811 W 2ND ST", "postcode": "68803"}}},
{"geometry": {"type": "Point", "coordinates": [-98.3655693054, 40.9459627108]}, "type": "Feature", "properties": {"collection_times": [{"days": "Mon-Sat", "time": "1:10pm"}, {"days": "Sun", "time": "Closed"}], "id": "6880300008", "name": "USPS COLLECTION BOX - BLUE BOX", "address": {"city": "GRAND ISLAND", "state": "NE", "street": "2300 W CAPITAL AVE", "postcode": "68803"}}},
{"geometry": {"type": "Point", "coordinates": [-98.3667545733, 40.9242664033]}, "type": "Feature", "properties": {"collection_times": [{"days": "Mon-Fri", "time": "12:55pm"}, {"days": "Sat-Sun", "time": "Closed"}], "id": "6880300012", "name": "USPS COLLECTION BOX - BLUE BOX", "address": {"city": "GRAND ISLAND", "state": "NE", "street": "2444 W FAIDLEY AVE", "postcode": "68803"}}},
{"geometry": {"type": "Point", "coordinates": [-98.3706029969, 40.9242862331]}, "type": "Feature", "properties": {"collection_times": [{"days": "Mon-Sat", "time": "10:30am"}, {"days": "Sun", "time": "Closed"}], "id": "6880300013", "name": "USPS COLLECTION BOX - BLUE BOX", "address": {"city": "GRAND ISLAND", "state": "NE", "street": "2620 W FAIDLEY AVE", "postcode": "68803"}}},
{"geometry": {"type": "Point", "coordinates": [-98.3783314545, 40.914030394]}, "type": "Feature", "properties": {"collection_times": [{"days": "Mon-Fri", "time": "2:50pm"}, {"days": "Sat", "time": "3:35pm"}, {"days": "Sun", "time": "Closed"}], "id": "6880300023", "name": "USPS COLLECTION BOX - BLUE BOX", "address": {"city": "GRAND ISLAND", "state": "NE", "street": "515 S WEBB RD", "postcode": "68803"}}},
{"geometry": {"type": "Point", "coordinates": [-98.3783314545, 40.914030394]}, "type": "Feature", "properties": {"collection_times": [{"days": "Mon-Fri", "time": "2:50pm"}, {"days": "Sat", "time": "3:35pm"}, {"days": "Sun", "time": "Closed"}], "id": "6880300024", "name": "USPS COLLECTION BOX - BLUE BOX", "address": {"city": "GRAND ISLAND", "state": "NE", "street": "515 S WEBB RD", "postcode": "68803"}}},
{"geometry": {"type": "Point", "coordinates": [-98.3783314545, 40.914030394]}, "type": "Feature", "properties": {"collection_times": [{"days": "Mon-Fri", "time": "2:50pm"}, {"days": "Sat", "time": "3:35pm"}, {"days": "Sun", "time": "Closed"}], "id": "6880300025", "name": "USPS COLLECTION BOX - BLUE BOX", "address": {"city": "GRAND ISLAND", "state": "NE", "street": "515 S WEBB RD", "postcode": "68803"}}},
{"geometry": {"type": "Point", "coordinates": [-98.3783314545, 40.914030394]}, "type": "Feature", "properties": {"collection_times": [{"days": "Mon-Fri", "time": "2:50pm"}, {"days": "Sat", "time": "3:35pm"}, {"days": "Sun", "time": "Closed"}], "id": "6880300026", "name": "USPS COLLECTION BOX - BLUE BOX", "address": {"city": "GRAND ISLAND", "state": "NE", "street": "515 S WEBB RD", "postcode": "68803"}}},
{"geometry": {"type": "Point", "coordinates": [-98.391677561, 40.9170075407]}, "type": "Feature", "properties": {"collection_times": [{"days": "Mon-Sat", "time": "4:15pm"}, {"days": "Sun", "time": "Closed"}], "id": "6880300027", "name": "USPS COLLECTION BOX - BLUE BOX", "address": {"city": "GRAND ISLAND", "state": "NE", "street": "3835 W OLD POTASH HWY", "postcode": "68803"}}},
{"geometry": {"type": "Point", "coordinates": [-98.3839282302, 40.9339698704]}, "type": "Feature", "properties": {"collection_times": [{"days": "Mon-Fri", "time": "3:05pm"}, {"days": "Sat", "time": "2:30pm"}, {"days": "Sun", "time": "Closed"}], "id": "6880300033", "name": "USPS COLLECTION BOX - BLUE BOX", "address": {"city": "GRAND ISLAND", "state": "NE", "street": "1510 N DIERS AVE", "postcode": "68803"}}},
{"geometry": {"type": "Point", "coordinates": [-98.3839282302, 40.9339698704]}, "type": "Feature", "properties": {"collection_times": [{"days": "Mon-Fri", "time": "3:05pm"}, {"days": "Sat", "time": "2:30pm"}, {"days": "Sun", "time": "Closed"}], "id": "6880300034", "name": "USPS COLLECTION BOX - BLUE BOX", "address": {"city": "GRAND ISLAND", "state": "NE", "street": "1510 N DIERS AVE", "postcode": "68803"}}},
{"geometry": {"type": "Point", "coordinates": [-98.3839282302, 40.9339698704]}, "type": "Feature", "properties": {"collection_times": [{"days": "Mon-Fri", "time": "3:05pm"}, {"days": "Sat", "time": "2:30pm"}, {"days": "Sun", "time": "Closed"}], "id": "6880300035", "name": "USPS COLLECTION BOX - BLUE BOX", "address": {"city": "GRAND ISLAND", "state": "NE", "street": "1510 N DIERS AVE", "postcode": "68803"}}},
{"geometry": {"type": "Point", "coordinates": [-98.3839282302, 40.9339698704]}, "type": "Feature", "properties": {"collection_times": [{"days": "Mon-Fri", "time": "3:05pm"}, {"days": "Sat", "time": "2:30pm"}, {"days": "Sun", "time": "Closed"}], "id": "6880300036", "name": "USPS COLLECTION BOX - BLUE BOX", "address": {"city": "GRAND ISLAND", "state": "NE", "street": "1510 N DIERS AVE", "postcode": "68803"}}},
{"geometry": {"type": "Point", "coordinates": [-98.4672517381, 40.8702670455]}, "type": "Feature", "properties": {"collection_times": [{"days": "Mon-Sat", "time": "3:15pm"}, {"days": "Sun", "time": "Closed"}], "id": "6881000001", "name": "USPS COLLECTION BOX - BLUE BOX", "address": {"city": "ALDA", "state": "NE", "street": "102 E FRONT ST", "postcode": "68810"}}},
{"geometry": {"type": "Point", "coordinates": [-98.4675247919, 40.8702015516]}, "type": "Feature", "properties": {"collection_times": [{"days": "Mon-Fri", "time": "11:45am"}, {"days": "Sat", "time": "8:45am"}, {"days": "Sun", "time": "Closed"}], "id": "6881000002", "name": "USPS COLLECTION BOX - PO LOBBY", "address": {"city": "ALDA", "state": "NE", "street": "102 E FRONT ST", "postcode": "68810"}}},
{"geometry": {"type": "Point", "coordinates": [-99.2701274918, 40.8385345944]}, "type": "Feature", "properties": {"collection_times": [{"days": "Mon-Sat", "time": "1:50pm"}, {"days": "Sun", "time": "Closed"}], "id": "6881200001", "name": "USPS COLLECTION BOX - BLUE BOX", "address": {"city": "AMHERST", "state": "NE", "street": "119 N MAIN ST", "postcode": "68812"}}},
{"geometry": {"type": "Point", "coordinates": [-99.2701274918, 40.8385345944]}, "type": "Feature", "properties": {"collection_times": [{"days": "Mon-Fri", "time": "1:20pm"}, {"days": "Sat", "time": "8:45am"}, {"days": "Sun", "time": "Closed"}], "id": "6881200002", "name": "USPS COLLECTION BOX - PO LOBBY", "address": {"city": "AMHERST", "state": "NE", "street": "119 N MAIN ST", "postcode": "68812"}}},
{"geometry": {"type": "Point", "coordinates": [-99.8646897518, 41.6186618233]}, "type": "Feature", "properties": {"collection_times": [{"days": "Mon-Sat", "time": "11:50am"}, {"days": "Sun", "time": "Closed"}], "id": "6881300000", "name": "USPS COLLECTION BOX - BLUE BOX", "address": {"city": "ANSELMO", "state": "NE", "street": "114 E SMITH AVE", "postcode": "68813"}}},
{"geometry": {"type": "Point", "coordinates": [-99.8646897518, 41.6186618233]}, "type": "Feature", "properties": {"collection_times": [{"days": "Mon-Fri", "time": "11:50am"}, {"days": "Sat", "time": "10:50am"}, {"days": "Sun", "time": "Closed"}], "id": "6881300001", "name": "USPS COLLECTION BOX - PO LOBBY", "address": {"city": "ANSELMO", "state": "NE", "street": "114 E SMITH AVE", "postcode": "68813"}}},
{"geometry": {"type": "Point", "coordinates": [-99.3831715891, 41.2879971052]}, "type": "Feature", "properties": {"collection_times": [{"days": "Mon-Sat", "time": "1:00pm"}, {"days": "Sun", "time": "Closed"}], "id": "6881400001", "name": "USPS COLLECTION BOX - BLUE BOX", "address": {"city": "ANSLEY", "state": "NE", "street": "806 MAIN ST", "postcode": "68814"}}},
{"geometry": {"type": "Point", "coordinates": [-99.3831715891, 41.2879971052]}, "type": "Feature", "properties": {"collection_times": [{"days": "Mon-Fri", "time": "1:00pm"}, {"days": "Sat", "time": "8:30am"}, {"days": "Sun", "time": "Closed"}], "id": "6881400002", "name": "USPS COLLECTION BOX - PO LOBBY", "address": {"city": "ANSLEY", "state": "NE", "street": "806 MAIN ST", "postcode": "68814"}}},
{"geometry": {"type": "Point", "coordinates": [-99.1257477932, 41.4233040872]}, "type": "Feature", "properties": {"collection_times": [{"days": "Mon-Sat", "time": "1:25pm"}, {"days": "Sun", "time": "Closed"}], "id": "6881500001", "name": "USPS COLLECTION BOX - BLUE BOX", "address": {"city": "ARCADIA", "state": "NE", "street": "125 W BRIDGE ST", "postcode": "68815"}}},
{"geometry": {"type": "Point", "coordinates": [-99.1257477932, 41.4233040872]}, "type": "Feature", "properties": {"collection_times": [{"days": "Mon-Fri", "time": "1:25pm"}, {"days": "Sat", "time": "8:45am"}, {"days": "Sun", "time": "Closed"}], "id": "6881500002", "name": "USPS COLLECTION BOX - PO LOBBY", "address": {"city": "ARCADIA", "state": "NE", "street": "125 W BRIDGE ST", "postcode": "68815"}}},
{"geometry": {"type": "Point", "coordinates": [-98.1359130918, 41.1668294692]}, "type": "Feature", "properties": {"collection_times": [{"days": "Mon-Sat", "time": "2:05pm"}, {"days": "Sun", "time": "Closed"}], "id": "6881600000", "name": "USPS COLLECTION BOX - BLUE BOX", "address": {"city": "ARCHER", "state": "NE", "street": "2121 ARCHER RD", "postcode": "68816"}}},
{"geometry": {"type": "Point", "coordinates": [-98.7941649586, 41.2480857014]}, "type": "Feature", "properties": {"collection_times": [{"days": "Mon-Sat", "time": "2:10pm"}, {"days": "Sun", "time": "Closed"}], "id": "6881700001", "name": "USPS COLLECTION BOX - BLUE BOX", "address": {"city": "ASHTON", "state": "NE", "street": "301 CENTER AVE", "postcode": "68817"}}},
{"geometry": {"type": "Point", "coordinates": [-98.7941649586, 41.2480857014]}, "type": "Feature", "properties": {"collection_times": [{"days": "Mon-Fri", "time": "12:45pm"}, {"days": "Sat", "time": "8:30am"}, {"days": "Sun", "time": "Closed"}], "id": "6881700002", "name": "USPS COLLECTION BOX - PO LOBBY", "address": {"city": "ASHTON", "state": "NE", "street": "301 CENTER AVE", "postcode": "68817"}}},
{"geometry": {"type": "Point", "coordinates": [-98.0041679281, 40.8671506868]}, "type": "Feature", "properties": {"collection_times": [{"days": "Mon-Sat", "time": "1:55pm"}, {"days": "Sun", "time": "Closed"}], "id": "6881800001", "name": "USPS COLLECTION BOX - BLUE BOX", "address": {"city": "AURORA", "state": "NE", "street": "1105 L ST", "postcode": "68818"}}},
{"geometry": {"type": "Point", "coordinates": [-97.9975976524, 40.8699349574]}, "type": "Feature", "properties": {"collection_times": [{"days": "Mon-Sat", "time": "10:29am"}, {"days": "Sun", "time": "Closed"}], "id": "6881800004", "name": "USPS COLLECTION BOX - BLUE BOX", "address": {"city": "AURORA", "state": "NE", "street": "1320 16TH ST", "postcode": "68818"}}},
{"geometry": {"type": "Point", "coordinates": [-98.0041679281, 40.8671506868]}, "type": "Feature", "properties": {"collection_times": [{"days": "Mon-Sat", "time": "1:55pm"}, {"days": "Sun", "time": "Closed"}], "id": "6881800006", "name": "USPS COLLECTION BOX - BLUE BOX", "address": {"city": "AURORA", "state": "NE", "street": "1105 L ST", "postcode": "68818"}}},
{"geometry": {"type": "Point", "coordinates": [-98.0041679281, 40.8671506868]}, "type": "Feature", "properties": {"collection_times": [{"days": "Mon-Fri", "time": "1:55pm"}, {"days": "Sat", "time": "9:45am"}, {"days": "Sun", "time": "Closed"}], "id": "6881800008", "name": "USPS COLLECTION BOX - PO LOBBY", "address": {"city": "AURORA", "state": "NE", "street": "1105 L ST", "postcode": "68818"}}},
{"geometry": {"type": "Point", "coordinates": [-98.7152803627, 41.0719007036]}, "type": "Feature", "properties": {"collection_times": [{"days": "Mon-Fri", "time": "2:55pm"}, {"days": "Sat", "time": "2:30pm"}, {"days": "Sun", "time": "Closed"}], "id": "6882000001", "name": "USPS COLLECTION BOX - BLUE BOX", "address": {"city": "BOELUS", "state": "NE", "street": "520 DELAWARE ST", "postcode": "68820"}}},
{"geometry": {"type": "Point", "coordinates": [-98.7152803627, 41.0719007036]}, "type": "Feature", "properties": {"collection_times": [{"days": "Mon-Fri", "time": "11:50am"}, {"days": "Sat", "time": "10:35am"}, {"days": "Sun", "time": "Closed"}], "id": "6882000002", "name": "USPS COLLECTION BOX - PO LOBBY", "address": {"city": "BOELUS", "state": "NE", "street": "520 DELAWARE ST", "postcode": "68820"}}},
{"geometry": {"type": "Point", "coordinates": [-99.6388934498, 41.4026224619]}, "type": "Feature", "properties": {"collection_times": [{"days": "Mon-Fri", "time": "12:30pm"}, {"days": "Sat", "time": "11:15am"}, {"days": "Sun", "time": "Closed"}], "id": "6882200001", "name": "USPS COLLECTION BOX - BLUE BOX", "address": {"city": "BROKEN BOW", "state": "NE", "street": "741 S D ST", "postcode": "68822"}}},
{"geometry": {"type": "Point", "coordinates": [-99.641128599, 41.4026180027]}, "type": "Feature", "properties": {"collection_times": [{"days": "Mon-Sat", "time": "10:00am"}, {"days": "Sun", "time": "Closed"}], "id": "6882200003", "name": "USPS COLLECTION BOX - BLUE BOX", "address": {"city": "BROKEN BOW", "state": "NE", "street": "931 S D ST", "postcode": "68822"}}},
{"geometry": {"type": "Point", "coordinates": [-99.6405688201, 41.4017062392]}, "type": "Feature", "properties": {"collection_times": [{"days": "Mon-Sat", "time": "10:00am"}, {"days": "Sun", "time": "Closed"}], "id": "6882200004", "name": "USPS COLLECTION BOX - BLUE BOX", "address": {"city": "BROKEN BOW", "state": "NE", "street": "900 S E ST", "postcode": "68822"}}},
{"geometry": {"type": "Point", "coordinates": [-99.6406275795, 41.4016710103]}, "type": "Feature", "properties": {"collection_times": [{"days": "Mon-Fri", "time": "10:00am"}, {"days": "Sat-Sun", "time": "Closed"}], "id": "6882200005", "name": "USPS COLLECTION BOX - BLUE BOX", "address": {"city": "BROKEN BOW", "state": "NE", "street": "431 S 10TH AVE", "postcode": "68822"}}},
{"geometry": {"type": "Point", "coordinates": [-99.6388934498, 41.4026224619]}, "type": "Feature", "properties": {"collection_times": [{"days": "Mon-Fri", "time": "12:30pm"}, {"days": "Sat", "time": "11:15am"}, {"days": "Sun", "time": "Closed"}], "id": "6882200013", "name": "USPS COLLECTION BOX - PO LOBBY", "address": {"city": "BROKEN BOW", "state": "NE", "street": "741 S D ST", "postcode": "68822"}}},
{"geometry": {"type": "Point", "coordinates": [-99.1352371174, 41.780769099]}, "type": "Feature", "properties": {"collection_times": [{"days": "Mon-Sat", "time": "12:50pm"}, {"days": "Sun", "time": "Closed"}], "id": "6882300001", "name": "USPS COLLECTION BOX - BLUE BOX", "address": {"city": "BURWELL", "state": "NE", "street": "188 S 8TH AVE", "postcode": "68823"}}},
{"geometry": {"type": "Point", "coordinates": [-99.1352371174, 41.780769099]}, "type": "Feature", "properties": {"collection_times": [{"days": "Mon-Sat", "time": "12:50pm"}, {"days": "Sun", "time": "Closed"}], "id": "6882300002", "name": "USPS COLLECTION BOX - BLUE BOX", "address": {"city": "BURWELL", "state": "NE", "street": "188 S 8TH AVE", "postcode": "68823"}}},
{"geometry": {"type": "Point", "coordinates": [-99.1352371174, 41.780769099]}, "type": "Feature", "properties": {"collection_times": [{"days": "Mon-Fri", "time": "12:50pm"}, {"days": "Sat", "time": "12:00pm"}, {"days": "Sun", "time": "Closed"}], "id": "6882300003", "name": "USPS COLLECTION BOX - PO LOBBY", "address": {"city": "BURWELL", "state": "NE", "street": "188 S 8TH AVE", "postcode": "68823"}}},
{"geometry": {"type": "Point", "coordinates": [-99.1288576245, 41.7767222173]}, "type": "Feature", "properties": {"collection_times": [{"days": "Mon-Sat", "time": "1:00pm"}, {"days": "Sun", "time": "Closed"}], "id": "6882300004", "name": "USPS COLLECTION BOX - BLUE BOX", "address": {"city": "BURWELL", "state": "NE", "street": "300 VALLEY AVE", "postcode": "68823"}}},
{"geometry": {"type": "Point", "coordinates": [-98.6073061285, 41.0010015461]}, "type": "Feature", "properties": {"collection_times": [{"days": "Mon-Sat", "time": "2:55pm"}, {"days": "Sun", "time": "Closed"}], "id": "6882400001", "name": "USPS COLLECTION BOX - BLUE BOX", "address": {"city": "CAIRO", "state": "NE", "street": "108 E MEDINA ST", "postcode": "68824"}}},
{"geometry": {"type": "Point", "coordinates": [-98.6073061285, 41.0010015461]}, "type": "Feature", "properties": {"collection_times": [{"days": "Mon-Fri", "time": "2:15pm"}, {"days": "Sat", "time": "9:45am"}, {"days": "Sun", "time": "Closed"}], "id": "6882400002", "name": "USPS COLLECTION BOX - PO LOBBY", "address": {"city": "CAIRO", "state": "NE", "street": "108 E MEDINA ST", "postcode": "68824"}}},
{"geometry": {"type": "Point", "coordinates": [-100.067184865, 41.1872425338]}, "type": "Feature", "properties": {"collection_times": [{"days": "Mon-Sat", "time": "12:30pm"}, {"days": "Sun", "time": "Closed"}], "id": "6882500001", "name": "USPS COLLECTION BOX - BLUE BOX", "address": {"city": "CALLAWAY", "state": "NE", "street": "104 N GRAND AVE", "postcode": "68825"}}},
{"geometry": {"type": "Point", "coordinates": [-100.067184865, 41.1872425338]}, "type": "Feature", "properties": {"collection_times": [{"days": "Mon-Fri", "time": "12:30pm"}, {"days": "Sat", "time": "10:15am"}, {"days": "Sun", "time": "Closed"}], "id": "6882500002", "name": "USPS COLLECTION BOX - PO LOBBY", "address": {"city": "CALLAWAY", "state": "NE", "street": "104 N GRAND AVE", "postcode": "68825"}}},
{"geometry": {"type": "Point", "coordinates": [-97.9977548645, 41.1161155894]}, "type": "Feature", "properties": {"collection_times": [{"days": "Mon-Sat", "time": "2:30pm"}, {"days": "Sun", "time": "Closed"}], "id": "6882600001", "name": "USPS COLLECTION BOX - BLUE BOX", "address": {"city": "CENTRAL CITY", "state": "NE", "street": "1414 16TH ST", "postcode": "68826"}}},
{"geometry": {"type": "Point", "coordinates": [-97.9991143498, 41.1161467108]}, "type": "Feature", "properties": {"collection_times": [{"days": "Mon-Sat", "time": "2:30pm"}, {"days": "Sun", "time": "Closed"}], "id": "6882600003", "name": "USPS COLLECTION BOX - BLUE BOX", "address": {"city": "CENTRAL CITY", "state": "NE", "street": "1512 16TH ST", "postcode": "68826"}}},
{"geometry": {"type": "Point", "coordinates": [-97.9991143498, 41.1161467108]}, "type": "Feature", "properties": {"collection_times": [{"days": "Mon-Sat", "time": "2:30pm"}, {"days": "Sun", "time": "Closed"}], "id": "6882600004", "name": "USPS COLLECTION BOX - PO LOBBY", "address": {"city": "CENTRAL CITY", "state": "NE", "street": "1512 16TH ST", "postcode": "68826"}}},
{"geometry": {"type": "Point", "coordinates": [-97.9991143498, 41.1161467108]}, "type": "Feature", "properties": {"collection_times": [{"days": "Mon-Sat", "time": "2:30pm"}, {"days": "Sun", "time": "Closed"}], "id": "6882600005", "name": "USPS COLLECTION BOX - PO LOBBY", "address": {"city": "CENTRAL CITY", "state": "NE", "street": "1512 16TH ST", "postcode": "68826"}}},
{"geometry": {"type": "Point", "coordinates": [-98.1580817125, 41.0241160799]}, "type": "Feature", "properties": {"collection_times": [{"days": "Mon-Sat", "time": "2:50pm"}, {"days": "Sun", "time": "Closed"}], "id": "6882700001", "name": "USPS COLLECTION BOX - BLUE BOX", "address": {"city": "CHAPMAN", "state": "NE", "street": "204 9TH ST", "postcode": "68827"}}},
{"geometry": {"type": "Point", "coordinates": [-98.1580817125, 41.0241160799]}, "type": "Feature", "properties": {"collection_times": [{"days": "Mon-Fri", "time": "11:45am"}, {"days": "Sat", "time": "8:45am"}, {"days": "Sun", "time": "Closed"}], "id": "6882700002", "name": "USPS COLLECTION BOX - PO LOBBY", "address": {"city": "CHAPMAN", "state": "NE", "street": "204 9TH ST", "postcode": "68827"}}},
{"geometry": {"type": "Point", "coordinates": [-99.3079557155, 41.5389237648]}, "type": "Feature", "properties": {"collection_times": [{"days": "Mon-Sat", "time": "12:40pm"}, {"days": "Sun", "time": "Closed"}], "id": "6882800001", "name": "USPS COLLECTION BOX - BLUE BOX", "address": {"city": "COMSTOCK", "state": "NE", "street": "101 E MAIN", "postcode": "68828"}}},
{"geometry": {"type": "Point", "coordinates": [-99.3079557155, 41.5389237648]}, "type": "Feature", "properties": {"collection_times": [{"days": "Mon-Fri", "time": "11:15am"}, {"days": "Sat", "time": "8:45am"}, {"days": "Sun", "time": "Closed"}], "id": "6882800002", "name": "USPS COLLECTION BOX - PO LOBBY", "address": {"city": "COMSTOCK", "state": "NE", "street": "101 E MAIN", "postcode": "68828"}}},
{"geometry": {"type": "Point", "coordinates": [-98.5474516283, 41.1192365761]}, "type": "Feature", "properties": {"collection_times": [{"days": "Mon-Sat", "time": "2:40pm"}, {"days": "Sun", "time": "Closed"}], "id": "6883100001", "name": "USPS COLLECTION BOX - BLUE BOX", "address": {"city": "DANNEBROG", "state": "NE", "street": "118 MILL ST S", "postcode": "68831"}}},
{"geometry": {"type": "Point", "coordinates": [-98.5474516283, 41.1192365761]}, "type": "Feature", "properties": {"collection_times": [{"days": "Mon-Fri", "time": "10:50am"}, {"days": "Sat", "time": "9:05am"}, {"days": "Sun", "time": "Closed"}], "id": "6883100002", "name": "USPS COLLECTION BOX - PO LOBBY", "address": {"city": "DANNEBROG", "state": "NE", "street": "118 MILL ST S", "postcode": "68831"}}},
{"geometry": {"type": "Point", "coordinates": [-98.3696825265, 40.7719231941]}, "type": "Feature", "properties": {"collection_times": [{"days": "Mon-Fri", "time": "3:25pm"}, {"days": "Sat", "time": "2:15pm"}, {"days": "Sun", "time": "Closed"}], "id": "6883200001", "name": "USPS COLLECTION BOX - BLUE BOX", "address": {"city": "DONIPHAN", "state": "NE", "street": "108 S 1ST ST", "postcode": "68832"}}},
{"geometry": {"type": "Point", "coordinates": [-98.3696825265, 40.7719231941]}, "type": "Feature", "properties": {"collection_times": [{"days": "Mon-Fri", "time": "2:29pm"}, {"days": "Sat", "time": "9:45am"}, {"days": "Sun", "time": "Closed"}], "id": "6883200002", "name": "USPS COLLECTION BOX - PO LOBBY", "address": {"city": "DONIPHAN", "state": "NE", "street": "108 S 1ST ST", "postcode": "68832"}}},
{"geometry": {"type": "Point", "coordinates": [-100.1047685395, 41.8283027262]}, "type": "Feature", "properties": {"collection_times": [{"days": "Mon-Sat", "time": "11:25am"}, {"days": "Sun", "time": "Closed"}], "id": "6883300001", "name": "USPS COLLECTION BOX - BLUE BOX", "address": {"city": "DUNNING", "state": "NE", "street": "403 JEWETT AVE", "postcode": "68833"}}},
{"geometry": {"type": "Point", "coordinates": [-100.1047685395, 41.8283027262]}, "type": "Feature", "properties": {"collection_times": [{"days": "Mon-Fri", "time": "11:20am"}, {"days": "Sat", "time": "9:30am"}, {"days": "Sun", "time": "Closed"}], "id": "6883300002", "name": "USPS COLLECTION BOX - PO LOBBY", "address": {"city": "DUNNING", "state": "NE", "street": "403 JEWETT AVE", "postcode": "68833"}}},
{"geometry": {"type": "Point", "coordinates": [-100.1054497229, 41.8238611806]}, "type": "Feature", "properties": {"collection_times": [{"days": "Mon-Fri", "time": "11:10am"}, {"days": "Sat", "time": "10:40am"}, {"days": "Sun", "time": "Closed"}], "id": "6883300003", "name": "USPS COLLECTION BOX - BLUE BOX", "address": {"city": "DUNNING", "state": "NE", "street": "145 LINCOLN AVE", "postcode": "68833"}}},
{"geometry": {"type": "Point", "coordinates": [-99.7037011729, 41.0053323247]}, "type": "Feature", "properties": {"collection_times": [{"days": "Mon-Fri", "time": "1:03pm"}, {"days": "Sat", "time": "1:05pm"}, {"days": "Sun", "time": "Closed"}], "id": "6883400000", "name": "USPS COLLECTION BOX - BLUE BOX", "address": {"city": "EDDYVILLE", "state": "NE", "street": "505 CENTRAL AVE", "postcode": "68834"}}},
{"geometry": {"type": "Point", "coordinates": [-99.7037011729, 41.0053323247]}, "type": "Feature", "properties": {"collection_times": [{"days": "Mon-Fri", "time": "1:03pm"}, {"days": "Sat", "time": "8:45am"}, {"days": "Sun", "time": "Closed"}], "id": "6883400001", "name": "USPS COLLECTION BOX - PO LOBBY", "address": {"city": "EDDYVILLE", "state": "NE", "street": "505 CENTRAL AVE", "postcode": "68834"}}},
{"geometry": {"type": "Point", "coordinates": [-98.5673426427, 41.2860887242]}, "type": "Feature", "properties": {"collection_times": [{"days": "Mon-Sat", "time": "2:05pm"}, {"days": "Sun", "time": "Closed"}], "id": "6883500001", "name": "USPS COLLECTION BOX - BLUE BOX", "address": {"city": "ELBA", "state": "NE", "street": "608 PEARL ST", "postcode": "68835"}}},
{"geometry": {"type": "Point", "coordinates": [-98.5673426427, 41.2860887242]}, "type": "Feature", "properties": {"collection_times": [{"days": "Mon-Fri", "time": "11:55am"}, {"days": "Sat", "time": "8:55am"}, {"days": "Sun", "time": "Closed"}], "id": "6883500003", "name": "USPS COLLECTION BOX - PO LOBBY", "address": {"city": "ELBA", "state": "NE", "street": "608 PEARL ST", "postcode": "68835"}}},
{"geometry": {"type": "Point", "coordinates": [-99.3732326765, 40.7174457975]}, "type": "Feature", "properties": {"collection_times": [{"days": "Mon-Sat", "time": "2:05pm"}, {"days": "Sun", "time": "Closed"}], "id": "6883600001", "name": "USPS COLLECTION BOX - BLUE BOX", "address": {"city": "ELM CREEK", "state": "NE", "street": "100 E FRONT ST", "postcode": "68836"}}},
{"geometry": {"type": "Point", "coordinates": [-99.3732326765, 40.7174457975]}, "type": "Feature", "properties": {"collection_times": [{"days": "Mon-Fri", "time": "2:05pm"}, {"days": "Sat", "time": "9:45am"}, {"days": "Sun", "time": "Closed"}], "id": "6883600004", "name": "USPS COLLECTION BOX - PO LOBBY", "address": {"city": "ELM CREEK", "state": "NE", "street": "100 E FRONT ST", "postcode": "68836"}}},
{"geometry": {"type": "Point", "coordinates": [-98.6283030626, 41.2154165953]}, "type": "Feature", "properties": {"collection_times": [{"days": "Mon-Fri", "time": "11:45am"}, {"days": "Sat", "time": "9:45am"}, {"days": "Sun", "time": "Closed"}], "id": "6883800002", "name": "USPS COLLECTION BOX - PO LOBBY", "address": {"city": "FARWELL", "state": "NE", "street": "302 LANDER AVE", "postcode": "68838"}}},
{"geometry": {"type": "Point", "coordinates": [-98.6283030626, 41.2154165953]}, "type": "Feature", "properties": {"collection_times": [{"days": "Mon-Sat", "time": "2:20pm"}, {"days": "Sun", "time": "Closed"}], "id": "6883800003", "name": "USPS COLLECTION BOX - BLUE BOX", "address": {"city": "FARWELL", "state": "NE", "street": "302 LANDER AVE", "postcode": "68838"}}},
{"geometry": {"type": "Point", "coordinates": [-98.845412664, 40.7487678683]}, "type": "Feature", "properties": {"collection_times": [{"days": "Mon-Sat", "time": "2:15pm"}, {"days": "Sun", "time": "Closed"}], "id": "6884000001", "name": "USPS COLLECTION BOX - BLUE BOX", "address": {"city": "GIBBON", "state": "NE", "street": "29 LABARRE ST", "postcode": "68840"}}},
{"geometry": {"type": "Point", "coordinates": [-98.845412664, 40.7487678683]}, "type": "Feature", "properties": {"collection_times": [{"days": "Mon-Fri", "time": "2:15pm"}, {"days": "Sat", "time": "11:15am"}, {"days": "Sun", "time": "Closed"}], "id": "6884000002", "name": "USPS COLLECTION BOX - PO LOBBY", "address": {"city": "GIBBON", "state": "NE", "street": "29 LABARRE ST", "postcode": "68840"}}},
{"geometry": {"type": "Point", "coordinates": [-98.1504435866, 40.7660536584]}, "type": "Feature", "properties": {"collection_times": [{"days": "Mon-Sat", "time": "2:20pm"}, {"days": "Sun", "time": "Closed"}], "id": "6884100001", "name": "USPS COLLECTION BOX - BLUE BOX", "address": {"city": "GILTNER", "state": "NE", "street": "3013 N COMMERCIAL AVE", "postcode": "68841"}}},
{"geometry": {"type": "Point", "coordinates": [-98.1504435866, 40.7660536584]}, "type": "Feature", "properties": {"collection_times": [{"days": "Mon-Fri", "time": "2:20pm"}, {"days": "Sat", "time": "11:45am"}, {"days": "Sun", "time": "Closed"}], "id": "6884100002", "name": "USPS COLLECTION BOX - PO LOBBY", "address": {"city": "GILTNER", "state": "NE", "street": "3013 N COMMERCIAL AVE", "postcode": "68841"}}},
{"geometry": {"type": "Point", "coordinates": [-98.5323152298, 41.548624554]}, "type": "Feature", "properties": {"collection_times": [{"days": "Mon-Sat", "time": "12:35pm"}, {"days": "Sun", "time": "Closed"}], "id": "6884200001", "name": "USPS COLLECTION BOX - BLUE BOX", "address": {"city": "GREELEY", "state": "NE", "street": "208 W ONEILL AVE", "postcode": "68842"}}},
{"geometry": {"type": "Point", "coordinates": [-98.5323152298, 41.548624554]}, "type": "Feature", "properties": {"collection_times": [{"days": "Mon-Fri", "time": "12:20pm"}, {"days": "Sat", "time": "10:35am"}, {"days": "Sun", "time": "Closed"}], "id": "6884200002", "name": "USPS COLLECTION BOX - PO LOBBY", "address": {"city": "GREELEY", "state": "NE", "street": "208 W ONEILL AVE", "postcode": "68842"}}},
{"geometry": {"type": "Point", "coordinates": [-97.8857875195, 40.8784117451]}, "type": "Feature", "properties": {"collection_times": [{"days": "Mon-Sat", "time": "1:40pm"}, {"days": "Sun", "time": "Closed"}], "id": "6884300001", "name": "USPS COLLECTION BOX - BLUE BOX", "address": {"city": "HAMPTON", "state": "NE", "street": "107 N 3RD ST", "postcode": "68843"}}},
{"geometry": {"type": "Point", "coordinates": [-97.8857875195, 40.8784117451]}, "type": "Feature", "properties": {"collection_times": [{"days": "Mon-Fri", "time": "1:40pm"}, {"days": "Sat", "time": "9:35am"}, {"days": "Sun", "time": "Closed"}], "id": "6884300003", "name": "USPS COLLECTION BOX - PO LOBBY", "address": {"city": "HAMPTON", "state": "NE", "street": "107 N 3RD ST", "postcode": "68843"}}},
{"geometry": {"type": "Point", "coordinates": [-99.0895666282, 40.714787663]}, "type": "Feature", "properties": {"collection_times": [{"days": "Mon-Sat", "time": "1:48pm"}, {"days": "Sun", "time": "Closed"}], "id": "6884500000", "name": "USPS COLLECTION BOX - BLUE BOX", "address": {"city": "KEARNEY", "state": "NE", "street": "4006 6TH AVE", "postcode": "68845"}}},
{"geometry": {"type": "Point", "coordinates": [-99.1031649307, 40.7140118327]}, "type": "Feature", "properties": {"collection_times": [{"days": "Mon-Sat", "time": "1:52pm"}, {"days": "Sun", "time": "Closed"}], "id": "6884500006", "name": "USPS COLLECTION BOX - BLUE BOX", "address": {"city": "KEARNEY", "state": "NE", "street": "1709 W 39TH ST", "postcode": "68845"}}},
{"geometry": {"type": "Point", "coordinates": [-97.8855973029, 41.0669839267]}, "type": "Feature", "properties": {"collection_times": [{"days": "Mon-Sat", "time": "1:15pm"}, {"days": "Sun", "time": "Closed"}], "id": "6884600001", "name": "USPS COLLECTION BOX - BLUE BOX", "address": {"city": "HORDVILLE", "state": "NE", "street": "112 1/2 MAIN ST", "postcode": "68846"}}},
{"geometry": {"type": "Point", "coordinates": [-97.8855973029, 41.0669839267]}, "type": "Feature", "properties": {"collection_times": [{"days": "Mon-Fri", "time": "11:45am"}, {"days": "Sat", "time": "10:45am"}, {"days": "Sun", "time": "Closed"}], "id": "6884600002", "name": "USPS COLLECTION BOX - PO LOBBY", "address": {"city": "HORDVILLE", "state": "NE", "street": "112 1/2 MAIN ST", "postcode": "68846"}}},
{"geometry": {"type": "Point", "coordinates": [-99.0747303396, 40.6992661379]}, "type": "Feature", "properties": {"collection_times": [{"days": "Mon-Sat", "time": "2:40pm"}, {"days": "Sun", "time": "Closed"}], "id": "6884700002", "name": "USPS COLLECTION BOX - BLUE BOX", "address": {"city": "KEARNEY", "state": "NE", "street": "2401 E AVE", "postcode": "68847"}}},
{"geometry": {"type": "Point", "coordinates": [-99.0816723073, 40.7004855967]}, "type": "Feature", "properties": {"collection_times": [{"days": "Mon-Sat", "time": "2:40pm"}, {"days": "Sun", "time": "Closed"}], "id": "6884700008", "name": "USPS COLLECTION BOX - BLUE BOX", "address": {"city": "KEARNEY", "state": "NE", "street": "2501 CENTRAL AVE", "postcode": "68847"}}},
{"geometry": {"type": "Point", "coordinates": [-99.081619258, 40.6987220029]}, "type": "Feature", "properties": {"collection_times": [{"days": "Mon-Sat", "time": "2:33pm"}, {"days": "Sun", "time": "Closed"}], "id": "6884700009", "name": "USPS COLLECTION BOX - BLUE BOX", "address": {"city": "KEARNEY", "state": "NE", "street": "2301 CENTRAL AVE", "postcode": "68847"}}},
{"geometry": {"type": "Point", "coordinates": [-99.0816458692, 40.6976866315]}, "type": "Feature", "properties": {"collection_times": [{"days": "Mon-Sat", "time": "2:33pm"}, {"days": "Sun", "time": "Closed"}], "id": "6884700010", "name": "USPS COLLECTION BOX - BLUE BOX", "address": {"city": "KEARNEY", "state": "NE", "street": "2201 CENTRAL AVE", "postcode": "68847"}}},
{"geometry": {"type": "Point", "coordinates": [-99.0816899504, 40.6966164073]}, "type": "Feature", "properties": {"collection_times": [{"days": "Mon-Sat", "time": "2:33pm"}, {"days": "Sun", "time": "Closed"}], "id": "6884700011", "name": "USPS COLLECTION BOX - BLUE BOX", "address": {"city": "KEARNEY", "state": "NE", "street": "2101 CENTRAL AVE", "postcode": "68847"}}},
{"geometry": {"type": "Point", "coordinates": [-99.0844354586, 40.6905233431]}, "type": "Feature", "properties": {"collection_times": [{"days": "Mon-Sat", "time": "2:18pm"}, {"days": "Sun", "time": "Closed"}], "id": "6884700014", "name": "USPS COLLECTION BOX - BLUE BOX", "address": {"city": "KEARNEY", "state": "NE", "street": "1615 2ND AVE", "postcode": "68847"}}},
{"geometry": {"type": "Point", "coordinates": [-99.0841181073, 40.7130669211]}, "type": "Feature", "properties": {"collection_times": [{"days": "Mon-Sat", "time": "1:59pm"}, {"days": "Sun", "time": "Closed"}], "id": "6884700017", "name": "USPS COLLECTION BOX - BLUE BOX", "address": {"city": "KEARNEY", "state": "NE", "street": "3822 2ND AVE", "postcode": "68847"}}},
{"geometry": {"type": "Point", "coordinates": [-99.0837253832, 40.7225609138]}, "type": "Feature", "properties": {"collection_times": [{"days": "Mon-Sat", "time": "1:48pm"}, {"days": "Sun", "time": "Closed"}], "id": "6884700021", "name": "USPS COLLECTION BOX - BLUE BOX", "address": {"city": "KEARNEY", "state": "NE", "street": "4917 2ND AVE", "postcode": "68847"}}},
{"geometry": {"type": "Point", "coordinates": [-99.0801681242, 40.7130158744]}, "type": "Feature", "properties": {"collection_times": [{"days": "Mon-Sat", "time": "1:33pm"}, {"days": "Sun", "time": "Closed"}], "id": "6884700024", "name": "USPS COLLECTION BOX - BLUE BOX", "address": {"city": "KEARNEY", "state": "NE", "street": "3800 A AVE", "postcode": "68847"}}},
{"geometry": {"type": "Point", "coordinates": [-99.0813879092, 40.7139551618]}, "type": "Feature", "properties": {"collection_times": [{"days": "Mon-Sat", "time": "1:28pm"}, {"days": "Sun", "time": "Closed"}], "id": "6884700026", "name": "USPS COLLECTION BOX - BLUE BOX", "address": {"city": "KEARNEY", "state": "NE", "street": "9 W 39TH ST", "postcode": "68847"}}},
{"geometry": {"type": "Point", "coordinates": [-99.0818480762, 40.7065182841]}, "type": "Feature", "properties": {"collection_times": [{"days": "Mon-Sat", "time": "1:18pm"}, {"days": "Sun", "time": "Closed"}], "id": "6884700028", "name": "USPS COLLECTION BOX - BLUE BOX", "address": {"city": "KEARNEY", "state": "NE", "street": "10 E 31ST ST", "postcode": "68847"}}},
{"geometry": {"type": "Point", "coordinates": [-99.0611294472, 40.7021084676]}, "type": "Feature", "properties": {"collection_times": [{"days": "Mon-Sat", "time": "9:30am"}, {"days": "Sun", "time": "Closed"}], "id": "6884700030", "name": "USPS COLLECTION BOX - BLUE BOX", "address": {"city": "KEARNEY", "state": "NE", "street": "2701 GRAND AVE", "postcode": "68847"}}},
{"geometry": {"type": "Point", "coordinates": [-99.0845954265, 40.6841517064]}, "type": "Feature", "properties": {"collection_times": [{"days": "Mon-Sat", "time": "2:18pm"}, {"days": "Sun", "time": "Closed"}], "id": "6884700040", "name": "USPS COLLECTION BOX - BLUE BOX", "address": {"city": "KEARNEY", "state": "NE", "street": "1015 2ND AVE", "postcode": "68847"}}},
{"geometry": {"type": "Point", "coordinates": [-99.083645077, 40.7274175907]}, "type": "Feature", "properties": {"collection_times": [{"days": "Mon-Sat", "time": "1:48pm"}, {"days": "Sun", "time": "Closed"}], "id": "6884700043", "name": "USPS COLLECTION BOX - BLUE BOX", "address": {"city": "KEARNEY", "state": "NE", "street": "5411 2ND AVE", "postcode": "68847"}}},
{"geometry": {"type": "Point", "coordinates": [-99.0818927442, 40.6873994103]}, "type": "Feature", "properties": {"collection_times": [{"days": "Mon-Fri", "time": "2:30pm"}, {"days": "Sat-Sun", "time": "Closed"}], "id": "6884700047", "name": "USPS COLLECTION BOX - BLUE BOX", "address": {"city": "KEARNEY", "state": "NE", "street": "1319 CENTRAL AVE", "postcode": "68847"}}},
{"geometry": {"type": "Point", "coordinates": [-99.0747303396, 40.6992661379]}, "type": "Feature", "properties": {"collection_times": [{"days": "Mon-Sat", "time": "2:40pm"}, {"days": "Sun", "time": "Closed"}], "id": "6884700049", "name": "USPS COLLECTION BOX - PO LOBBY", "address": {"city": "KEARNEY", "state": "NE", "street": "2401 E AVE", "postcode": "68847"}}},
{"geometry": {"type": "Point", "coordinates": [-99.082173374, 40.6800813301]}, "type": "Feature", "properties": {"collection_times": [{"days": "Mon-Fri", "time": "2:18pm"}, {"days": "Sat", "time": "11:48am"}, {"days": "Sun", "time": "Closed"}], "id": "6884700054", "name": "USPS COLLECTION BOX - BLUE BOX", "address": {"city": "KEARNEY", "state": "NE", "street": "610 CENTRAL AVE", "postcode": "68847"}}},
{"geometry": {"type": "Point", "coordinates": [-99.0747303396, 40.6992661379]}, "type": "Feature", "properties": {"collection_times": [{"days": "Mon-Sat", "time": "2:40pm"}, {"days": "Sun", "time": "Closed"}], "id": "6884700059", "name": "USPS COLLECTION BOX - APC", "address": {"city": "KEARNEY", "state": "NE", "street": "2401 E AVE", "postcode": "68847"}}},
{"geometry": {"type": "Point", "coordinates": [-99.7414522404, 40.7809324559]}, "type": "Feature", "properties": {"collection_times": [{"days": "Mon-Fri", "time": "1:33pm"}, {"days": "Sat-Sun", "time": "Closed"}], "id": "6885000003", "name": "USPS COLLECTION BOX - BLUE BOX", "address": {"city": "LEXINGTON", "state": "NE", "street": "700 N WASHINGTON ST", "postcode": "68850"}}},
{"geometry": {"type": "Point", "coordinates": [-99.7406401624, 40.8314325015]}, "type": "Feature", "properties": {"collection_times": [{"days": "Mon-Sat", "time": "12:00pm"}, {"days": "Sun", "time": "Closed"}], "id": "6885000013", "name": "USPS COLLECTION BOX - BLUE BOX", "address": {"city": "LEXINGTON", "state": "NE", "street": "200 FRONTIER ST", "postcode": "68850"}}},
{"geometry": {"type": "Point", "coordinates": [-99.7400759562, 40.7787375043]}, "type": "Feature", "properties": {"collection_times": [{"days": "Mon-Sat", "time": "1:35pm"}, {"days": "Sun", "time": "Closed"}], "id": "6885000019", "name": "USPS COLLECTION BOX - PO LOBBY", "address": {"city": "LEXINGTON", "state": "NE", "street": "203 E 6TH ST", "postcode": "68850"}}},
{"geometry": {"type": "Point", "coordinates": [-99.7402146662, 40.7788242047]}, "type": "Feature", "properties": {"collection_times": [{"days": "Mon-Sat", "time": "1:35pm"}, {"days": "Sun", "time": "Closed"}], "id": "6885000020", "name": "USPS COLLECTION BOX - BLUE BOX", "address": {"city": "LEXINGTON", "state": "NE", "street": "600 N GRANT ST", "postcode": "68850"}}},
{"geometry": {"type": "Point", "coordinates": [-99.1556237748, 41.1566063173]}, "type": "Feature", "properties": {"collection_times": [{"days": "Mon-Sat", "time": "1:20pm"}, {"days": "Sun", "time": "Closed"}], "id": "6885200001", "name": "USPS COLLECTION BOX - BLUE BOX", "address": {"city": "LITCHFIELD", "state": "NE", "street": "211 N MAIN ST", "postcode": "68852"}}},
{"geometry": {"type": "Point", "coordinates": [-99.1556237748, 41.1566063173]}, "type": "Feature", "properties": {"collection_times": [{"days": "Mon-Fri", "time": "11:45am"}, {"days": "Sat", "time": "8:45am"}, {"days": "Sun", "time": "Closed"}], "id": "6885200002", "name": "USPS COLLECTION BOX - PO LOBBY", "address": {"city": "LITCHFIELD", "state": "NE", "street": "211 N MAIN ST", "postcode": "68852"}}},
{"geometry": {"type": "Point", "coordinates": [-98.9674312929, 41.2732066654]}, "type": "Feature", "properties": {"collection_times": [{"days": "Mon-Sat", "time": "1:55pm"}, {"days": "Sun", "time": "Closed"}], "id": "6885300001", "name": "USPS COLLECTION BOX - BLUE BOX", "address": {"city": "LOUP CITY", "state": "NE", "street": "137 S 7TH ST", "postcode": "68853"}}},
{"geometry": {"type": "Point", "coordinates": [-98.9674312929, 41.2732066654]}, "type": "Feature", "properties": {"collection_times": [{"days": "Mon-Fri", "time": "1:55pm"}, {"days": "Sat", "time": "10:15am"}, {"days": "Sun", "time": "Closed"}], "id": "6885300002", "name": "USPS COLLECTION BOX - PO LOBBY", "address": {"city": "LOUP CITY", "state": "NE", "street": "137 S 7TH ST", "postcode": "68853"}}},
{"geometry": {"type": "Point", "coordinates": [-98.0102993788, 41.0069489706]}, "type": "Feature", "properties": {"collection_times": [{"days": "Mon-Sat", "time": "1:00pm"}, {"days": "Sun", "time": "Closed"}], "id": "6885400001", "name": "USPS COLLECTION BOX - BLUE BOX", "address": {"city": "MARQUETTE", "state": "NE", "street": "402 MARQUIS AVE", "postcode": "68854"}}},
{"geometry": {"type": "Point", "coordinates": [-99.3004086117, 41.2193800725]}, "type": "Feature", "properties": {"collection_times": [{"days": "Mon-Sat", "time": "1:10pm"}, {"days": "Sun", "time": "Closed"}], "id": "6885500001", "name": "USPS COLLECTION BOX - BLUE BOX", "address": {"city": "MASON CITY", "state": "NE", "street": "100 MAIN ST", "postcode": "68855"}}},
{"geometry": {"type": "Point", "coordinates": [-99.3004086117, 41.2193800725]}, "type": "Feature", "properties": {"collection_times": [{"days": "Mon-Fri", "time": "11:50am"}, {"days": "Sat", "time": "9:50am"}, {"days": "Sun", "time": "Closed"}], "id": "6885500002", "name": "USPS COLLECTION BOX - PO LOBBY", "address": {"city": "MASON CITY", "state": "NE", "street": "100 MAIN ST", "postcode": "68855"}}},
{"geometry": {"type": "Point", "coordinates": [-99.761667259, 41.4841258155]}, "type": "Feature", "properties": {"collection_times": [{"days": "Mon-Sat", "time": "12:05pm"}, {"days": "Sun", "time": "Closed"}], "id": "6885600001", "name": "USPS COLLECTION BOX - BLUE BOX", "address": {"city": "MERNA", "state": "NE", "street": "100 CENTER AVE", "postcode": "68856"}}},
{"geometry": {"type": "Point", "coordinates": [-99.761667259, 41.4841258155]}, "type": "Feature", "properties": {"collection_times": [{"days": "Mon-Sat", "time": "12:05pm"}, {"days": "Sun", "time": "Closed"}], "id": "6885600002", "name": "USPS COLLECTION BOX - PO LOBBY", "address": {"city": "MERNA", "state": "NE", "street": "100 CENTER AVE", "postcode": "68856"}}},
{"geometry": {"type": "Point", "coordinates": [-99.3913587644, 40.9276116117]}, "type": "Feature", "properties": {"collection_times": [{"days": "Mon-Sat", "time": "1:35pm"}, {"days": "Sun", "time": "Closed"}], "id": "6885800001", "name": "USPS COLLECTION BOX - BLUE BOX", "address": {"city": "MILLER", "state": "NE", "street": "301 W CUMMINGS AVE", "postcode": "68858"}}},
{"geometry": {"type": "Point", "coordinates": [-99.3913587644, 40.9276116117]}, "type": "Feature", "properties": {"collection_times": [{"days": "Mon-Sat", "time": "11:50am"}, {"days": "Sun", "time": "Closed"}], "id": "6885800002", "name": "USPS COLLECTION BOX - PO LOBBY", "address": {"city": "MILLER", "state": "NE", "street": "301 W CUMMINGS AVE", "postcode": "68858"}}},
{"geometry": {"type": "Point", "coordinates": [-98.8094349327, 41.4876263219]}, "type": "Feature", "properties": {"collection_times": [{"days": "Mon-Sat", "time": "1:30pm"}, {"days": "Sun", "time": "Closed"}], "id": "6885900000", "name": "USPS COLLECTION BOX - BLUE BOX", "address": {"city": "NORTH LOUP", "state": "NE", "street": "211 W 1ST ST", "postcode": "68859"}}},
{"geometry": {"type": "Point", "coordinates": [-98.8094349327, 41.4876263219]}, "type": "Feature", "properties": {"collection_times": [{"days": "Mon-Fri", "time": "11:20am"}, {"days": "Sat", "time": "9:35am"}, {"days": "Sun", "time": "Closed"}], "id": "6885900001", "name": "USPS COLLECTION BOX - PO LOBBY", "address": {"city": "NORTH LOUP", "state": "NE", "street": "211 W 1ST ST", "postcode": "68859"}}},
{"geometry": {"type": "Point", "coordinates": [-99.7633631995, 41.1412900041]}, "type": "Feature", "properties": {"collection_times": [{"days": "Mon-Sat", "time": "12:45pm"}, {"days": "Sun", "time": "Closed"}], "id": "6886000001", "name": "USPS COLLECTION BOX - BLUE BOX", "address": {"city": "OCONTO", "state": "NE", "street": "103 GRAND", "postcode": "68860"}}},
{"geometry": {"type": "Point", "coordinates": [-99.7633631995, 41.1412900041]}, "type": "Feature", "properties": {"collection_times": [{"days": "Mon-Fri", "time": "11:50am"}, {"days": "Sat", "time": "10:20am"}, {"days": "Sun", "time": "Closed"}], "id": "6886000002", "name": "USPS COLLECTION BOX - PO LOBBY", "address": {"city": "OCONTO", "state": "NE", "street": "103 GRAND", "postcode": "68860"}}},
{"geometry": {"type": "Point", "coordinates": [-98.930460004, 41.6032009877]}, "type": "Feature", "properties": {"collection_times": [{"days": "Mon-Sat", "time": "1:10pm"}, {"days": "Sun", "time": "Closed"}], "id": "6886200001", "name": "USPS COLLECTION BOX - BLUE BOX", "address": {"city": "ORD", "state": "NE", "street": "1630 L ST", "postcode": "68862"}}},
{"geometry": {"type": "Point", "coordinates": [-98.92566232, 41.6020105417]}, "type": "Feature", "properties": {"collection_times": [{"days": "Mon-Sat", "time": "1:10pm"}, {"days": "Sun", "time": "Closed"}], "id": "6886200002", "name": "USPS COLLECTION BOX - BLUE BOX", "address": {"city": "ORD", "state": "NE", "street": "1545 M ST", "postcode": "68862"}}},
{"geometry": {"type": "Point", "coordinates": [-98.930460004, 41.6032009877]}, "type": "Feature", "properties": {"collection_times": [{"days": "Mon-Sat", "time": "1:10pm"}, {"days": "Sun", "time": "Closed"}], "id": "6886200003", "name": "USPS COLLECTION BOX - PO LOBBY", "address": {"city": "ORD", "state": "NE", "street": "1630 L ST", "postcode": "68862"}}},
{"geometry": {"type": "Point", "coordinates": [-99.5381261994, 40.7383021839]}, "type": "Feature", "properties": {"collection_times": [{"days": "Mon-Sat", "time": "1:45pm"}, {"days": "Sun", "time": "Closed"}], "id": "6886300001", "name": "USPS COLLECTION BOX - BLUE BOX", "address": {"city": "OVERTON", "state": "NE", "street": "519 C ST", "postcode": "68863"}}},
{"geometry": {"type": "Point", "coordinates": [-99.5381261994, 40.7383021839]}, "type": "Feature", "properties": {"collection_times": [{"days": "Mon-Fri", "time": "1:50pm"}, {"days": "Sat", "time": "10:05am"}, {"days": "Sun", "time": "Closed"}], "id": "6886300002", "name": "USPS COLLECTION BOX - PO LOBBY", "address": {"city": "OVERTON", "state": "NE", "street": "519 C ST", "postcode": "68863"}}},
{"geometry": {"type": "Point", "coordinates": [-98.2582873383, 41.2221816661]}, "type": "Feature", "properties": {"collection_times": [{"days": "Mon-Sat", "time": "1:50pm"}, {"days": "Sun", "time": "Closed"}], "id": "6886400001", "name": "USPS COLLECTION BOX - BLUE BOX", "address": {"city": "PALMER", "state": "NE", "street": "907 COMMERCIAL ST", "postcode": "68864"}}},
{"geometry": {"type": "Point", "coordinates": [-98.2582873383, 41.2221816661]}, "type": "Feature", "properties": {"collection_times": [{"days": "Mon-Fri", "time": "1:50pm"}, {"days": "Sat", "time": "9:35am"}, {"days": "Sun", "time": "Closed"}], "id": "6886400002", "name": "USPS COLLECTION BOX - PO LOBBY", "address": {"city": "PALMER", "state": "NE", "street": "907 COMMERCIAL ST", "postcode": "68864"}}},
{"geometry": {"type": "Point", "coordinates": [-98.2146290934, 40.8973793037]}, "type": "Feature", "properties": {"collection_times": [{"days": "Mon-Sat", "time": "2:40pm"}, {"days": "Sun", "time": "Closed"}], "id": "6886500001", "name": "USPS COLLECTION BOX - BLUE BOX", "address": {"city": "PHILLIPS", "state": "NE", "street": "515 WEST ST", "postcode": "68865"}}},
{"geometry": {"type": "Point", "coordinates": [-98.2146290934, 40.8973793037]}, "type": "Feature", "properties": {"collection_times": [{"days": "Mon-Sat", "time": "11:50am"}, {"days": "Sun", "time": "Closed"}], "id": "6886500002", "name": "USPS COLLECTION BOX - PO LOBBY", "address": {"city": "PHILLIPS", "state": "NE", "street": "515 WEST ST", "postcode": "68865"}}},
{"geometry": {"type": "Point", "coordinates": [-99.0847664113, 40.9666026937]}, "type": "Feature", "properties": {"collection_times": [{"days": "Mon-Sat", "time": "1:45pm"}, {"days": "Sun", "time": "Closed"}], "id": "6886600001", "name": "USPS COLLECTION BOX - BLUE BOX", "address": {"city": "PLEASANTON", "state": "NE", "street": "109 W ELM ST", "postcode": "68866"}}},
{"geometry": {"type": "Point", "coordinates": [-99.0847664113, 40.9666026937]}, "type": "Feature", "properties": {"collection_times": [{"days": "Mon-Fri", "time": "11:50am"}, {"days": "Sat", "time": "9:50am"}, {"days": "Sun", "time": "Closed"}], "id": "6886600003", "name": "USPS COLLECTION BOX - PO LOBBY", "address": {"city": "PLEASANTON", "state": "NE", "street": "109 W ELM ST", "postcode": "68866"}}},
{"geometry": {"type": "Point", "coordinates": [-98.9112015738, 41.0266661886]}, "type": "Feature", "properties": {"collection_times": [{"days": "Mon-Sat", "time": "2:05pm"}, {"days": "Sun", "time": "Closed"}], "id": "6886900002", "name": "USPS COLLECTION BOX - BLUE BOX", "address": {"city": "RAVENNA", "state": "NE", "street": "401 MILAN AVE", "postcode": "68869"}}},
{"geometry": {"type": "Point", "coordinates": [-98.9126742533, 41.0265324909]}, "type": "Feature", "properties": {"collection_times": [{"days": "Mon-Sat", "time": "1:00pm"}, {"days": "Sun", "time": "Closed"}], "id": "6886900004", "name": "USPS COLLECTION BOX - BLUE BOX", "address": {"city": "RAVENNA", "state": "NE", "street": "423 GRAND AVE", "postcode": "68869"}}},
{"geometry": {"type": "Point", "coordinates": [-98.9112015738, 41.0266661886]}, "type": "Feature", "properties": {"collection_times": [{"days": "Mon-Fri", "time": "2:05pm"}, {"days": "Sat", "time": "9:45am"}, {"days": "Sun", "time": "Closed"}], "id": "6886900005", "name": "USPS COLLECTION BOX - PO LOBBY", "address": {"city": "RAVENNA", "state": "NE", "street": "401 MILAN AVE", "postcode": "68869"}}},
{"geometry": {"type": "Point", "coordinates": [-99.1624774721, 40.7835526744]}, "type": "Feature", "properties": {"collection_times": [{"days": "Mon-Sat", "time": "2:05pm"}, {"days": "Sun", "time": "Closed"}], "id": "6887000001", "name": "USPS COLLECTION BOX - BLUE BOX", "address": {"city": "RIVERDALE", "state": "NE", "street": "216 3RD AVE", "postcode": "68870"}}},
{"geometry": {"type": "Point", "coordinates": [-99.1624774721, 40.7835526744]}, "type": "Feature", "properties": {"collection_times": [{"days": "Mon-Fri", "time": "1:15pm"}, {"days": "Sat", "time": "9:30am"}, {"days": "Sun", "time": "Closed"}], "id": "6887000002", "name": "USPS COLLECTION BOX - PO LOBBY", "address": {"city": "RIVERDALE", "state": "NE", "street": "216 3RD AVE", "postcode": "68870"}}},
{"geometry": {"type": "Point", "coordinates": [-98.8322602985, 41.1175917068]}, "type": "Feature", "properties": {"collection_times": [{"days": "Mon-Sat", "time": "2:30pm"}, {"days": "Sun", "time": "Closed"}], "id": "6887100001", "name": "USPS COLLECTION BOX - BLUE BOX", "address": {"city": "ROCKVILLE", "state": "NE", "street": "229 N LEY ST", "postcode": "68871"}}},
{"geometry": {"type": "Point", "coordinates": [-98.8322602985, 41.1175917068]}, "type": "Feature", "properties": {"collection_times": [{"days": "Mon-Fri", "time": "10:50am"}, {"days": "Sat", "time": "9:35am"}, {"days": "Sun", "time": "Closed"}], "id": "6887100002", "name": "USPS COLLECTION BOX - PO LOBBY", "address": {"city": "ROCKVILLE", "state": "NE", "street": "229 N LEY ST", "postcode": "68871"}}},
{"geometry": {"type": "Point", "coordinates": [-98.3550453344, 41.080724218]}, "type": "Feature", "properties": {"collection_times": [{"days": "Mon-Sat", "time": "2:55pm"}, {"days": "Sun", "time": "Closed"}], "id": "6887200001", "name": "USPS COLLECTION BOX - BLUE BOX", "address": {"city": "SAINT LIBORY", "state": "NE", "street": "303 SPRUCE ST", "postcode": "68872"}}},
{"geometry": {"type": "Point", "coordinates": [-98.3550453344, 41.080724218]}, "type": "Feature", "properties": {"collection_times": [{"days": "Mon-Fri", "time": "11:50am"}, {"days": "Sat", "time": "9:30am"}, {"days": "Sun", "time": "Closed"}], "id": "6887200002", "name": "USPS COLLECTION BOX - PO LOBBY", "address": {"city": "SAINT LIBORY", "state": "NE", "street": "303 SPRUCE ST", "postcode": "68872"}}},
{"geometry": {"type": "Point", "coordinates": [-98.4581906649, 41.2135927499]}, "type": "Feature", "properties": {"collection_times": [{"days": "Mon-Sat", "time": "1:25pm"}, {"days": "Sun", "time": "Closed"}], "id": "6887300001", "name": "USPS COLLECTION BOX - BLUE BOX", "address": {"city": "SAINT PAUL", "state": "NE", "street": "901 7TH ST", "postcode": "68873"}}},
{"geometry": {"type": "Point", "coordinates": [-98.4581906649, 41.2135927499]}, "type": "Feature", "properties": {"collection_times": [{"days": "Mon-Sat", "time": "1:25pm"}, {"days": "Sun", "time": "Closed"}], "id": "6887300006", "name": "USPS COLLECTION BOX - BLUE BOX", "address": {"city": "SAINT PAUL", "state": "NE", "street": "901 7TH ST", "postcode": "68873"}}},
{"geometry": {"type": "Point", "coordinates": [-98.4581906649, 41.2135927499]}, "type": "Feature", "properties": {"collection_times": [{"days": "Mon-Fri", "time": "1:25pm"}, {"days": "Sat", "time": "11:15am"}, {"days": "Sun", "time": "Closed"}], "id": "6887300007", "name": "USPS COLLECTION BOX - PO LOBBY", "address": {"city": "SAINT PAUL", "state": "NE", "street": "901 7TH ST", "postcode": "68873"}}},
{"geometry": {"type": "Point", "coordinates": [-99.3727612013, 41.640433446]}, "type": "Feature", "properties": {"collection_times": [{"days": "Mon-Sat", "time": "12:20pm"}, {"days": "Sun", "time": "Closed"}], "id": "6887400001", "name": "USPS COLLECTION BOX - BLUE BOX", "address": {"city": "SARGENT", "state": "NE", "street": "602 W MAIN ST", "postcode": "68874"}}},
{"geometry": {"type": "Point", "coordinates": [-99.3727612013, 41.640433446]}, "type": "Feature", "properties": {"collection_times": [{"days": "Mon-Fri", "time": "12:20pm"}, {"days": "Sat", "time": "10:15am"}, {"days": "Sun", "time": "Closed"}], "id": "6887400002", "name": "USPS COLLECTION BOX - PO LOBBY", "address": {"city": "SARGENT", "state": "NE", "street": "602 W MAIN ST", "postcode": "68874"}}},
{"geometry": {"type": "Point", "coordinates": [-98.7031066832, 41.4674274754]}, "type": "Feature", "properties": {"collection_times": [{"days": "Mon-Sat", "time": "1:40pm"}, {"days": "Sun", "time": "Closed"}], "id": "6887500001", "name": "USPS COLLECTION BOX - BLUE BOX", "address": {"city": "SCOTIA", "state": "NE", "street": "202 S MAIN ST", "postcode": "68875"}}},
{"geometry": {"type": "Point", "coordinates": [-98.7031066832, 41.4674274754]}, "type": "Feature", "properties": {"collection_times": [{"days": "Mon-Fri", "time": "12:20pm"}, {"days": "Sat", "time": "9:35am"}, {"days": "Sun", "time": "Closed"}], "id": "6887500002", "name": "USPS COLLECTION BOX - PO LOBBY", "address": {"city": "SCOTIA", "state": "NE", "street": "202 S MAIN ST", "postcode": "68875"}}},
{"geometry": {"type": "Point", "coordinates": [-98.7338951353, 40.778976318]}, "type": "Feature", "properties": {"collection_times": [{"days": "Mon-Sat", "time": "2:35pm"}, {"days": "Sun", "time": "Closed"}], "id": "6887600001", "name": "USPS COLLECTION BOX - BLUE BOX", "address": {"city": "SHELTON", "state": "NE", "street": "201 C ST", "postcode": "68876"}}},
{"geometry": {"type": "Point", "coordinates": [-98.7338951353, 40.778976318]}, "type": "Feature", "properties": {"collection_times": [{"days": "Mon-Fri", "time": "2:38pm"}, {"days": "Sat", "time": "9:45am"}, {"days": "Sun", "time": "Closed"}], "id": "6887600002", "name": "USPS COLLECTION BOX - PO LOBBY", "address": {"city": "SHELTON", "state": "NE", "street": "201 C ST", "postcode": "68876"}}},
{"geometry": {"type": "Point", "coordinates": [-99.5081605239, 40.9495227292]}, "type": "Feature", "properties": {"collection_times": [{"days": "Mon-Sat", "time": "1:20pm"}, {"days": "Sun", "time": "Closed"}], "id": "6887800000", "name": "USPS COLLECTION BOX - BLUE BOX", "address": {"city": "SUMNER", "state": "NE", "street": "504 MAIN ST", "postcode": "68878"}}},
{"geometry": {"type": "Point", "coordinates": [-99.5081605239, 40.9495227292]}, "type": "Feature", "properties": {"collection_times": [{"days": "Mon-Fri", "time": "11:50am"}, {"days": "Sat", "time": "9:15am"}, {"days": "Sun", "time": "Closed"}], "id": "6887800001", "name": "USPS COLLECTION BOX - PO LOBBY", "address": {"city": "SUMNER", "state": "NE", "street": "504 MAIN ST", "postcode": "68878"}}},
{"geometry": {"type": "Point", "coordinates": [-99.4543605071, 41.9138291476]}, "type": "Feature", "properties": {"collection_times": [{"days": "Mon-Sat", "time": "12:05pm"}, {"days": "Sun", "time": "Closed"}], "id": "6887900001", "name": "USPS COLLECTION BOX - BLUE BOX", "address": {"city": "TAYLOR", "state": "NE", "street": "301 MURRAY ST", "postcode": "68879"}}},
{"geometry": {"type": "Point", "coordinates": [-99.4543605071, 41.9138291476]}, "type": "Feature", "properties": {"collection_times": [{"days": "Mon-Fri", "time": "12:05pm"}, {"days": "Sat", "time": "10:00am"}, {"days": "Sun", "time": "Closed"}], "id": "6887900002", "name": "USPS COLLECTION BOX - PO LOBBY", "address": {"city": "TAYLOR", "state": "NE", "street": "301 MURRAY ST", "postcode": "68879"}}},
{"geometry": {"type": "Point", "coordinates": [-99.3925549383, 41.4141063806]}, "type": "Feature", "properties": {"collection_times": [{"days": "Mon-Fri", "time": "1:10pm"}, {"days": "Sat", "time": "1:05pm"}, {"days": "Sun", "time": "Closed"}], "id": "6888100003", "name": "USPS COLLECTION BOX - BLUE BOX", "address": {"city": "WESTERVILLE", "state": "NE", "street": "45327 2ND ST", "postcode": "68881"}}},
{"geometry": {"type": "Point", "coordinates": [-98.3943399217, 41.3970813216]}, "type": "Feature", "properties": {"collection_times": [{"days": "Mon-Fri", "time": "11:50am"}, {"days": "Sat", "time": "10:20am"}, {"days": "Sun", "time": "Closed"}], "id": "6888200002", "name": "USPS COLLECTION BOX - PO LOBBY", "address": {"city": "WOLBACH", "state": "NE", "street": "306 CENTER AVE", "postcode": "68882"}}},
{"geometry": {"type": "Point", "coordinates": [-98.3943399217, 41.3970813216]}, "type": "Feature", "properties": {"collection_times": [{"days": "Mon-Sat", "time": "12:50pm"}, {"days": "Sun", "time": "Closed"}], "id": "6888200003", "name": "USPS COLLECTION BOX - BLUE BOX", "address": {"city": "WOLBACH", "state": "NE", "street": "306 CENTER AVE", "postcode": "68882"}}},
{"geometry": {"type": "Point", "coordinates": [-98.6018880954, 40.8205210179]}, "type": "Feature", "properties": {"collection_times": [{"days": "Mon-Fri", "time": "2:50pm"}, {"days": "Sat", "time": "2:40pm"}, {"days": "Sun", "time": "Closed"}], "id": "6888300001", "name": "USPS COLLECTION BOX - BLUE BOX", "address": {"city": "WOOD RIVER", "state": "NE", "street": "119 W 9TH ST", "postcode": "68883"}}},
{"geometry": {"type": "Point", "coordinates": [-98.6018880954, 40.8205210179]}, "type": "Feature", "properties": {"collection_times": [{"days": "Mon-Fri", "time": "2:50pm"}, {"days": "Sat", "time": "10:15am"}, {"days": "Sun", "time": "Closed"}], "id": "6888300002", "name": "USPS COLLECTION BOX - PO LOBBY", "address": {"city": "WOOD RIVER", "state": "NE", "street": "119 W 9TH ST", "postcode": "68883"}}}
]}
