{"type": "FeatureCollection", "features": [
{"geometry": {"type": "Point", "coordinates": [-98.3861578176, 40.5861217024]}, "type": "Feature", "properties": {"collection_times": [{"days": "Mon-Fri", "time": "3:20pm"}, {"days": "Sat", "time": "2:25pm"}, {"days": "Sun", "time": "Closed"}], "id": "6890100002", "name": "USPS COLLECTION BOX - BLUE BOX", "address": {"city": "HASTINGS", "state": "NE", "street": "300 N KANSAS AVE", "postcode": "68901"}}},
{"geometry": {"type": "Point", "coordinates": [-98.3861578176, 40.5861217024]}, "type": "Feature", "properties": {"collection_times": [{"days": "Mon-Fri", "time": "3:20pm"}, {"days": "Sat", "time": "2:25pm"}, {"days": "Sun", "time": "Closed"}], "id": "6890100004", "name": "USPS COLLECTION BOX - BLUE BOX", "address": {"city": "HASTINGS", "state": "NE", "street": "300 N KANSAS AVE", "postcode": "68901"}}},
{"geometry": {"type": "Point", "coordinates": [-98.3701799723, 40.5825169908]}, "type": "Feature", "properties": {"collection_times": [{"days": "Mon-Fri", "time": "1:55pm"}, {"days": "Sat", "time": "1:40pm"}, {"days": "Sun", "time": "Closed"}], "id": "6890100006", "name": "USPS COLLECTION BOX - BLUE BOX", "address": {"city": "HASTINGS", "state": "NE", "street": "910 E SOUTH ST", "postcode": "68901"}}},
{"geometry": {"type": "Point", "coordinates": [-98.38998506, 40.5852622369]}, "type": "Feature", "properties": {"collection_times": [{"days": "Mon-Sat", "time": "1:10pm"}, {"days": "Sun", "time": "Closed"}], "id": "6890100007", "name": "USPS COLLECTION BOX - BLUE BOX", "address": {"city": "HASTINGS", "state": "NE", "street": "700 W 2ND ST", "postcode": "68901"}}},
{"geometry": {"type": "Point", "coordinates": [-98.3898113726, 40.5872620604]}, "type": "Feature", "properties": {"collection_times": [{"days": "Mon-Sat", "time": "1:10pm"}, {"days": "Sun", "time": "Closed"}], "id": "6890100008", "name": "USPS COLLECTION BOX - BLUE BOX", "address": {"city": "HASTINGS", "state": "NE", "street": "422 N HASTINGS AVE", "postcode": "68901"}}},
{"geometry": {"type": "Point", "coordinates": [-98.3809389599, 40.5925942786]}, "type": "Feature", "properties": {"collection_times": [{"days": "Mon-Sat", "time": "1:25pm"}, {"days": "Sun", "time": "Closed"}], "id": "6890100009", "name": "USPS COLLECTION BOX - BLUE BOX", "address": {"city": "HASTINGS", "state": "NE", "street": "715 N SAINT JOSEPH AVE", "postcode": "68901"}}},
{"geometry": {"type": "Point", "coordinates": [-98.3920106279, 40.6008938578]}, "type": "Feature", "properties": {"collection_times": [{"days": "Mon-Fri", "time": "1:25pm"}, {"days": "Sat", "time": "1:20pm"}, {"days": "Sun", "time": "Closed"}], "id": "6890100012", "name": "USPS COLLECTION BOX - BLUE BOX", "address": {"city": "HASTINGS", "state": "NE", "street": "1414 N BURLINGTON AVE", "postcode": "68901"}}},
{"geometry": {"type": "Point", "coordinates": [-98.3911386928, 40.5905627636]}, "type": "Feature", "properties": {"collection_times": [{"days": "Mon-Fri", "time": "2:25pm"}, {"days": "Sat", "time": "1:55pm"}, {"days": "Sun", "time": "Closed"}], "id": "6890100014", "name": "USPS COLLECTION BOX - BLUE BOX", "address": {"city": "HASTINGS", "state": "NE", "street": "3001 W 12TH ST", "postcode": "68901"}}},
{"geometry": {"type": "Point", "coordinates": [-98.4196514154, 40.5852655081]}, "type": "Feature", "properties": {"collection_times": [{"days": "Mon-Fri", "time": "2:25pm"}, {"days": "Sat", "time": "1:55pm"}, {"days": "Sun", "time": "Closed"}], "id": "6890100016", "name": "USPS COLLECTION BOX - BLUE BOX", "address": {"city": "HASTINGS", "state": "NE", "street": "2727 W 2ND ST", "postcode": "68901"}}},
{"geometry": {"type": "Point", "coordinates": [-98.4196514154, 40.5852655081]}, "type": "Feature", "properties": {"collection_times": [{"days": "Mon-Fri", "time": "2:25pm"}, {"days": "Sat", "time": "1:55pm"}, {"days": "Sun", "time": "Closed"}], "id": "6890100017", "name": "USPS COLLECTION BOX - BLUE BOX", "address": {"city": "HASTINGS", "state": "NE", "street": "2727 W 2ND ST", "postcode": "68901"}}},
{"geometry": {"type": "Point", "coordinates": [-98.3861578176, 40.5861217024]}, "type": "Feature", "properties": {"collection_times": [{"days": "Mon-Fri", "time": "3:20pm"}, {"days": "Sat", "time": "2:25pm"}, {"days": "Sun", "time": "Closed"}], "id": "6890100040", "name": "USPS COLLECTION BOX - PO LOBBY", "address": {"city": "HASTINGS", "state": "NE", "street": "300 N KANSAS AVE", "postcode": "68901"}}},
{"geometry": {"type": "Point", "coordinates": [-98.3925047566, 40.5907002134]}, "type": "Feature", "properties": {"collection_times": [{"days": "Mon-Fri", "time": "2:40pm"}, {"days": "Sat", "time": "2:10pm"}, {"days": "Sun", "time": "Closed"}], "id": "6890100041", "name": "USPS COLLECTION BOX - BLUE BOX", "address": {"city": "HASTINGS", "state": "NE", "street": "747 N BURLINGTON AVE", "postcode": "68901"}}},
{"geometry": {"type": "Point", "coordinates": [-98.3860164847, 40.6079262018]}, "type": "Feature", "properties": {"collection_times": [{"days": "Mon-Fri", "time": "1:40pm"}, {"days": "Sat", "time": "1:25pm"}, {"days": "Sun", "time": "Closed"}], "id": "6890100043", "name": "USPS COLLECTION BOX - BLUE BOX", "address": {"city": "HASTINGS", "state": "NE", "street": "2211 N KANSAS AVE", "postcode": "68901"}}},
{"geometry": {"type": "Point", "coordinates": [-98.392574218, 40.57309176]}, "type": "Feature", "properties": {"collection_times": [{"days": "Mon-Fri", "time": "1:55pm"}, {"days": "Sat", "time": "1:45pm"}, {"days": "Sun", "time": "Closed"}], "id": "6890100045", "name": "USPS COLLECTION BOX - BLUE BOX", "address": {"city": "HASTINGS", "state": "NE", "street": "920 S BURLINGTON AVE", "postcode": "68901"}}},
{"geometry": {"type": "Point", "coordinates": [-98.3839451913, 40.6138824233]}, "type": "Feature", "properties": {"collection_times": [{"days": "Mon-Fri", "time": "1:40pm"}, {"days": "Sat", "time": "1:25pm"}, {"days": "Sun", "time": "Closed"}], "id": "6890100047", "name": "USPS COLLECTION BOX - BLUE BOX", "address": {"city": "HASTINGS", "state": "NE", "street": "2815 OSBORNE DR W", "postcode": "68901"}}},
{"geometry": {"type": "Point", "coordinates": [-98.3794860301, 40.6008068322]}, "type": "Feature", "properties": {"collection_times": [{"days": "Mon-Fri", "time": "1:55pm"}, {"days": "Sat", "time": "1:30pm"}, {"days": "Sun", "time": "Closed"}], "id": "6890100048", "name": "USPS COLLECTION BOX - BLUE BOX", "address": {"city": "HASTINGS", "state": "NE", "street": "223 E 14TH ST", "postcode": "68901"}}},
{"geometry": {"type": "Point", "coordinates": [-98.3954509752, 40.5852102057]}, "type": "Feature", "properties": {"collection_times": [{"days": "Mon-Fri", "time": "2:10pm"}, {"days": "Sat", "time": "1:55pm"}, {"days": "Sun", "time": "Closed"}], "id": "6890100049", "name": "USPS COLLECTION BOX - BLUE BOX", "address": {"city": "HASTINGS", "state": "NE", "street": "1115 W 2ND ST", "postcode": "68901"}}},
{"geometry": {"type": "Point", "coordinates": [-98.3925047566, 40.5907002134]}, "type": "Feature", "properties": {"collection_times": [{"days": "Mon-Fri", "time": "2:40pm"}, {"days": "Sat", "time": "2:10pm"}, {"days": "Sun", "time": "Closed"}], "id": "6890100051", "name": "USPS COLLECTION BOX - BLUE BOX", "address": {"city": "HASTINGS", "state": "NE", "street": "747 N BURLINGTON AVE", "postcode": "68901"}}},
{"geometry": {"type": "Point", "coordinates": [-99.3623462269, 40.0982803764]}, "type": "Feature", "properties": {"collection_times": [{"days": "Mon-Fri", "time": "1:13pm"}, {"days": "Sat", "time": "12:24pm"}, {"days": "Sun", "time": "Closed"}], "id": "6892000001", "name": "USPS COLLECTION BOX - BLUE BOX", "address": {"city": "ALMA", "state": "NE", "street": "711 1ST ST", "postcode": "68920"}}},
{"geometry": {"type": "Point", "coordinates": [-99.3623462269, 40.0982803764]}, "type": "Feature", "properties": {"collection_times": [{"days": "Mon-Fri", "time": "1:13pm"}, {"days": "Sat", "time": "10:00am"}, {"days": "Sun", "time": "Closed"}], "id": "6892000002", "name": "USPS COLLECTION BOX - PO LOBBY", "address": {"city": "ALMA", "state": "NE", "street": "711 1ST ST", "postcode": "68920"}}},
{"geometry": {"type": "Point", "coordinates": [-99.8976253325, 40.3024802407]}, "type": "Feature", "properties": {"collection_times": [{"days": "Mon-Fri", "time": "12:40pm"}, {"days": "Sat", "time": "12:20pm"}, {"days": "Sun", "time": "Closed"}], "id": "6892200001", "name": "USPS COLLECTION BOX - BLUE BOX", "address": {"city": "ARAPAHOE", "state": "NE", "street": "416 NEBRASKA AVE", "postcode": "68922"}}},
{"geometry": {"type": "Point", "coordinates": [-99.8976253325, 40.3024802407]}, "type": "Feature", "properties": {"collection_times": [{"days": "Mon-Fri", "time": "12:40pm"}, {"days": "Sat", "time": "10:15am"}, {"days": "Sun", "time": "Closed"}], "id": "6892200002", "name": "USPS COLLECTION BOX - PO LOBBY", "address": {"city": "ARAPAHOE", "state": "NE", "street": "416 NEBRASKA AVE", "postcode": "68922"}}},
{"geometry": {"type": "Point", "coordinates": [-99.126736261, 40.4794434327]}, "type": "Feature", "properties": {"collection_times": [{"days": "Mon-Sat", "time": "1:15pm"}, {"days": "Sun", "time": "Closed"}], "id": "6892400001", "name": "USPS COLLECTION BOX - BLUE BOX", "address": {"city": "AXTELL", "state": "NE", "street": "405 MAIN ST", "postcode": "68924"}}},
{"geometry": {"type": "Point", "coordinates": [-99.126736261, 40.4794434327]}, "type": "Feature", "properties": {"collection_times": [{"days": "Mon-Fri", "time": "1:15pm"}, {"days": "Sat-Sun", "time": "Closed"}], "id": "6892400002", "name": "USPS COLLECTION BOX - PO LOBBY", "address": {"city": "AXTELL", "state": "NE", "street": "405 MAIN ST", "postcode": "68924"}}},
{"geometry": {"type": "Point", "coordinates": [-98.4381299032, 40.4373276369]}, "type": "Feature", "properties": {"collection_times": [{"days": "Mon-Sat", "time": "1:00pm"}, {"days": "Sun", "time": "Closed"}], "id": "6892500001", "name": "USPS COLLECTION BOX - BLUE BOX", "address": {"city": "AYR", "state": "NE", "street": "4075 W LINCOLN ST", "postcode": "68925"}}},
{"geometry": {"type": "Point", "coordinates": [-98.4381299032, 40.4373276369]}, "type": "Feature", "properties": {"collection_times": [{"days": "Mon-Fri", "time": "1:00pm"}, {"days": "Sat", "time": "11:15am"}, {"days": "Sun", "time": "Closed"}], "id": "6892500002", "name": "USPS COLLECTION BOX - PO LOBBY", "address": {"city": "AYR", "state": "NE", "street": "4075 W LINCOLN ST", "postcode": "68925"}}},
{"geometry": {"type": "Point", "coordinates": [-99.8285387449, 40.1355625353]}, "type": "Feature", "properties": {"collection_times": [{"days": "Mon-Fri", "time": "12:25pm"}, {"days": "Sat", "time": "11:50am"}, {"days": "Sun", "time": "Closed"}], "id": "6892600001", "name": "USPS COLLECTION BOX - BLUE BOX", "address": {"city": "BEAVER CITY", "state": "NE", "street": "417 9TH ST", "postcode": "68926"}}},
{"geometry": {"type": "Point", "coordinates": [-99.8285387449, 40.1355625353]}, "type": "Feature", "properties": {"collection_times": [{"days": "Mon-Fri", "time": "12:25pm"}, {"days": "Sat", "time": "11:20am"}, {"days": "Sun", "time": "Closed"}], "id": "6892600003", "name": "USPS COLLECTION BOX - PO LOBBY", "address": {"city": "BEAVER CITY", "state": "NE", "street": "417 9TH ST", "postcode": "68926"}}},
{"geometry": {"type": "Point", "coordinates": [-99.6316119621, 40.4958217698]}, "type": "Feature", "properties": {"collection_times": [{"days": "Mon-Fri", "time": "1:13pm"}, {"days": "Sat", "time": "12:57pm"}, {"days": "Sun", "time": "Closed"}], "id": "6892700001", "name": "USPS COLLECTION BOX - BLUE BOX", "address": {"city": "BERTRAND", "state": "NE", "street": "700 KANE ST", "postcode": "68927"}}},
{"geometry": {"type": "Point", "coordinates": [-99.6339070383, 40.5282882869]}, "type": "Feature", "properties": {"collection_times": [{"days": "Mon-Fri", "time": "9:50am"}, {"days": "Sat", "time": "8:45am"}, {"days": "Sun", "time": "Closed"}], "id": "6892700003", "name": "USPS COLLECTION BOX - PO LOBBY", "address": {"city": "BERTRAND", "state": "NE", "street": "701 MINOR AVE", "postcode": "68927"}}},
{"geometry": {"type": "Point", "coordinates": [-98.5947135546, 40.3221926309]}, "type": "Feature", "properties": {"collection_times": [{"days": "Mon-Fri", "time": "11:40am"}, {"days": "Sat", "time": "11:20am"}, {"days": "Sun", "time": "Closed"}], "id": "6892800001", "name": "USPS COLLECTION BOX - BLUE BOX", "address": {"city": "BLADEN", "state": "NE", "street": "300 N MAIN ST", "postcode": "68928"}}},
{"geometry": {"type": "Point", "coordinates": [-98.5947135546, 40.3221926309]}, "type": "Feature", "properties": {"collection_times": [{"days": "Mon-Fri", "time": "11:40am"}, {"days": "Sat", "time": "9:20am"}, {"days": "Sun", "time": "Closed"}], "id": "6892800002", "name": "USPS COLLECTION BOX - PO LOBBY", "address": {"city": "BLADEN", "state": "NE", "street": "300 N MAIN ST", "postcode": "68928"}}},
{"geometry": {"type": "Point", "coordinates": [-99.0373736547, 40.0936336666]}, "type": "Feature", "properties": {"collection_times": [{"days": "Mon-Sat", "time": "12:50pm"}, {"days": "Sun", "time": "Closed"}], "id": "6892900001", "name": "USPS COLLECTION BOX - BLUE BOX", "address": {"city": "BLOOMINGTON", "state": "NE", "street": "607 CENTRAL AVE", "postcode": "68929"}}},
{"geometry": {"type": "Point", "coordinates": [-99.0373736547, 40.0936336666]}, "type": "Feature", "properties": {"collection_times": [{"days": "Mon-Fri", "time": "10:45am"}, {"days": "Sat", "time": "9:50am"}, {"days": "Sun", "time": "Closed"}], "id": "6892900002", "name": "USPS COLLECTION BOX - PO LOBBY", "address": {"city": "BLOOMINGTON", "state": "NE", "street": "607 CENTRAL AVE", "postcode": "68929"}}},
{"geometry": {"type": "Point", "coordinates": [-98.4478536537, 40.3325198932]}, "type": "Feature", "properties": {"collection_times": [{"days": "Mon-Sat", "time": "2:45pm"}, {"days": "Sun", "time": "Closed"}], "id": "6893000001", "name": "USPS COLLECTION BOX - BLUE BOX", "address": {"city": "BLUE HILL", "state": "NE", "street": "437 W GAGE ST", "postcode": "68930"}}},
{"geometry": {"type": "Point", "coordinates": [-98.4478536537, 40.3325198932]}, "type": "Feature", "properties": {"collection_times": [{"days": "Mon-Fri", "time": "2:15pm"}, {"days": "Sat", "time": "9:45am"}, {"days": "Sun", "time": "Closed"}], "id": "6893000002", "name": "USPS COLLECTION BOX - PO LOBBY", "address": {"city": "BLUE HILL", "state": "NE", "street": "437 W GAGE ST", "postcode": "68930"}}},
{"geometry": {"type": "Point", "coordinates": [-98.7318711459, 40.2982772225]}, "type": "Feature", "properties": {"collection_times": [{"days": "Mon-Sat", "time": "11:55am"}, {"days": "Sun", "time": "Closed"}], "id": "6893200001", "name": "USPS COLLECTION BOX - BLUE BOX", "address": {"city": "CAMPBELL", "state": "NE", "street": "700 BROAD ST", "postcode": "68932"}}},
{"geometry": {"type": "Point", "coordinates": [-98.7318711459, 40.2982772225]}, "type": "Feature", "properties": {"collection_times": [{"days": "Mon-Fri", "time": "11:50am"}, {"days": "Sat", "time": "9:00am"}, {"days": "Sun", "time": "Closed"}], "id": "6893200002", "name": "USPS COLLECTION BOX - PO LOBBY", "address": {"city": "CAMPBELL", "state": "NE", "street": "700 BROAD ST", "postcode": "68932"}}},
{"geometry": {"type": "Point", "coordinates": [-98.0557406991, 40.5215957233]}, "type": "Feature", "properties": {"collection_times": [{"days": "Mon-Fri", "time": "2:10pm"}, {"days": "Sat", "time": "2:05pm"}, {"days": "Sun", "time": "Closed"}], "id": "6893300003", "name": "USPS COLLECTION BOX - BLUE BOX", "address": {"city": "CLAY CENTER", "state": "NE", "street": "120 S ALEXANDER AVE", "postcode": "68933"}}},
{"geometry": {"type": "Point", "coordinates": [-98.0557406991, 40.5215957233]}, "type": "Feature", "properties": {"collection_times": [{"days": "Mon-Fri", "time": "1:45pm"}, {"days": "Sat", "time": "9:45am"}, {"days": "Sun", "time": "Closed"}], "id": "6893300004", "name": "USPS COLLECTION BOX - PO LOBBY", "address": {"city": "CLAY CENTER", "state": "NE", "street": "120 S ALEXANDER AVE", "postcode": "68933"}}},
{"geometry": {"type": "Point", "coordinates": [-98.1388925863, 40.3559200881]}, "type": "Feature", "properties": {"collection_times": [{"days": "Mon-Sat", "time": "1:20pm"}, {"days": "Sun", "time": "Closed"}], "id": "6893400001", "name": "USPS COLLECTION BOX - BLUE BOX", "address": {"city": "DEWEESE", "state": "NE", "street": "301 S DEWEESE AVE", "postcode": "68934"}}},
{"geometry": {"type": "Point", "coordinates": [-98.1388925863, 40.3559200881]}, "type": "Feature", "properties": {"collection_times": [{"days": "Mon-Fri", "time": "11:05am"}, {"days": "Sat", "time": "10:35am"}, {"days": "Sun", "time": "Closed"}], "id": "6893400002", "name": "USPS COLLECTION BOX - PO LOBBY", "address": {"city": "DEWEESE", "state": "NE", "street": "301 S DEWEESE AVE", "postcode": "68934"}}},
{"geometry": {"type": "Point", "coordinates": [-97.9699527324, 40.3704912856]}, "type": "Feature", "properties": {"collection_times": [{"days": "Mon-Fri", "time": "1:00pm"}, {"days": "Sat", "time": "12:55pm"}, {"days": "Sun", "time": "Closed"}], "id": "6893500001", "name": "USPS COLLECTION BOX - BLUE BOX", "address": {"city": "EDGAR", "state": "NE", "street": "312 N C ST", "postcode": "68935"}}},
{"geometry": {"type": "Point", "coordinates": [-97.9699527324, 40.3704912856]}, "type": "Feature", "properties": {"collection_times": [{"days": "Mon-Fri", "time": "11:50am"}, {"days": "Sat", "time": "9:05am"}, {"days": "Sun", "time": "Closed"}], "id": "6893500002", "name": "USPS COLLECTION BOX - PO LOBBY", "address": {"city": "EDGAR", "state": "NE", "street": "312 N C ST", "postcode": "68935"}}},
{"geometry": {"type": "Point", "coordinates": [-99.7752813261, 40.277962774]}, "type": "Feature", "properties": {"collection_times": [{"days": "Mon-Sat", "time": "12:33pm"}, {"days": "Sun", "time": "Closed"}], "id": "6893600001", "name": "USPS COLLECTION BOX - BLUE BOX", "address": {"city": "EDISON", "state": "NE", "street": "310 OXFORD ST", "postcode": "68936"}}},
{"geometry": {"type": "Point", "coordinates": [-99.7752813261, 40.277962774]}, "type": "Feature", "properties": {"collection_times": [{"days": "Mon-Fri", "time": "11:50am"}, {"days": "Sat", "time": "11:05am"}, {"days": "Sun", "time": "Closed"}], "id": "6893600002", "name": "USPS COLLECTION BOX - PO LOBBY", "address": {"city": "EDISON", "state": "NE", "street": "310 OXFORD ST", "postcode": "68936"}}},
{"geometry": {"type": "Point", "coordinates": [-99.8613895113, 40.5958134867]}, "type": "Feature", "properties": {"collection_times": [{"days": "Mon-Fri", "time": "1:00pm"}, {"days": "Sat", "time": "12:15pm"}, {"days": "Sun", "time": "Closed"}], "id": "6893700001", "name": "USPS COLLECTION BOX - BLUE BOX", "address": {"city": "ELWOOD", "state": "NE", "street": "203 SMITH AVE", "postcode": "68937"}}},
{"geometry": {"type": "Point", "coordinates": [-99.8613895113, 40.5958134867]}, "type": "Feature", "properties": {"collection_times": [{"days": "Mon-Fri", "time": "1:00pm"}, {"days": "Sat", "time": "9:15am"}, {"days": "Sun", "time": "Closed"}], "id": "6893700002", "name": "USPS COLLECTION BOX - PO LOBBY", "address": {"city": "ELWOOD", "state": "NE", "street": "203 SMITH AVE", "postcode": "68937"}}},
{"geometry": {"type": "Point", "coordinates": [-98.1057272326, 40.4305110785]}, "type": "Feature", "properties": {"collection_times": [{"days": "Mon-Sat", "time": "1:35pm"}, {"days": "Sun", "time": "Closed"}], "id": "6893800001", "name": "USPS COLLECTION BOX - BLUE BOX", "address": {"city": "FAIRFIELD", "state": "NE", "street": "410 N D ST", "postcode": "68938"}}},
{"geometry": {"type": "Point", "coordinates": [-98.1057272326, 40.4305110785]}, "type": "Feature", "properties": {"collection_times": [{"days": "Mon-Fri", "time": "11:15am"}, {"days": "Sat", "time": "9:00am"}, {"days": "Sun", "time": "Closed"}], "id": "6893800002", "name": "USPS COLLECTION BOX - PO LOBBY", "address": {"city": "FAIRFIELD", "state": "NE", "street": "410 N D ST", "postcode": "68938"}}},
{"geometry": {"type": "Point", "coordinates": [-98.954950007, 40.0946316895]}, "type": "Feature", "properties": {"collection_times": [{"days": "Mon-Sat", "time": "1:00pm"}, {"days": "Sun", "time": "Closed"}], "id": "6893900001", "name": "USPS COLLECTION BOX - BLUE BOX", "address": {"city": "FRANKLIN", "state": "NE", "street": "1402 L ST", "postcode": "68939"}}},
{"geometry": {"type": "Point", "coordinates": [-98.954950007, 40.0946316895]}, "type": "Feature", "properties": {"collection_times": [{"days": "Mon-Fri", "time": "1:00pm"}, {"days": "Sat", "time": "10:00am"}, {"days": "Sun", "time": "Closed"}], "id": "6893900002", "name": "USPS COLLECTION BOX - PO LOBBY", "address": {"city": "FRANKLIN", "state": "NE", "street": "1402 L ST", "postcode": "68939"}}},
{"geometry": {"type": "Point", "coordinates": [-99.2431579734, 40.5445348047]}, "type": "Feature", "properties": {"collection_times": [{"days": "Mon-Fri", "time": "1:30pm"}, {"days": "Sat", "time": "1:15pm"}, {"days": "Sun", "time": "Closed"}], "id": "6894000001", "name": "USPS COLLECTION BOX - BLUE BOX", "address": {"city": "FUNK", "state": "NE", "street": "121 MAIN ST", "postcode": "68940"}}},
{"geometry": {"type": "Point", "coordinates": [-99.2431579734, 40.5445348047]}, "type": "Feature", "properties": {"collection_times": [{"days": "Mon-Fri", "time": "1:30pm"}, {"days": "Sat", "time": "10:05am"}, {"days": "Sun", "time": "Closed"}], "id": "6894000002", "name": "USPS COLLECTION BOX - PO LOBBY", "address": {"city": "FUNK", "state": "NE", "street": "121 MAIN ST", "postcode": "68940"}}},
{"geometry": {"type": "Point", "coordinates": [-98.251860361, 40.5041487724]}, "type": "Feature", "properties": {"collection_times": [{"days": "Mon-Sat", "time": "2:00pm"}, {"days": "Sun", "time": "Closed"}], "id": "6894100001", "name": "USPS COLLECTION BOX - BLUE BOX", "address": {"city": "GLENVIL", "state": "NE", "street": "204 WINTERS AVE", "postcode": "68941"}}},
{"geometry": {"type": "Point", "coordinates": [-98.251860361, 40.5041487724]}, "type": "Feature", "properties": {"collection_times": [{"days": "Mon-Fri", "time": "11:50am"}, {"days": "Sat", "time": "9:35am"}, {"days": "Sun", "time": "Closed"}], "id": "6894100002", "name": "USPS COLLECTION BOX - PO LOBBY", "address": {"city": "GLENVIL", "state": "NE", "street": "204 WINTERS AVE", "postcode": "68941"}}},
{"geometry": {"type": "Point", "coordinates": [-98.3302792049, 40.0736752725]}, "type": "Feature", "properties": {"collection_times": [{"days": "Mon-Sat", "time": "1:55pm"}, {"days": "Sun", "time": "Closed"}], "id": "6894200001", "name": "USPS COLLECTION BOX - BLUE BOX", "address": {"city": "GUIDE ROCK", "state": "NE", "street": "400 UNIVERSITY AVE", "postcode": "68942"}}},
{"geometry": {"type": "Point", "coordinates": [-98.3302792049, 40.0736752725]}, "type": "Feature", "properties": {"collection_times": [{"days": "Mon-Fri", "time": "11:50am"}, {"days": "Sat", "time": "10:20am"}, {"days": "Sun", "time": "Closed"}], "id": "6894200002", "name": "USPS COLLECTION BOX - PO LOBBY", "address": {"city": "GUIDE ROCK", "state": "NE", "street": "400 UNIVERSITY AVE", "postcode": "68942"}}},
{"geometry": {"type": "Point", "coordinates": [-97.9272047182, 40.0091704267]}, "type": "Feature", "properties": {"collection_times": [{"days": "Mon-Sat", "time": "12:00pm"}, {"days": "Sun", "time": "Closed"}], "id": "6894300001", "name": "USPS COLLECTION BOX - BLUE BOX", "address": {"city": "HARDY", "state": "NE", "street": "307 MAIN ST", "postcode": "68943"}}},
{"geometry": {"type": "Point", "coordinates": [-97.9272047182, 40.0091704267]}, "type": "Feature", "properties": {"collection_times": [{"days": "Mon-Sat", "time": "12:00pm"}, {"days": "Sun", "time": "Closed"}], "id": "6894300002", "name": "USPS COLLECTION BOX - PO LOBBY", "address": {"city": "HARDY", "state": "NE", "street": "307 MAIN ST", "postcode": "68943"}}},
{"geometry": {"type": "Point", "coordinates": [-98.097284749, 40.6191150854]}, "type": "Feature", "properties": {"collection_times": [{"days": "Mon-Sat", "time": "2:25pm"}, {"days": "Sun", "time": "Closed"}], "id": "6894400001", "name": "USPS COLLECTION BOX - BLUE BOX", "address": {"city": "HARVARD", "state": "NE", "street": "315 N CLAY AVE", "postcode": "68944"}}},
{"geometry": {"type": "Point", "coordinates": [-98.097284749, 40.6191150854]}, "type": "Feature", "properties": {"collection_times": [{"days": "Mon-Fri", "time": "2:20pm"}, {"days": "Sat", "time": "10:20am"}, {"days": "Sun", "time": "Closed"}], "id": "6894400002", "name": "USPS COLLECTION BOX - PO LOBBY", "address": {"city": "HARVARD", "state": "NE", "street": "315 N CLAY AVE", "postcode": "68944"}}},
{"geometry": {"type": "Point", "coordinates": [-98.7881794723, 40.5700684617]}, "type": "Feature", "properties": {"collection_times": [{"days": "Mon-Sat", "time": "2:15pm"}, {"days": "Sun", "time": "Closed"}], "id": "6894500001", "name": "USPS COLLECTION BOX - BLUE BOX", "address": {"city": "HEARTWELL", "state": "NE", "street": "209 MAIN ST", "postcode": "68945"}}},
{"geometry": {"type": "Point", "coordinates": [-98.7881794723, 40.5700684617]}, "type": "Feature", "properties": {"collection_times": [{"days": "Mon-Fri", "time": "11:50am"}, {"days": "Sat", "time": "9:35am"}, {"days": "Sun", "time": "Closed"}], "id": "6894500002", "name": "USPS COLLECTION BOX - PO LOBBY", "address": {"city": "HEARTWELL", "state": "NE", "street": "209 MAIN ST", "postcode": "68945"}}},
{"geometry": {"type": "Point", "coordinates": [-99.0436181686, 40.3379189075]}, "type": "Feature", "properties": {"collection_times": [{"days": "Mon-Sat", "time": "12:45pm"}, {"days": "Sun", "time": "Closed"}], "id": "6894700001", "name": "USPS COLLECTION BOX - BLUE BOX", "address": {"city": "HILDRETH", "state": "NE", "street": "209 COMMERCIAL AVE", "postcode": "68947"}}},
{"geometry": {"type": "Point", "coordinates": [-99.0436181686, 40.3379189075]}, "type": "Feature", "properties": {"collection_times": [{"days": "Mon-Fri", "time": "12:20pm"}, {"days": "Sat", "time": "11:00am"}, {"days": "Sun", "time": "Closed"}], "id": "6894700002", "name": "USPS COLLECTION BOX - PO LOBBY", "address": {"city": "HILDRETH", "state": "NE", "street": "209 COMMERCIAL AVE", "postcode": "68947"}}},
{"geometry": {"type": "Point", "coordinates": [-100.0100666387, 40.3036861166]}, "type": "Feature", "properties": {"collection_times": [{"days": "Mon-Sat", "time": "12:30pm"}, {"days": "Sun", "time": "Closed"}], "id": "6894800001", "name": "USPS COLLECTION BOX - BLUE BOX", "address": {"city": "HOLBROOK", "state": "NE", "street": "220 CENTER ST", "postcode": "68948"}}},
{"geometry": {"type": "Point", "coordinates": [-100.0100666387, 40.3036861166]}, "type": "Feature", "properties": {"collection_times": [{"days": "Mon-Sat", "time": "11:50am"}, {"days": "Sun", "time": "Closed"}], "id": "6894800002", "name": "USPS COLLECTION BOX - PO LOBBY", "address": {"city": "HOLBROOK", "state": "NE", "street": "220 CENTER ST", "postcode": "68948"}}},
{"geometry": {"type": "Point", "coordinates": [-99.3712728178, 40.4392114528]}, "type": "Feature", "properties": {"collection_times": [{"days": "Mon-Fri", "time": "1:40pm"}, {"days": "Sat", "time": "1:30pm"}, {"days": "Sun", "time": "Closed"}], "id": "6894900003", "name": "USPS COLLECTION BOX - BLUE BOX", "address": {"city": "HOLDREGE", "state": "NE", "street": "424 WEST AVE", "postcode": "68949"}}},
{"geometry": {"type": "Point", "coordinates": [-99.3793466371, 40.4492656816]}, "type": "Feature", "properties": {"collection_times": [{"days": "Mon-Fri", "time": "12:58pm"}, {"days": "Sat", "time": "12:28pm"}, {"days": "Sun", "time": "Closed"}], "id": "6894900006", "name": "USPS COLLECTION BOX - BLUE BOX", "address": {"city": "HOLDREGE", "state": "NE", "street": "1515 BURLINGTON ST", "postcode": "68949"}}},
{"geometry": {"type": "Point", "coordinates": [-99.3698089759, 40.4385295336]}, "type": "Feature", "properties": {"collection_times": [{"days": "Mon-Fri", "time": "1:40pm"}, {"days": "Sat", "time": "1:30pm"}, {"days": "Sun", "time": "Closed"}], "id": "6894900009", "name": "USPS COLLECTION BOX - BLUE BOX", "address": {"city": "HOLDREGE", "state": "NE", "street": "420 EAST AVE", "postcode": "68949"}}},
{"geometry": {"type": "Point", "coordinates": [-99.3698089759, 40.4385295336]}, "type": "Feature", "properties": {"collection_times": [{"days": "Mon-Fri", "time": "1:40pm"}, {"days": "Sat", "time": "1:30pm"}, {"days": "Sun", "time": "Closed"}], "id": "6894900012", "name": "USPS COLLECTION BOX - PO LOBBY", "address": {"city": "HOLDREGE", "state": "NE", "street": "420 EAST AVE", "postcode": "68949"}}},
{"geometry": {"type": "Point", "coordinates": [-99.3698089759, 40.4385295336]}, "type": "Feature", "properties": {"collection_times": [{"days": "Mon-Fri", "time": "1:40pm"}, {"days": "Sat", "time": "1:30pm"}, {"days": "Sun", "time": "Closed"}], "id": "6894900013", "name": "USPS COLLECTION BOX - BLUE BOX", "address": {"city": "HOLDREGE", "state": "NE", "street": "420 EAST AVE", "postcode": "68949"}}},
{"geometry": {"type": "Point", "coordinates": [-98.6521375757, 40.4649252797]}, "type": "Feature", "properties": {"collection_times": [{"days": "Mon-Sat", "time": "1:25pm"}, {"days": "Sun", "time": "Closed"}], "id": "6895000001", "name": "USPS COLLECTION BOX - BLUE BOX", "address": {"city": "HOLSTEIN", "state": "NE", "street": "9710 S MAIN AVE", "postcode": "68950"}}},
{"geometry": {"type": "Point", "coordinates": [-98.6521375757, 40.4649252797]}, "type": "Feature", "properties": {"collection_times": [{"days": "Mon-Fri", "time": "11:45am"}, {"days": "Sat", "time": "9:45am"}, {"days": "Sun", "time": "Closed"}], "id": "6895000002", "name": "USPS COLLECTION BOX - PO LOBBY", "address": {"city": "HOLSTEIN", "state": "NE", "street": "9710 S MAIN AVE", "postcode": "68950"}}},
{"geometry": {"type": "Point", "coordinates": [-98.5062950292, 40.5928752628]}, "type": "Feature", "properties": {"collection_times": [{"days": "Mon-Sat", "time": "2:45pm"}, {"days": "Sun", "time": "Closed"}], "id": "6895500001", "name": "USPS COLLECTION BOX - BLUE BOX", "address": {"city": "JUNIATA", "state": "NE", "street": "1002 N JUNIATA AVE", "postcode": "68955"}}},
{"geometry": {"type": "Point", "coordinates": [-98.5062950292, 40.5928752628]}, "type": "Feature", "properties": {"collection_times": [{"days": "Mon-Fri", "time": "2:44pm"}, {"days": "Sat", "time": "10:45am"}, {"days": "Sun", "time": "Closed"}], "id": "6895500002", "name": "USPS COLLECTION BOX - PO LOBBY", "address": {"city": "JUNIATA", "state": "NE", "street": "1002 N JUNIATA AVE", "postcode": "68955"}}},
{"geometry": {"type": "Point", "coordinates": [-98.657742947, 40.6213197441]}, "type": "Feature", "properties": {"collection_times": [{"days": "Mon-Sat", "time": "2:30pm"}, {"days": "Sun", "time": "Closed"}], "id": "6895600001", "name": "USPS COLLECTION BOX - BLUE BOX", "address": {"city": "KENESAW", "state": "NE", "street": "205 N SMITH AVE", "postcode": "68956"}}},
{"geometry": {"type": "Point", "coordinates": [-98.657742947, 40.6213197441]}, "type": "Feature", "properties": {"collection_times": [{"days": "Mon-Fri", "time": "2:30pm"}, {"days": "Sat", "time": "9:15am"}, {"days": "Sun", "time": "Closed"}], "id": "6895600002", "name": "USPS COLLECTION BOX - PO LOBBY", "address": {"city": "KENESAW", "state": "NE", "street": "205 N SMITH AVE", "postcode": "68956"}}},
{"geometry": {"type": "Point", "coordinates": [-98.2598127628, 40.2914729802]}, "type": "Feature", "properties": {"collection_times": [{"days": "Mon-Sat", "time": "2:25pm"}, {"days": "Sun", "time": "Closed"}], "id": "6895700001", "name": "USPS COLLECTION BOX - BLUE BOX", "address": {"city": "LAWRENCE", "state": "NE", "street": "140 N CALVERT ST", "postcode": "68957"}}},
{"geometry": {"type": "Point", "coordinates": [-98.2598127628, 40.2914729802]}, "type": "Feature", "properties": {"collection_times": [{"days": "Mon-Fri", "time": "11:45am"}, {"days": "Sat", "time": "8:45am"}, {"days": "Sun", "time": "Closed"}], "id": "6895700002", "name": "USPS COLLECTION BOX - PO LOBBY", "address": {"city": "LAWRENCE", "state": "NE", "street": "140 N CALVERT ST", "postcode": "68957"}}},
{"geometry": {"type": "Point", "coordinates": [-99.5070608084, 40.4774253119]}, "type": "Feature", "properties": {"collection_times": [{"days": "Mon-Fri", "time": "1:13pm"}, {"days": "Sat", "time": "1:08pm"}, {"days": "Sun", "time": "Closed"}], "id": "6895800001", "name": "USPS COLLECTION BOX - BLUE BOX", "address": {"city": "LOOMIS", "state": "NE", "street": "306 COMMERCIAL ST", "postcode": "68958"}}},
{"geometry": {"type": "Point", "coordinates": [-99.5070608084, 40.4774253119]}, "type": "Feature", "properties": {"collection_times": [{"days": "Mon-Fri", "time": "12:45pm"}, {"days": "Sat", "time": "9:00am"}, {"days": "Sun", "time": "Closed"}], "id": "6895800002", "name": "USPS COLLECTION BOX - PO LOBBY", "address": {"city": "LOOMIS", "state": "NE", "street": "306 COMMERCIAL ST", "postcode": "68958"}}},
{"geometry": {"type": "Point", "coordinates": [-98.9476460197, 40.4982667242]}, "type": "Feature", "properties": {"collection_times": [{"days": "Mon-Sat", "time": "1:50pm"}, {"days": "Sun", "time": "Closed"}], "id": "6895900002", "name": "USPS COLLECTION BOX - BLUE BOX", "address": {"city": "MINDEN", "state": "NE", "street": "410 N MINDEN AVE", "postcode": "68959"}}},
{"geometry": {"type": "Point", "coordinates": [-98.9476460197, 40.4982667242]}, "type": "Feature", "properties": {"collection_times": [{"days": "Mon-Sat", "time": "1:50pm"}, {"days": "Sun", "time": "Closed"}], "id": "6895900004", "name": "USPS COLLECTION BOX - BLUE BOX", "address": {"city": "MINDEN", "state": "NE", "street": "410 N MINDEN AVE", "postcode": "68959"}}},
{"geometry": {"type": "Point", "coordinates": [-98.9476460197, 40.4982667242]}, "type": "Feature", "properties": {"collection_times": [{"days": "Mon-Fri", "time": "1:50pm"}, {"days": "Sat", "time": "9:45am"}, {"days": "Sun", "time": "Closed"}], "id": "6895900005", "name": "USPS COLLECTION BOX - PO LOBBY", "address": {"city": "MINDEN", "state": "NE", "street": "410 N MINDEN AVE", "postcode": "68959"}}},
{"geometry": {"type": "Point", "coordinates": [-99.1404098121, 40.0758043645]}, "type": "Feature", "properties": {"collection_times": [{"days": "Mon-Sat", "time": "12:35pm"}, {"days": "Sun", "time": "Closed"}], "id": "6896000001", "name": "USPS COLLECTION BOX - BLUE BOX", "address": {"city": "NAPONEE", "state": "NE", "street": "609 FENNIMORE ST", "postcode": "68960"}}},
{"geometry": {"type": "Point", "coordinates": [-98.0672991892, 40.2018868367]}, "type": "Feature", "properties": {"collection_times": [{"days": "Mon-Sat", "time": "12:30pm"}, {"days": "Sun", "time": "Closed"}], "id": "6896100001", "name": "USPS COLLECTION BOX - BLUE BOX", "address": {"city": "NELSON", "state": "NE", "street": "363 S MAIN ST", "postcode": "68961"}}},
{"geometry": {"type": "Point", "coordinates": [-98.0672991892, 40.2018868367]}, "type": "Feature", "properties": {"collection_times": [{"days": "Mon-Fri", "time": "12:30pm"}, {"days": "Sat", "time": "10:15am"}, {"days": "Sun", "time": "Closed"}], "id": "6896100002", "name": "USPS COLLECTION BOX - PO LOBBY", "address": {"city": "NELSON", "state": "NE", "street": "363 S MAIN ST", "postcode": "68961"}}},
{"geometry": {"type": "Point", "coordinates": [-99.4617940543, 40.1666983424]}, "type": "Feature", "properties": {"collection_times": [{"days": "Mon-Fri", "time": "1:00pm"}, {"days": "Sat", "time": "12:30pm"}, {"days": "Sun", "time": "Closed"}], "id": "6896600001", "name": "USPS COLLECTION BOX - BLUE BOX", "address": {"city": "ORLEANS", "state": "NE", "street": "109 E MAPLE ST", "postcode": "68966"}}},
{"geometry": {"type": "Point", "coordinates": [-99.4617940543, 40.1666983424]}, "type": "Feature", "properties": {"collection_times": [{"days": "Mon-Fri", "time": "11:20am"}, {"days": "Sat", "time": "9:35am"}, {"days": "Sun", "time": "Closed"}], "id": "6896600002", "name": "USPS COLLECTION BOX - PO LOBBY", "address": {"city": "ORLEANS", "state": "NE", "street": "109 E MAPLE ST", "postcode": "68966"}}},
{"geometry": {"type": "Point", "coordinates": [-99.6394958982, 40.2531900508]}, "type": "Feature", "properties": {"collection_times": [{"days": "Mon-Fri", "time": "1:10pm"}, {"days": "Sat", "time": "12:50pm"}, {"days": "Sun", "time": "Closed"}], "id": "6896700001", "name": "USPS COLLECTION BOX - BLUE BOX", "address": {"city": "OXFORD", "state": "NE", "street": "112 E SOUTH RAILWAY", "postcode": "68967"}}},
{"geometry": {"type": "Point", "coordinates": [-99.6394958982, 40.2531900508]}, "type": "Feature", "properties": {"collection_times": [{"days": "Mon-Fri", "time": "1:10pm"}, {"days": "Sat", "time": "10:15am"}, {"days": "Sun", "time": "Closed"}], "id": "6896700002", "name": "USPS COLLECTION BOX - PO LOBBY", "address": {"city": "OXFORD", "state": "NE", "street": "112 E SOUTH RAILWAY", "postcode": "68967"}}},
{"geometry": {"type": "Point", "coordinates": [-98.5192489526, 40.0879007681]}, "type": "Feature", "properties": {"collection_times": [{"days": "Mon-Sat", "time": "1:35pm"}, {"days": "Sun", "time": "Closed"}], "id": "6897000001", "name": "USPS COLLECTION BOX - BLUE BOX", "address": {"city": "RED CLOUD", "state": "NE", "street": "310 N WEBSTER ST", "postcode": "68970"}}},
{"geometry": {"type": "Point", "coordinates": [-98.5192489526, 40.0879007681]}, "type": "Feature", "properties": {"collection_times": [{"days": "Mon-Fri", "time": "1:35pm"}, {"days": "Sat", "time": "9:15am"}, {"days": "Sun", "time": "Closed"}], "id": "6897000002", "name": "USPS COLLECTION BOX - PO LOBBY", "address": {"city": "RED CLOUD", "state": "NE", "street": "310 N WEBSTER ST", "postcode": "68970"}}},
{"geometry": {"type": "Point", "coordinates": [-99.2370784344, 40.1326748037]}, "type": "Feature", "properties": {"collection_times": [{"days": "Mon-Sat", "time": "12:30pm"}, {"days": "Sun", "time": "Closed"}], "id": "6897100001", "name": "USPS COLLECTION BOX - BLUE BOX", "address": {"city": "REPUBLICAN CITY", "state": "NE", "street": "2 CIRCLE DR", "postcode": "68971"}}},
{"geometry": {"type": "Point", "coordinates": [-99.2216461119, 40.1024497515]}, "type": "Feature", "properties": {"collection_times": [{"days": "Mon-Fri", "time": "11:50am"}, {"days": "Sat", "time": "9:45am"}, {"days": "Sun", "time": "Closed"}], "id": "6897100002", "name": "USPS COLLECTION BOX - PO LOBBY", "address": {"city": "REPUBLICAN CITY", "state": "NE", "street": "2 CIRCLE DR", "postcode": "68971"}}},
{"geometry": {"type": "Point", "coordinates": [-98.8119497221, 40.1112792022]}, "type": "Feature", "properties": {"collection_times": [{"days": "Mon-Sat", "time": "1:20pm"}, {"days": "Sun", "time": "Closed"}], "id": "6897200001", "name": "USPS COLLECTION BOX - BLUE BOX", "address": {"city": "RIVERTON", "state": "NE", "street": "714 GOLD ST", "postcode": "68972"}}},
{"geometry": {"type": "Point", "coordinates": [-98.8119497221, 40.1112792022]}, "type": "Feature", "properties": {"collection_times": [{"days": "Mon-Fri", "time": "11:50am"}, {"days": "Sat", "time": "9:20am"}, {"days": "Sun", "time": "Closed"}], "id": "6897200002", "name": "USPS COLLECTION BOX - PO LOBBY", "address": {"city": "RIVERTON", "state": "NE", "street": "714 GOLD ST", "postcode": "68972"}}},
{"geometry": {"type": "Point", "coordinates": [-98.5590646381, 40.4709064204]}, "type": "Feature", "properties": {"collection_times": [{"days": "Mon-Sat", "time": "1:10pm"}, {"days": "Sun", "time": "Closed"}], "id": "6897300001", "name": "USPS COLLECTION BOX - BLUE BOX", "address": {"city": "ROSELAND", "state": "NE", "street": "9230 S LINCOLN AVE", "postcode": "68973"}}},
{"geometry": {"type": "Point", "coordinates": [-98.5590646381, 40.4709064204]}, "type": "Feature", "properties": {"collection_times": [{"days": "Mon-Fri", "time": "11:45am"}, {"days": "Sat", "time": "9:00am"}, {"days": "Sun", "time": "Closed"}], "id": "6897300002", "name": "USPS COLLECTION BOX - PO LOBBY", "address": {"city": "ROSELAND", "state": "NE", "street": "9230 S LINCOLN AVE", "postcode": "68973"}}},
{"geometry": {"type": "Point", "coordinates": [-97.8714033253, 40.143962406]}, "type": "Feature", "properties": {"collection_times": [{"days": "Mon-Sat", "time": "11:50am"}, {"days": "Sun", "time": "Closed"}], "id": "6897400001", "name": "USPS COLLECTION BOX - BLUE BOX", "address": {"city": "RUSKIN", "state": "NE", "street": "940 MAIN ST", "postcode": "68974"}}},
{"geometry": {"type": "Point", "coordinates": [-97.8714033253, 40.143962406]}, "type": "Feature", "properties": {"collection_times": [{"days": "Mon-Sat", "time": "11:50am"}, {"days": "Sun", "time": "Closed"}], "id": "6897400002", "name": "USPS COLLECTION BOX - PO LOBBY", "address": {"city": "RUSKIN", "state": "NE", "street": "940 MAIN ST", "postcode": "68974"}}},
{"geometry": {"type": "Point", "coordinates": [-97.9383016442, 40.6021304875]}, "type": "Feature", "properties": {"collection_times": [{"days": "Mon-Sat", "time": "1:45pm"}, {"days": "Sun", "time": "Closed"}], "id": "6897500000", "name": "USPS COLLECTION BOX - BLUE BOX", "address": {"city": "SARONVILLE", "state": "NE", "street": "101 N MAIN ST", "postcode": "68975"}}},
{"geometry": {"type": "Point", "coordinates": [-97.9383426171, 40.6020801775]}, "type": "Feature", "properties": {"collection_times": [{"days": "Mon-Sat", "time": "9:45am"}, {"days": "Sun", "time": "Closed"}], "id": "6897500001", "name": "USPS COLLECTION BOX - PO LOBBY", "address": {"city": "SARONVILLE", "state": "NE", "street": "101 N MAIN ST", "postcode": "68975"}}},
{"geometry": {"type": "Point", "coordinates": [-99.5927420065, 40.1321656368]}, "type": "Feature", "properties": {"collection_times": [{"days": "Mon-Sat", "time": "12:12pm"}, {"days": "Sun", "time": "Closed"}], "id": "6897700001", "name": "USPS COLLECTION BOX - BLUE BOX", "address": {"city": "STAMFORD", "state": "NE", "street": "213 N MAIN AVE", "postcode": "68977"}}},
{"geometry": {"type": "Point", "coordinates": [-99.5927420065, 40.1321656368]}, "type": "Feature", "properties": {"collection_times": [{"days": "Mon-Fri", "time": "11:50am"}, {"days": "Sat", "time": "9:20am"}, {"days": "Sun", "time": "Closed"}], "id": "6897700002", "name": "USPS COLLECTION BOX - PO LOBBY", "address": {"city": "STAMFORD", "state": "NE", "street": "213 N MAIN AVE", "postcode": "68977"}}},
{"geometry": {"type": "Point", "coordinates": [-98.0696904832, 40.0198373861]}, "type": "Feature", "properties": {"collection_times": [{"days": "Mon-Sat", "time": "12:15pm"}, {"days": "Sun", "time": "Closed"}], "id": "6897800001", "name": "USPS COLLECTION BOX - BLUE BOX", "address": {"city": "SUPERIOR", "state": "NE", "street": "214 E 4TH ST", "postcode": "68978"}}},
{"geometry": {"type": "Point", "coordinates": [-98.0696904832, 40.0198373861]}, "type": "Feature", "properties": {"collection_times": [{"days": "Mon-Sat", "time": "12:15pm"}, {"days": "Sun", "time": "Closed"}], "id": "6897800002", "name": "USPS COLLECTION BOX - BLUE BOX", "address": {"city": "SUPERIOR", "state": "NE", "street": "214 E 4TH ST", "postcode": "68978"}}},
{"geometry": {"type": "Point", "coordinates": [-98.0696904832, 40.0198373861]}, "type": "Feature", "properties": {"collection_times": [{"days": "Mon-Fri", "time": "12:15pm"}, {"days": "Sat", "time": "10:30am"}, {"days": "Sun", "time": "Closed"}], "id": "6897800003", "name": "USPS COLLECTION BOX - PO LOBBY", "address": {"city": "SUPERIOR", "state": "NE", "street": "214 E 4TH ST", "postcode": "68978"}}},
{"geometry": {"type": "Point", "coordinates": [-97.8593304651, 40.6065080828]}, "type": "Feature", "properties": {"collection_times": [{"days": "Mon-Sat", "time": "1:35pm"}, {"days": "Sun", "time": "Closed"}], "id": "6897900001", "name": "USPS COLLECTION BOX - BLUE BOX", "address": {"city": "SUTTON", "state": "NE", "street": "108 E FORREST ST", "postcode": "68979"}}},
{"geometry": {"type": "Point", "coordinates": [-97.8593304651, 40.6065080828]}, "type": "Feature", "properties": {"collection_times": [{"days": "Mon-Fri", "time": "1:35pm"}, {"days": "Sat", "time": "11:15am"}, {"days": "Sun", "time": "Closed"}], "id": "6897900002", "name": "USPS COLLECTION BOX - PO LOBBY", "address": {"city": "SUTTON", "state": "NE", "street": "108 E FORREST ST", "postcode": "68979"}}},
{"geometry": {"type": "Point", "coordinates": [-98.2725063636, 40.6788139508]}, "type": "Feature", "properties": {"collection_times": [{"days": "Mon-Fri", "time": "3:05pm"}, {"days": "Sat", "time": "2:55pm"}, {"days": "Sun", "time": "Closed"}], "id": "6898000001", "name": "USPS COLLECTION BOX - BLUE BOX", "address": {"city": "TRUMBULL", "state": "NE", "street": "125 MAIN ST", "postcode": "68980"}}},
{"geometry": {"type": "Point", "coordinates": [-98.2725063636, 40.6788139508]}, "type": "Feature", "properties": {"collection_times": [{"days": "Mon-Fri", "time": "2:55pm"}, {"days": "Sat", "time": "12:45pm"}, {"days": "Sun", "time": "Closed"}], "id": "6898000003", "name": "USPS COLLECTION BOX - PO LOBBY", "address": {"city": "TRUMBULL", "state": "NE", "street": "125 MAIN ST", "postcode": "68980"}}},
{"geometry": {"type": "Point", "coordinates": [-98.8958570226, 40.306600201]}, "type": "Feature", "properties": {"collection_times": [{"days": "Mon-Fri", "time": "12:25pm"}, {"days": "Sat", "time": "12:15pm"}, {"days": "Sun", "time": "Closed"}], "id": "6898100001", "name": "USPS COLLECTION BOX - BLUE BOX", "address": {"city": "UPLAND", "state": "NE", "street": "100 PRARIE AVE", "postcode": "68981"}}},
{"geometry": {"type": "Point", "coordinates": [-98.8958570226, 40.306600201]}, "type": "Feature", "properties": {"collection_times": [{"days": "Mon-Fri", "time": "11:50am"}, {"days": "Sat", "time": "9:35am"}, {"days": "Sun", "time": "Closed"}], "id": "6898100002", "name": "USPS COLLECTION BOX - PO LOBBY", "address": {"city": "UPLAND", "state": "NE", "street": "100 PRARIE AVE", "postcode": "68981"}}},
{"geometry": {"type": "Point", "coordinates": [-99.1698155655, 40.3650913238]}, "type": "Feature", "properties": {"collection_times": [{"days": "Mon-Fri", "time": "12:55pm"}, {"days": "Sat", "time": "12:50pm"}, {"days": "Sun", "time": "Closed"}], "id": "6898200001", "name": "USPS COLLECTION BOX - BLUE BOX", "address": {"city": "WILCOX", "state": "NE", "street": "108 S MAIN ST", "postcode": "68982"}}},
{"geometry": {"type": "Point", "coordinates": [-99.1698155655, 40.3650913238]}, "type": "Feature", "properties": {"collection_times": [{"days": "Mon-Fri", "time": "11:20am"}, {"days": "Sat", "time": "9:35am"}, {"days": "Sun", "time": "Closed"}], "id": "6898200002", "name": "USPS COLLECTION BOX - PO LOBBY", "address": {"city": "WILCOX", "state": "NE", "street": "108 S MAIN ST", "postcode": "68982"}}}
]}
