{"type": "FeatureCollection", "features": [
{"geometry": {"type": "Point", "coordinates": [-100.625806461, 40.2019626092]}, "type": "Feature", "properties": {"collection_times": [{"days": "Mon-Fri", "time": "5:00pm"}, {"days": "Sat", "time": "2:30pm"}, {"days": "Sun", "time": "Closed"}], "id": "6900100001", "name": "USPS COLLECTION BOX - BLUE BOX", "address": {"city": "MCCOOK", "state": "NE", "street": "502 NORRIS AVE", "postcode": "69001"}}},
{"geometry": {"type": "Point", "coordinates": [-100.6284689249, 40.2041440445]}, "type": "Feature", "properties": {"collection_times": [{"days": "Mon-Fri", "time": "5:45pm"}, {"days": "Sat", "time": "5:00pm"}, {"days": "Sun", "time": "Closed"}], "id": "6900100002", "name": "USPS COLLECTION BOX - EXPRESS", "address": {"city": "MCCOOK", "state": "NE", "street": "411 W 3RD ST", "postcode": "69001"}}},
{"geometry": {"type": "Point", "coordinates": [-100.6259397057, 40.198895152]}, "type": "Feature", "properties": {"collection_times": [{"days": "Mon-Fri", "time": "5:00pm"}, {"days": "Sat", "time": "2:30pm"}, {"days": "Sun", "time": "Closed"}], "id": "6900100003", "name": "USPS COLLECTION BOX - BLUE BOX", "address": {"city": "MCCOOK", "state": "NE", "street": "224 NORRIS AVE", "postcode": "69001"}}},
{"geometry": {"type": "Point", "coordinates": [-100.6446975857, 40.2015150122]}, "type": "Feature", "properties": {"collection_times": [{"days": "Mon-Fri", "time": "5:00pm"}, {"days": "Sat", "time": "2:30pm"}, {"days": "Sun", "time": "Closed"}], "id": "6900100004", "name": "USPS COLLECTION BOX - BLUE BOX", "address": {"city": "MCCOOK", "state": "NE", "street": "206 WESTVIEW PLZ", "postcode": "69001"}}},
{"geometry": {"type": "Point", "coordinates": [-100.6299345306, 40.2008675859]}, "type": "Feature", "properties": {"collection_times": [{"days": "Mon-Fri", "time": "5:45pm"}, {"days": "Sat", "time": "5:00pm"}, {"days": "Sun", "time": "Closed"}], "id": "6900100006", "name": "USPS COLLECTION BOX - BLUE BOX", "address": {"city": "MCCOOK", "state": "NE", "street": "411 W 3RD ST", "postcode": "69001"}}},
{"geometry": {"type": "Point", "coordinates": [-100.6299345306, 40.2008675859]}, "type": "Feature", "properties": {"collection_times": [{"days": "Mon-Fri", "time": "5:45pm"}, {"days": "Sat", "time": "5:00pm"}, {"days": "Sun", "time": "Closed"}], "id": "6900100007", "name": "USPS COLLECTION BOX - BLUE BOX", "address": {"city": "MCCOOK", "state": "NE", "street": "411 W 3RD ST", "postcode": "69001"}}},
{"geometry": {"type": "Point", "coordinates": [-100.6299345306, 40.2008675859]}, "type": "Feature", "properties": {"collection_times": [{"days": "Mon-Fri", "time": "5:45pm"}, {"days": "Sat", "time": "5:00pm"}, {"days": "Sun", "time": "Closed"}], "id": "6900100008", "name": "USPS COLLECTION BOX - BLUE BOX", "address": {"city": "MCCOOK", "state": "NE", "street": "411 W 3RD ST", "postcode": "69001"}}},
{"geometry": {"type": "Point", "coordinates": [-100.6299345306, 40.2008675859]}, "type": "Feature", "properties": {"collection_times": [{"days": "Mon-Fri", "time": "5:45pm"}, {"days": "Sat", "time": "5:00pm"}, {"days": "Sun", "time": "Closed"}], "id": "6900100009", "name": "USPS COLLECTION BOX - PO LOBBY", "address": {"city": "MCCOOK", "state": "NE", "street": "411 W 3RD ST", "postcode": "69001"}}},
{"geometry": {"type": "Point", "coordinates": [-100.6213676023, 40.2087547077]}, "type": "Feature", "properties": {"collection_times": [{"days": "Mon-Fri", "time": "2:45pm"}, {"days": "Sat-Sun", "time": "Closed"}], "id": "6900100010", "name": "USPS COLLECTION BOX - BLUE BOX", "address": {"city": "MCCOOK", "state": "NE", "street": "1205 E 3RD ST", "postcode": "69001"}}},
{"geometry": {"type": "Point", "coordinates": [-100.6509644882, 40.2003293421]}, "type": "Feature", "properties": {"collection_times": [{"days": "Mon-Fri", "time": "5:00pm"}, {"days": "Sat", "time": "9:30am"}, {"days": "Sun", "time": "Closed"}], "id": "6900100011", "name": "USPS COLLECTION BOX - BLUE BOX", "address": {"city": "MCCOOK", "state": "NE", "street": "1902 W B ST", "postcode": "69001"}}},
{"geometry": {"type": "Point", "coordinates": [-100.6299345306, 40.2008675859]}, "type": "Feature", "properties": {"collection_times": [{"days": "Mon-Fri", "time": "5:45pm"}, {"days": "Sat", "time": "5:00pm"}, {"days": "Sun", "time": "Closed"}], "id": "6900100012", "name": "USPS COLLECTION BOX - BLUE BOX", "address": {"city": "MCCOOK", "state": "NE", "street": "411 W 3RD ST", "postcode": "69001"}}},
{"geometry": {"type": "Point", "coordinates": [-100.3059240282, 40.2520343913]}, "type": "Feature", "properties": {"collection_times": [{"days": "Mon-Fri", "time": "4:25pm"}, {"days": "Sat", "time": "12:25pm"}, {"days": "Sun", "time": "Closed"}], "id": "6902000001", "name": "USPS COLLECTION BOX - BLUE BOX", "address": {"city": "BARTLEY", "state": "NE", "street": "401 COMMERCIAL ST", "postcode": "69020"}}},
{"geometry": {"type": "Point", "coordinates": [-100.3059240282, 40.2520343913]}, "type": "Feature", "properties": {"collection_times": [{"days": "Mon-Fri", "time": "11:45am"}, {"days": "Sat", "time": "9:15am"}, {"days": "Sun", "time": "Closed"}], "id": "6902000002", "name": "USPS COLLECTION BOX - PO LOBBY", "address": {"city": "BARTLEY", "state": "NE", "street": "401 COMMERCIAL ST", "postcode": "69020"}}},
{"geometry": {"type": "Point", "coordinates": [-101.5329642733, 40.0481939744]}, "type": "Feature", "properties": {"collection_times": [{"days": "Mon-Sat", "time": "2:50pm"}, {"days": "Sun", "time": "Closed"}], "id": "6902100001", "name": "USPS COLLECTION BOX - BLUE BOX", "address": {"city": "BENKELMAN", "state": "NE", "street": "505 CHIEF ST", "postcode": "69021"}}},
{"geometry": {"type": "Point", "coordinates": [-101.5329642733, 40.0481939744]}, "type": "Feature", "properties": {"collection_times": [{"days": "Mon-Fri", "time": "2:50pm"}, {"days": "Sat", "time": "9:45am"}, {"days": "Sun", "time": "Closed"}], "id": "6902100002", "name": "USPS COLLECTION BOX - PO LOBBY", "address": {"city": "BENKELMAN", "state": "NE", "street": "505 CHIEF ST", "postcode": "69021"}}},
{"geometry": {"type": "Point", "coordinates": [-100.1660685877, 40.2832214364]}, "type": "Feature", "properties": {"collection_times": [{"days": "Mon-Fri", "time": "4:00pm"}, {"days": "Sat", "time": "4:15pm"}, {"days": "Sun", "time": "Closed"}], "id": "6902200001", "name": "USPS COLLECTION BOX - BLUE BOX", "address": {"city": "CAMBRIDGE", "state": "NE", "street": "710 PATTERSON ST", "postcode": "69022"}}},
{"geometry": {"type": "Point", "coordinates": [-100.1660685877, 40.2832214364]}, "type": "Feature", "properties": {"collection_times": [{"days": "Mon-Fri", "time": "4:00pm"}, {"days": "Sat", "time": "10:15am"}, {"days": "Sun", "time": "Closed"}], "id": "6902200002", "name": "USPS COLLECTION BOX - PO LOBBY", "address": {"city": "CAMBRIDGE", "state": "NE", "street": "710 PATTERSON ST", "postcode": "69022"}}},
{"geometry": {"type": "Point", "coordinates": [-101.868210308, 40.428794816]}, "type": "Feature", "properties": {"collection_times": [{"days": "Mon-Sat", "time": "2:15pm"}, {"days": "Sun", "time": "Closed"}], "id": "6902300001", "name": "USPS COLLECTION BOX - BLUE BOX", "address": {"city": "CHAMPION", "state": "NE", "street": "380 MAIN ST", "postcode": "69023"}}},
{"geometry": {"type": "Point", "coordinates": [-101.868210308, 40.428794816]}, "type": "Feature", "properties": {"collection_times": [{"days": "Mon-Fri", "time": "11:45am"}, {"days": "Sat", "time": "9:15am"}, {"days": "Sun", "time": "Closed"}], "id": "6902300003", "name": "USPS COLLECTION BOX - PO LOBBY", "address": {"city": "CHAMPION", "state": "NE", "street": "380 MAIN ST", "postcode": "69023"}}},
{"geometry": {"type": "Point", "coordinates": [-100.8395879183, 40.229580802]}, "type": "Feature", "properties": {"collection_times": [{"days": "Mon-Sat", "time": "4:50pm"}, {"days": "Sun", "time": "Closed"}], "id": "6902400001", "name": "USPS COLLECTION BOX - BLUE BOX", "address": {"city": "CULBERTSON", "state": "NE", "street": "407 WYOMING ST", "postcode": "69024"}}},
{"geometry": {"type": "Point", "coordinates": [-100.8395879183, 40.229580802]}, "type": "Feature", "properties": {"collection_times": [{"days": "Mon-Fri", "time": "2:15pm"}, {"days": "Sat", "time": "9:15am"}, {"days": "Sun", "time": "Closed"}], "id": "6902400002", "name": "USPS COLLECTION BOX - PO LOBBY", "address": {"city": "CULBERTSON", "state": "NE", "street": "407 WYOMING ST", "postcode": "69024"}}},
{"geometry": {"type": "Point", "coordinates": [-100.5154104119, 40.6310571624]}, "type": "Feature", "properties": {"collection_times": [{"days": "Mon-Fri", "time": "4:00pm"}, {"days": "Sat", "time": "4:15pm"}, {"days": "Sun", "time": "Closed"}], "id": "6902500001", "name": "USPS COLLECTION BOX - BLUE BOX", "address": {"city": "CURTIS", "state": "NE", "street": "302 CENTER AVE", "postcode": "69025"}}},
{"geometry": {"type": "Point", "coordinates": [-100.5154104119, 40.6310571624]}, "type": "Feature", "properties": {"collection_times": [{"days": "Mon-Fri", "time": "4:00pm"}, {"days": "Sat", "time": "10:00am"}, {"days": "Sun", "time": "Closed"}], "id": "6902500002", "name": "USPS COLLECTION BOX - PO LOBBY", "address": {"city": "CURTIS", "state": "NE", "street": "302 CENTER AVE", "postcode": "69025"}}},
{"geometry": {"type": "Point", "coordinates": [-100.4204417466, 40.0454471287]}, "type": "Feature", "properties": {"collection_times": [{"days": "Mon-Sat", "time": "3:20pm"}, {"days": "Sun", "time": "Closed"}], "id": "6902600001", "name": "USPS COLLECTION BOX - BLUE BOX", "address": {"city": "DANBURY", "state": "NE", "street": "205 GRANDVILLE AVE", "postcode": "69026"}}},
{"geometry": {"type": "Point", "coordinates": [-100.4204417466, 40.0454471287]}, "type": "Feature", "properties": {"collection_times": [{"days": "Mon-Fri", "time": "10:15am"}, {"days": "Sat", "time": "9:45am"}, {"days": "Sun", "time": "Closed"}], "id": "6902600002", "name": "USPS COLLECTION BOX - PO LOBBY", "address": {"city": "DANBURY", "state": "NE", "street": "205 GRANDVILLE AVE", "postcode": "69026"}}},
{"geometry": {"type": "Point", "coordinates": [-101.5428036542, 40.4226371338]}, "type": "Feature", "properties": {"collection_times": [{"days": "Mon-Sat", "time": "2:45pm"}, {"days": "Sun", "time": "Closed"}], "id": "6902700001", "name": "USPS COLLECTION BOX - BLUE BOX", "address": {"city": "ENDERS", "state": "NE", "street": "580 PIONEER ST", "postcode": "69027"}}},
{"geometry": {"type": "Point", "coordinates": [-101.5428036542, 40.4226371338]}, "type": "Feature", "properties": {"collection_times": [{"days": "Mon-Fri", "time": "11:15am"}, {"days": "Sat", "time": "11:45am"}, {"days": "Sun", "time": "Closed"}], "id": "6902700002", "name": "USPS COLLECTION BOX - PO LOBBY", "address": {"city": "ENDERS", "state": "NE", "street": "580 PIONEER ST", "postcode": "69027"}}},
{"geometry": {"type": "Point", "coordinates": [-100.0290966454, 40.6625633296]}, "type": "Feature", "properties": {"collection_times": [{"days": "Mon-Sat", "time": "3:30pm"}, {"days": "Sun", "time": "Closed"}], "id": "6902800001", "name": "USPS COLLECTION BOX - BLUE BOX", "address": {"city": "EUSTIS", "state": "NE", "street": "106 N MAIN ST", "postcode": "69028"}}},
{"geometry": {"type": "Point", "coordinates": [-100.0290966454, 40.6625633296]}, "type": "Feature", "properties": {"collection_times": [{"days": "Mon-Fri", "time": "3:15pm"}, {"days": "Sat", "time": "10:15am"}, {"days": "Sun", "time": "Closed"}], "id": "6902800002", "name": "USPS COLLECTION BOX - PO LOBBY", "address": {"city": "EUSTIS", "state": "NE", "street": "106 N MAIN ST", "postcode": "69028"}}},
{"geometry": {"type": "Point", "coordinates": [-100.2146383694, 40.7049428061]}, "type": "Feature", "properties": {"collection_times": [{"days": "Mon-Sat", "time": "3:45pm"}, {"days": "Sun", "time": "Closed"}], "id": "6902900001", "name": "USPS COLLECTION BOX - BLUE BOX", "address": {"city": "FARNAM", "state": "NE", "street": "221 MAIN ST", "postcode": "69029"}}},
{"geometry": {"type": "Point", "coordinates": [-100.2146383694, 40.7049428061]}, "type": "Feature", "properties": {"collection_times": [{"days": "Mon-Fri", "time": "12:15pm"}, {"days": "Sat", "time": "9:15am"}, {"days": "Sun", "time": "Closed"}], "id": "6902900002", "name": "USPS COLLECTION BOX - PO LOBBY", "address": {"city": "FARNAM", "state": "NE", "street": "221 MAIN ST", "postcode": "69029"}}},
{"geometry": {"type": "Point", "coordinates": [-101.9473196175, 40.1596015213]}, "type": "Feature", "properties": {"collection_times": [{"days": "Mon-Sat", "time": "2:00pm"}, {"days": "Sun", "time": "Closed"}], "id": "6903000001", "name": "USPS COLLECTION BOX - BLUE BOX", "address": {"city": "HAIGLER", "state": "NE", "street": "100 W PORTER AVE", "postcode": "69030"}}},
{"geometry": {"type": "Point", "coordinates": [-101.9473196175, 40.1596015213]}, "type": "Feature", "properties": {"collection_times": [{"days": "Mon-Fri", "time": "11:45am"}, {"days": "Sat", "time": "9:15am"}, {"days": "Sun", "time": "Closed"}], "id": "6903000002", "name": "USPS COLLECTION BOX - PO LOBBY", "address": {"city": "HAIGLER", "state": "NE", "street": "100 W PORTER AVE", "postcode": "69030"}}},
{"geometry": {"type": "Point", "coordinates": [-101.0196329999, 40.5108294712]}, "type": "Feature", "properties": {"collection_times": [{"days": "Mon-Sat", "time": "4:10pm"}, {"days": "Sun", "time": "Closed"}], "id": "6903200001", "name": "USPS COLLECTION BOX - BLUE BOX", "address": {"city": "HAYES CENTER", "state": "NE", "street": "600 TATE AVE", "postcode": "69032"}}},
{"geometry": {"type": "Point", "coordinates": [-101.0196329999, 40.5108294712]}, "type": "Feature", "properties": {"collection_times": [{"days": "Mon-Fri", "time": "2:45pm"}, {"days": "Sat", "time": "9:15am"}, {"days": "Sun", "time": "Closed"}], "id": "6903200002", "name": "USPS COLLECTION BOX - PO LOBBY", "address": {"city": "HAYES CENTER", "state": "NE", "street": "600 TATE AVE", "postcode": "69032"}}},
{"geometry": {"type": "Point", "coordinates": [-101.6416945415, 40.5161926043]}, "type": "Feature", "properties": {"collection_times": [{"days": "Mon-Sat", "time": "2:30pm"}, {"days": "Sun", "time": "Closed"}], "id": "6903300001", "name": "USPS COLLECTION BOX - BLUE BOX", "address": {"city": "IMPERIAL", "state": "NE", "street": "523 WELLINGTON ST", "postcode": "69033"}}},
{"geometry": {"type": "Point", "coordinates": [-101.6416945415, 40.5161926043]}, "type": "Feature", "properties": {"collection_times": [{"days": "Mon-Fri", "time": "2:30pm"}, {"days": "Sat", "time": "10:45am"}, {"days": "Sun", "time": "Closed"}], "id": "6903300002", "name": "USPS COLLECTION BOX - PO LOBBY", "address": {"city": "IMPERIAL", "state": "NE", "street": "523 WELLINGTON ST", "postcode": "69033"}}},
{"geometry": {"type": "Point", "coordinates": [-100.4172950345, 40.2353447854]}, "type": "Feature", "properties": {"collection_times": [{"days": "Mon-Sat", "time": "4:40pm"}, {"days": "Sun", "time": "Closed"}], "id": "6903400001", "name": "USPS COLLECTION BOX - BLUE BOX", "address": {"city": "INDIANOLA", "state": "NE", "street": "202 N 4TH ST", "postcode": "69034"}}},
{"geometry": {"type": "Point", "coordinates": [-100.4172950345, 40.2353447854]}, "type": "Feature", "properties": {"collection_times": [{"days": "Mon-Fri", "time": "2:15pm"}, {"days": "Sat", "time": "9:45am"}, {"days": "Sun", "time": "Closed"}], "id": "6903400002", "name": "USPS COLLECTION BOX - PO LOBBY", "address": {"city": "INDIANOLA", "state": "NE", "street": "202 N 4TH ST", "postcode": "69034"}}},
{"geometry": {"type": "Point", "coordinates": [-101.3807119753, 40.1112010591]}, "type": "Feature", "properties": {"collection_times": [{"days": "Mon-Sat", "time": "3:05pm"}, {"days": "Sun", "time": "Closed"}], "id": "6903700001", "name": "USPS COLLECTION BOX - BLUE BOX", "address": {"city": "MAX", "state": "NE", "street": "240 MAIN ST", "postcode": "69037"}}},
{"geometry": {"type": "Point", "coordinates": [-101.3807119753, 40.1112010591]}, "type": "Feature", "properties": {"collection_times": [{"days": "Mon-Fri", "time": "10:45am"}, {"days": "Sat", "time": "9:30am"}, {"days": "Sun", "time": "Closed"}], "id": "6903700002", "name": "USPS COLLECTION BOX - PO LOBBY", "address": {"city": "MAX", "state": "NE", "street": "240 MAIN ST", "postcode": "69037"}}},
{"geometry": {"type": "Point", "coordinates": [-100.622014333, 40.6605679417]}, "type": "Feature", "properties": {"collection_times": [{"days": "Mon-Fri", "time": "4:00pm"}, {"days": "Sat", "time": "4:30pm"}, {"days": "Sun", "time": "Closed"}], "id": "6903800001", "name": "USPS COLLECTION BOX - BLUE BOX", "address": {"city": "MAYWOOD", "state": "NE", "street": "113 S COMMERCIAL ST", "postcode": "69038"}}},
{"geometry": {"type": "Point", "coordinates": [-100.622014333, 40.6605679417]}, "type": "Feature", "properties": {"collection_times": [{"days": "Mon-Fri", "time": "11:45am"}, {"days": "Sat", "time": "8:30am"}, {"days": "Sun", "time": "Closed"}], "id": "6903800002", "name": "USPS COLLECTION BOX - PO LOBBY", "address": {"city": "MAYWOOD", "state": "NE", "street": "113 S COMMERCIAL ST", "postcode": "69038"}}},
{"geometry": {"type": "Point", "coordinates": [-100.2666261403, 40.5248199919]}, "type": "Feature", "properties": {"collection_times": [{"days": "Mon-Sat", "time": "4:00pm"}, {"days": "Sun", "time": "Closed"}], "id": "6903900001", "name": "USPS COLLECTION BOX - BLUE BOX", "address": {"city": "MOOREFIELD", "state": "NE", "street": "100 ASH ST", "postcode": "69039"}}},
{"geometry": {"type": "Point", "coordinates": [-100.2666261403, 40.5248199919]}, "type": "Feature", "properties": {"collection_times": [{"days": "Mon-Sat", "time": "10:45am"}, {"days": "Sun", "time": "Closed"}], "id": "6903900002", "name": "USPS COLLECTION BOX - PO LOBBY", "address": {"city": "MOOREFIELD", "state": "NE", "street": "100 ASH ST", "postcode": "69039"}}},
{"geometry": {"type": "Point", "coordinates": [-101.1078080195, 40.3489694315]}, "type": "Feature", "properties": {"collection_times": [{"days": "Mon-Sat", "time": "4:35pm"}, {"days": "Sun", "time": "Closed"}], "id": "6904000001", "name": "USPS COLLECTION BOX - BLUE BOX", "address": {"city": "PALISADE", "state": "NE", "street": "105 N MAIN ST", "postcode": "69040"}}},
{"geometry": {"type": "Point", "coordinates": [-101.1078080195, 40.3489694315]}, "type": "Feature", "properties": {"collection_times": [{"days": "Mon-Fri", "time": "11:45am"}, {"days": "Sat", "time": "9:00am"}, {"days": "Sun", "time": "Closed"}], "id": "6904000002", "name": "USPS COLLECTION BOX - PO LOBBY", "address": {"city": "PALISADE", "state": "NE", "street": "105 N MAIN ST", "postcode": "69040"}}},
{"geometry": {"type": "Point", "coordinates": [-101.2029264471, 40.2775007723]}, "type": "Feature", "properties": {"collection_times": [{"days": "Mon-Sat", "time": "11:00am"}, {"days": "Sun", "time": "Closed"}], "id": "6904000003", "name": "USPS COLLECTION BOX - BLUE BOX", "address": {"city": "PALISADE", "state": "NE", "street": "100 MAIN ST", "postcode": "69040"}}},
{"geometry": {"type": "Point", "coordinates": [-100.3827184837, 40.482602786]}, "type": "Feature", "properties": {"collection_times": [{"days": "Mon-Fri", "time": "1:00pm"}, {"days": "Sat", "time": "11:00am"}, {"days": "Sun", "time": "Closed"}], "id": "6904200001", "name": "USPS COLLECTION BOX - BLUE BOX", "address": {"city": "STOCKVILLE", "state": "NE", "street": "203 WELLINGTON ST", "postcode": "69042"}}},
{"geometry": {"type": "Point", "coordinates": [-100.3827184837, 40.482602786]}, "type": "Feature", "properties": {"collection_times": [{"days": "Mon-Fri", "time": "12:15pm"}, {"days": "Sat", "time": "11:00am"}, {"days": "Sun", "time": "Closed"}], "id": "6904200002", "name": "USPS COLLECTION BOX - PO LOBBY", "address": {"city": "STOCKVILLE", "state": "NE", "street": "203 WELLINGTON ST", "postcode": "69042"}}},
{"geometry": {"type": "Point", "coordinates": [-101.2268962037, 40.1472963445]}, "type": "Feature", "properties": {"collection_times": [{"days": "Mon-Sat", "time": "4:20pm"}, {"days": "Sun", "time": "Closed"}], "id": "6904300001", "name": "USPS COLLECTION BOX - BLUE BOX", "address": {"city": "STRATTON", "state": "NE", "street": "310 BAILEY ST", "postcode": "69043"}}},
{"geometry": {"type": "Point", "coordinates": [-101.2268962037, 40.1472963445]}, "type": "Feature", "properties": {"collection_times": [{"days": "Mon-Fri", "time": "12:45pm"}, {"days": "Sat", "time": "9:30am"}, {"days": "Sun", "time": "Closed"}], "id": "6904300002", "name": "USPS COLLECTION BOX - PO LOBBY", "address": {"city": "STRATTON", "state": "NE", "street": "310 BAILEY ST", "postcode": "69043"}}},
{"geometry": {"type": "Point", "coordinates": [-101.013029852, 40.1757712245]}, "type": "Feature", "properties": {"collection_times": [{"days": "Mon-Fri", "time": "3:45pm"}, {"days": "Sat", "time": "4:35pm"}, {"days": "Sun", "time": "Closed"}], "id": "6904400001", "name": "USPS COLLECTION BOX - BLUE BOX", "address": {"city": "TRENTON", "state": "NE", "street": "402 MAIN ST", "postcode": "69044"}}},
{"geometry": {"type": "Point", "coordinates": [-101.013029852, 40.1757712245]}, "type": "Feature", "properties": {"collection_times": [{"days": "Mon-Fri", "time": "3:45pm"}, {"days": "Sat", "time": "9:45am"}, {"days": "Sun", "time": "Closed"}], "id": "6904400002", "name": "USPS COLLECTION BOX - PO LOBBY", "address": {"city": "TRENTON", "state": "NE", "street": "402 MAIN ST", "postcode": "69044"}}},
{"geometry": {"type": "Point", "coordinates": [-101.3712421505, 40.4151988438]}, "type": "Feature", "properties": {"collection_times": [{"days": "Mon-Sat", "time": "3:00pm"}, {"days": "Sun", "time": "Closed"}], "id": "6904500001", "name": "USPS COLLECTION BOX - BLUE BOX", "address": {"city": "WAUNETA", "state": "NE", "street": "215 N TECUMSEH", "postcode": "69045"}}},
{"geometry": {"type": "Point", "coordinates": [-101.3712421505, 40.4151988438]}, "type": "Feature", "properties": {"collection_times": [{"days": "Mon-Fri", "time": "3:00pm"}, {"days": "Sat", "time": "9:45am"}, {"days": "Sun", "time": "Closed"}], "id": "6904500002", "name": "USPS COLLECTION BOX - PO LOBBY", "address": {"city": "WAUNETA", "state": "NE", "street": "215 N TECUMSEH", "postcode": "69045"}}},
{"geometry": {"type": "Point", "coordinates": [-100.1070611471, 40.1142220423]}, "type": "Feature", "properties": {"collection_times": [{"days": "Mon-Sat", "time": "3:55pm"}, {"days": "Sun", "time": "Closed"}], "id": "6904600001", "name": "USPS COLLECTION BOX - BLUE BOX", "address": {"city": "WILSONVILLE", "state": "NE", "street": "706 MAIN ST", "postcode": "69046"}}},
{"geometry": {"type": "Point", "coordinates": [-100.1070611471, 40.1142220423]}, "type": "Feature", "properties": {"collection_times": [{"days": "Mon-Fri", "time": "11:40am"}, {"days": "Sat", "time": "9:00am"}, {"days": "Sun", "time": "Closed"}], "id": "6904600002", "name": "USPS COLLECTION BOX - PO LOBBY", "address": {"city": "WILSONVILLE", "state": "NE", "street": "706 MAIN ST", "postcode": "69046"}}}
]}
