{"type": "FeatureCollection", "features": [
{"geometry": {"type": "Point", "coordinates": [-100.7627801672, 41.1216173433]}, "type": "Feature", "properties": {"collection_times": [{"days": "Mon-Fri", "time": "4:45pm"}, {"days": "Sat", "time": "10:45am"}, {"days": "Sun", "time": "Closed"}], "id": "6910100001", "name": "USPS COLLECTION BOX - BLUE BOX", "address": {"city": "NORTH PLATTE", "state": "NE", "street": "1401 S DEWEY ST", "postcode": "69101"}}},
{"geometry": {"type": "Point", "coordinates": [-100.7846860295, 41.1335647025]}, "type": "Feature", "properties": {"collection_times": [{"days": "Mon-Fri", "time": "4:20pm"}, {"days": "Sat", "time": "10:45am"}, {"days": "Sun", "time": "Closed"}], "id": "6910100007", "name": "USPS COLLECTION BOX - BLUE BOX", "address": {"city": "NORTH PLATTE", "state": "NE", "street": "1801 W A ST", "postcode": "69101"}}},
{"geometry": {"type": "Point", "coordinates": [-100.7615453327, 41.1382570051]}, "type": "Feature", "properties": {"collection_times": [{"days": "Mon-Fri", "time": "5:00pm"}, {"days": "Sat", "time": "10:45am"}, {"days": "Sun", "time": "Closed"}], "id": "6910100009", "name": "USPS COLLECTION BOX - BLUE BOX", "address": {"city": "NORTH PLATTE", "state": "NE", "street": "200 E 6TH ST", "postcode": "69101"}}},
{"geometry": {"type": "Point", "coordinates": [-100.7620429821, 41.1365953852]}, "type": "Feature", "properties": {"collection_times": [{"days": "Mon-Fri", "time": "5:00pm"}, {"days": "Sat", "time": "10:45am"}, {"days": "Sun", "time": "Closed"}], "id": "6910100012", "name": "USPS COLLECTION BOX - BLUE BOX", "address": {"city": "NORTH PLATTE", "state": "NE", "street": "420 N DEWEY ST", "postcode": "69101"}}},
{"geometry": {"type": "Point", "coordinates": [-100.76483194, 41.1467260309]}, "type": "Feature", "properties": {"collection_times": [{"days": "Mon-Fri", "time": "5:00pm"}, {"days": "Sat", "time": "10:45am"}, {"days": "Sun", "time": "Closed"}], "id": "6910100013", "name": "USPS COLLECTION BOX - BLUE BOX", "address": {"city": "NORTH PLATTE", "state": "NE", "street": "410 RODEO RD", "postcode": "69101"}}},
{"geometry": {"type": "Point", "coordinates": [-100.7670360176, 41.1082752916]}, "type": "Feature", "properties": {"collection_times": [{"days": "Mon-Fri", "time": "4:40pm"}, {"days": "Sat", "time": "10:45am"}, {"days": "Sun", "time": "Closed"}], "id": "6910100014", "name": "USPS COLLECTION BOX - BLUE BOX", "address": {"city": "NORTH PLATTE", "state": "NE", "street": "301 W EUGENE AVE", "postcode": "69101"}}},
{"geometry": {"type": "Point", "coordinates": [-100.7628935149, 41.124307757]}, "type": "Feature", "properties": {"collection_times": [{"days": "Mon-Fri", "time": "5:00pm"}, {"days": "Sat", "time": "10:45am"}, {"days": "Sun", "time": "Closed"}], "id": "6910100016", "name": "USPS COLLECTION BOX - BLUE BOX", "address": {"city": "NORTH PLATTE", "state": "NE", "street": "1100 S DEWEY ST", "postcode": "69101"}}},
{"geometry": {"type": "Point", "coordinates": [-100.7665267161, 41.1289487013]}, "type": "Feature", "properties": {"collection_times": [{"days": "Mon-Fri", "time": "5:00pm"}, {"days": "Sat", "time": "10:45am"}, {"days": "Sun", "time": "Closed"}], "id": "6910100017", "name": "USPS COLLECTION BOX - BLUE BOX", "address": {"city": "NORTH PLATTE", "state": "NE", "street": "301 W F ST", "postcode": "69101"}}},
{"geometry": {"type": "Point", "coordinates": [-100.765305168, 41.1207903218]}, "type": "Feature", "properties": {"collection_times": [{"days": "Mon-Fri", "time": "5:00pm"}, {"days": "Sat", "time": "10:45am"}, {"days": "Sun", "time": "Closed"}], "id": "6910100020", "name": "USPS COLLECTION BOX - BLUE BOX", "address": {"city": "NORTH PLATTE", "state": "NE", "street": "211 W LEOTA ST", "postcode": "69101"}}},
{"geometry": {"type": "Point", "coordinates": [-100.7647494039, 41.1357884235]}, "type": "Feature", "properties": {"collection_times": [{"days": "Mon-Fri", "time": "4:10pm"}, {"days": "Sat", "time": "10:45am"}, {"days": "Sun", "time": "Closed"}], "id": "6910100021", "name": "USPS COLLECTION BOX - BLUE BOX", "address": {"city": "NORTH PLATTE", "state": "NE", "street": "201 W 3RD ST", "postcode": "69101"}}},
{"geometry": {"type": "Point", "coordinates": [-100.7610071045, 41.1351536498]}, "type": "Feature", "properties": {"collection_times": [{"days": "Mon-Fri", "time": "5:00pm"}, {"days": "Sat", "time": "10:45am"}, {"days": "Sun", "time": "Closed"}], "id": "6910100023", "name": "USPS COLLECTION BOX - BLUE BOX", "address": {"city": "NORTH PLATTE", "state": "NE", "street": "300 E 3RD ST", "postcode": "69101"}}},
{"geometry": {"type": "Point", "coordinates": [-100.7610071045, 41.1351536498]}, "type": "Feature", "properties": {"collection_times": [{"days": "Mon-Fri", "time": "5:00pm"}, {"days": "Sat", "time": "10:45am"}, {"days": "Sun", "time": "Closed"}], "id": "6910100024", "name": "USPS COLLECTION BOX - BLUE BOX", "address": {"city": "NORTH PLATTE", "state": "NE", "street": "300 E 3RD ST", "postcode": "69101"}}},
{"geometry": {"type": "Point", "coordinates": [-100.7610071045, 41.1351536498]}, "type": "Feature", "properties": {"collection_times": [{"days": "Mon-Fri", "time": "5:00pm"}, {"days": "Sat", "time": "10:45am"}, {"days": "Sun", "time": "Closed"}], "id": "6910100025", "name": "USPS COLLECTION BOX - BLUE BOX", "address": {"city": "NORTH PLATTE", "state": "NE", "street": "300 E 3RD ST", "postcode": "69101"}}},
{"geometry": {"type": "Point", "coordinates": [-100.7744958697, 41.1297605662]}, "type": "Feature", "properties": {"collection_times": [{"days": "Mon-Fri", "time": "5:00pm"}, {"days": "Sat", "time": "10:45am"}, {"days": "Sun", "time": "Closed"}], "id": "6910100026", "name": "USPS COLLECTION BOX - EXPRESS", "address": {"city": "NORTH PLATTE", "state": "NE", "street": "300 E 3RD ST", "postcode": "69101"}}},
{"geometry": {"type": "Point", "coordinates": [-100.7610071045, 41.1351536498]}, "type": "Feature", "properties": {"collection_times": [{"days": "Mon-Fri", "time": "5:00pm"}, {"days": "Sat", "time": "10:45am"}, {"days": "Sun", "time": "Closed"}], "id": "6910100028", "name": "USPS COLLECTION BOX - BLUE BOX", "address": {"city": "NORTH PLATTE", "state": "NE", "street": "300 E 3RD ST", "postcode": "69101"}}},
{"geometry": {"type": "Point", "coordinates": [-100.7390063978, 41.1220684577]}, "type": "Feature", "properties": {"collection_times": [{"days": "Mon-Sat", "time": "8:00pm"}, {"days": "Sun", "time": "Closed"}], "id": "6910100029", "name": "USPS COLLECTION BOX - BLUE BOX", "address": {"city": "NORTH PLATTE", "state": "NE", "street": "1302 INDUSTRIAL AVE", "postcode": "69101"}}},
{"geometry": {"type": "Point", "coordinates": [-100.7390063978, 41.1220684577]}, "type": "Feature", "properties": {"collection_times": [{"days": "Mon-Sat", "time": "8:00pm"}, {"days": "Sun", "time": "Closed"}], "id": "6910100030", "name": "USPS COLLECTION BOX - BLUE BOX", "address": {"city": "NORTH PLATTE", "state": "NE", "street": "1302 INDUSTRIAL AVE", "postcode": "69101"}}},
{"geometry": {"type": "Point", "coordinates": [-100.7579103256, 41.1226030387]}, "type": "Feature", "properties": {"collection_times": [{"days": "Mon-Fri", "time": "5:00pm"}, {"days": "Sat", "time": "10:45am"}, {"days": "Sun", "time": "Closed"}], "id": "6910100032", "name": "USPS COLLECTION BOX - BLUE BOX", "address": {"city": "NORTH PLATTE", "state": "NE", "street": "601 E FRANCIS ST", "postcode": "69101"}}},
{"geometry": {"type": "Point", "coordinates": [-100.7389931273, 41.1219339465]}, "type": "Feature", "properties": {"collection_times": [{"days": "Mon-Fri", "time": "4:45pm"}, {"days": "Sat", "time": "11:45am"}, {"days": "Sun", "time": "Closed"}], "id": "6910100038", "name": "USPS COLLECTION BOX - PO LOBBY", "address": {"city": "NORTH PLATTE", "state": "NE", "street": "1302 INDUSTRIAL AVE", "postcode": "69101"}}},
{"geometry": {"type": "Point", "coordinates": [-100.7744958697, 41.1297605662]}, "type": "Feature", "properties": {"collection_times": [{"days": "Mon-Sat", "time": "10:45am"}, {"days": "Sun", "time": "Closed"}], "id": "6910100039", "name": "USPS COLLECTION BOX - BLUE BOX", "address": {"city": "NORTH PLATTE", "state": "NE", "street": "3400 NEWBERRY RD", "postcode": "69101"}}},
{"geometry": {"type": "Point", "coordinates": [-100.7613228229, 41.1445313592]}, "type": "Feature", "properties": {"collection_times": [{"days": "Mon-Fri", "time": "11:00am"}, {"days": "Sat", "time": "10:45am"}, {"days": "Sun", "time": "Closed"}], "id": "6910100040", "name": "USPS COLLECTION BOX - BLUE BOX", "address": {"city": "NORTH PLATTE", "state": "NE", "street": "1021 N JEFFERS ST", "postcode": "69101"}}},
{"geometry": {"type": "Point", "coordinates": [-100.7611080599, 41.138274727]}, "type": "Feature", "properties": {"collection_times": [{"days": "Mon-Fri", "time": "5:00pm"}, {"days": "Sat", "time": "10:45am"}, {"days": "Sun", "time": "Closed"}], "id": "6910100043", "name": "USPS COLLECTION BOX - PO LOBBY", "address": {"city": "NORTH PLATTE", "state": "NE", "street": "235 E 6TH ST", "postcode": "69101"}}},
{"geometry": {"type": "Point", "coordinates": [-100.1948814116, 41.4216095365]}, "type": "Feature", "properties": {"collection_times": [{"days": "Mon-Sat", "time": "3:45pm"}, {"days": "Sun", "time": "Closed"}], "id": "6912000001", "name": "USPS COLLECTION BOX - BLUE BOX", "address": {"city": "ARNOLD", "state": "NE", "street": "214 S WALNUT", "postcode": "69120"}}},
{"geometry": {"type": "Point", "coordinates": [-100.1948814116, 41.4216095365]}, "type": "Feature", "properties": {"collection_times": [{"days": "Mon-Fri", "time": "2:45pm"}, {"days": "Sat", "time": "9:15am"}, {"days": "Sun", "time": "Closed"}], "id": "6912000002", "name": "USPS COLLECTION BOX - PO LOBBY", "address": {"city": "ARNOLD", "state": "NE", "street": "214 S WALNUT", "postcode": "69120"}}},
{"geometry": {"type": "Point", "coordinates": [-101.6974035338, 41.5644396428]}, "type": "Feature", "properties": {"collection_times": [{"days": "Mon-Fri", "time": "10:05am"}, {"days": "Sat", "time": "9:45am"}, {"days": "Sun", "time": "Closed"}], "id": "6912100001", "name": "USPS COLLECTION BOX - BLUE BOX", "address": {"city": "ARTHUR", "state": "NE", "street": "309 FIR ST", "postcode": "69121"}}},
{"geometry": {"type": "Point", "coordinates": [-101.6974035338, 41.5644396428]}, "type": "Feature", "properties": {"collection_times": [{"days": "Mon-Fri", "time": "10:05am"}, {"days": "Sat", "time": "9:45am"}, {"days": "Sun", "time": "Closed"}], "id": "6912100002", "name": "USPS COLLECTION BOX - PO LOBBY", "address": {"city": "ARTHUR", "state": "NE", "street": "309 FIR ST", "postcode": "69121"}}},
{"geometry": {"type": "Point", "coordinates": [-102.0745332196, 41.0623678178]}, "type": "Feature", "properties": {"collection_times": [{"days": "Mon-Sat", "time": "4:50pm"}, {"days": "Sun", "time": "Closed"}], "id": "6912200001", "name": "USPS COLLECTION BOX - BLUE BOX", "address": {"city": "BIG SPRINGS", "state": "NE", "street": "307 PINE ST", "postcode": "69122"}}},
{"geometry": {"type": "Point", "coordinates": [-102.0745332196, 41.0623678178]}, "type": "Feature", "properties": {"collection_times": [{"days": "Mon-Fri", "time": "2:15pm"}, {"days": "Sat", "time": "8:45am"}, {"days": "Sun", "time": "Closed"}], "id": "6912200002", "name": "USPS COLLECTION BOX - PO LOBBY", "address": {"city": "BIG SPRINGS", "state": "NE", "street": "307 PINE ST", "postcode": "69122"}}},
{"geometry": {"type": "Point", "coordinates": [-100.3657259065, 41.0220418299]}, "type": "Feature", "properties": {"collection_times": [{"days": "Mon-Sat", "time": "6:10pm"}, {"days": "Sun", "time": "Closed"}], "id": "6912300001", "name": "USPS COLLECTION BOX - BLUE BOX", "address": {"city": "BRADY", "state": "NE", "street": "103 E COMMERCIAL ST", "postcode": "69123"}}},
{"geometry": {"type": "Point", "coordinates": [-100.3657259065, 41.0220418299]}, "type": "Feature", "properties": {"collection_times": [{"days": "Mon-Fri", "time": "11:45am"}, {"days": "Sat", "time": "9:15am"}, {"days": "Sun", "time": "Closed"}], "id": "6912300002", "name": "USPS COLLECTION BOX - PO LOBBY", "address": {"city": "BRADY", "state": "NE", "street": "103 E COMMERCIAL ST", "postcode": "69123"}}},
{"geometry": {"type": "Point", "coordinates": [-102.8537853266, 41.5961157416]}, "type": "Feature", "properties": {"collection_times": [{"days": "Mon-Sat", "time": "3:00pm"}, {"days": "Sun", "time": "Closed"}], "id": "6912500001", "name": "USPS COLLECTION BOX - BLUE BOX", "address": {"city": "BROADWATER", "state": "NE", "street": "197 MAIN ST", "postcode": "69125"}}},
{"geometry": {"type": "Point", "coordinates": [-102.8537853266, 41.5961157416]}, "type": "Feature", "properties": {"collection_times": [{"days": "Mon-Fri", "time": "11:45am"}, {"days": "Sat", "time": "9:45am"}, {"days": "Sun", "time": "Closed"}], "id": "6912500002", "name": "USPS COLLECTION BOX - PO LOBBY", "address": {"city": "BROADWATER", "state": "NE", "street": "197 MAIN ST", "postcode": "69125"}}},
{"geometry": {"type": "Point", "coordinates": [-101.8881520105, 41.0923284187]}, "type": "Feature", "properties": {"collection_times": [{"days": "Mon-Sat", "time": "5:10pm"}, {"days": "Sun", "time": "Closed"}], "id": "6912700001", "name": "USPS COLLECTION BOX - BLUE BOX", "address": {"city": "BRULE", "state": "NE", "street": "118 STATE ST", "postcode": "69127"}}},
{"geometry": {"type": "Point", "coordinates": [-101.8881520105, 41.0923284187]}, "type": "Feature", "properties": {"collection_times": [{"days": "Mon-Fri", "time": "3:00pm"}, {"days": "Sat", "time": "9:45am"}, {"days": "Sun", "time": "Closed"}], "id": "6912700002", "name": "USPS COLLECTION BOX - PO LOBBY", "address": {"city": "BRULE", "state": "NE", "street": "118 STATE ST", "postcode": "69127"}}},
{"geometry": {"type": "Point", "coordinates": [-103.8915151486, 41.23135971]}, "type": "Feature", "properties": {"collection_times": [{"days": "Mon-Fri", "time": "2:50pm"}, {"days": "Sat", "time": "10:00am"}, {"days": "Sun", "time": "Closed"}], "id": "6912800001", "name": "USPS COLLECTION BOX - BLUE BOX", "address": {"city": "BUSHNELL", "state": "NE", "street": "116 ELM ST", "postcode": "69128"}}},
{"geometry": {"type": "Point", "coordinates": [-103.8915151486, 41.23135971]}, "type": "Feature", "properties": {"collection_times": [{"days": "Mon-Fri", "time": "12:45pm"}, {"days": "Sat", "time": "10:00am"}, {"days": "Sun", "time": "Closed"}], "id": "6912800002", "name": "USPS COLLECTION BOX - PO LOBBY", "address": {"city": "BUSHNELL", "state": "NE", "street": "116 ELM ST", "postcode": "69128"}}},
{"geometry": {"type": "Point", "coordinates": [-102.4722475581, 41.0925018164]}, "type": "Feature", "properties": {"collection_times": [{"days": "Mon-Fri", "time": "4:00pm"}, {"days": "Sat", "time": "4:30pm"}, {"days": "Sun", "time": "Closed"}], "id": "6912900001", "name": "USPS COLLECTION BOX - BLUE BOX", "address": {"city": "CHAPPELL", "state": "NE", "street": "190 VINCENT AVE", "postcode": "69129"}}},
{"geometry": {"type": "Point", "coordinates": [-102.4722475581, 41.0925018164]}, "type": "Feature", "properties": {"collection_times": [{"days": "Mon-Fri", "time": "4:00pm"}, {"days": "Sat", "time": "9:45am"}, {"days": "Sun", "time": "Closed"}], "id": "6912900002", "name": "USPS COLLECTION BOX - PO LOBBY", "address": {"city": "CHAPPELL", "state": "NE", "street": "190 VINCENT AVE", "postcode": "69129"}}},
{"geometry": {"type": "Point", "coordinates": [-99.9858574392, 40.8606397973]}, "type": "Feature", "properties": {"collection_times": [{"days": "Mon-Sat", "time": "5:25pm"}, {"days": "Sun", "time": "Closed"}], "id": "6913000002", "name": "USPS COLLECTION BOX - BLUE BOX", "address": {"city": "COZAD", "state": "NE", "street": "102 E 9TH ST", "postcode": "69130"}}},
{"geometry": {"type": "Point", "coordinates": [-99.9858574392, 40.8606397973]}, "type": "Feature", "properties": {"collection_times": [{"days": "Mon-Fri", "time": "4:15pm"}, {"days": "Sat", "time": "10:45am"}, {"days": "Sun", "time": "Closed"}], "id": "6913000003", "name": "USPS COLLECTION BOX - PO LOBBY", "address": {"city": "COZAD", "state": "NE", "street": "102 E 9TH ST", "postcode": "69130"}}},
{"geometry": {"type": "Point", "coordinates": [-102.9740186729, 41.4072459846]}, "type": "Feature", "properties": {"collection_times": [{"days": "Mon-Sat", "time": "4:15pm"}, {"days": "Sun", "time": "Closed"}], "id": "6913100001", "name": "USPS COLLECTION BOX - BLUE BOX", "address": {"city": "DALTON", "state": "NE", "street": "314 MAIN ST", "postcode": "69131"}}},
{"geometry": {"type": "Point", "coordinates": [-102.9740186729, 41.4072459846]}, "type": "Feature", "properties": {"collection_times": [{"days": "Mon-Fri", "time": "2:45pm"}, {"days": "Sat", "time": "10:00am"}, {"days": "Sun", "time": "Closed"}], "id": "6913100002", "name": "USPS COLLECTION BOX - PO LOBBY", "address": {"city": "DALTON", "state": "NE", "street": "314 MAIN ST", "postcode": "69131"}}},
{"geometry": {"type": "Point", "coordinates": [-100.9916101086, 40.8166336048]}, "type": "Feature", "properties": {"collection_times": [{"days": "Mon-Sat", "time": "5:45pm"}, {"days": "Sun", "time": "Closed"}], "id": "6913200001", "name": "USPS COLLECTION BOX - BLUE BOX", "address": {"city": "DICKENS", "state": "NE", "street": "33994 ADRIAN AVE", "postcode": "69132"}}},
{"geometry": {"type": "Point", "coordinates": [-103.4875630579, 41.2352147537]}, "type": "Feature", "properties": {"collection_times": [{"days": "Mon-Sat", "time": "3:30pm"}, {"days": "Sun", "time": "Closed"}], "id": "6913300001", "name": "USPS COLLECTION BOX - BLUE BOX", "address": {"city": "DIX", "state": "NE", "street": "108 MYRTLE ST", "postcode": "69133"}}},
{"geometry": {"type": "Point", "coordinates": [-101.3887772609, 40.8464292272]}, "type": "Feature", "properties": {"collection_times": [{"days": "Mon-Fri", "time": "4:00pm"}, {"days": "Sat", "time": "4:15pm"}, {"days": "Sun", "time": "Closed"}], "id": "6913400001", "name": "USPS COLLECTION BOX - BLUE BOX", "address": {"city": "ELSIE", "state": "NE", "street": "105 PERKINS AVE", "postcode": "69134"}}},
{"geometry": {"type": "Point", "coordinates": [-101.3887772609, 40.8464292272]}, "type": "Feature", "properties": {"collection_times": [{"days": "Mon-Fri", "time": "11:45am"}, {"days": "Sat", "time": "9:15am"}, {"days": "Sun", "time": "Closed"}], "id": "6913400002", "name": "USPS COLLECTION BOX - PO LOBBY", "address": {"city": "ELSIE", "state": "NE", "street": "105 PERKINS AVE", "postcode": "69134"}}},
{"geometry": {"type": "Point", "coordinates": [-100.1605894455, 40.9294397392]}, "type": "Feature", "properties": {"collection_times": [{"days": "Mon-Sat", "time": "5:50pm"}, {"days": "Sun", "time": "Closed"}], "id": "6913800003", "name": "USPS COLLECTION BOX - BLUE BOX", "address": {"city": "GOTHENBURG", "state": "NE", "street": "1021 LAKE AVE", "postcode": "69138"}}},
{"geometry": {"type": "Point", "coordinates": [-100.1613406867, 40.9288764362]}, "type": "Feature", "properties": {"collection_times": [{"days": "Mon-Fri", "time": "4:15pm"}, {"days": "Sat", "time": "9:45am"}, {"days": "Sun", "time": "Closed"}], "id": "6913800004", "name": "USPS COLLECTION BOX - PO LOBBY", "address": {"city": "GOTHENBURG", "state": "NE", "street": "1021 LAKE AVE", "postcode": "69138"}}},
{"geometry": {"type": "Point", "coordinates": [-101.7250274433, 40.8430656626]}, "type": "Feature", "properties": {"collection_times": [{"days": "Mon-Sat", "time": "3:45pm"}, {"days": "Sun", "time": "Closed"}], "id": "6914000001", "name": "USPS COLLECTION BOX - BLUE BOX", "address": {"city": "GRANT", "state": "NE", "street": "409 CENTRAL AVE", "postcode": "69140"}}},
{"geometry": {"type": "Point", "coordinates": [-101.7066500027, 40.8511061116]}, "type": "Feature", "properties": {"collection_times": [{"days": "Mon-Sat", "time": "3:25pm"}, {"days": "Sun", "time": "Closed"}], "id": "6914000002", "name": "USPS COLLECTION BOX - BLUE BOX", "address": {"city": "GRANT", "state": "NE", "street": "100 MAIN AVE", "postcode": "69140"}}},
{"geometry": {"type": "Point", "coordinates": [-101.7250274433, 40.8430656626]}, "type": "Feature", "properties": {"collection_times": [{"days": "Mon-Fri", "time": "3:45pm"}, {"days": "Sat", "time": "11:15am"}, {"days": "Sun", "time": "Closed"}], "id": "6914000003", "name": "USPS COLLECTION BOX - PO LOBBY", "address": {"city": "GRANT", "state": "NE", "street": "409 CENTRAL AVE", "postcode": "69140"}}},
{"geometry": {"type": "Point", "coordinates": [-102.9728286821, 41.3209720681]}, "type": "Feature", "properties": {"collection_times": [{"days": "Mon-Sat", "time": "4:35pm"}, {"days": "Sun", "time": "Closed"}], "id": "6914100001", "name": "USPS COLLECTION BOX - BLUE BOX", "address": {"city": "GURLEY", "state": "NE", "street": "743 3RD ST", "postcode": "69141"}}},
{"geometry": {"type": "Point", "coordinates": [-102.9728286821, 41.3209720681]}, "type": "Feature", "properties": {"collection_times": [{"days": "Mon-Fri", "time": "11:45am"}, {"days": "Sat", "time": "9:15am"}, {"days": "Sun", "time": "Closed"}], "id": "6914100002", "name": "USPS COLLECTION BOX - PO LOBBY", "address": {"city": "GURLEY", "state": "NE", "street": "743 3RD ST", "postcode": "69141"}}},
{"geometry": {"type": "Point", "coordinates": [-100.3511983682, 41.8914546252]}, "type": "Feature", "properties": {"collection_times": [{"days": "Mon-Fri", "time": "1:45pm"}, {"days": "Sat", "time": "12:00pm"}, {"days": "Sun", "time": "Closed"}], "id": "6914200001", "name": "USPS COLLECTION BOX - BLUE BOX", "address": {"city": "HALSEY", "state": "NE", "street": "508 HIGHWAY 2", "postcode": "69142"}}},
{"geometry": {"type": "Point", "coordinates": [-100.3511983682, 41.8914546252]}, "type": "Feature", "properties": {"collection_times": [{"days": "Mon-Fri", "time": "1:45pm"}, {"days": "Sat", "time": "8:45am"}, {"days": "Sun", "time": "Closed"}], "id": "6914200002", "name": "USPS COLLECTION BOX - PO LOBBY", "address": {"city": "HALSEY", "state": "NE", "street": "508 HIGHWAY 2", "postcode": "69142"}}},
{"geometry": {"type": "Point", "coordinates": [-101.0024675006, 41.1590032367]}, "type": "Feature", "properties": {"collection_times": [{"days": "Mon-Fri", "time": "6:10pm"}, {"days": "Sat", "time": "3:05pm"}, {"days": "Sun", "time": "Closed"}], "id": "6914300001", "name": "USPS COLLECTION BOX - BLUE BOX", "address": {"city": "HERSHEY", "state": "NE", "street": "122 S LINCOLN AVE", "postcode": "69143"}}},
{"geometry": {"type": "Point", "coordinates": [-101.0024675006, 41.1590032367]}, "type": "Feature", "properties": {"collection_times": [{"days": "Mon-Fri", "time": "2:15pm"}, {"days": "Sat", "time": "9:45am"}, {"days": "Sun", "time": "Closed"}], "id": "6914300004", "name": "USPS COLLECTION BOX - PO LOBBY", "address": {"city": "HERSHEY", "state": "NE", "street": "122 S LINCOLN AVE", "postcode": "69143"}}},
{"geometry": {"type": "Point", "coordinates": [-101.5831514337, 41.2161791976]}, "type": "Feature", "properties": {"collection_times": [{"days": "Mon-Fri", "time": "3:15pm"}, {"days": "Sat", "time": "5:04pm"}, {"days": "Sun", "time": "Closed"}], "id": "6914400001", "name": "USPS COLLECTION BOX - BLUE BOX", "address": {"city": "KEYSTONE", "state": "NE", "street": "325 FENWICK ST", "postcode": "69144"}}},
{"geometry": {"type": "Point", "coordinates": [-101.5831514337, 41.2161791976]}, "type": "Feature", "properties": {"collection_times": [{"days": "Mon-Fri", "time": "11:15am"}, {"days": "Sat", "time": "8:15am"}, {"days": "Sun", "time": "Closed"}], "id": "6914400002", "name": "USPS COLLECTION BOX - PO LOBBY", "address": {"city": "KEYSTONE", "state": "NE", "street": "325 FENWICK ST", "postcode": "69144"}}},
{"geometry": {"type": "Point", "coordinates": [-103.6640421094, 41.2369896994]}, "type": "Feature", "properties": {"collection_times": [{"days": "Mon-Sat", "time": "3:15pm"}, {"days": "Sun", "time": "Closed"}], "id": "6914500001", "name": "USPS COLLECTION BOX - BLUE BOX", "address": {"city": "KIMBALL", "state": "NE", "street": "201 W 2ND ST", "postcode": "69145"}}},
{"geometry": {"type": "Point", "coordinates": [-103.6640421094, 41.2369896994]}, "type": "Feature", "properties": {"collection_times": [{"days": "Mon-Sat", "time": "3:15pm"}, {"days": "Sun", "time": "Closed"}], "id": "6914500005", "name": "USPS COLLECTION BOX - BLUE BOX", "address": {"city": "KIMBALL", "state": "NE", "street": "201 W 2ND ST", "postcode": "69145"}}},
{"geometry": {"type": "Point", "coordinates": [-103.6640421094, 41.2369896994]}, "type": "Feature", "properties": {"collection_times": [{"days": "Mon-Sat", "time": "3:15pm"}, {"days": "Sun", "time": "Closed"}], "id": "6914500007", "name": "USPS COLLECTION BOX - PO LOBBY", "address": {"city": "KIMBALL", "state": "NE", "street": "201 W 2ND ST", "postcode": "69145"}}},
{"geometry": {"type": "Point", "coordinates": [-101.8475506577, 41.2853137705]}, "type": "Feature", "properties": {"collection_times": [{"days": "Mon-Fri", "time": "3:45pm"}, {"days": "Sat", "time": "4:40pm"}, {"days": "Sun", "time": "Closed"}], "id": "6914600001", "name": "USPS COLLECTION BOX - BLUE BOX", "address": {"city": "LEMOYNE", "state": "NE", "street": "721 HIGHWAY 92 W", "postcode": "69146"}}},
{"geometry": {"type": "Point", "coordinates": [-101.8475506577, 41.2853137705]}, "type": "Feature", "properties": {"collection_times": [{"days": "Mon-Fri", "time": "11:45am"}, {"days": "Sat", "time": "8:45am"}, {"days": "Sun", "time": "Closed"}], "id": "6914600002", "name": "USPS COLLECTION BOX - PO LOBBY", "address": {"city": "LEMOYNE", "state": "NE", "street": "721 HIGHWAY 92 W", "postcode": "69146"}}},
{"geometry": {"type": "Point", "coordinates": [-102.144401956, 41.331436233]}, "type": "Feature", "properties": {"collection_times": [{"days": "Mon-Sat", "time": "4:11pm"}, {"days": "Sun", "time": "Closed"}], "id": "6914700001", "name": "USPS COLLECTION BOX - BLUE BOX", "address": {"city": "LEWELLEN", "state": "NE", "street": "311 MAIN ST", "postcode": "69147"}}},
{"geometry": {"type": "Point", "coordinates": [-102.144401956, 41.331436233]}, "type": "Feature", "properties": {"collection_times": [{"days": "Mon-Fri", "time": "11:45am"}, {"days": "Sat", "time": "9:45am"}, {"days": "Sun", "time": "Closed"}], "id": "6914700002", "name": "USPS COLLECTION BOX - PO LOBBY", "address": {"city": "LEWELLEN", "state": "NE", "street": "311 MAIN ST", "postcode": "69147"}}},
{"geometry": {"type": "Point", "coordinates": [-102.6200173099, 41.4979335797]}, "type": "Feature", "properties": {"collection_times": [{"days": "Mon-Fri", "time": "3:15pm"}, {"days": "Sat", "time": "3:22pm"}, {"days": "Sun", "time": "Closed"}], "id": "6914800001", "name": "USPS COLLECTION BOX - BLUE BOX", "address": {"city": "LISCO", "state": "NE", "street": "119 COLDWATER ST", "postcode": "69148"}}},
{"geometry": {"type": "Point", "coordinates": [-102.6200173099, 41.4979335797]}, "type": "Feature", "properties": {"collection_times": [{"days": "Mon-Fri", "time": "12:15pm"}, {"days": "Sat", "time": "9:45am"}, {"days": "Sun", "time": "Closed"}], "id": "6914800002", "name": "USPS COLLECTION BOX - PO LOBBY", "address": {"city": "LISCO", "state": "NE", "street": "119 COLDWATER ST", "postcode": "69148"}}},
{"geometry": {"type": "Point", "coordinates": [-102.6462242639, 41.1523259526]}, "type": "Feature", "properties": {"collection_times": [{"days": "Mon-Sat", "time": "3:45pm"}, {"days": "Sun", "time": "Closed"}], "id": "6914900001", "name": "USPS COLLECTION BOX - BLUE BOX", "address": {"city": "LODGEPOLE", "state": "NE", "street": "724 SHELDON ST", "postcode": "69149"}}},
{"geometry": {"type": "Point", "coordinates": [-102.6462242639, 41.1523259526]}, "type": "Feature", "properties": {"collection_times": [{"days": "Mon-Fri", "time": "11:45am"}, {"days": "Sat", "time": "9:15am"}, {"days": "Sun", "time": "Closed"}], "id": "6914900003", "name": "USPS COLLECTION BOX - PO LOBBY", "address": {"city": "LODGEPOLE", "state": "NE", "street": "724 SHELDON ST", "postcode": "69149"}}},
{"geometry": {"type": "Point", "coordinates": [-101.5437738178, 40.8499886623]}, "type": "Feature", "properties": {"collection_times": [{"days": "Mon-Sat", "time": "4:00pm"}, {"days": "Sun", "time": "Closed"}], "id": "6915000001", "name": "USPS COLLECTION BOX - BLUE BOX", "address": {"city": "MADRID", "state": "NE", "street": "119 S PERKINS AVE", "postcode": "69150"}}},
{"geometry": {"type": "Point", "coordinates": [-101.5437738178, 40.8499886623]}, "type": "Feature", "properties": {"collection_times": [{"days": "Mon-Fri", "time": "11:45am"}, {"days": "Sat", "time": "8:45am"}, {"days": "Sun", "time": "Closed"}], "id": "6915000002", "name": "USPS COLLECTION BOX - PO LOBBY", "address": {"city": "MADRID", "state": "NE", "street": "119 S PERKINS AVE", "postcode": "69150"}}},
{"geometry": {"type": "Point", "coordinates": [-100.5256647708, 41.0772413745]}, "type": "Feature", "properties": {"collection_times": [{"days": "Mon-Sat", "time": "6:30pm"}, {"days": "Sun", "time": "Closed"}], "id": "6915100001", "name": "USPS COLLECTION BOX - BLUE BOX", "address": {"city": "MAXWELL", "state": "NE", "street": "201 S PINE ST", "postcode": "69151"}}},
{"geometry": {"type": "Point", "coordinates": [-100.5256647708, 41.0772413745]}, "type": "Feature", "properties": {"collection_times": [{"days": "Mon-Sat", "time": "11:45am"}, {"days": "Sun", "time": "Closed"}], "id": "6915100002", "name": "USPS COLLECTION BOX - PO LOBBY", "address": {"city": "MAXWELL", "state": "NE", "street": "201 S PINE ST", "postcode": "69151"}}},
{"geometry": {"type": "Point", "coordinates": [-101.0426555764, 42.0410629997]}, "type": "Feature", "properties": {"collection_times": [{"days": "Mon-Sat", "time": "4:10pm"}, {"days": "Sun", "time": "Closed"}], "id": "6915200001", "name": "USPS COLLECTION BOX - BLUE BOX", "address": {"city": "MULLEN", "state": "NE", "street": "106 NE 1ST ST", "postcode": "69152"}}},
{"geometry": {"type": "Point", "coordinates": [-101.0426555764, 42.0410629997]}, "type": "Feature", "properties": {"collection_times": [{"days": "Mon-Fri", "time": "3:45pm"}, {"days": "Sat", "time": "9:45am"}, {"days": "Sun", "time": "Closed"}], "id": "6915200002", "name": "USPS COLLECTION BOX - PO LOBBY", "address": {"city": "MULLEN", "state": "NE", "street": "106 NE 1ST ST", "postcode": "69152"}}},
{"geometry": {"type": "Point", "coordinates": [-101.7193556466, 41.1265791181]}, "type": "Feature", "properties": {"collection_times": [{"days": "Mon-Sat", "time": "5:35pm"}, {"days": "Sun", "time": "Closed"}], "id": "6915300001", "name": "USPS COLLECTION BOX - BLUE BOX", "address": {"city": "OGALLALA", "state": "NE", "street": "301 N SPRUCE ST", "postcode": "69153"}}},
{"geometry": {"type": "Point", "coordinates": [-101.7183062549, 41.1266876219]}, "type": "Feature", "properties": {"collection_times": [{"days": "Mon-Fri", "time": "4:15pm"}, {"days": "Sat", "time": "10:45am"}, {"days": "Sun", "time": "Closed"}], "id": "6915300002", "name": "USPS COLLECTION BOX - BLUE BOX", "address": {"city": "OGALLALA", "state": "NE", "street": "300 E A ST", "postcode": "69153"}}},
{"geometry": {"type": "Point", "coordinates": [-101.7193556466, 41.1265791181]}, "type": "Feature", "properties": {"collection_times": [{"days": "Mon-Sat", "time": "5:35pm"}, {"days": "Sun", "time": "Closed"}], "id": "6915300005", "name": "USPS COLLECTION BOX - BLUE BOX", "address": {"city": "OGALLALA", "state": "NE", "street": "301 N SPRUCE ST", "postcode": "69153"}}},
{"geometry": {"type": "Point", "coordinates": [-101.7183062549, 41.1266876219]}, "type": "Feature", "properties": {"collection_times": [{"days": "Mon-Fri", "time": "4:15pm"}, {"days": "Sat", "time": "10:45am"}, {"days": "Sun", "time": "Closed"}], "id": "6915300006", "name": "USPS COLLECTION BOX - BLUE BOX", "address": {"city": "OGALLALA", "state": "NE", "street": "300 E A ST", "postcode": "69153"}}},
{"geometry": {"type": "Point", "coordinates": [-101.7183062549, 41.1266876219]}, "type": "Feature", "properties": {"collection_times": [{"days": "Mon-Fri", "time": "4:15pm"}, {"days": "Sat", "time": "10:45am"}, {"days": "Sun", "time": "Closed"}], "id": "6915300008", "name": "USPS COLLECTION BOX - BLUE BOX", "address": {"city": "OGALLALA", "state": "NE", "street": "300 E A ST", "postcode": "69153"}}},
{"geometry": {"type": "Point", "coordinates": [-101.7193556466, 41.1265791181]}, "type": "Feature", "properties": {"collection_times": [{"days": "Mon-Sat", "time": "5:35pm"}, {"days": "Sun", "time": "Closed"}], "id": "6915300009", "name": "USPS COLLECTION BOX - BLUE BOX", "address": {"city": "OGALLALA", "state": "NE", "street": "301 N SPRUCE ST", "postcode": "69153"}}},
{"geometry": {"type": "Point", "coordinates": [-101.7193556466, 41.1265791181]}, "type": "Feature", "properties": {"collection_times": [{"days": "Mon-Fri", "time": "4:15pm"}, {"days": "Sat", "time": "10:45am"}, {"days": "Sun", "time": "Closed"}], "id": "6915300011", "name": "USPS COLLECTION BOX - PO LOBBY", "address": {"city": "OGALLALA", "state": "NE", "street": "301 N SPRUCE ST", "postcode": "69153"}}},
{"geometry": {"type": "Point", "coordinates": [-102.3456569786, 41.4038565891]}, "type": "Feature", "properties": {"collection_times": [{"days": "Mon-Fri", "time": "3:45pm"}, {"days": "Sat", "time": "3:51pm"}, {"days": "Sun", "time": "Closed"}], "id": "6915400001", "name": "USPS COLLECTION BOX - BLUE BOX", "address": {"city": "OSHKOSH", "state": "NE", "street": "201 W 1ST ST", "postcode": "69154"}}},
{"geometry": {"type": "Point", "coordinates": [-102.3456569786, 41.4038565891]}, "type": "Feature", "properties": {"collection_times": [{"days": "Mon-Fri", "time": "3:45pm"}, {"days": "Sat", "time": "10:45am"}, {"days": "Sun", "time": "Closed"}], "id": "6915400002", "name": "USPS COLLECTION BOX - PO LOBBY", "address": {"city": "OSHKOSH", "state": "NE", "street": "201 W 1ST ST", "postcode": "69154"}}},
{"geometry": {"type": "Point", "coordinates": [-101.3560857205, 41.1231746588]}, "type": "Feature", "properties": {"collection_times": [{"days": "Mon-Fri", "time": "4:20pm"}, {"days": "Sat", "time": "1:20pm"}, {"days": "Sun", "time": "Closed"}], "id": "6915500001", "name": "USPS COLLECTION BOX - BLUE BOX", "address": {"city": "PAXTON", "state": "NE", "street": "107 N OAK ST", "postcode": "69155"}}},
{"geometry": {"type": "Point", "coordinates": [-101.3560857205, 41.1231746588]}, "type": "Feature", "properties": {"collection_times": [{"days": "Mon-Fri", "time": "2:15pm"}, {"days": "Sat", "time": "10:15am"}, {"days": "Sun", "time": "Closed"}], "id": "6915500002", "name": "USPS COLLECTION BOX - PO LOBBY", "address": {"city": "PAXTON", "state": "NE", "street": "107 N OAK ST", "postcode": "69155"}}},
{"geometry": {"type": "Point", "coordinates": [-103.3153319814, 41.2172965079]}, "type": "Feature", "properties": {"collection_times": [{"days": "Mon-Fri", "time": "3:45pm"}, {"days": "Sat", "time": "10:55am"}, {"days": "Sun", "time": "Closed"}], "id": "6915600001", "name": "USPS COLLECTION BOX - BLUE BOX", "address": {"city": "POTTER", "state": "NE", "street": "1017 SHERMAN ST", "postcode": "69156"}}},
{"geometry": {"type": "Point", "coordinates": [-103.3153319814, 41.2172965079]}, "type": "Feature", "properties": {"collection_times": [{"days": "Mon-Fri", "time": "1:45pm"}, {"days": "Sat", "time": "9:15am"}, {"days": "Sun", "time": "Closed"}], "id": "6915600002", "name": "USPS COLLECTION BOX - PO LOBBY", "address": {"city": "POTTER", "state": "NE", "street": "1017 SHERMAN ST", "postcode": "69156"}}},
{"geometry": {"type": "Point", "coordinates": [-100.1048299847, 41.9604195297]}, "type": "Feature", "properties": {"collection_times": [{"days": "Mon-Sat", "time": "11:30am"}, {"days": "Sun", "time": "Closed"}], "id": "6915700001", "name": "USPS COLLECTION BOX - BLUE BOX", "address": {"city": "PURDUM", "state": "NE", "street": "100 MAIN ST", "postcode": "69157"}}},
{"geometry": {"type": "Point", "coordinates": [-100.1048299847, 41.9604195297]}, "type": "Feature", "properties": {"collection_times": [{"days": "Mon-Sat", "time": "11:30am"}, {"days": "Sun", "time": "Closed"}], "id": "6915700002", "name": "USPS COLLECTION BOX - PO LOBBY", "address": {"city": "PURDUM", "state": "NE", "street": "100 MAIN ST", "postcode": "69157"}}},
{"geometry": {"type": "Point", "coordinates": [-100.7634576098, 41.9143392094]}, "type": "Feature", "properties": {"collection_times": [{"days": "Mon-Sat", "time": "4:30pm"}, {"days": "Sun", "time": "Closed"}], "id": "6916100001", "name": "USPS COLLECTION BOX - BLUE BOX", "address": {"city": "SENECA", "state": "NE", "street": "109 WEST ST", "postcode": "69161"}}},
{"geometry": {"type": "Point", "coordinates": [-100.7634576098, 41.9143392094]}, "type": "Feature", "properties": {"collection_times": [{"days": "Mon-Fri", "time": "11:40am"}, {"days": "Sat", "time": "10:45am"}, {"days": "Sun", "time": "Closed"}], "id": "6916100002", "name": "USPS COLLECTION BOX - PO LOBBY", "address": {"city": "SENECA", "state": "NE", "street": "109 WEST ST", "postcode": "69161"}}},
{"geometry": {"type": "Point", "coordinates": [-102.9748485536, 41.1449837252]}, "type": "Feature", "properties": {"collection_times": [{"days": "Mon-Fri", "time": "4:20pm"}, {"days": "Sat", "time": "4:00pm"}, {"days": "Sun", "time": "Closed"}], "id": "6916200006", "name": "USPS COLLECTION BOX - BLUE BOX", "address": {"city": "SIDNEY", "state": "NE", "street": "844 ILLINOIS ST", "postcode": "69162"}}},
{"geometry": {"type": "Point", "coordinates": [-102.9748485536, 41.1449837252]}, "type": "Feature", "properties": {"collection_times": [{"days": "Mon-Fri", "time": "4:20pm"}, {"days": "Sat", "time": "4:00pm"}, {"days": "Sun", "time": "Closed"}], "id": "6916200007", "name": "USPS COLLECTION BOX - BLUE BOX", "address": {"city": "SIDNEY", "state": "NE", "street": "844 ILLINOIS ST", "postcode": "69162"}}},
{"geometry": {"type": "Point", "coordinates": [-102.9748485536, 41.1449837252]}, "type": "Feature", "properties": {"collection_times": [{"days": "Mon-Fri", "time": "4:15pm"}, {"days": "Sat", "time": "10:45am"}, {"days": "Sun", "time": "Closed"}], "id": "6916200008", "name": "USPS COLLECTION BOX - PO LOBBY", "address": {"city": "SIDNEY", "state": "NE", "street": "844 ILLINOIS ST", "postcode": "69162"}}},
{"geometry": {"type": "Point", "coordinates": [-102.976654824, 41.1438537177]}, "type": "Feature", "properties": {"collection_times": [{"days": "Mon-Fri", "time": "2:30pm"}, {"days": "Sat", "time": "12:00pm"}, {"days": "Sun", "time": "Closed"}], "id": "6916200009", "name": "USPS COLLECTION BOX - BLUE BOX", "address": {"city": "SIDNEY", "state": "NE", "street": "1000 10TH AVE", "postcode": "69162"}}},
{"geometry": {"type": "Point", "coordinates": [-100.5131747896, 41.4804788229]}, "type": "Feature", "properties": {"collection_times": [{"days": "Mon-Sat", "time": "7:00pm"}, {"days": "Sun", "time": "Closed"}], "id": "6916300001", "name": "USPS COLLECTION BOX - BLUE BOX", "address": {"city": "STAPLETON", "state": "NE", "street": "302 MAIN ST", "postcode": "69163"}}},
{"geometry": {"type": "Point", "coordinates": [-100.5131747896, 41.4804788229]}, "type": "Feature", "properties": {"collection_times": [{"days": "Mon-Fri", "time": "3:45pm"}, {"days": "Sat", "time": "9:15am"}, {"days": "Sun", "time": "Closed"}], "id": "6916300002", "name": "USPS COLLECTION BOX - PO LOBBY", "address": {"city": "STAPLETON", "state": "NE", "street": "302 MAIN ST", "postcode": "69163"}}},
{"geometry": {"type": "Point", "coordinates": [-101.1263033064, 41.1570550424]}, "type": "Feature", "properties": {"collection_times": [{"days": "Mon-Fri", "time": "5:45pm"}, {"days": "Sat", "time": "2:45pm"}, {"days": "Sun", "time": "Closed"}], "id": "6916500001", "name": "USPS COLLECTION BOX - BLUE BOX", "address": {"city": "SUTHERLAND", "state": "NE", "street": "110 WALNUT ST", "postcode": "69165"}}},
{"geometry": {"type": "Point", "coordinates": [-101.1263033064, 41.1570550424]}, "type": "Feature", "properties": {"collection_times": [{"days": "Mon-Fri", "time": "4:00pm"}, {"days": "Sat", "time": "10:45am"}, {"days": "Sun", "time": "Closed"}], "id": "6916500002", "name": "USPS COLLECTION BOX - PO LOBBY", "address": {"city": "SUTHERLAND", "state": "NE", "street": "110 WALNUT ST", "postcode": "69165"}}},
{"geometry": {"type": "Point", "coordinates": [-100.5744459981, 41.9783284531]}, "type": "Feature", "properties": {"collection_times": [{"days": "Mon-Sat", "time": "6:00pm"}, {"days": "Sun", "time": "Closed"}], "id": "6916600001", "name": "USPS COLLECTION BOX - BLUE BOX", "address": {"city": "THEDFORD", "state": "NE", "street": "507 WALNUT ST", "postcode": "69166"}}},
{"geometry": {"type": "Point", "coordinates": [-100.5583928673, 41.9263476843]}, "type": "Feature", "properties": {"collection_times": [{"days": "Mon-Sat", "time": "11:45am"}, {"days": "Sun", "time": "Closed"}], "id": "6916600002", "name": "USPS COLLECTION BOX - BLUE BOX", "address": {"city": "THEDFORD", "state": "NE", "street": "85952 SENECA RD", "postcode": "69166"}}},
{"geometry": {"type": "Point", "coordinates": [-100.5744459981, 41.9783284531]}, "type": "Feature", "properties": {"collection_times": [{"days": "Mon-Fri", "time": "1:45pm"}, {"days": "Sat", "time": "9:45am"}, {"days": "Sun", "time": "Closed"}], "id": "6916600003", "name": "USPS COLLECTION BOX - PO LOBBY", "address": {"city": "THEDFORD", "state": "NE", "street": "507 WALNUT ST", "postcode": "69166"}}},
{"geometry": {"type": "Point", "coordinates": [-101.060536652, 41.5680882187]}, "type": "Feature", "properties": {"collection_times": [{"days": "Mon-Sat", "time": "5:50pm"}, {"days": "Sun", "time": "Closed"}], "id": "6916700001", "name": "USPS COLLECTION BOX - BLUE BOX", "address": {"city": "TRYON", "state": "NE", "street": "488 ANDERSON ST", "postcode": "69167"}}},
{"geometry": {"type": "Point", "coordinates": [-101.060536652, 41.5680882187]}, "type": "Feature", "properties": {"collection_times": [{"days": "Mon-Fri", "time": "2:15pm"}, {"days": "Sat", "time": "9:15am"}, {"days": "Sun", "time": "Closed"}], "id": "6916700002", "name": "USPS COLLECTION BOX - PO LOBBY", "address": {"city": "TRYON", "state": "NE", "street": "488 ANDERSON ST", "postcode": "69167"}}},
{"geometry": {"type": "Point", "coordinates": [-102.0407531859, 40.7647710812]}, "type": "Feature", "properties": {"collection_times": [{"days": "Mon-Sat", "time": "3:10pm"}, {"days": "Sun", "time": "Closed"}], "id": "6916800001", "name": "USPS COLLECTION BOX - BLUE BOX", "address": {"city": "VENANGO", "state": "NE", "street": "112 N PENNSYLVANIA AVE", "postcode": "69168"}}},
{"geometry": {"type": "Point", "coordinates": [-102.0407531859, 40.7647710812]}, "type": "Feature", "properties": {"collection_times": [{"days": "Mon-Fri", "time": "12:45pm"}, {"days": "Sat", "time": "11:30am"}, {"days": "Sun", "time": "Closed"}], "id": "6916800002", "name": "USPS COLLECTION BOX - PO LOBBY", "address": {"city": "VENANGO", "state": "NE", "street": "112 N PENNSYLVANIA AVE", "postcode": "69168"}}},
{"geometry": {"type": "Point", "coordinates": [-101.1651621972, 40.8378955476]}, "type": "Feature", "properties": {"collection_times": [{"days": "Mon-Sat", "time": "5:30pm"}, {"days": "Sun", "time": "Closed"}], "id": "6916900001", "name": "USPS COLLECTION BOX - BLUE BOX", "address": {"city": "WALLACE", "state": "NE", "street": "233 S COMMERCIAL AVE", "postcode": "69169"}}},
{"geometry": {"type": "Point", "coordinates": [-101.1651621972, 40.8378955476]}, "type": "Feature", "properties": {"collection_times": [{"days": "Mon-Fri", "time": "11:45am"}, {"days": "Sat", "time": "9:15am"}, {"days": "Sun", "time": "Closed"}], "id": "6916900002", "name": "USPS COLLECTION BOX - PO LOBBY", "address": {"city": "WALLACE", "state": "NE", "street": "233 S COMMERCIAL AVE", "postcode": "69169"}}},
{"geometry": {"type": "Point", "coordinates": [-100.7301170812, 40.7545456141]}, "type": "Feature", "properties": {"collection_times": [{"days": "Mon-Sat", "time": "6:15pm"}, {"days": "Sun", "time": "Closed"}], "id": "6917000001", "name": "USPS COLLECTION BOX - BLUE BOX", "address": {"city": "WELLFLEET", "state": "NE", "street": "301 NILE ST", "postcode": "69170"}}},
{"geometry": {"type": "Point", "coordinates": [-100.7301170812, 40.7545456141]}, "type": "Feature", "properties": {"collection_times": [{"days": "Mon-Fri", "time": "2:30pm"}, {"days": "Sat", "time": "8:45am"}, {"days": "Sun", "time": "Closed"}], "id": "6917000002", "name": "USPS COLLECTION BOX - PO LOBBY", "address": {"city": "WELLFLEET", "state": "NE", "street": "301 NILE ST", "postcode": "69170"}}}
]}
