{"type": "FeatureCollection", "features": [
{"geometry": {"type": "Point", "coordinates": [-100.5491828413, 42.8738027044]}, "type": "Feature", "properties": {"collection_times": [{"days": "Mon-Sat", "time": "5:00pm"}, {"days": "Sun", "time": "Closed"}], "id": "6920100004", "name": "USPS COLLECTION BOX - BLUE BOX", "address": {"city": "VALENTINE", "state": "NE", "street": "239 N HALL ST", "postcode": "69201"}}},
{"geometry": {"type": "Point", "coordinates": [-100.5491828413, 42.8738027044]}, "type": "Feature", "properties": {"collection_times": [{"days": "Mon-Fri", "time": "5:00pm"}, {"days": "Sat-Sun", "time": "Closed"}], "id": "6920100005", "name": "USPS COLLECTION BOX - PO LOBBY", "address": {"city": "VALENTINE", "state": "NE", "street": "239 N HALL ST", "postcode": "69201"}}},
{"geometry": {"type": "Point", "coordinates": [-99.8626148744, 42.5487574323]}, "type": "Feature", "properties": {"collection_times": [{"days": "Mon-Sat", "time": "3:50pm"}, {"days": "Sun", "time": "Closed"}], "id": "6921000001", "name": "USPS COLLECTION BOX - BLUE BOX", "address": {"city": "AINSWORTH", "state": "NE", "street": "375 N MAIN ST", "postcode": "69210"}}},
{"geometry": {"type": "Point", "coordinates": [-99.8626148744, 42.5487574323]}, "type": "Feature", "properties": {"collection_times": [{"days": "Mon-Fri", "time": "3:50pm"}, {"days": "Sat", "time": "11:45am"}, {"days": "Sun", "time": "Closed"}], "id": "6921000005", "name": "USPS COLLECTION BOX - PO LOBBY", "address": {"city": "AINSWORTH", "state": "NE", "street": "375 N MAIN ST", "postcode": "69210"}}},
{"geometry": {"type": "Point", "coordinates": [-101.2440320369, 42.9355869618]}, "type": "Feature", "properties": {"collection_times": [{"days": "Mon-Fri", "time": "2:55pm"}, {"days": "Sat", "time": "1:45pm"}, {"days": "Sun", "time": "Closed"}], "id": "6921100001", "name": "USPS COLLECTION BOX - BLUE BOX", "address": {"city": "CODY", "state": "NE", "street": "111 E NEBRASKA AVE", "postcode": "69211"}}},
{"geometry": {"type": "Point", "coordinates": [-101.2440320369, 42.9355869618]}, "type": "Feature", "properties": {"collection_times": [{"days": "Mon-Fri", "time": "2:55pm"}, {"days": "Sat", "time": "9:45am"}, {"days": "Sun", "time": "Closed"}], "id": "6921100002", "name": "USPS COLLECTION BOX - PO LOBBY", "address": {"city": "CODY", "state": "NE", "street": "111 E NEBRASKA AVE", "postcode": "69211"}}},
{"geometry": {"type": "Point", "coordinates": [-100.7940556358, 42.9004563591]}, "type": "Feature", "properties": {"collection_times": [{"days": "Mon-Fri", "time": "3:45pm"}, {"days": "Sat", "time": "3:25pm"}, {"days": "Sun", "time": "Closed"}], "id": "6921200001", "name": "USPS COLLECTION BOX - BLUE BOX", "address": {"city": "CROOKSTON", "state": "NE", "street": "100 E 2ND ST", "postcode": "69212"}}},
{"geometry": {"type": "Point", "coordinates": [-100.7940556358, 42.9004563591]}, "type": "Feature", "properties": {"collection_times": [{"days": "Mon-Fri", "time": "11:45am"}, {"days": "Sat", "time": "9:45am"}, {"days": "Sun", "time": "Closed"}], "id": "6921200002", "name": "USPS COLLECTION BOX - PO LOBBY", "address": {"city": "CROOKSTON", "state": "NE", "street": "100 E 2ND ST", "postcode": "69212"}}},
{"geometry": {"type": "Point", "coordinates": [-100.0768319952, 42.4385094241]}, "type": "Feature", "properties": {"collection_times": [{"days": "Mon-Sat", "time": "4:05pm"}, {"days": "Sun", "time": "Closed"}], "id": "6921400001", "name": "USPS COLLECTION BOX - BLUE BOX", "address": {"city": "JOHNSTOWN", "state": "NE", "street": "200 N MAIN ST", "postcode": "69214"}}},
{"geometry": {"type": "Point", "coordinates": [-100.0768319952, 42.4385094241]}, "type": "Feature", "properties": {"collection_times": [{"days": "Mon-Fri", "time": "11:45am"}, {"days": "Sat", "time": "9:15am"}, {"days": "Sun", "time": "Closed"}], "id": "6921400002", "name": "USPS COLLECTION BOX - PO LOBBY", "address": {"city": "JOHNSTOWN", "state": "NE", "street": "200 N MAIN ST", "postcode": "69214"}}},
{"geometry": {"type": "Point", "coordinates": [-100.9554950785, 42.93743947]}, "type": "Feature", "properties": {"collection_times": [{"days": "Mon-Fri", "time": "3:15pm"}, {"days": "Sat", "time": "2:10pm"}, {"days": "Sun", "time": "Closed"}], "id": "6921600001", "name": "USPS COLLECTION BOX - BLUE BOX", "address": {"city": "KILGORE", "state": "NE", "street": "210 MAIN ST", "postcode": "69216"}}},
{"geometry": {"type": "Point", "coordinates": [-100.9554950785, 42.93743947]}, "type": "Feature", "properties": {"collection_times": [{"days": "Mon-Fri", "time": "11:50am"}, {"days": "Sat", "time": "9:15am"}, {"days": "Sun", "time": "Closed"}], "id": "6921600002", "name": "USPS COLLECTION BOX - PO LOBBY", "address": {"city": "KILGORE", "state": "NE", "street": "210 MAIN ST", "postcode": "69216"}}},
{"geometry": {"type": "Point", "coordinates": [-99.7008202281, 42.5279830435]}, "type": "Feature", "properties": {"collection_times": [{"days": "Mon-Sat", "time": "3:25pm"}, {"days": "Sun", "time": "Closed"}], "id": "6921700001", "name": "USPS COLLECTION BOX - BLUE BOX", "address": {"city": "LONG PINE", "state": "NE", "street": "421 N MAIN ST", "postcode": "69217"}}},
{"geometry": {"type": "Point", "coordinates": [-99.7008202281, 42.5279830435]}, "type": "Feature", "properties": {"collection_times": [{"days": "Mon-Fri", "time": "2:15pm"}, {"days": "Sat", "time": "9:15am"}, {"days": "Sun", "time": "Closed"}], "id": "6921700002", "name": "USPS COLLECTION BOX - PO LOBBY", "address": {"city": "LONG PINE", "state": "NE", "street": "421 N MAIN ST", "postcode": "69217"}}},
{"geometry": {"type": "Point", "coordinates": [-101.7006871584, 42.9186163614]}, "type": "Feature", "properties": {"collection_times": [{"days": "Mon-Fri", "time": "2:15pm"}, {"days": "Sat", "time": "1:05pm"}, {"days": "Sun", "time": "Closed"}], "id": "6921800001", "name": "USPS COLLECTION BOX - BLUE BOX", "address": {"city": "MERRIMAN", "state": "NE", "street": "110 N MILLS ST", "postcode": "69218"}}},
{"geometry": {"type": "Point", "coordinates": [-101.7006871584, 42.9186163614]}, "type": "Feature", "properties": {"collection_times": [{"days": "Mon-Fri", "time": "12:45pm"}, {"days": "Sat", "time": "10:45am"}, {"days": "Sun", "time": "Closed"}], "id": "6921800002", "name": "USPS COLLECTION BOX - PO LOBBY", "address": {"city": "MERRIMAN", "state": "NE", "street": "110 N MILLS ST", "postcode": "69218"}}},
{"geometry": {"type": "Point", "coordinates": [-100.3022580076, 42.6291475155]}, "type": "Feature", "properties": {"collection_times": [{"days": "Mon-Fri", "time": "4:15pm"}, {"days": "Sat", "time": "4:20pm"}, {"days": "Sun", "time": "Closed"}], "id": "6922100001", "name": "USPS COLLECTION BOX - BLUE BOX", "address": {"city": "WOOD LAKE", "state": "NE", "street": "100 N MAIN ST", "postcode": "69221"}}},
{"geometry": {"type": "Point", "coordinates": [-100.3022580076, 42.6291475155]}, "type": "Feature", "properties": {"collection_times": [{"days": "Mon-Fri", "time": "11:45am"}, {"days": "Sat", "time": "9:15am"}, {"days": "Sun", "time": "Closed"}], "id": "6922100002", "name": "USPS COLLECTION BOX - PO LOBBY", "address": {"city": "WOOD LAKE", "state": "NE", "street": "100 N MAIN ST", "postcode": "69221"}}}
]}
