{"type": "FeatureCollection", "features": [
{"geometry": {"type": "Point", "coordinates": [-102.8707369014, 42.0982588371]}, "type": "Feature", "properties": {"collection_times": [{"days": "Mon-Sat", "time": "3:20pm"}, {"days": "Sun", "time": "Closed"}], "id": "6930100001", "name": "USPS COLLECTION BOX - BLUE BOX", "address": {"city": "ALLIANCE", "state": "NE", "street": "100 E 4TH ST", "postcode": "69301"}}},
{"geometry": {"type": "Point", "coordinates": [-102.8707369014, 42.0982588371]}, "type": "Feature", "properties": {"collection_times": [{"days": "Mon-Sat", "time": "3:20pm"}, {"days": "Sun", "time": "Closed"}], "id": "6930100004", "name": "USPS COLLECTION BOX - BLUE BOX", "address": {"city": "ALLIANCE", "state": "NE", "street": "100 E 4TH ST", "postcode": "69301"}}},
{"geometry": {"type": "Point", "coordinates": [-102.8788081034, 42.1200438047]}, "type": "Feature", "properties": {"collection_times": [{"days": "Mon-Sat", "time": "3:20pm"}, {"days": "Sun", "time": "Closed"}], "id": "6930100005", "name": "USPS COLLECTION BOX - EXPRESS", "address": {"city": "ALLIANCE", "state": "NE", "street": "100 E 4TH ST", "postcode": "69301"}}},
{"geometry": {"type": "Point", "coordinates": [-102.8707369014, 42.0982588371]}, "type": "Feature", "properties": {"collection_times": [{"days": "Mon-Sat", "time": "3:20pm"}, {"days": "Sun", "time": "Closed"}], "id": "6930100006", "name": "USPS COLLECTION BOX - PO LOBBY", "address": {"city": "ALLIANCE", "state": "NE", "street": "100 E 4TH ST", "postcode": "69301"}}},
{"geometry": {"type": "Point", "coordinates": [-103.0736014711, 41.8961758938]}, "type": "Feature", "properties": {"collection_times": [{"days": "Mon-Sat", "time": "12:55pm"}, {"days": "Sun", "time": "Closed"}], "id": "6933100001", "name": "USPS COLLECTION BOX - BLUE BOX", "address": {"city": "ANGORA", "state": "NE", "street": "100 ROAD 118", "postcode": "69331"}}},
{"geometry": {"type": "Point", "coordinates": [-103.0736014711, 41.8961758938]}, "type": "Feature", "properties": {"collection_times": [{"days": "Mon-Sat", "time": "10:15am"}, {"days": "Sun", "time": "Closed"}], "id": "6933100002", "name": "USPS COLLECTION BOX - PO LOBBY", "address": {"city": "ANGORA", "state": "NE", "street": "100 ROAD 118", "postcode": "69331"}}},
{"geometry": {"type": "Point", "coordinates": [-101.9659077478, 41.9595684795]}, "type": "Feature", "properties": {"collection_times": [{"days": "Mon-Sat", "time": "1:30pm"}, {"days": "Sun", "time": "Closed"}], "id": "6933300001", "name": "USPS COLLECTION BOX - BLUE BOX", "address": {"city": "ASHBY", "state": "NE", "street": "100 MAIN ST", "postcode": "69333"}}},
{"geometry": {"type": "Point", "coordinates": [-101.9659077478, 41.9595684795]}, "type": "Feature", "properties": {"collection_times": [{"days": "Mon-Fri", "time": "1:30pm"}, {"days": "Sat", "time": "9:45am"}, {"days": "Sun", "time": "Closed"}], "id": "6933300002", "name": "USPS COLLECTION BOX - PO LOBBY", "address": {"city": "ASHBY", "state": "NE", "street": "100 MAIN ST", "postcode": "69333"}}},
{"geometry": {"type": "Point", "coordinates": [-103.3242955778, 41.7556706993]}, "type": "Feature", "properties": {"collection_times": [{"days": "Mon-Sat", "time": "1:55pm"}, {"days": "Sun", "time": "Closed"}], "id": "6933400001", "name": "USPS COLLECTION BOX - BLUE BOX", "address": {"city": "BAYARD", "state": "NE", "street": "517 MAIN ST", "postcode": "69334"}}},
{"geometry": {"type": "Point", "coordinates": [-103.3242955778, 41.7556706993]}, "type": "Feature", "properties": {"collection_times": [{"days": "Mon-Fri", "time": "1:55pm"}, {"days": "Sat", "time": "10:15am"}, {"days": "Sun", "time": "Closed"}], "id": "6933400002", "name": "USPS COLLECTION BOX - PO LOBBY", "address": {"city": "BAYARD", "state": "NE", "street": "517 MAIN ST", "postcode": "69334"}}},
{"geometry": {"type": "Point", "coordinates": [-103.0993636316, 41.6652700595]}, "type": "Feature", "properties": {"collection_times": [{"days": "Mon-Fri", "time": "1:55pm"}, {"days": "Sat", "time": "1:25pm"}, {"days": "Sun", "time": "Closed"}], "id": "6933600001", "name": "USPS COLLECTION BOX - BLUE BOX", "address": {"city": "BRIDGEPORT", "state": "NE", "street": "114 W 10TH ST", "postcode": "69336"}}},
{"geometry": {"type": "Point", "coordinates": [-103.0993636316, 41.6652700595]}, "type": "Feature", "properties": {"collection_times": [{"days": "Mon-Fri", "time": "1:55pm"}, {"days": "Sat", "time": "9:45am"}, {"days": "Sun", "time": "Closed"}], "id": "6933600002", "name": "USPS COLLECTION BOX - PO LOBBY", "address": {"city": "BRIDGEPORT", "state": "NE", "street": "114 W 10TH ST", "postcode": "69336"}}},
{"geometry": {"type": "Point", "coordinates": [-103.0003921834, 42.8299916956]}, "type": "Feature", "properties": {"collection_times": [{"days": "Mon-Fri", "time": "1:45pm"}, {"days": "Sat", "time": "11:45am"}, {"days": "Sun", "time": "Closed"}], "id": "6933700001", "name": "USPS COLLECTION BOX - BLUE BOX", "address": {"city": "CHADRON", "state": "NE", "street": "278 MAIN ST", "postcode": "69337"}}},
{"geometry": {"type": "Point", "coordinates": [-103.0003921834, 42.8299916956]}, "type": "Feature", "properties": {"collection_times": [{"days": "Mon-Fri", "time": "1:45pm"}, {"days": "Sat", "time": "11:45am"}, {"days": "Sun", "time": "Closed"}], "id": "6933700002", "name": "USPS COLLECTION BOX - BLUE BOX", "address": {"city": "CHADRON", "state": "NE", "street": "278 MAIN ST", "postcode": "69337"}}},
{"geometry": {"type": "Point", "coordinates": [-103.0003921834, 42.8299916956]}, "type": "Feature", "properties": {"collection_times": [{"days": "Mon-Fri", "time": "1:45pm"}, {"days": "Sat", "time": "11:45am"}, {"days": "Sun", "time": "Closed"}], "id": "6933700009", "name": "USPS COLLECTION BOX - PO LOBBY", "address": {"city": "CHADRON", "state": "NE", "street": "278 MAIN ST", "postcode": "69337"}}},
{"geometry": {"type": "Point", "coordinates": [-103.4144569968, 42.6865936071]}, "type": "Feature", "properties": {"collection_times": [{"days": "Mon-Sat", "time": "1:35pm"}, {"days": "Sun", "time": "Closed"}], "id": "6933900001", "name": "USPS COLLECTION BOX - BLUE BOX", "address": {"city": "CRAWFORD", "state": "NE", "street": "144 MAIN ST", "postcode": "69339"}}},
{"geometry": {"type": "Point", "coordinates": [-103.4144569968, 42.6865936071]}, "type": "Feature", "properties": {"collection_times": [{"days": "Mon-Fri", "time": "1:35pm"}, {"days": "Sat-Sun", "time": "Closed"}], "id": "6933900002", "name": "USPS COLLECTION BOX - PO LOBBY", "address": {"city": "CRAWFORD", "state": "NE", "street": "144 MAIN ST", "postcode": "69339"}}},
{"geometry": {"type": "Point", "coordinates": [-103.4144569968, 42.6865936071]}, "type": "Feature", "properties": {"collection_times": [{"days": "Mon-Fri", "time": "1:35pm"}, {"days": "Sat-Sun", "time": "Closed"}], "id": "6933900003", "name": "USPS COLLECTION BOX - PO LOBBY", "address": {"city": "CRAWFORD", "state": "NE", "street": "144 MAIN ST", "postcode": "69339"}}},
{"geometry": {"type": "Point", "coordinates": [-102.6013737357, 42.1333290657]}, "type": "Feature", "properties": {"collection_times": [{"days": "Mon-Sat", "time": "1:55pm"}, {"days": "Sun", "time": "Closed"}], "id": "6934000000", "name": "USPS COLLECTION BOX - BLUE BOX", "address": {"city": "ELLSWORTH", "state": "NE", "street": "100 MAIN ST", "postcode": "69340"}}},
{"geometry": {"type": "Point", "coordinates": [-102.2350998836, 42.1443019704]}, "type": "Feature", "properties": {"collection_times": [{"days": "Mon-Sat", "time": "2:40pm"}, {"days": "Sun", "time": "Closed"}], "id": "6934000001", "name": "USPS COLLECTION BOX - BLUE BOX", "address": {"city": "ELLSWORTH", "state": "NE", "street": "4083 STATE HIGHWAY 2", "postcode": "69340"}}},
{"geometry": {"type": "Point", "coordinates": [-102.6013737357, 42.1333290657]}, "type": "Feature", "properties": {"collection_times": [{"days": "Mon-Fri", "time": "1:25pm"}, {"days": "Sat", "time": "9:00am"}, {"days": "Sun", "time": "Closed"}], "id": "6934000002", "name": "USPS COLLECTION BOX - PO LOBBY", "address": {"city": "ELLSWORTH", "state": "NE", "street": "100 MAIN ST", "postcode": "69340"}}},
{"geometry": {"type": "Point", "coordinates": [-103.661096622, 41.8247806208]}, "type": "Feature", "properties": {"collection_times": [{"days": "Mon-Sat", "time": "2:30pm"}, {"days": "Sun", "time": "Closed"}], "id": "6934100001", "name": "USPS COLLECTION BOX - BLUE BOX", "address": {"city": "GERING", "state": "NE", "street": "1050 P ST", "postcode": "69341"}}},
{"geometry": {"type": "Point", "coordinates": [-103.6604677017, 41.8270696321]}, "type": "Feature", "properties": {"collection_times": [{"days": "Mon-Sat", "time": "12:00pm"}, {"days": "Sun", "time": "Closed"}], "id": "6934100004", "name": "USPS COLLECTION BOX - BLUE BOX", "address": {"city": "GERING", "state": "NE", "street": "1825 10TH ST", "postcode": "69341"}}},
{"geometry": {"type": "Point", "coordinates": [-103.661096622, 41.8247806208]}, "type": "Feature", "properties": {"collection_times": [{"days": "Mon-Fri", "time": "2:30pm"}, {"days": "Sat", "time": "10:45am"}, {"days": "Sun", "time": "Closed"}], "id": "6934100009", "name": "USPS COLLECTION BOX - PO LOBBY", "address": {"city": "GERING", "state": "NE", "street": "1050 P ST", "postcode": "69341"}}},
{"geometry": {"type": "Point", "coordinates": [-102.2031061607, 42.806346895]}, "type": "Feature", "properties": {"collection_times": [{"days": "Mon-Sat", "time": "12:50pm"}, {"days": "Sun", "time": "Closed"}], "id": "6934300001", "name": "USPS COLLECTION BOX - BLUE BOX", "address": {"city": "GORDON", "state": "NE", "street": "112 E 3RD ST", "postcode": "69343"}}},
{"geometry": {"type": "Point", "coordinates": [-102.2031061607, 42.806346895]}, "type": "Feature", "properties": {"collection_times": [{"days": "Mon-Fri", "time": "12:50pm"}, {"days": "Sat", "time": "10:45am"}, {"days": "Sun", "time": "Closed"}], "id": "6934300005", "name": "USPS COLLECTION BOX - PO LOBBY", "address": {"city": "GORDON", "state": "NE", "street": "112 E 3RD ST", "postcode": "69343"}}},
{"geometry": {"type": "Point", "coordinates": [-103.7411825638, 41.5550027491]}, "type": "Feature", "properties": {"collection_times": [{"days": "Mon-Sat", "time": "1:55pm"}, {"days": "Sun", "time": "Closed"}], "id": "6934500001", "name": "USPS COLLECTION BOX - BLUE BOX", "address": {"city": "HARRISBURG", "state": "NE", "street": "306 STATE ST", "postcode": "69345"}}},
{"geometry": {"type": "Point", "coordinates": [-103.7411825638, 41.5550027491]}, "type": "Feature", "properties": {"collection_times": [{"days": "Mon-Fri", "time": "1:55pm"}, {"days": "Sat", "time": "11:45am"}, {"days": "Sun", "time": "Closed"}], "id": "6934500003", "name": "USPS COLLECTION BOX - PO LOBBY", "address": {"city": "HARRISBURG", "state": "NE", "street": "306 STATE ST", "postcode": "69345"}}},
{"geometry": {"type": "Point", "coordinates": [-103.8831073293, 42.6868126029]}, "type": "Feature", "properties": {"collection_times": [{"days": "Mon-Sat", "time": "12:55pm"}, {"days": "Sun", "time": "Closed"}], "id": "6934600001", "name": "USPS COLLECTION BOX - BLUE BOX", "address": {"city": "HARRISON", "state": "NE", "street": "267 MAIN ST", "postcode": "69346"}}},
{"geometry": {"type": "Point", "coordinates": [-103.8831073293, 42.6868126029]}, "type": "Feature", "properties": {"collection_times": [{"days": "Mon-Fri", "time": "12:55pm"}, {"days": "Sat", "time": "9:30am"}, {"days": "Sun", "time": "Closed"}], "id": "6934600002", "name": "USPS COLLECTION BOX - PO LOBBY", "address": {"city": "HARRISON", "state": "NE", "street": "267 MAIN ST", "postcode": "69346"}}},
{"geometry": {"type": "Point", "coordinates": [-102.6899847185, 42.6847421409]}, "type": "Feature", "properties": {"collection_times": [{"days": "Mon-Sat", "time": "1:40pm"}, {"days": "Sun", "time": "Closed"}], "id": "6934700001", "name": "USPS COLLECTION BOX - BLUE BOX", "address": {"city": "HAY SPRINGS", "state": "NE", "street": "240 N MAIN ST", "postcode": "69347"}}},
{"geometry": {"type": "Point", "coordinates": [-102.6899847185, 42.6847421409]}, "type": "Feature", "properties": {"collection_times": [{"days": "Mon-Fri", "time": "1:40pm"}, {"days": "Sat", "time": "9:45am"}, {"days": "Sun", "time": "Closed"}], "id": "6934700002", "name": "USPS COLLECTION BOX - PO LOBBY", "address": {"city": "HAY SPRINGS", "state": "NE", "street": "240 N MAIN ST", "postcode": "69347"}}},
{"geometry": {"type": "Point", "coordinates": [-103.0727979574, 42.3215912947]}, "type": "Feature", "properties": {"collection_times": [{"days": "Mon-Sat", "time": "2:35pm"}, {"days": "Sun", "time": "Closed"}], "id": "6934800001", "name": "USPS COLLECTION BOX - BLUE BOX", "address": {"city": "HEMINGFORD", "state": "NE", "street": "805 BOX BUTTE AVE", "postcode": "69348"}}},
{"geometry": {"type": "Point", "coordinates": [-103.0727979574, 42.3215912947]}, "type": "Feature", "properties": {"collection_times": [{"days": "Mon-Fri", "time": "2:35pm"}, {"days": "Sat", "time": "10:15am"}, {"days": "Sun", "time": "Closed"}], "id": "6934800002", "name": "USPS COLLECTION BOX - PO LOBBY", "address": {"city": "HEMINGFORD", "state": "NE", "street": "805 BOX BUTTE AVE", "postcode": "69348"}}},
{"geometry": {"type": "Point", "coordinates": [-101.7400043516, 41.938721301]}, "type": "Feature", "properties": {"collection_times": [{"days": "Mon-Sat", "time": "1:15pm"}, {"days": "Sun", "time": "Closed"}], "id": "6935000001", "name": "USPS COLLECTION BOX - BLUE BOX", "address": {"city": "HYANNIS", "state": "NE", "street": "116 S MAIN AVE", "postcode": "69350"}}},
{"geometry": {"type": "Point", "coordinates": [-101.7400043516, 41.938721301]}, "type": "Feature", "properties": {"collection_times": [{"days": "Mon-Fri", "time": "1:15pm"}, {"days": "Sat", "time": "9:30am"}, {"days": "Sun", "time": "Closed"}], "id": "6935000002", "name": "USPS COLLECTION BOX - PO LOBBY", "address": {"city": "HYANNIS", "state": "NE", "street": "116 S MAIN AVE", "postcode": "69350"}}},
{"geometry": {"type": "Point", "coordinates": [-102.4080702516, 42.0699819452]}, "type": "Feature", "properties": {"collection_times": [{"days": "Mon-Sat", "time": "2:10pm"}, {"days": "Sun", "time": "Closed"}], "id": "6935100001", "name": "USPS COLLECTION BOX - BLUE BOX", "address": {"city": "LAKESIDE", "state": "NE", "street": "1000 MAIN ST", "postcode": "69351"}}},
{"geometry": {"type": "Point", "coordinates": [-102.4080702516, 42.0699819452]}, "type": "Feature", "properties": {"collection_times": [{"days": "Mon-Fri", "time": "11:45am"}, {"days": "Sat", "time": "9:45am"}, {"days": "Sun", "time": "Closed"}], "id": "6935100002", "name": "USPS COLLECTION BOX - PO LOBBY", "address": {"city": "LAKESIDE", "state": "NE", "street": "1000 MAIN ST", "postcode": "69351"}}},
{"geometry": {"type": "Point", "coordinates": [-104.0390407034, 41.9164912949]}, "type": "Feature", "properties": {"collection_times": [{"days": "Mon-Sat", "time": "1:05pm"}, {"days": "Sun", "time": "Closed"}], "id": "6935200001", "name": "USPS COLLECTION BOX - BLUE BOX", "address": {"city": "LYMAN", "state": "NE", "street": "314 JEFFERS AVE", "postcode": "69352"}}},
{"geometry": {"type": "Point", "coordinates": [-104.0390407034, 41.9164912949]}, "type": "Feature", "properties": {"collection_times": [{"days": "Mon-Fri", "time": "11:45am"}, {"days": "Sat", "time": "9:45am"}, {"days": "Sun", "time": "Closed"}], "id": "6935200002", "name": "USPS COLLECTION BOX - PO LOBBY", "address": {"city": "LYMAN", "state": "NE", "street": "314 JEFFERS AVE", "postcode": "69352"}}},
{"geometry": {"type": "Point", "coordinates": [-103.3241384639, 41.7540302823]}, "type": "Feature", "properties": {"collection_times": [{"days": "Mon-Sat", "time": "2:10pm"}, {"days": "Sun", "time": "Closed"}], "id": "6935300000", "name": "USPS COLLECTION BOX - BLUE BOX", "address": {"city": "BAYARD", "state": "NE", "street": "350 MAIN ST", "postcode": "69353"}}},
{"geometry": {"type": "Point", "coordinates": [-103.6608857975, 41.824741665]}, "type": "Feature", "properties": {"collection_times": [{"days": "Mon-Sat", "time": "2:25pm"}, {"days": "Sun", "time": "Closed"}], "id": "6935500001", "name": "USPS COLLECTION BOX - BLUE BOX", "address": {"city": "MELBETA", "state": "NE", "street": "101 2ND ST", "postcode": "69355"}}},
{"geometry": {"type": "Point", "coordinates": [-103.5034763708, 41.8087884838]}, "type": "Feature", "properties": {"collection_times": [{"days": "Mon-Sat", "time": "2:35pm"}, {"days": "Sun", "time": "Closed"}], "id": "6935600001", "name": "USPS COLLECTION BOX - BLUE BOX", "address": {"city": "MINATARE", "state": "NE", "street": "320 MAIN ST", "postcode": "69356"}}},
{"geometry": {"type": "Point", "coordinates": [-103.5034763708, 41.8087884838]}, "type": "Feature", "properties": {"collection_times": [{"days": "Mon-Fri", "time": "2:15pm"}, {"days": "Sat", "time": "10:15am"}, {"days": "Sun", "time": "Closed"}], "id": "6935600002", "name": "USPS COLLECTION BOX - PO LOBBY", "address": {"city": "MINATARE", "state": "NE", "street": "320 MAIN ST", "postcode": "69356"}}},
{"geometry": {"type": "Point", "coordinates": [-103.80870686, 41.9415618445]}, "type": "Feature", "properties": {"collection_times": [{"days": "Mon-Sat", "time": "2:00pm"}, {"days": "Sun", "time": "Closed"}], "id": "6935700002", "name": "USPS COLLECTION BOX - BLUE BOX", "address": {"city": "MITCHELL", "state": "NE", "street": "1425 CENTER AVE", "postcode": "69357"}}},
{"geometry": {"type": "Point", "coordinates": [-103.8087027538, 41.941819164]}, "type": "Feature", "properties": {"collection_times": [{"days": "Mon-Fri", "time": "2:00pm"}, {"days": "Sat", "time": "10:45am"}, {"days": "Sun", "time": "Closed"}], "id": "6935700003", "name": "USPS COLLECTION BOX - PO LOBBY", "address": {"city": "MITCHELL", "state": "NE", "street": "1441 CENTER AVE", "postcode": "69357"}}},
{"geometry": {"type": "Point", "coordinates": [-103.9261370808, 41.9623343665]}, "type": "Feature", "properties": {"collection_times": [{"days": "Mon-Sat", "time": "1:40pm"}, {"days": "Sun", "time": "Closed"}], "id": "6935800001", "name": "USPS COLLECTION BOX - BLUE BOX", "address": {"city": "MORRILL", "state": "NE", "street": "125 CENTER AVE", "postcode": "69358"}}},
{"geometry": {"type": "Point", "coordinates": [-103.9261370808, 41.9623343665]}, "type": "Feature", "properties": {"collection_times": [{"days": "Mon-Fri", "time": "1:40pm"}, {"days": "Sat", "time": "9:45am"}, {"days": "Sun", "time": "Closed"}], "id": "6935800003", "name": "USPS COLLECTION BOX - PO LOBBY", "address": {"city": "MORRILL", "state": "NE", "street": "125 CENTER AVE", "postcode": "69358"}}},
{"geometry": {"type": "Point", "coordinates": [-102.4635637026, 42.7180535561]}, "type": "Feature", "properties": {"collection_times": [{"days": "Mon-Sat", "time": "1:15pm"}, {"days": "Sun", "time": "Closed"}], "id": "6936000001", "name": "USPS COLLECTION BOX - BLUE BOX", "address": {"city": "RUSHVILLE", "state": "NE", "street": "111 E 2ND ST", "postcode": "69360"}}},
{"geometry": {"type": "Point", "coordinates": [-102.4635637026, 42.7180535561]}, "type": "Feature", "properties": {"collection_times": [{"days": "Mon-Fri", "time": "1:15pm"}, {"days": "Sat", "time": "9:15am"}, {"days": "Sun", "time": "Closed"}], "id": "6936000002", "name": "USPS COLLECTION BOX - PO LOBBY", "address": {"city": "RUSHVILLE", "state": "NE", "street": "111 E 2ND ST", "postcode": "69360"}}},
{"geometry": {"type": "Point", "coordinates": [-103.6425447371, 41.8741339495]}, "type": "Feature", "properties": {"collection_times": [{"days": "Mon-Fri", "time": "12:55pm"}, {"days": "Sat-Sun", "time": "Closed"}], "id": "6936100026", "name": "USPS COLLECTION BOX - BLUE BOX", "address": {"city": "SCOTTSBLUFF", "state": "NE", "street": "1601 E 27TH ST", "postcode": "69361"}}},
{"geometry": {"type": "Point", "coordinates": [-103.664416525, 41.8665398318]}, "type": "Feature", "properties": {"collection_times": [{"days": "Mon-Sat", "time": "3:20pm"}, {"days": "Sun", "time": "Closed"}], "id": "6936100031", "name": "USPS COLLECTION BOX - BLUE BOX", "address": {"city": "SCOTTSBLUFF", "state": "NE", "street": "112 W 20TH ST", "postcode": "69361"}}},
{"geometry": {"type": "Point", "coordinates": [-103.664416525, 41.8665398318]}, "type": "Feature", "properties": {"collection_times": [{"days": "Mon-Sat", "time": "3:20pm"}, {"days": "Sun", "time": "Closed"}], "id": "6936100032", "name": "USPS COLLECTION BOX - BLUE BOX", "address": {"city": "SCOTTSBLUFF", "state": "NE", "street": "112 W 20TH ST", "postcode": "69361"}}},
{"geometry": {"type": "Point", "coordinates": [-103.664416525, 41.8665398318]}, "type": "Feature", "properties": {"collection_times": [{"days": "Mon-Sat", "time": "3:20pm"}, {"days": "Sun", "time": "Closed"}], "id": "6936100035", "name": "USPS COLLECTION BOX - PO LOBBY", "address": {"city": "SCOTTSBLUFF", "state": "NE", "street": "112 W 20TH ST", "postcode": "69361"}}},
{"geometry": {"type": "Point", "coordinates": [-103.664416525, 41.8665398318]}, "type": "Feature", "properties": {"collection_times": [{"days": "Mon-Sat", "time": "3:20pm"}, {"days": "Sun", "time": "Closed"}], "id": "6936100036", "name": "USPS COLLECTION BOX - PO LOBBY", "address": {"city": "SCOTTSBLUFF", "state": "NE", "street": "112 W 20TH ST", "postcode": "69361"}}},
{"geometry": {"type": "Point", "coordinates": [-102.5544537314, 42.9967955285]}, "type": "Feature", "properties": {"collection_times": [{"days": "Mon-Sat", "time": "11:00am"}, {"days": "Sun", "time": "Closed"}], "id": "6936500001", "name": "USPS COLLECTION BOX - BLUE BOX", "address": {"city": "WHITE CLAY", "state": "NE", "street": "7883 W HIGHWAY 87", "postcode": "69365"}}},
{"geometry": {"type": "Point", "coordinates": [-102.5555961793, 42.9934029452]}, "type": "Feature", "properties": {"collection_times": [{"days": "Mon-Sat", "time": "11:00am"}, {"days": "Sun", "time": "Closed"}], "id": "6936500002", "name": "USPS COLLECTION BOX - PO LOBBY", "address": {"city": "WHITE CLAY", "state": "NE", "street": "7883 W HIGHWAY 87", "postcode": "69365"}}},
{"geometry": {"type": "Point", "coordinates": [-101.3338857429, 42.1810859124]}, "type": "Feature", "properties": {"collection_times": [{"days": "Mon-Sat", "time": "12:55pm"}, {"days": "Sun", "time": "Closed"}], "id": "6936600001", "name": "USPS COLLECTION BOX - BLUE BOX", "address": {"city": "WHITMAN", "state": "NE", "street": "100 CORROTHER ST", "postcode": "69366"}}},
{"geometry": {"type": "Point", "coordinates": [-101.3338857429, 42.1810859124]}, "type": "Feature", "properties": {"collection_times": [{"days": "Mon-Fri", "time": "11:45am"}, {"days": "Sat", "time": "8:45am"}, {"days": "Sun", "time": "Closed"}], "id": "6936600002", "name": "USPS COLLECTION BOX - PO LOBBY", "address": {"city": "WHITMAN", "state": "NE", "street": "100 CORROTHER ST", "postcode": "69366"}}}
]}
