{"type": "FeatureCollection", "features": [
{"geometry": {"type": "Point", "coordinates": [-85.0589515438, 38.259622323]}, "type": "Feature", "properties": {"collection_times": [{"days": "Mon-Fri", "time": "2:30pm"}, {"days": "Sat", "time": "10:45am"}, {"days": "Sun", "time": "Closed"}], "id": "4000300001", "name": "USPS COLLECTION BOX - BLUE BOX", "address": {"city": "BAGDAD", "state": "KY", "street": "5811 ELMBURG RD", "postcode": "40003"}}},
{"geometry": {"type": "Point", "coordinates": [-85.0589515438, 38.259622323]}, "type": "Feature", "properties": {"collection_times": [{"days": "Mon-Fri", "time": "2:30pm"}, {"days": "Sat", "time": "10:45am"}, {"days": "Sun", "time": "Closed"}], "id": "4000300002", "name": "USPS COLLECTION BOX - PO LOBBY", "address": {"city": "BAGDAD", "state": "KY", "street": "5811 ELMBURG RD", "postcode": "40003"}}},
{"geometry": {"type": "Point", "coordinates": [-85.4753437298, 37.8108369959]}, "type": "Feature", "properties": {"collection_times": [{"days": "Mon-Fri", "time": "5:00pm"}, {"days": "Sat", "time": "4:30pm"}, {"days": "Sun", "time": "Closed"}], "id": "4000400001", "name": "USPS COLLECTION BOX - BLUE BOX", "address": {"city": "BARDSTOWN", "state": "KY", "street": "510 W STEPHEN FOSTER AVE", "postcode": "40004"}}},
{"geometry": {"type": "Point", "coordinates": [-85.4686445848, 37.8094085212]}, "type": "Feature", "properties": {"collection_times": [{"days": "Mon-Fri", "time": "4:30pm"}, {"days": "Sat", "time": "4:00pm"}, {"days": "Sun", "time": "Closed"}], "id": "4000400002", "name": "USPS COLLECTION BOX - BLUE BOX", "address": {"city": "BARDSTOWN", "state": "KY", "street": "205 W STEPHEN FOSTER AVE", "postcode": "40004"}}},
{"geometry": {"type": "Point", "coordinates": [-85.4662825446, 37.8090824229]}, "type": "Feature", "properties": {"collection_times": [{"days": "Mon-Sat", "time": "10:30am"}, {"days": "Sun", "time": "Closed"}], "id": "4000400011", "name": "USPS COLLECTION BOX - BLUE BOX", "address": {"city": "BARDSTOWN", "state": "KY", "street": "120 E STEPHEN FOSTER AVE", "postcode": "40004"}}},
{"geometry": {"type": "Point", "coordinates": [-85.4666500854, 37.8094379839]}, "type": "Feature", "properties": {"collection_times": [{"days": "Mon-Sat", "time": "10:00am"}, {"days": "Sun", "time": "Closed"}], "id": "4000400012", "name": "USPS COLLECTION BOX - BLUE BOX", "address": {"city": "BARDSTOWN", "state": "KY", "street": "105 N 3RD ST", "postcode": "40004"}}},
{"geometry": {"type": "Point", "coordinates": [-85.46979647, 37.8220697462]}, "type": "Feature", "properties": {"collection_times": [{"days": "Mon-Sat", "time": "10:00am"}, {"days": "Sun", "time": "Closed"}], "id": "4000400018", "name": "USPS COLLECTION BOX - BLUE BOX", "address": {"city": "BARDSTOWN", "state": "KY", "street": "215 KENTUCKY HOME SQ", "postcode": "40004"}}},
{"geometry": {"type": "Point", "coordinates": [-85.4654579384, 37.8266840682]}, "type": "Feature", "properties": {"collection_times": [{"days": "Mon-Sat", "time": "2:30pm"}, {"days": "Sun", "time": "Closed"}], "id": "4000400019", "name": "USPS COLLECTION BOX - BLUE BOX", "address": {"city": "BARDSTOWN", "state": "KY", "street": "90 W JOHN ROWAN BLVD", "postcode": "40004"}}},
{"geometry": {"type": "Point", "coordinates": [-85.4604518641, 37.8371896964]}, "type": "Feature", "properties": {"collection_times": [{"days": "Mon-Sat", "time": "10:00am"}, {"days": "Sun", "time": "Closed"}], "id": "4000400020", "name": "USPS COLLECTION BOX - BLUE BOX", "address": {"city": "BARDSTOWN", "state": "KY", "street": "1411 N 3RD ST", "postcode": "40004"}}},
{"geometry": {"type": "Point", "coordinates": [-85.4659276412, 37.8267990698]}, "type": "Feature", "properties": {"collection_times": [{"days": "Mon-Sat", "time": "12:00pm"}, {"days": "Sun", "time": "Closed"}], "id": "4000400026", "name": "USPS COLLECTION BOX - BLUE BOX", "address": {"city": "BARDSTOWN", "state": "KY", "street": "102 W JOHN ROWAN BLVD", "postcode": "40004"}}},
{"geometry": {"type": "Point", "coordinates": [-85.4753437298, 37.8108369959]}, "type": "Feature", "properties": {"collection_times": [{"days": "Mon-Fri", "time": "5:00pm"}, {"days": "Sat", "time": "4:30pm"}, {"days": "Sun", "time": "Closed"}], "id": "4000400032", "name": "USPS COLLECTION BOX - PO LOBBY", "address": {"city": "BARDSTOWN", "state": "KY", "street": "510 W STEPHEN FOSTER AVE", "postcode": "40004"}}},
{"geometry": {"type": "Point", "coordinates": [-85.4753437298, 37.8108369959]}, "type": "Feature", "properties": {"collection_times": [{"days": "Mon-Fri", "time": "5:00pm"}, {"days": "Sat", "time": "4:30pm"}, {"days": "Sun", "time": "Closed"}], "id": "4000400033", "name": "USPS COLLECTION BOX - PO LOBBY", "address": {"city": "BARDSTOWN", "state": "KY", "street": "510 W STEPHEN FOSTER AVE", "postcode": "40004"}}},
{"geometry": {"type": "Point", "coordinates": [-85.4758337974, 37.8247028958]}, "type": "Feature", "properties": {"collection_times": [{"days": "Mon-Sat", "time": "1:00pm"}, {"days": "Sun", "time": "Closed"}], "id": "4000400035", "name": "USPS COLLECTION BOX - BLUE BOX", "address": {"city": "BARDSTOWN", "state": "KY", "street": "900 CHAMBERS BLVD", "postcode": "40004"}}},
{"geometry": {"type": "Point", "coordinates": [-85.5175936412, 37.8587346333]}, "type": "Feature", "properties": {"collection_times": [{"days": "Mon-Sat", "time": "10:00am"}, {"days": "Sun", "time": "Closed"}], "id": "4000400036", "name": "USPS COLLECTION BOX - BLUE BOX", "address": {"city": "BARDSTOWN", "state": "KY", "street": "3945 NEW SHEPHERDSVILLE RD", "postcode": "40004"}}},
{"geometry": {"type": "Point", "coordinates": [-85.4678416921, 37.7995881061]}, "type": "Feature", "properties": {"collection_times": [{"days": "Mon-Sat", "time": "11:00am"}, {"days": "Sun", "time": "Closed"}], "id": "4000400037", "name": "USPS COLLECTION BOX - BLUE BOX", "address": {"city": "BARDSTOWN", "state": "KY", "street": "3675 E JOHN ROWAN BLVD", "postcode": "40004"}}},
{"geometry": {"type": "Point", "coordinates": [-85.3141215932, 38.5974211691]}, "type": "Feature", "properties": {"collection_times": [{"days": "Mon-Fri", "time": "4:00pm"}, {"days": "Sat", "time": "12:00pm"}, {"days": "Sun", "time": "Closed"}], "id": "4000600001", "name": "USPS COLLECTION BOX - BLUE BOX", "address": {"city": "BEDFORD", "state": "KY", "street": "305 HIGHWAY 42 E", "postcode": "40006"}}},
{"geometry": {"type": "Point", "coordinates": [-85.3141215932, 38.5974211691]}, "type": "Feature", "properties": {"collection_times": [{"days": "Mon-Fri", "time": "4:00pm"}, {"days": "Sat", "time": "12:00pm"}, {"days": "Sun", "time": "Closed"}], "id": "4000600002", "name": "USPS COLLECTION BOX - PO LOBBY", "address": {"city": "BEDFORD", "state": "KY", "street": "305 HIGHWAY 42 E", "postcode": "40006"}}},
{"geometry": {"type": "Point", "coordinates": [-85.0706669523, 38.4028042447]}, "type": "Feature", "properties": {"collection_times": [{"days": "Mon-Sat", "time": "12:15pm"}, {"days": "Sun", "time": "Closed"}], "id": "4000700001", "name": "USPS COLLECTION BOX - BLUE BOX", "address": {"city": "BETHLEHEM", "state": "KY", "street": "3946 BETHLEHEM RD", "postcode": "40007"}}},
{"geometry": {"type": "Point", "coordinates": [-85.3178493503, 37.9124290751]}, "type": "Feature", "properties": {"collection_times": [{"days": "Mon-Fri", "time": "4:00pm"}, {"days": "Sat", "time": "11:00am"}, {"days": "Sun", "time": "Closed"}], "id": "4000800002", "name": "USPS COLLECTION BOX - BLUE BOX", "address": {"city": "BLOOMFIELD", "state": "KY", "street": "131 TAYLORSVILLE RD", "postcode": "40008"}}},
{"geometry": {"type": "Point", "coordinates": [-85.3178493503, 37.9124290751]}, "type": "Feature", "properties": {"collection_times": [{"days": "Mon-Fri", "time": "4:00pm"}, {"days": "Sat", "time": "11:00am"}, {"days": "Sun", "time": "Closed"}], "id": "4000800004", "name": "USPS COLLECTION BOX - PO LOBBY", "address": {"city": "BLOOMFIELD", "state": "KY", "street": "131 TAYLORSVILLE RD", "postcode": "40008"}}},
{"geometry": {"type": "Point", "coordinates": [-85.148446721, 37.494806617]}, "type": "Feature", "properties": {"collection_times": [{"days": "Mon-Fri", "time": "4:00pm"}, {"days": "Sat", "time": "11:45am"}, {"days": "Sun", "time": "Closed"}], "id": "4000900001", "name": "USPS COLLECTION BOX - BLUE BOX", "address": {"city": "BRADFORDSVILLE", "state": "KY", "street": "112 S 6TH ST", "postcode": "40009"}}},
{"geometry": {"type": "Point", "coordinates": [-85.4431667039, 38.3731520359]}, "type": "Feature", "properties": {"collection_times": [{"days": "Mon-Fri", "time": "4:15pm"}, {"days": "Sat", "time": "10:45am"}, {"days": "Sun", "time": "Closed"}], "id": "4001000001", "name": "USPS COLLECTION BOX - BLUE BOX", "address": {"city": "BUCKNER", "state": "KY", "street": "4725 W HIGHWAY 146", "postcode": "40010"}}},
{"geometry": {"type": "Point", "coordinates": [-85.4431667039, 38.3731520359]}, "type": "Feature", "properties": {"collection_times": [{"days": "Mon-Fri", "time": "4:15pm"}, {"days": "Sat", "time": "10:45am"}, {"days": "Sun", "time": "Closed"}], "id": "4001000002", "name": "USPS COLLECTION BOX - PO LOBBY", "address": {"city": "BUCKNER", "state": "KY", "street": "4725 W HIGHWAY 146", "postcode": "40010"}}},
{"geometry": {"type": "Point", "coordinates": [-85.2059465393, 38.5235221343]}, "type": "Feature", "properties": {"collection_times": [{"days": "Mon-Fri", "time": "3:45pm"}, {"days": "Sat", "time": "11:00am"}, {"days": "Sun", "time": "Closed"}], "id": "4001100001", "name": "USPS COLLECTION BOX - BLUE BOX", "address": {"city": "CAMPBELLSBURG", "state": "KY", "street": "8130 MAIN ST", "postcode": "40011"}}},
{"geometry": {"type": "Point", "coordinates": [-85.2059465393, 38.5235221343]}, "type": "Feature", "properties": {"collection_times": [{"days": "Mon-Fri", "time": "3:45pm"}, {"days": "Sat", "time": "11:00am"}, {"days": "Sun", "time": "Closed"}], "id": "4001100002", "name": "USPS COLLECTION BOX - PO LOBBY", "address": {"city": "CAMPBELLSBURG", "state": "KY", "street": "8130 MAIN ST", "postcode": "40011"}}},
{"geometry": {"type": "Point", "coordinates": [-85.1771547617, 37.9078618695]}, "type": "Feature", "properties": {"collection_times": [{"days": "Mon-Fri", "time": "12:00pm"}, {"days": "Sat", "time": "10:45am"}, {"days": "Sun", "time": "Closed"}], "id": "4001200001", "name": "USPS COLLECTION BOX - BLUE BOX", "address": {"city": "CHAPLIN", "state": "KY", "street": "24 OLD TUNNELL MILL RD", "postcode": "40012"}}},
{"geometry": {"type": "Point", "coordinates": [-85.4672045737, 37.9111850182]}, "type": "Feature", "properties": {"collection_times": [{"days": "Mon-Fri", "time": "3:15pm"}, {"days": "Sat", "time": "10:45am"}, {"days": "Sun", "time": "Closed"}], "id": "4001300001", "name": "USPS COLLECTION BOX - BLUE BOX", "address": {"city": "COXS CREEK", "state": "KY", "street": "6120 LOUISVILLE RD", "postcode": "40013"}}},
{"geometry": {"type": "Point", "coordinates": [-85.4737989804, 38.3265536513]}, "type": "Feature", "properties": {"collection_times": [{"days": "Mon-Fri", "time": "4:30pm"}, {"days": "Sat", "time": "11:00am"}, {"days": "Sun", "time": "Closed"}], "id": "4001400001", "name": "USPS COLLECTION BOX - BLUE BOX", "address": {"city": "CRESTWOOD", "state": "KY", "street": "6815 CENTRAL AVE", "postcode": "40014"}}},
{"geometry": {"type": "Point", "coordinates": [-85.4670547987, 38.3277297351]}, "type": "Feature", "properties": {"collection_times": [{"days": "Mon-Sat", "time": "11:00am"}, {"days": "Sun", "time": "Closed"}], "id": "4001400003", "name": "USPS COLLECTION BOX - BLUE BOX", "address": {"city": "CRESTWOOD", "state": "KY", "street": "6518 W HIGHWAY 146", "postcode": "40014"}}},
{"geometry": {"type": "Point", "coordinates": [-85.4523807096, 38.2320423858]}, "type": "Feature", "properties": {"collection_times": [{"days": "Mon-Fri", "time": "4:15pm"}, {"days": "Sat", "time": "10:00am"}, {"days": "Sun", "time": "Closed"}], "id": "4001800001", "name": "USPS COLLECTION BOX - BLUE BOX", "address": {"city": "EASTWOOD", "state": "KY", "street": "16207 EASTWOOD CUT OFF RD", "postcode": "40018"}}},
{"geometry": {"type": "Point", "coordinates": [-85.4523807096, 38.2320423858]}, "type": "Feature", "properties": {"collection_times": [{"days": "Mon-Fri", "time": "4:15pm"}, {"days": "Sat", "time": "10:00am"}, {"days": "Sun", "time": "Closed"}], "id": "4001800002", "name": "USPS COLLECTION BOX - PO LOBBY", "address": {"city": "EASTWOOD", "state": "KY", "street": "16207 EASTWOOD CUT OFF RD", "postcode": "40018"}}},
{"geometry": {"type": "Point", "coordinates": [-85.179655356, 38.3749082989]}, "type": "Feature", "properties": {"collection_times": [{"days": "Mon-Fri", "time": "4:00pm"}, {"days": "Sat", "time": "11:00am"}, {"days": "Sun", "time": "Closed"}], "id": "4001900001", "name": "USPS COLLECTION BOX - BLUE BOX", "address": {"city": "EMINENCE", "state": "KY", "street": "4827 N MAIN ST", "postcode": "40019"}}},
{"geometry": {"type": "Point", "coordinates": [-85.179655356, 38.3749082989]}, "type": "Feature", "properties": {"collection_times": [{"days": "Mon-Fri", "time": "4:00pm"}, {"days": "Sat", "time": "11:00am"}, {"days": "Sun", "time": "Closed"}], "id": "4001900003", "name": "USPS COLLECTION BOX - PO LOBBY", "address": {"city": "EMINENCE", "state": "KY", "street": "4827 N MAIN ST", "postcode": "40019"}}},
{"geometry": {"type": "Point", "coordinates": [-85.3832478996, 37.9351461487]}, "type": "Feature", "properties": {"collection_times": [{"days": "Mon-Fri", "time": "2:00pm"}, {"days": "Sat", "time": "11:45am"}, {"days": "Sun", "time": "Closed"}], "id": "4002000001", "name": "USPS COLLECTION BOX - BLUE BOX", "address": {"city": "FAIRFIELD", "state": "KY", "street": "104 LITTLE UNION RD", "postcode": "40020"}}},
{"geometry": {"type": "Point", "coordinates": [-85.3163833898, 38.1502277737]}, "type": "Feature", "properties": {"collection_times": [{"days": "Mon-Fri", "time": "3:45pm"}, {"days": "Sat", "time": "10:45am"}, {"days": "Sun", "time": "Closed"}], "id": "4002200001", "name": "USPS COLLECTION BOX - BLUE BOX", "address": {"city": "FINCHVILLE", "state": "KY", "street": "5655 TAYLORSVILLE RD", "postcode": "40022"}}},
{"geometry": {"type": "Point", "coordinates": [-85.4609142578, 38.1893641608]}, "type": "Feature", "properties": {"collection_times": [{"days": "Mon-Fri", "time": "3:00pm"}, {"days": "Sat", "time": "1:30pm"}, {"days": "Sun", "time": "Closed"}], "id": "4002300001", "name": "USPS COLLECTION BOX - BLUE BOX", "address": {"city": "FISHERVILLE", "state": "KY", "street": "15125 OLD TAYLORSVILLE RD", "postcode": "40023"}}},
{"geometry": {"type": "Point", "coordinates": [-85.4609142578, 38.1893641608]}, "type": "Feature", "properties": {"collection_times": [{"days": "Mon-Fri", "time": "3:00pm"}, {"days": "Sat", "time": "1:30pm"}, {"days": "Sun", "time": "Closed"}], "id": "4002300002", "name": "USPS COLLECTION BOX - PO LOBBY", "address": {"city": "FISHERVILLE", "state": "KY", "street": "15125 OLD TAYLORSVILLE RD", "postcode": "40023"}}},
{"geometry": {"type": "Point", "coordinates": [-85.6509094244, 38.3091914035]}, "type": "Feature", "properties": {"collection_times": [{"days": "Mon-Fri", "time": "11:45am"}, {"days": "Sat", "time": "10:45am"}, {"days": "Sun", "time": "Closed"}], "id": "4002500001", "name": "USPS COLLECTION BOX - BLUE BOX", "address": {"city": "GLENVIEW", "state": "KY", "street": "4330 GLENVIEW AVE", "postcode": "40025"}}},
{"geometry": {"type": "Point", "coordinates": [-85.5818378856, 38.3922177855]}, "type": "Feature", "properties": {"collection_times": [{"days": "Mon-Fri", "time": "4:30pm"}, {"days": "Sat", "time": "11:00am"}, {"days": "Sun", "time": "Closed"}], "id": "4002600001", "name": "USPS COLLECTION BOX - BLUE BOX", "address": {"city": "GOSHEN", "state": "KY", "street": "12340 W HIGHWAY 42", "postcode": "40026"}}},
{"geometry": {"type": "Point", "coordinates": [-85.6359532371, 38.3280064679]}, "type": "Feature", "properties": {"collection_times": [{"days": "Mon-Fri", "time": "3:45pm"}, {"days": "Sat", "time": "11:15am"}, {"days": "Sun", "time": "Closed"}], "id": "4002700001", "name": "USPS COLLECTION BOX - BLUE BOX", "address": {"city": "HARRODS CREEK", "state": "KY", "street": "6319 UPPER RIVER RD", "postcode": "40027"}}},
{"geometry": {"type": "Point", "coordinates": [-85.6359532371, 38.3280064679]}, "type": "Feature", "properties": {"collection_times": [{"days": "Mon-Fri", "time": "3:45pm"}, {"days": "Sat", "time": "11:15am"}, {"days": "Sun", "time": "Closed"}], "id": "4002700002", "name": "USPS COLLECTION BOX - PO LOBBY", "address": {"city": "HARRODS CREEK", "state": "KY", "street": "6319 UPPER RIVER RD", "postcode": "40027"}}},
{"geometry": {"type": "Point", "coordinates": [-85.3774971028, 38.4009941581]}, "type": "Feature", "properties": {"collection_times": [{"days": "Mon-Fri", "time": "4:30pm"}, {"days": "Sat", "time": "2:30pm"}, {"days": "Sun", "time": "Closed"}], "id": "4003100001", "name": "USPS COLLECTION BOX - BLUE BOX", "address": {"city": "LAGRANGE", "state": "KY", "street": "108 W CRYSTAL DR", "postcode": "40031"}}},
{"geometry": {"type": "Point", "coordinates": [-85.3787155506, 38.4076163623]}, "type": "Feature", "properties": {"collection_times": [{"days": "Mon-Fri", "time": "2:30pm"}, {"days": "Sat", "time": "1:30pm"}, {"days": "Sun", "time": "Closed"}], "id": "4003100006", "name": "USPS COLLECTION BOX - BLUE BOX", "address": {"city": "LAGRANGE", "state": "KY", "street": "100 W MAIN ST", "postcode": "40031"}}},
{"geometry": {"type": "Point", "coordinates": [-85.3752251024, 38.3956487859]}, "type": "Feature", "properties": {"collection_times": [{"days": "Mon-Sat", "time": "12:00pm"}, {"days": "Sun", "time": "Closed"}], "id": "4003100009", "name": "USPS COLLECTION BOX - BLUE BOX", "address": {"city": "LAGRANGE", "state": "KY", "street": "1023 SANIBEL WAY", "postcode": "40031"}}},
{"geometry": {"type": "Point", "coordinates": [-85.3618194314, 38.3824873458]}, "type": "Feature", "properties": {"collection_times": [{"days": "Mon-Sat", "time": "10:00am"}, {"days": "Sun", "time": "Closed"}], "id": "4003100010", "name": "USPS COLLECTION BOX - BLUE BOX", "address": {"city": "LAGRANGE", "state": "KY", "street": "2034 S HIGHWAY 53", "postcode": "40031"}}},
{"geometry": {"type": "Point", "coordinates": [-85.3774971028, 38.4009941581]}, "type": "Feature", "properties": {"collection_times": [{"days": "Mon-Fri", "time": "4:30pm"}, {"days": "Sat", "time": "2:30pm"}, {"days": "Sun", "time": "Closed"}], "id": "4003100011", "name": "USPS COLLECTION BOX - BLUE BOX", "address": {"city": "LAGRANGE", "state": "KY", "street": "108 W CRYSTAL DR", "postcode": "40031"}}},
{"geometry": {"type": "Point", "coordinates": [-85.3774971028, 38.4009941581]}, "type": "Feature", "properties": {"collection_times": [{"days": "Mon-Fri", "time": "4:30pm"}, {"days": "Sat", "time": "2:30pm"}, {"days": "Sun", "time": "Closed"}], "id": "4003100013", "name": "USPS COLLECTION BOX - PO LOBBY", "address": {"city": "LAGRANGE", "state": "KY", "street": "108 W CRYSTAL DR", "postcode": "40031"}}},
{"geometry": {"type": "Point", "coordinates": [-85.3774971028, 38.4009941581]}, "type": "Feature", "properties": {"collection_times": [{"days": "Mon-Fri", "time": "4:30pm"}, {"days": "Sat", "time": "2:30pm"}, {"days": "Sun", "time": "Closed"}], "id": "4003100014", "name": "USPS COLLECTION BOX - PO LOBBY", "address": {"city": "LAGRANGE", "state": "KY", "street": "108 W CRYSTAL DR", "postcode": "40031"}}},
{"geometry": {"type": "Point", "coordinates": [-85.2526067397, 37.5699795069]}, "type": "Feature", "properties": {"collection_times": [{"days": "Mon-Fri", "time": "4:15pm"}, {"days": "Sat", "time": "4:00pm"}, {"days": "Sun", "time": "Closed"}], "id": "4003300001", "name": "USPS COLLECTION BOX - BLUE BOX", "address": {"city": "LEBANON", "state": "KY", "street": "101 E MAIN ST", "postcode": "40033"}}},
{"geometry": {"type": "Point", "coordinates": [-85.2526067397, 37.5699795069]}, "type": "Feature", "properties": {"collection_times": [{"days": "Mon-Fri", "time": "4:15pm"}, {"days": "Sat", "time": "4:00pm"}, {"days": "Sun", "time": "Closed"}], "id": "4003300032", "name": "USPS COLLECTION BOX - PO LOBBY", "address": {"city": "LEBANON", "state": "KY", "street": "101 E MAIN ST", "postcode": "40033"}}},
{"geometry": {"type": "Point", "coordinates": [-85.3855466516, 37.6386266518]}, "type": "Feature", "properties": {"collection_times": [{"days": "Mon-Fri", "time": "3:30pm"}, {"days": "Sat", "time": "11:15am"}, {"days": "Sun", "time": "Closed"}], "id": "4003700001", "name": "USPS COLLECTION BOX - BLUE BOX", "address": {"city": "LORETTO", "state": "KY", "street": "4800 HIGHWAY 52", "postcode": "40037"}}},
{"geometry": {"type": "Point", "coordinates": [-85.0706068711, 37.735752941]}, "type": "Feature", "properties": {"collection_times": [{"days": "Mon-Fri", "time": "10:00am"}, {"days": "Sat", "time": "11:15am"}, {"days": "Sun", "time": "Closed"}], "id": "4004000001", "name": "USPS COLLECTION BOX - BLUE BOX", "address": {"city": "MACKVILLE", "state": "KY", "street": "10696 MAIN ST", "postcode": "40040"}}},
{"geometry": {"type": "Point", "coordinates": [-85.0706068711, 37.735752941]}, "type": "Feature", "properties": {"collection_times": [{"days": "Mon-Fri", "time": "10:00am"}, {"days": "Sat", "time": "11:15am"}, {"days": "Sun", "time": "Closed"}], "id": "4004000002", "name": "USPS COLLECTION BOX - PO LOBBY", "address": {"city": "MACKVILLE", "state": "KY", "street": "10696 MAIN ST", "postcode": "40040"}}},
{"geometry": {"type": "Point", "coordinates": [-85.3709484104, 38.7246362857]}, "type": "Feature", "properties": {"collection_times": [{"days": "Mon-Fri", "time": "3:45pm"}, {"days": "Sat", "time": "12:00pm"}, {"days": "Sun", "time": "Closed"}], "id": "4004500001", "name": "USPS COLLECTION BOX - BLUE BOX", "address": {"city": "MILTON", "state": "KY", "street": "21 HIGH ST", "postcode": "40045"}}},
{"geometry": {"type": "Point", "coordinates": [-85.3709484104, 38.7246362857]}, "type": "Feature", "properties": {"collection_times": [{"days": "Mon-Fri", "time": "4:00pm"}, {"days": "Sat", "time": "12:00pm"}, {"days": "Sun", "time": "Closed"}], "id": "4004500002", "name": "USPS COLLECTION BOX - PO LOBBY", "address": {"city": "MILTON", "state": "KY", "street": "21 HIGH ST", "postcode": "40045"}}},
{"geometry": {"type": "Point", "coordinates": [-85.5477357734, 38.0528026711]}, "type": "Feature", "properties": {"collection_times": [{"days": "Mon-Fri", "time": "4:00pm"}, {"days": "Sat", "time": "12:00pm"}, {"days": "Sun", "time": "Closed"}], "id": "4004700001", "name": "USPS COLLECTION BOX - BLUE BOX", "address": {"city": "MT WASHINGTON", "state": "KY", "street": "645 N BARDSTOWN RD", "postcode": "40047"}}},
{"geometry": {"type": "Point", "coordinates": [-85.5477357734, 38.0528026711]}, "type": "Feature", "properties": {"collection_times": [{"days": "Mon-Fri", "time": "4:00pm"}, {"days": "Sat", "time": "12:00pm"}, {"days": "Sun", "time": "Closed"}], "id": "4004700002", "name": "USPS COLLECTION BOX - PO LOBBY", "address": {"city": "MT WASHINGTON", "state": "KY", "street": "645 N BARDSTOWN RD", "postcode": "40047"}}},
{"geometry": {"type": "Point", "coordinates": [-85.5241041663, 38.0594761498]}, "type": "Feature", "properties": {"collection_times": [{"days": "Mon-Sat", "time": "10:00am"}, {"days": "Sun", "time": "Closed"}], "id": "4004700003", "name": "USPS COLLECTION BOX - BLUE BOX", "address": {"city": "MT WASHINGTON", "state": "KY", "street": "200 OAKBROOKE DR", "postcode": "40047"}}},
{"geometry": {"type": "Point", "coordinates": [-85.5469784722, 38.0437706371]}, "type": "Feature", "properties": {"collection_times": [{"days": "Mon-Sat", "time": "9:30am"}, {"days": "Sun", "time": "Closed"}], "id": "4004700004", "name": "USPS COLLECTION BOX - BLUE BOX", "address": {"city": "MT WASHINGTON", "state": "KY", "street": "10070 HIGHWAY 44 E", "postcode": "40047"}}},
{"geometry": {"type": "Point", "coordinates": [-85.5477357734, 38.0528026711]}, "type": "Feature", "properties": {"collection_times": [{"days": "Mon-Fri", "time": "4:00pm"}, {"days": "Sat", "time": "12:00pm"}, {"days": "Sun", "time": "Closed"}], "id": "4004700008", "name": "USPS COLLECTION BOX - BLUE BOX", "address": {"city": "MT WASHINGTON", "state": "KY", "street": "645 N BARDSTOWN RD", "postcode": "40047"}}},
{"geometry": {"type": "Point", "coordinates": [-85.4602319676, 37.8441936515]}, "type": "Feature", "properties": {"collection_times": [{"days": "Mon-Fri", "time": "12:00pm"}, {"days": "Sat", "time": "11:15am"}, {"days": "Sun", "time": "Closed"}], "id": "4004800001", "name": "USPS COLLECTION BOX - BLUE BOX", "address": {"city": "NAZARETH", "state": "KY", "street": "85 VILLAGE DR", "postcode": "40048"}}},
{"geometry": {"type": "Point", "coordinates": [-85.4000318858, 37.6526320499]}, "type": "Feature", "properties": {"collection_times": [{"days": "Mon-Fri", "time": "11:45am"}, {"days": "Sat", "time": "11:00am"}, {"days": "Sun", "time": "Closed"}], "id": "4004900001", "name": "USPS COLLECTION BOX - BLUE BOX", "address": {"city": "NERINX", "state": "KY", "street": "515 NERINX RD", "postcode": "40049"}}},
{"geometry": {"type": "Point", "coordinates": [-85.4000318858, 37.6526320499]}, "type": "Feature", "properties": {"collection_times": [{"days": "Mon-Fri", "time": "11:45am"}, {"days": "Sat", "time": "11:00am"}, {"days": "Sun", "time": "Closed"}], "id": "4004900002", "name": "USPS COLLECTION BOX - PO LOBBY", "address": {"city": "NERINX", "state": "KY", "street": "515 NERINX RD", "postcode": "40049"}}},
{"geometry": {"type": "Point", "coordinates": [-85.1683769761, 38.4337860369]}, "type": "Feature", "properties": {"collection_times": [{"days": "Mon-Fri", "time": "4:15pm"}, {"days": "Sat", "time": "11:45am"}, {"days": "Sun", "time": "Closed"}], "id": "4005000001", "name": "USPS COLLECTION BOX - BLUE BOX", "address": {"city": "NEW CASTLE", "state": "KY", "street": "50 COURT ST", "postcode": "40050"}}},
{"geometry": {"type": "Point", "coordinates": [-85.1683769761, 38.4337860369]}, "type": "Feature", "properties": {"collection_times": [{"days": "Mon-Fri", "time": "4:15pm"}, {"days": "Sat", "time": "11:45am"}, {"days": "Sun", "time": "Closed"}], "id": "4005000002", "name": "USPS COLLECTION BOX - PO LOBBY", "address": {"city": "NEW CASTLE", "state": "KY", "street": "50 COURT ST", "postcode": "40050"}}},
{"geometry": {"type": "Point", "coordinates": [-85.5923604932, 37.6584159787]}, "type": "Feature", "properties": {"collection_times": [{"days": "Mon-Fri", "time": "3:15pm"}, {"days": "Sat", "time": "11:00am"}, {"days": "Sun", "time": "Closed"}], "id": "4005100001", "name": "USPS COLLECTION BOX - BLUE BOX", "address": {"city": "NEW HAVEN", "state": "KY", "street": "304 CENTER ST", "postcode": "40051"}}},
{"geometry": {"type": "Point", "coordinates": [-85.508614526, 37.6307935456]}, "type": "Feature", "properties": {"collection_times": [{"days": "Mon-Fri", "time": "2:30pm"}, {"days": "Sat", "time": "10:45am"}, {"days": "Sun", "time": "Closed"}], "id": "4005200001", "name": "USPS COLLECTION BOX - BLUE BOX", "address": {"city": "NEW HOPE", "state": "KY", "street": "100 CHURCH ST", "postcode": "40052"}}},
{"geometry": {"type": "Point", "coordinates": [-85.3042498124, 38.46246648]}, "type": "Feature", "properties": {"collection_times": [{"days": "Mon-Fri", "time": "3:30pm"}, {"days": "Sat", "time": "10:30am"}, {"days": "Sun", "time": "Closed"}], "id": "4005500001", "name": "USPS COLLECTION BOX - BLUE BOX", "address": {"city": "PENDLETON", "state": "KY", "street": "1025 PENDLETON RD", "postcode": "40055"}}},
{"geometry": {"type": "Point", "coordinates": [-85.2985455751, 38.4580998885]}, "type": "Feature", "properties": {"collection_times": [{"days": "Mon-Sat", "time": "9:00am"}, {"days": "Sun", "time": "Closed"}], "id": "4005500004", "name": "USPS COLLECTION BOX - BLUE BOX", "address": {"city": "PENDLETON", "state": "KY", "street": "205 PENDLETON RD", "postcode": "40055"}}},
{"geometry": {"type": "Point", "coordinates": [-85.4873196339, 38.3058936966]}, "type": "Feature", "properties": {"collection_times": [{"days": "Mon-Fri", "time": "4:30pm"}, {"days": "Sat", "time": "11:00am"}, {"days": "Sun", "time": "Closed"}], "id": "4005600001", "name": "USPS COLLECTION BOX - BLUE BOX", "address": {"city": "PEWEE VALLEY", "state": "KY", "street": "313 LA GRANGE RD", "postcode": "40056"}}},
{"geometry": {"type": "Point", "coordinates": [-85.4873196339, 38.3058936966]}, "type": "Feature", "properties": {"collection_times": [{"days": "Mon-Fri", "time": "4:30pm"}, {"days": "Sat", "time": "11:00am"}, {"days": "Sun", "time": "Closed"}], "id": "4005600002", "name": "USPS COLLECTION BOX - PO LOBBY", "address": {"city": "PEWEE VALLEY", "state": "KY", "street": "313 LA GRANGE RD", "postcode": "40056"}}},
{"geometry": {"type": "Point", "coordinates": [-85.1155365897, 38.3459905518]}, "type": "Feature", "properties": {"collection_times": [{"days": "Mon-Fri", "time": "2:30pm"}, {"days": "Sat", "time": "12:00pm"}, {"days": "Sun", "time": "Closed"}], "id": "4005700001", "name": "USPS COLLECTION BOX - BLUE BOX", "address": {"city": "PLEASUREVILLE", "state": "KY", "street": "1009 MAIN ST", "postcode": "40057"}}},
{"geometry": {"type": "Point", "coordinates": [-85.1155365897, 38.3459905518]}, "type": "Feature", "properties": {"collection_times": [{"days": "Mon-Fri", "time": "2:30pm"}, {"days": "Sat", "time": "12:00pm"}, {"days": "Sun", "time": "Closed"}], "id": "4005700002", "name": "USPS COLLECTION BOX - PO LOBBY", "address": {"city": "PLEASUREVILLE", "state": "KY", "street": "1009 MAIN ST", "postcode": "40057"}}},
{"geometry": {"type": "Point", "coordinates": [-85.0821241353, 38.5536711722]}, "type": "Feature", "properties": {"collection_times": [{"days": "Mon-Fri", "time": "12:00pm"}, {"days": "Sat", "time": "11:15am"}, {"days": "Sun", "time": "Closed"}], "id": "4005800002", "name": "USPS COLLECTION BOX - BLUE BOX", "address": {"city": "PORT ROYAL", "state": "KY", "street": "8240 PORT ROYAL RD", "postcode": "40058"}}},
{"geometry": {"type": "Point", "coordinates": [-85.6226390929, 38.3326399189]}, "type": "Feature", "properties": {"collection_times": [{"days": "Mon-Fri", "time": "4:00pm"}, {"days": "Sat", "time": "12:00pm"}, {"days": "Sun", "time": "Closed"}], "id": "4005900001", "name": "USPS COLLECTION BOX - BLUE BOX", "address": {"city": "PROSPECT", "state": "KY", "street": "9523 US HIGHWAY 42", "postcode": "40059"}}},
{"geometry": {"type": "Point", "coordinates": [-85.6226390929, 38.3326399189]}, "type": "Feature", "properties": {"collection_times": [{"days": "Mon-Fri", "time": "4:00pm"}, {"days": "Sat", "time": "12:00pm"}, {"days": "Sun", "time": "Closed"}], "id": "4005900002", "name": "USPS COLLECTION BOX - BLUE BOX", "address": {"city": "PROSPECT", "state": "KY", "street": "9523 US HIGHWAY 42", "postcode": "40059"}}},
{"geometry": {"type": "Point", "coordinates": [-85.6226390929, 38.3326399189]}, "type": "Feature", "properties": {"collection_times": [{"days": "Mon-Fri", "time": "4:30pm"}, {"days": "Sat", "time": "12:00pm"}, {"days": "Sun", "time": "Closed"}], "id": "4005900003", "name": "USPS COLLECTION BOX - PO LOBBY", "address": {"city": "PROSPECT", "state": "KY", "street": "9523 US HIGHWAY 42", "postcode": "40059"}}},
{"geometry": {"type": "Point", "coordinates": [-85.6219788819, 38.3387064192]}, "type": "Feature", "properties": {"collection_times": [{"days": "Mon-Sat", "time": "12:00pm"}, {"days": "Sun", "time": "Closed"}], "id": "4005900004", "name": "USPS COLLECTION BOX - BLUE BOX", "address": {"city": "PROSPECT", "state": "KY", "street": "5949 TIMBER RIDGE DR", "postcode": "40059"}}},
{"geometry": {"type": "Point", "coordinates": [-85.5900007875, 38.3614176483]}, "type": "Feature", "properties": {"collection_times": [{"days": "Mon-Fri", "time": "2:00pm"}, {"days": "Sat", "time": "12:00pm"}, {"days": "Sun", "time": "Closed"}], "id": "4005900005", "name": "USPS COLLECTION BOX - BLUE BOX", "address": {"city": "PROSPECT", "state": "KY", "street": "9301 DAYFLOWER ST", "postcode": "40059"}}},
{"geometry": {"type": "Point", "coordinates": [-85.5659093045, 38.3235444778]}, "type": "Feature", "properties": {"collection_times": [{"days": "Mon-Sat", "time": "12:00pm"}, {"days": "Sun", "time": "Closed"}], "id": "4005900007", "name": "USPS COLLECTION BOX - BLUE BOX", "address": {"city": "PROSPECT", "state": "KY", "street": "10616 MEETING ST", "postcode": "40059"}}},
{"geometry": {"type": "Point", "coordinates": [-85.5546882936, 38.3300790989]}, "type": "Feature", "properties": {"collection_times": [{"days": "Mon-Sat", "time": "12:00pm"}, {"days": "Sun", "time": "Closed"}], "id": "4005900008", "name": "USPS COLLECTION BOX - BLUE BOX", "address": {"city": "PROSPECT", "state": "KY", "street": "10601 WORTHINGTON LN", "postcode": "40059"}}},
{"geometry": {"type": "Point", "coordinates": [-85.4193661461, 37.5584499694]}, "type": "Feature", "properties": {"collection_times": [{"days": "Mon-Fri", "time": "12:00pm"}, {"days": "Sat", "time": "11:30am"}, {"days": "Sun", "time": "Closed"}], "id": "4006000001", "name": "USPS COLLECTION BOX - BLUE BOX", "address": {"city": "RAYWICK", "state": "KY", "street": "5805 RAYWICK RD", "postcode": "40060"}}},
{"geometry": {"type": "Point", "coordinates": [-85.2592210167, 37.7097998029]}, "type": "Feature", "properties": {"collection_times": [{"days": "Mon-Fri", "time": "12:00pm"}, {"days": "Sat", "time": "11:30am"}, {"days": "Sun", "time": "Closed"}], "id": "4006100000", "name": "USPS COLLECTION BOX - BLUE BOX", "address": {"city": "SAINT CATHARINE", "state": "KY", "street": "2645 BARDSTOWN RD", "postcode": "40061"}}},
{"geometry": {"type": "Point", "coordinates": [-85.3460022734, 37.5806920215]}, "type": "Feature", "properties": {"collection_times": [{"days": "Mon-Fri", "time": "11:45am"}, {"days": "Sat", "time": "9:00am"}, {"days": "Sun", "time": "Closed"}], "id": "4006300001", "name": "USPS COLLECTION BOX - BLUE BOX", "address": {"city": "SAINT MARY", "state": "KY", "street": "3880 SAINT MARY RD", "postcode": "40063"}}},
{"geometry": {"type": "Point", "coordinates": [-85.3460022734, 37.5806920215]}, "type": "Feature", "properties": {"collection_times": [{"days": "Mon-Fri", "time": "11:45am"}, {"days": "Sat-Sun", "time": "Closed"}], "id": "4006300002", "name": "USPS COLLECTION BOX - PO LOBBY", "address": {"city": "SAINT MARY", "state": "KY", "street": "3880 SAINT MARY RD", "postcode": "40063"}}},
{"geometry": {"type": "Point", "coordinates": [-85.2141810123, 38.2116136392]}, "type": "Feature", "properties": {"collection_times": [{"days": "Mon-Fri", "time": "5:00pm"}, {"days": "Sat", "time": "4:00pm"}, {"days": "Sun", "time": "Closed"}], "id": "4006500001", "name": "USPS COLLECTION BOX - BLUE BOX", "address": {"city": "SHELBYVILLE", "state": "KY", "street": "401 4TH ST", "postcode": "40065"}}},
{"geometry": {"type": "Point", "coordinates": [-85.2141810123, 38.2116136392]}, "type": "Feature", "properties": {"collection_times": [{"days": "Mon-Fri", "time": "5:00pm"}, {"days": "Sat", "time": "4:00pm"}, {"days": "Sun", "time": "Closed"}], "id": "4006500002", "name": "USPS COLLECTION BOX - BLUE BOX", "address": {"city": "SHELBYVILLE", "state": "KY", "street": "401 4TH ST", "postcode": "40065"}}},
{"geometry": {"type": "Point", "coordinates": [-85.2141810123, 38.2116136392]}, "type": "Feature", "properties": {"collection_times": [{"days": "Mon-Fri", "time": "5:00pm"}, {"days": "Sat", "time": "4:00pm"}, {"days": "Sun", "time": "Closed"}], "id": "4006500003", "name": "USPS COLLECTION BOX - BLUE BOX", "address": {"city": "SHELBYVILLE", "state": "KY", "street": "401 4TH ST", "postcode": "40065"}}},
{"geometry": {"type": "Point", "coordinates": [-85.2141810123, 38.2116136392]}, "type": "Feature", "properties": {"collection_times": [{"days": "Mon-Fri", "time": "5:00pm"}, {"days": "Sat", "time": "4:00pm"}, {"days": "Sun", "time": "Closed"}], "id": "4006500004", "name": "USPS COLLECTION BOX - BLUE BOX", "address": {"city": "SHELBYVILLE", "state": "KY", "street": "401 4TH ST", "postcode": "40065"}}},
{"geometry": {"type": "Point", "coordinates": [-85.265844466, 38.2041585567]}, "type": "Feature", "properties": {"collection_times": [{"days": "Mon-Fri", "time": "3:30pm"}, {"days": "Sat", "time": "3:00pm"}, {"days": "Sun", "time": "Closed"}], "id": "4006500006", "name": "USPS COLLECTION BOX - BLUE BOX", "address": {"city": "SHELBYVILLE", "state": "KY", "street": "500 TAYLORSVILLE RD", "postcode": "40065"}}},
{"geometry": {"type": "Point", "coordinates": [-85.239499314, 38.2125588656]}, "type": "Feature", "properties": {"collection_times": [{"days": "Mon-Fri", "time": "3:30pm"}, {"days": "Sat", "time": "3:00pm"}, {"days": "Sun", "time": "Closed"}], "id": "4006500008", "name": "USPS COLLECTION BOX - BLUE BOX", "address": {"city": "SHELBYVILLE", "state": "KY", "street": "1622 MIDLAND TRL", "postcode": "40065"}}},
{"geometry": {"type": "Point", "coordinates": [-85.2158162072, 38.2110275694]}, "type": "Feature", "properties": {"collection_times": [{"days": "Mon-Fri", "time": "3:30pm"}, {"days": "Sat", "time": "3:00pm"}, {"days": "Sun", "time": "Closed"}], "id": "4006500012", "name": "USPS COLLECTION BOX - BLUE BOX", "address": {"city": "SHELBYVILLE", "state": "KY", "street": "501 MAIN ST", "postcode": "40065"}}},
{"geometry": {"type": "Point", "coordinates": [-85.2032038463, 38.2208952519]}, "type": "Feature", "properties": {"collection_times": [{"days": "Mon-Fri", "time": "3:30pm"}, {"days": "Sat", "time": "3:00pm"}, {"days": "Sun", "time": "Closed"}], "id": "4006500014", "name": "USPS COLLECTION BOX - BLUE BOX", "address": {"city": "SHELBYVILLE", "state": "KY", "street": "118 BOONE STATION RD", "postcode": "40065"}}},
{"geometry": {"type": "Point", "coordinates": [-85.2141810123, 38.2116136392]}, "type": "Feature", "properties": {"collection_times": [{"days": "Mon-Fri", "time": "5:00pm"}, {"days": "Sat", "time": "4:00pm"}, {"days": "Sun", "time": "Closed"}], "id": "4006500015", "name": "USPS COLLECTION BOX - PO LOBBY", "address": {"city": "SHELBYVILLE", "state": "KY", "street": "401 4TH ST", "postcode": "40065"}}},
{"geometry": {"type": "Point", "coordinates": [-85.2141810123, 38.2116136392]}, "type": "Feature", "properties": {"collection_times": [{"days": "Mon-Fri", "time": "5:00pm"}, {"days": "Sat", "time": "4:00pm"}, {"days": "Sun", "time": "Closed"}], "id": "4006500017", "name": "USPS COLLECTION BOX - PO LOBBY", "address": {"city": "SHELBYVILLE", "state": "KY", "street": "401 4TH ST", "postcode": "40065"}}},
{"geometry": {"type": "Point", "coordinates": [-85.2510921893, 38.2117568768]}, "type": "Feature", "properties": {"collection_times": [{"days": "Mon-Fri", "time": "3:30pm"}, {"days": "Sat", "time": "3:00pm"}, {"days": "Sun", "time": "Closed"}], "id": "4006500019", "name": "USPS COLLECTION BOX - BLUE BOX", "address": {"city": "SHELBYVILLE", "state": "KY", "street": "140 STONECREST RD", "postcode": "40065"}}},
{"geometry": {"type": "Point", "coordinates": [-85.3528995315, 38.2222269472]}, "type": "Feature", "properties": {"collection_times": [{"days": "Mon-Fri", "time": "4:15pm"}, {"days": "Sat", "time": "10:00am"}, {"days": "Sun", "time": "Closed"}], "id": "4006700001", "name": "USPS COLLECTION BOX - BLUE BOX", "address": {"city": "SIMPSONVILLE", "state": "KY", "street": "6990 SHELBYVILLE RD", "postcode": "40067"}}},
{"geometry": {"type": "Point", "coordinates": [-85.3528995315, 38.2222269472]}, "type": "Feature", "properties": {"collection_times": [{"days": "Mon-Fri", "time": "4:15pm"}, {"days": "Sat", "time": "10:00am"}, {"days": "Sun", "time": "Closed"}], "id": "4006700002", "name": "USPS COLLECTION BOX - PO LOBBY", "address": {"city": "SIMPSONVILLE", "state": "KY", "street": "6990 SHELBYVILLE RD", "postcode": "40067"}}},
{"geometry": {"type": "Point", "coordinates": [-85.2100057205, 38.366067668]}, "type": "Feature", "properties": {"collection_times": [{"days": "Mon-Fri", "time": "3:45pm"}, {"days": "Sat", "time": "10:45am"}, {"days": "Sun", "time": "Closed"}], "id": "4006800001", "name": "USPS COLLECTION BOX - BLUE BOX", "address": {"city": "SMITHFIELD", "state": "KY", "street": "3143 GILTNER RD", "postcode": "40068"}}},
{"geometry": {"type": "Point", "coordinates": [-85.2195977972, 37.6843563282]}, "type": "Feature", "properties": {"collection_times": [{"days": "Mon-Fri", "time": "4:00pm"}, {"days": "Sat", "time": "3:00pm"}, {"days": "Sun", "time": "Closed"}], "id": "4006900001", "name": "USPS COLLECTION BOX - BLUE BOX", "address": {"city": "SPRINGFIELD", "state": "KY", "street": "202 E MAIN ST", "postcode": "40069"}}},
{"geometry": {"type": "Point", "coordinates": [-85.2343309032, 37.6913973694]}, "type": "Feature", "properties": {"collection_times": [{"days": "Mon-Sat", "time": "12:00pm"}, {"days": "Sun", "time": "Closed"}], "id": "4006900002", "name": "USPS COLLECTION BOX - BLUE BOX", "address": {"city": "SPRINGFIELD", "state": "KY", "street": "805 BARDSTOWN RD", "postcode": "40069"}}},
{"geometry": {"type": "Point", "coordinates": [-85.2195977972, 37.6843563282]}, "type": "Feature", "properties": {"collection_times": [{"days": "Mon-Fri", "time": "4:30pm"}, {"days": "Sat", "time": "3:00pm"}, {"days": "Sun", "time": "Closed"}], "id": "4006900013", "name": "USPS COLLECTION BOX - PO LOBBY", "address": {"city": "SPRINGFIELD", "state": "KY", "street": "202 E MAIN ST", "postcode": "40069"}}},
{"geometry": {"type": "Point", "coordinates": [-85.220503281, 37.684604513]}, "type": "Feature", "properties": {"collection_times": [{"days": "Mon-Fri", "time": "4:30pm"}, {"days": "Sat", "time": "3:00pm"}, {"days": "Sun", "time": "Closed"}], "id": "4006900015", "name": "USPS COLLECTION BOX - PO LOBBY", "address": {"city": "SPRINGFIELD", "state": "KY", "street": "202 E MAIN ST", "postcode": "40069"}}},
{"geometry": {"type": "Point", "coordinates": [-85.2758282881, 38.4898147199]}, "type": "Feature", "properties": {"collection_times": [{"days": "Mon-Fri", "time": "4:00pm"}, {"days": "Sat", "time": "11:00am"}, {"days": "Sun", "time": "Closed"}], "id": "4007000001", "name": "USPS COLLECTION BOX - BLUE BOX", "address": {"city": "SULPHUR", "state": "KY", "street": "6225 FALLEN TIMBER RD", "postcode": "40070"}}},
{"geometry": {"type": "Point", "coordinates": [-85.2758282881, 38.4898147199]}, "type": "Feature", "properties": {"collection_times": [{"days": "Mon-Fri", "time": "4:00pm"}, {"days": "Sat", "time": "11:00am"}, {"days": "Sun", "time": "Closed"}], "id": "4007000002", "name": "USPS COLLECTION BOX - PO LOBBY", "address": {"city": "SULPHUR", "state": "KY", "street": "6225 FALLEN TIMBER RD", "postcode": "40070"}}},
{"geometry": {"type": "Point", "coordinates": [-85.3427940243, 38.0314955809]}, "type": "Feature", "properties": {"collection_times": [{"days": "Mon-Sat", "time": "10:30am"}, {"days": "Sun", "time": "Closed"}], "id": "4007100003", "name": "USPS COLLECTION BOX - BLUE BOX", "address": {"city": "TAYLORSVILLE", "state": "KY", "street": "10 W MAIN ST", "postcode": "40071"}}},
{"geometry": {"type": "Point", "coordinates": [-85.3402218163, 38.0478920505]}, "type": "Feature", "properties": {"collection_times": [{"days": "Mon-Fri", "time": "4:00pm"}, {"days": "Sat", "time": "11:30am"}, {"days": "Sun", "time": "Closed"}], "id": "4007100004", "name": "USPS COLLECTION BOX - PO LOBBY", "address": {"city": "TAYLORSVILLE", "state": "KY", "street": "800 TAYLORSVILLE RD", "postcode": "40071"}}},
{"geometry": {"type": "Point", "coordinates": [-85.3402218163, 38.0478920505]}, "type": "Feature", "properties": {"collection_times": [{"days": "Mon-Fri", "time": "4:00pm"}, {"days": "Sat", "time": "11:30am"}, {"days": "Sun", "time": "Closed"}], "id": "4007100005", "name": "USPS COLLECTION BOX - BLUE BOX", "address": {"city": "TAYLORSVILLE", "state": "KY", "street": "800 TAYLORSVILLE RD", "postcode": "40071"}}},
{"geometry": {"type": "Point", "coordinates": [-85.3402218163, 38.0478920505]}, "type": "Feature", "properties": {"collection_times": [{"days": "Mon-Fri", "time": "4:00pm"}, {"days": "Sat", "time": "11:30am"}, {"days": "Sun", "time": "Closed"}], "id": "4007100007", "name": "USPS COLLECTION BOX - BLUE BOX", "address": {"city": "TAYLORSVILLE", "state": "KY", "street": "800 TAYLORSVILLE RD", "postcode": "40071"}}},
{"geometry": {"type": "Point", "coordinates": [-85.0726509785, 38.1426382999]}, "type": "Feature", "properties": {"collection_times": [{"days": "Mon-Fri", "time": "3:15pm"}, {"days": "Sat", "time": "10:45am"}, {"days": "Sun", "time": "Closed"}], "id": "4007600001", "name": "USPS COLLECTION BOX - BLUE BOX", "address": {"city": "WADDY", "state": "KY", "street": "3100 WADDY RD", "postcode": "40076"}}},
{"geometry": {"type": "Point", "coordinates": [-85.0726509785, 38.1426382999]}, "type": "Feature", "properties": {"collection_times": [{"days": "Mon-Fri", "time": "3:15pm"}, {"days": "Sat", "time": "10:45am"}, {"days": "Sun", "time": "Closed"}], "id": "4007600003", "name": "USPS COLLECTION BOX - PO LOBBY", "address": {"city": "WADDY", "state": "KY", "street": "3100 WADDY RD", "postcode": "40076"}}},
{"geometry": {"type": "Point", "coordinates": [-85.0675986403, 38.1591319319]}, "type": "Feature", "properties": {"collection_times": [{"days": "Mon-Sat", "time": "9:30am"}, {"days": "Sun", "time": "Closed"}], "id": "4007600004", "name": "USPS COLLECTION BOX - BLUE BOX", "address": {"city": "WADDY", "state": "KY", "street": "1670 WADDY RD", "postcode": "40076"}}},
{"geometry": {"type": "Point", "coordinates": [-85.0689464085, 38.1561463812]}, "type": "Feature", "properties": {"collection_times": [{"days": "Mon-Sat", "time": "9:30am"}, {"days": "Sun", "time": "Closed"}], "id": "4007600006", "name": "USPS COLLECTION BOX - BLUE BOX", "address": {"city": "WADDY", "state": "KY", "street": "1940 WADDY RD", "postcode": "40076"}}},
{"geometry": {"type": "Point", "coordinates": [-85.4739875167, 38.4785252886]}, "type": "Feature", "properties": {"collection_times": [{"days": "Mon-Fri", "time": "1:15pm"}, {"days": "Sat", "time": "11:30am"}, {"days": "Sun", "time": "Closed"}], "id": "4007700001", "name": "USPS COLLECTION BOX - BLUE BOX", "address": {"city": "WESTPORT", "state": "KY", "street": "6915 MAIN ST", "postcode": "40077"}}},
{"geometry": {"type": "Point", "coordinates": [-85.2198947363, 37.829712091]}, "type": "Feature", "properties": {"collection_times": [{"days": "Mon-Fri", "time": "3:45pm"}, {"days": "Sat", "time": "11:15am"}, {"days": "Sun", "time": "Closed"}], "id": "4007800001", "name": "USPS COLLECTION BOX - BLUE BOX", "address": {"city": "WILLISBURG", "state": "KY", "street": "6260 HIGHWAY 433", "postcode": "40078"}}},
{"geometry": {"type": "Point", "coordinates": [-85.2198947363, 37.829712091]}, "type": "Feature", "properties": {"collection_times": [{"days": "Mon-Fri", "time": "3:45pm"}, {"days": "Sat", "time": "11:15am"}, {"days": "Sun", "time": "Closed"}], "id": "4007800002", "name": "USPS COLLECTION BOX - PO LOBBY", "address": {"city": "WILLISBURG", "state": "KY", "street": "6260 HIGHWAY 433", "postcode": "40078"}}}
]}
