{"type": "FeatureCollection", "features": [
{"geometry": {"type": "Point", "coordinates": [-86.2899315144, 38.0547624491]}, "type": "Feature", "properties": {"collection_times": [{"days": "Mon-Fri", "time": "3:00pm"}, {"days": "Sat", "time": "10:00am"}, {"days": "Sun", "time": "Closed"}], "id": "4010400001", "name": "USPS COLLECTION BOX - BLUE BOX", "address": {"city": "BATTLETOWN", "state": "KY", "street": "8800 BATTLETOWN RD", "postcode": "40104"}}},
{"geometry": {"type": "Point", "coordinates": [-85.6714830801, 37.7877866797]}, "type": "Feature", "properties": {"collection_times": [{"days": "Mon-Fri", "time": "3:00pm"}, {"days": "Sat", "time": "10:45am"}, {"days": "Sun", "time": "Closed"}], "id": "4010700001", "name": "USPS COLLECTION BOX - BLUE BOX", "address": {"city": "BOSTON", "state": "KY", "street": "105 POST OFFICE CT", "postcode": "40107"}}},
{"geometry": {"type": "Point", "coordinates": [-85.6714830801, 37.7877866797]}, "type": "Feature", "properties": {"collection_times": [{"days": "Mon-Fri", "time": "3:00pm"}, {"days": "Sat", "time": "10:45am"}, {"days": "Sun", "time": "Closed"}], "id": "4010700002", "name": "USPS COLLECTION BOX - PO LOBBY", "address": {"city": "BOSTON", "state": "KY", "street": "105 POST OFFICE CT", "postcode": "40107"}}},
{"geometry": {"type": "Point", "coordinates": [-86.1726087629, 38.0004692316]}, "type": "Feature", "properties": {"collection_times": [{"days": "Mon-Fri", "time": "4:15pm"}, {"days": "Sat", "time": "3:00pm"}, {"days": "Sun", "time": "Closed"}], "id": "4010800001", "name": "USPS COLLECTION BOX - BLUE BOX", "address": {"city": "BRANDENBURG", "state": "KY", "street": "636 HIGH ST", "postcode": "40108"}}},
{"geometry": {"type": "Point", "coordinates": [-86.1646608545, 37.9802857696]}, "type": "Feature", "properties": {"collection_times": [{"days": "Mon-Sat", "time": "11:00am"}, {"days": "Sun", "time": "Closed"}], "id": "4010800007", "name": "USPS COLLECTION BOX - BLUE BOX", "address": {"city": "BRANDENBURG", "state": "KY", "street": "610 BYPASS RD", "postcode": "40108"}}},
{"geometry": {"type": "Point", "coordinates": [-86.1726087629, 38.0004692316]}, "type": "Feature", "properties": {"collection_times": [{"days": "Mon-Fri", "time": "4:15pm"}, {"days": "Sat", "time": "3:00pm"}, {"days": "Sun", "time": "Closed"}], "id": "4010800010", "name": "USPS COLLECTION BOX - BLUE BOX", "address": {"city": "BRANDENBURG", "state": "KY", "street": "636 HIGH ST", "postcode": "40108"}}},
{"geometry": {"type": "Point", "coordinates": [-86.1726087629, 38.0004692316]}, "type": "Feature", "properties": {"collection_times": [{"days": "Mon-Fri", "time": "4:15pm"}, {"days": "Sat", "time": "3:00pm"}, {"days": "Sun", "time": "Closed"}], "id": "4010800012", "name": "USPS COLLECTION BOX - PO LOBBY", "address": {"city": "BRANDENBURG", "state": "KY", "street": "636 HIGH ST", "postcode": "40108"}}},
{"geometry": {"type": "Point", "coordinates": [-85.7103697106, 38.0551099902]}, "type": "Feature", "properties": {"collection_times": [{"days": "Mon-Fri", "time": "4:00pm"}, {"days": "Sat", "time": "10:00am"}, {"days": "Sun", "time": "Closed"}], "id": "4010900001", "name": "USPS COLLECTION BOX - BLUE BOX", "address": {"city": "BROOKS", "state": "KY", "street": "3025 CORAL RIDGE RD", "postcode": "40109"}}},
{"geometry": {"type": "Point", "coordinates": [-85.7103697106, 38.0551099902]}, "type": "Feature", "properties": {"collection_times": [{"days": "Mon-Fri", "time": "4:00pm"}, {"days": "Sat", "time": "10:00am"}, {"days": "Sun", "time": "Closed"}], "id": "4010900003", "name": "USPS COLLECTION BOX - PO LOBBY", "address": {"city": "BROOKS", "state": "KY", "street": "3025 CORAL RIDGE RD", "postcode": "40109"}}},
{"geometry": {"type": "Point", "coordinates": [-85.6531580763, 37.9275825]}, "type": "Feature", "properties": {"collection_times": [{"days": "Mon-Fri", "time": "3:45pm"}, {"days": "Sat", "time": "9:45am"}, {"days": "Sun", "time": "Closed"}], "id": "4011000001", "name": "USPS COLLECTION BOX - BLUE BOX", "address": {"city": "CLERMONT", "state": "KY", "street": "243 HAPPY HOLLOW RD", "postcode": "40110"}}},
{"geometry": {"type": "Point", "coordinates": [-85.6531580763, 37.9275825]}, "type": "Feature", "properties": {"collection_times": [{"days": "Mon-Fri", "time": "3:45pm"}, {"days": "Sat", "time": "9:45am"}, {"days": "Sun", "time": "Closed"}], "id": "4011000002", "name": "USPS COLLECTION BOX - PO LOBBY", "address": {"city": "CLERMONT", "state": "KY", "street": "243 HAPPY HOLLOW RD", "postcode": "40110"}}},
{"geometry": {"type": "Point", "coordinates": [-86.6329919105, 37.8369582154]}, "type": "Feature", "properties": {"collection_times": [{"days": "Mon-Fri", "time": "11:45am"}, {"days": "Sat", "time": "10:00am"}, {"days": "Sun", "time": "Closed"}], "id": "4011100001", "name": "USPS COLLECTION BOX - BLUE BOX", "address": {"city": "CLOVERPORT", "state": "KY", "street": "218 POPLAR ST", "postcode": "40111"}}},
{"geometry": {"type": "Point", "coordinates": [-86.6329919105, 37.8369582154]}, "type": "Feature", "properties": {"collection_times": [{"days": "Mon-Fri", "time": "11:45am"}, {"days": "Sat", "time": "10:00am"}, {"days": "Sun", "time": "Closed"}], "id": "4011100005", "name": "USPS COLLECTION BOX - PO LOBBY", "address": {"city": "CLOVERPORT", "state": "KY", "street": "218 POPLAR ST", "postcode": "40111"}}},
{"geometry": {"type": "Point", "coordinates": [-86.2796967184, 37.6922122787]}, "type": "Feature", "properties": {"collection_times": [{"days": "Mon-Fri", "time": "1:15pm"}, {"days": "Sat", "time": "11:15am"}, {"days": "Sun", "time": "Closed"}], "id": "4011500001", "name": "USPS COLLECTION BOX - BLUE BOX", "address": {"city": "CUSTER", "state": "KY", "street": "6028 E HIGHWAY 86", "postcode": "40115"}}},
{"geometry": {"type": "Point", "coordinates": [-86.1288519737, 37.9043269564]}, "type": "Feature", "properties": {"collection_times": [{"days": "Mon-Fri", "time": "11:45am"}, {"days": "Sat", "time": "11:15am"}, {"days": "Sun", "time": "Closed"}], "id": "4011700001", "name": "USPS COLLECTION BOX - BLUE BOX", "address": {"city": "EKRON", "state": "KY", "street": "276 REESE AVE", "postcode": "40117"}}},
{"geometry": {"type": "Point", "coordinates": [-86.1288519737, 37.9043269564]}, "type": "Feature", "properties": {"collection_times": [{"days": "Mon-Fri", "time": "11:45am"}, {"days": "Sat", "time": "11:15am"}, {"days": "Sun", "time": "Closed"}], "id": "4011700002", "name": "USPS COLLECTION BOX - PO LOBBY", "address": {"city": "EKRON", "state": "KY", "street": "276 REESE AVE", "postcode": "40117"}}},
{"geometry": {"type": "Point", "coordinates": [-85.758505644, 38.104865021]}, "type": "Feature", "properties": {"collection_times": [{"days": "Mon-Fri", "time": "3:45pm"}, {"days": "Sat", "time": "12:00pm"}, {"days": "Sun", "time": "Closed"}], "id": "4011800001", "name": "USPS COLLECTION BOX - BLUE BOX", "address": {"city": "FAIRDALE", "state": "KY", "street": "411 MOUNT HOLLY RD", "postcode": "40118"}}},
{"geometry": {"type": "Point", "coordinates": [-85.7437202602, 38.1241604742]}, "type": "Feature", "properties": {"collection_times": [{"days": "Mon-Sat", "time": "9:00am"}, {"days": "Sun", "time": "Closed"}], "id": "4011800003", "name": "USPS COLLECTION BOX - BLUE BOX", "address": {"city": "FAIRDALE", "state": "KY", "street": "1200 GLENGARRY DR", "postcode": "40118"}}},
{"geometry": {"type": "Point", "coordinates": [-85.7484549416, 38.122467844]}, "type": "Feature", "properties": {"collection_times": [{"days": "Mon-Sat", "time": "10:30am"}, {"days": "Sun", "time": "Closed"}], "id": "4011800006", "name": "USPS COLLECTION BOX - BLUE BOX", "address": {"city": "FAIRDALE", "state": "KY", "street": "8804 NATIONAL TPKE", "postcode": "40118"}}},
{"geometry": {"type": "Point", "coordinates": [-85.758505644, 38.104865021]}, "type": "Feature", "properties": {"collection_times": [{"days": "Mon-Fri", "time": "4:00pm"}, {"days": "Sat", "time": "12:00pm"}, {"days": "Sun", "time": "Closed"}], "id": "4011800008", "name": "USPS COLLECTION BOX - PO LOBBY", "address": {"city": "FAIRDALE", "state": "KY", "street": "411 MOUNT HOLLY RD", "postcode": "40118"}}},
{"geometry": {"type": "Point", "coordinates": [-86.5107254292, 37.604318866]}, "type": "Feature", "properties": {"collection_times": [{"days": "Mon-Fri", "time": "3:15pm"}, {"days": "Sat", "time": "10:00am"}, {"days": "Sun", "time": "Closed"}], "id": "4011900001", "name": "USPS COLLECTION BOX - BLUE BOX", "address": {"city": "FALLS OF ROUGH", "state": "KY", "street": "13647 FALLS OF ROUGH RD", "postcode": "40119"}}},
{"geometry": {"type": "Point", "coordinates": [-86.5107254292, 37.604318866]}, "type": "Feature", "properties": {"collection_times": [{"days": "Mon-Fri", "time": "3:15pm"}, {"days": "Sat", "time": "10:00am"}, {"days": "Sun", "time": "Closed"}], "id": "4011900003", "name": "USPS COLLECTION BOX - PO LOBBY", "address": {"city": "FALLS OF ROUGH", "state": "KY", "street": "13647 FALLS OF ROUGH RD", "postcode": "40119"}}},
{"geometry": {"type": "Point", "coordinates": [-85.9599697252, 37.9123328264]}, "type": "Feature", "properties": {"collection_times": [{"days": "Mon-Fri", "time": "4:15pm"}, {"days": "Sat", "time": "3:00pm"}, {"days": "Sun", "time": "Closed"}], "id": "4012100001", "name": "USPS COLLECTION BOX - BLUE BOX", "address": {"city": "FORT KNOX", "state": "KY", "street": "1359 KNOX ST", "postcode": "40121"}}},
{"geometry": {"type": "Point", "coordinates": [-85.9613918586, 37.8822978597]}, "type": "Feature", "properties": {"collection_times": [{"days": "Mon-Sat", "time": "1:00pm"}, {"days": "Sun", "time": "Closed"}], "id": "4012100003", "name": "USPS COLLECTION BOX - BLUE BOX", "address": {"city": "FORT KNOX", "state": "KY", "street": "127 GOLD VAULT RD", "postcode": "40121"}}},
{"geometry": {"type": "Point", "coordinates": [-85.9574026787, 37.9012886874]}, "type": "Feature", "properties": {"collection_times": [{"days": "Mon-Sat", "time": "12:00pm"}, {"days": "Sun", "time": "Closed"}], "id": "4012100005", "name": "USPS COLLECTION BOX - BLUE BOX", "address": {"city": "FORT KNOX", "state": "KY", "street": "1307 3RD AVE", "postcode": "40121"}}},
{"geometry": {"type": "Point", "coordinates": [-85.9422972184, 37.8823275213]}, "type": "Feature", "properties": {"collection_times": [{"days": "Mon-Sat", "time": "7:45am"}, {"days": "Sun", "time": "Closed"}], "id": "4012100010", "name": "USPS COLLECTION BOX - BLUE BOX", "address": {"city": "FORT KNOX", "state": "KY", "street": "6590 DANIEL BOONE ST", "postcode": "40121"}}},
{"geometry": {"type": "Point", "coordinates": [-85.9445734205, 37.9187072969]}, "type": "Feature", "properties": {"collection_times": [{"days": "Mon-Sat", "time": "7:45am"}, {"days": "Sun", "time": "Closed"}], "id": "4012100015", "name": "USPS COLLECTION BOX - BLUE BOX", "address": {"city": "FORT KNOX", "state": "KY", "street": "5925 RINELAND ST", "postcode": "40121"}}},
{"geometry": {"type": "Point", "coordinates": [-85.9422972184, 37.8823275213]}, "type": "Feature", "properties": {"collection_times": [{"days": "Mon-Sat", "time": "1:00pm"}, {"days": "Sun", "time": "Closed"}], "id": "4012100022", "name": "USPS COLLECTION BOX - BLUE BOX", "address": {"city": "FORT KNOX", "state": "KY", "street": "1615 W CHAFFEE AVE", "postcode": "40121"}}},
{"geometry": {"type": "Point", "coordinates": [-85.9599697252, 37.9123328264]}, "type": "Feature", "properties": {"collection_times": [{"days": "Mon-Fri", "time": "4:15pm"}, {"days": "Sat", "time": "3:00pm"}, {"days": "Sun", "time": "Closed"}], "id": "4012100024", "name": "USPS COLLECTION BOX - BLUE BOX", "address": {"city": "FORT KNOX", "state": "KY", "street": "1359 KNOX ST", "postcode": "40121"}}},
{"geometry": {"type": "Point", "coordinates": [-85.947183232, 37.8629059891]}, "type": "Feature", "properties": {"collection_times": [{"days": "Mon-Sat", "time": "1:00pm"}, {"days": "Sun", "time": "Closed"}], "id": "4012100026", "name": "USPS COLLECTION BOX - BLUE BOX", "address": {"city": "FORT KNOX", "state": "KY", "street": "9025 ESTRADA AVE", "postcode": "40121"}}},
{"geometry": {"type": "Point", "coordinates": [-85.9422972184, 37.8823275213]}, "type": "Feature", "properties": {"collection_times": [{"days": "Mon-Sat", "time": "7:45am"}, {"days": "Sun", "time": "Closed"}], "id": "4012100032", "name": "USPS COLLECTION BOX - BLUE BOX", "address": {"city": "FORT KNOX", "state": "KY", "street": "5916 ARDENNES ST", "postcode": "40121"}}},
{"geometry": {"type": "Point", "coordinates": [-85.9422972184, 37.8823275213]}, "type": "Feature", "properties": {"collection_times": [{"days": "Mon-Sat", "time": "7:45am"}, {"days": "Sun", "time": "Closed"}], "id": "4012100033", "name": "USPS COLLECTION BOX - BLUE BOX", "address": {"city": "FORT KNOX", "state": "KY", "street": "6542 CHAMBERLAIN AVE", "postcode": "40121"}}},
{"geometry": {"type": "Point", "coordinates": [-85.9372075161, 37.8987951602]}, "type": "Feature", "properties": {"collection_times": [{"days": "Mon-Fri", "time": "12:00pm"}, {"days": "Sat", "time": "8:30am"}, {"days": "Sun", "time": "Closed"}], "id": "4012100034", "name": "USPS COLLECTION BOX - BLUE BOX", "address": {"city": "FORT KNOX", "state": "KY", "street": "1556 SPEARHEAD DIVISION AVE", "postcode": "40121"}}},
{"geometry": {"type": "Point", "coordinates": [-85.9420841788, 37.9184062417]}, "type": "Feature", "properties": {"collection_times": [{"days": "Mon-Sat", "time": "7:45am"}, {"days": "Sun", "time": "Closed"}], "id": "4012100035", "name": "USPS COLLECTION BOX - BLUE BOX", "address": {"city": "FORT KNOX", "state": "KY", "street": "5943 26TH CAV DR", "postcode": "40121"}}},
{"geometry": {"type": "Point", "coordinates": [-85.9599697252, 37.9123328264]}, "type": "Feature", "properties": {"collection_times": [{"days": "Mon-Fri", "time": "4:30pm"}, {"days": "Sat", "time": "3:00pm"}, {"days": "Sun", "time": "Closed"}], "id": "4012100036", "name": "USPS COLLECTION BOX - PO LOBBY", "address": {"city": "FORT KNOX", "state": "KY", "street": "1359 KNOX ST", "postcode": "40121"}}},
{"geometry": {"type": "Point", "coordinates": [-85.9623895003, 37.8979411302]}, "type": "Feature", "properties": {"collection_times": [{"days": "Mon-Sat", "time": "7:45am"}, {"days": "Sun", "time": "Closed"}], "id": "4012100038", "name": "USPS COLLECTION BOX - BLUE BOX", "address": {"city": "FORT KNOX", "state": "KY", "street": "120 N KNOX ST REAR", "postcode": "40121"}}},
{"geometry": {"type": "Point", "coordinates": [-85.9482467748, 37.9286653211]}, "type": "Feature", "properties": {"collection_times": [{"days": "Mon-Sat", "time": "11:00am"}, {"days": "Sun", "time": "Closed"}], "id": "4012100039", "name": "USPS COLLECTION BOX - BLUE BOX", "address": {"city": "FORT KNOX", "state": "KY", "street": "7961 WILSON RD", "postcode": "40121"}}},
{"geometry": {"type": "Point", "coordinates": [-85.9376220856, 37.9156955429]}, "type": "Feature", "properties": {"collection_times": [{"days": "Mon-Sat", "time": "7:45am"}, {"days": "Sun", "time": "Closed"}], "id": "4012100042", "name": "USPS COLLECTION BOX - BLUE BOX", "address": {"city": "FORT KNOX", "state": "KY", "street": "82ND RECON", "postcode": "40121"}}},
{"geometry": {"type": "Point", "coordinates": [-85.9445734205, 37.9187072969]}, "type": "Feature", "properties": {"collection_times": [{"days": "Mon-Sat", "time": "7:45am"}, {"days": "Sun", "time": "Closed"}], "id": "4012100044", "name": "USPS COLLECTION BOX - BLUE BOX", "address": {"city": "FORT KNOX", "state": "KY", "street": "5925 RINELAND ST", "postcode": "40121"}}},
{"geometry": {"type": "Point", "coordinates": [-85.9282654088, 37.9096350927]}, "type": "Feature", "properties": {"collection_times": [{"days": "Mon-Sat", "time": "7:45am"}, {"days": "Sun", "time": "Closed"}], "id": "4012100046", "name": "USPS COLLECTION BOX - BLUE BOX", "address": {"city": "FORT KNOX", "state": "KY", "street": "6545 2ND DRAGOONS RD", "postcode": "40121"}}},
{"geometry": {"type": "Point", "coordinates": [-85.9599876782, 37.9132747895]}, "type": "Feature", "properties": {"collection_times": [{"days": "Mon-Sat", "time": "7:45am"}, {"days": "Sun", "time": "Closed"}], "id": "4012100047", "name": "USPS COLLECTION BOX - BLUE BOX", "address": {"city": "FORT KNOX", "state": "KY", "street": "649 SPEARHEAD DIVISION AVE", "postcode": "40121"}}},
{"geometry": {"type": "Point", "coordinates": [-85.9403201419, 37.9042182612]}, "type": "Feature", "properties": {"collection_times": [{"days": "Mon-Fri", "time": "2:30pm"}, {"days": "Sat", "time": "12:00pm"}, {"days": "Sun", "time": "Closed"}], "id": "4012100051", "name": "USPS COLLECTION BOX - BLUE BOX", "address": {"city": "FORT KNOX", "state": "KY", "street": "851 IRELAND AVE", "postcode": "40121"}}},
{"geometry": {"type": "Point", "coordinates": [-85.6706615514, 38.0715039117]}, "type": "Feature", "properties": {"collection_times": [{"days": "Mon-Fri", "time": "4:00pm"}, {"days": "Sat", "time": "11:45am"}, {"days": "Sun", "time": "Closed"}], "id": "4012900000", "name": "USPS COLLECTION BOX - PO LOBBY", "address": {"city": "HILLVIEW", "state": "KY", "street": "175 TANYARD SPRINGS BLVD", "postcode": "40129"}}},
{"geometry": {"type": "Point", "coordinates": [-85.6706615514, 38.0715039117]}, "type": "Feature", "properties": {"collection_times": [{"days": "Mon-Fri", "time": "4:00pm"}, {"days": "Sat", "time": "11:45am"}, {"days": "Sun", "time": "Closed"}], "id": "4012900001", "name": "USPS COLLECTION BOX - BLUE BOX", "address": {"city": "HILLVIEW", "state": "KY", "street": "175 TANYARD SPRINGS BLVD", "postcode": "40129"}}},
{"geometry": {"type": "Point", "coordinates": [-85.6706615514, 38.0715039117]}, "type": "Feature", "properties": {"collection_times": [{"days": "Mon-Fri", "time": "4:00pm"}, {"days": "Sat", "time": "11:45am"}, {"days": "Sun", "time": "Closed"}], "id": "4012900002", "name": "USPS COLLECTION BOX - BLUE BOX", "address": {"city": "HILLVIEW", "state": "KY", "street": "175 TANYARD SPRINGS BLVD", "postcode": "40129"}}},
{"geometry": {"type": "Point", "coordinates": [-86.2526904369, 37.6864978814]}, "type": "Feature", "properties": {"collection_times": [{"days": "Mon-Fri", "time": "1:30pm"}, {"days": "Sat", "time": "10:00am"}, {"days": "Sun", "time": "Closed"}], "id": "4014000001", "name": "USPS COLLECTION BOX - BLUE BOX", "address": {"city": "GARFIELD", "state": "KY", "street": "6621 E HIGHWAY 60", "postcode": "40140"}}},
{"geometry": {"type": "Point", "coordinates": [-86.2526904369, 37.6864978814]}, "type": "Feature", "properties": {"collection_times": [{"days": "Mon-Fri", "time": "1:30pm"}, {"days": "Sat", "time": "10:00am"}, {"days": "Sun", "time": "Closed"}], "id": "4014000002", "name": "USPS COLLECTION BOX - PO LOBBY", "address": {"city": "GARFIELD", "state": "KY", "street": "6621 E HIGHWAY 60", "postcode": "40140"}}},
{"geometry": {"type": "Point", "coordinates": [-86.2224753646, 37.8930806854]}, "type": "Feature", "properties": {"collection_times": [{"days": "Mon-Fri", "time": "11:45am"}, {"days": "Sat", "time": "10:15am"}, {"days": "Sun", "time": "Closed"}], "id": "4014200001", "name": "USPS COLLECTION BOX - BLUE BOX", "address": {"city": "GUSTON", "state": "KY", "street": "835 GUSTON RD", "postcode": "40142"}}},
{"geometry": {"type": "Point", "coordinates": [-86.4611434103, 37.7809150607]}, "type": "Feature", "properties": {"collection_times": [{"days": "Mon-Fri", "time": "3:45pm"}, {"days": "Sat", "time": "12:00pm"}, {"days": "Sun", "time": "Closed"}], "id": "4014300001", "name": "USPS COLLECTION BOX - BLUE BOX", "address": {"city": "HARDINSBURG", "state": "KY", "street": "234 S MAIN ST", "postcode": "40143"}}},
{"geometry": {"type": "Point", "coordinates": [-86.4553975986, 37.7616945678]}, "type": "Feature", "properties": {"collection_times": [{"days": "Mon-Sat", "time": "12:15pm"}, {"days": "Sun", "time": "Closed"}], "id": "4014300002", "name": "USPS COLLECTION BOX - BLUE BOX", "address": {"city": "HARDINSBURG", "state": "KY", "street": "511 OLD HIGHWAY 60 STE 8", "postcode": "40143"}}},
{"geometry": {"type": "Point", "coordinates": [-86.4239363088, 37.7533629686]}, "type": "Feature", "properties": {"collection_times": [{"days": "Mon-Sat", "time": "12:15pm"}, {"days": "Sun", "time": "Closed"}], "id": "4014300003", "name": "USPS COLLECTION BOX - BLUE BOX", "address": {"city": "HARDINSBURG", "state": "KY", "street": "111 OLD HIGHWAY 60", "postcode": "40143"}}},
{"geometry": {"type": "Point", "coordinates": [-86.4900684239, 37.7893859704]}, "type": "Feature", "properties": {"collection_times": [{"days": "Mon-Sat", "time": "12:15pm"}, {"days": "Sun", "time": "Closed"}], "id": "4014300004", "name": "USPS COLLECTION BOX - BLUE BOX", "address": {"city": "HARDINSBURG", "state": "KY", "street": "1011 OLD HIGHWAY 60", "postcode": "40143"}}},
{"geometry": {"type": "Point", "coordinates": [-86.4611434103, 37.7809150607]}, "type": "Feature", "properties": {"collection_times": [{"days": "Mon-Fri", "time": "4:00pm"}, {"days": "Sat", "time": "12:00pm"}, {"days": "Sun", "time": "Closed"}], "id": "4014300005", "name": "USPS COLLECTION BOX - PO LOBBY", "address": {"city": "HARDINSBURG", "state": "KY", "street": "234 S MAIN ST", "postcode": "40143"}}},
{"geometry": {"type": "Point", "coordinates": [-86.3606303159, 37.7303788265]}, "type": "Feature", "properties": {"collection_times": [{"days": "Mon-Fri", "time": "3:45pm"}, {"days": "Sat", "time": "11:00am"}, {"days": "Sun", "time": "Closed"}], "id": "4014400001", "name": "USPS COLLECTION BOX - BLUE BOX", "address": {"city": "HARNED", "state": "KY", "street": "48 S HIGHWAY 259", "postcode": "40144"}}},
{"geometry": {"type": "Point", "coordinates": [-86.3606303159, 37.7303788265]}, "type": "Feature", "properties": {"collection_times": [{"days": "Mon-Fri", "time": "4:00pm"}, {"days": "Sat", "time": "11:15am"}, {"days": "Sun", "time": "Closed"}], "id": "4014400002", "name": "USPS COLLECTION BOX - PO LOBBY", "address": {"city": "HARNED", "state": "KY", "street": "48 S HIGHWAY 259", "postcode": "40144"}}},
{"geometry": {"type": "Point", "coordinates": [-86.2840195028, 37.8783534709]}, "type": "Feature", "properties": {"collection_times": [{"days": "Mon-Fri", "time": "4:15pm"}, {"days": "Sat", "time": "11:45am"}, {"days": "Sun", "time": "Closed"}], "id": "4014600001", "name": "USPS COLLECTION BOX - BLUE BOX", "address": {"city": "IRVINGTON", "state": "KY", "street": "111 N 1ST ST", "postcode": "40146"}}},
{"geometry": {"type": "Point", "coordinates": [-86.2840195028, 37.8783534709]}, "type": "Feature", "properties": {"collection_times": [{"days": "Mon-Fri", "time": "4:15pm"}, {"days": "Sat", "time": "11:45am"}, {"days": "Sun", "time": "Closed"}], "id": "4014600002", "name": "USPS COLLECTION BOX - PO LOBBY", "address": {"city": "IRVINGTON", "state": "KY", "street": "111 N 1ST ST", "postcode": "40146"}}},
{"geometry": {"type": "Point", "coordinates": [-85.7290294027, 37.8375937921]}, "type": "Feature", "properties": {"collection_times": [{"days": "Mon-Fri", "time": "3:30pm"}, {"days": "Sat", "time": "12:00pm"}, {"days": "Sun", "time": "Closed"}], "id": "4015000001", "name": "USPS COLLECTION BOX - BLUE BOX", "address": {"city": "LEBANON JCTN", "state": "KY", "street": "11716 S PRESTON HWY", "postcode": "40150"}}},
{"geometry": {"type": "Point", "coordinates": [-85.7320189184, 37.8343476084]}, "type": "Feature", "properties": {"collection_times": [{"days": "Mon-Fri", "time": "11:00am"}, {"days": "Sat-Sun", "time": "Closed"}], "id": "4015000003", "name": "USPS COLLECTION BOX - BLUE BOX", "address": {"city": "LEBANON JCTN", "state": "KY", "street": "271 MAIN ST", "postcode": "40150"}}},
{"geometry": {"type": "Point", "coordinates": [-85.7290294027, 37.8375937921]}, "type": "Feature", "properties": {"collection_times": [{"days": "Mon-Fri", "time": "3:30pm"}, {"days": "Sat", "time": "12:00pm"}, {"days": "Sun", "time": "Closed"}], "id": "4015000005", "name": "USPS COLLECTION BOX - PO LOBBY", "address": {"city": "LEBANON JCTN", "state": "KY", "street": "11716 S PRESTON HWY", "postcode": "40150"}}},
{"geometry": {"type": "Point", "coordinates": [-86.4484163595, 37.6303228836]}, "type": "Feature", "properties": {"collection_times": [{"days": "Mon-Fri", "time": "2:45pm"}, {"days": "Sat", "time": "12:00pm"}, {"days": "Sun", "time": "Closed"}], "id": "4015200001", "name": "USPS COLLECTION BOX - BLUE BOX", "address": {"city": "MCDANIELS", "state": "KY", "street": "9501 S HIGHWAY 259", "postcode": "40152"}}},
{"geometry": {"type": "Point", "coordinates": [-86.4484163595, 37.6303228836]}, "type": "Feature", "properties": {"collection_times": [{"days": "Mon-Fri", "time": "2:45pm"}, {"days": "Sat", "time": "12:00pm"}, {"days": "Sun", "time": "Closed"}], "id": "4015200002", "name": "USPS COLLECTION BOX - PO LOBBY", "address": {"city": "MCDANIELS", "state": "KY", "street": "9501 S HIGHWAY 259", "postcode": "40152"}}},
{"geometry": {"type": "Point", "coordinates": [-86.518650025, 37.7082259466]}, "type": "Feature", "properties": {"collection_times": [{"days": "Mon-Fri", "time": "1:00pm"}, {"days": "Sat", "time": "10:15am"}, {"days": "Sun", "time": "Closed"}], "id": "4015300001", "name": "USPS COLLECTION BOX - BLUE BOX", "address": {"city": "MCQUADY", "state": "KY", "street": "6801 S HIGHWAY 261", "postcode": "40153"}}},
{"geometry": {"type": "Point", "coordinates": [-86.518650025, 37.7082259466]}, "type": "Feature", "properties": {"collection_times": [{"days": "Mon-Fri", "time": "1:00pm"}, {"days": "Sat", "time": "10:15am"}, {"days": "Sun", "time": "Closed"}], "id": "4015300002", "name": "USPS COLLECTION BOX - PO LOBBY", "address": {"city": "MCQUADY", "state": "KY", "street": "6801 S HIGHWAY 261", "postcode": "40153"}}},
{"geometry": {"type": "Point", "coordinates": [-85.994918802, 37.9404656233]}, "type": "Feature", "properties": {"collection_times": [{"days": "Mon-Fri", "time": "4:00pm"}, {"days": "Sat", "time": "11:00am"}, {"days": "Sun", "time": "Closed"}], "id": "4015500001", "name": "USPS COLLECTION BOX - BLUE BOX", "address": {"city": "MULDRAUGH", "state": "KY", "street": "114 S MAIN ST", "postcode": "40155"}}},
{"geometry": {"type": "Point", "coordinates": [-86.3005005928, 37.986504652]}, "type": "Feature", "properties": {"collection_times": [{"days": "Mon-Fri", "time": "3:00pm"}, {"days": "Sat", "time": "9:30am"}, {"days": "Sun", "time": "Closed"}], "id": "4015700001", "name": "USPS COLLECTION BOX - BLUE BOX", "address": {"city": "PAYNEVILLE", "state": "KY", "street": "5335 PAYNEVILLE RD", "postcode": "40157"}}},
{"geometry": {"type": "Point", "coordinates": [-86.3005005928, 37.986504652]}, "type": "Feature", "properties": {"collection_times": [{"days": "Mon-Fri", "time": "3:00pm"}, {"days": "Sat", "time": "9:30am"}, {"days": "Sun", "time": "Closed"}], "id": "4015700002", "name": "USPS COLLECTION BOX - PO LOBBY", "address": {"city": "PAYNEVILLE", "state": "KY", "street": "5335 PAYNEVILLE RD", "postcode": "40157"}}},
{"geometry": {"type": "Point", "coordinates": [-85.9474636994, 37.8369942372]}, "type": "Feature", "properties": {"collection_times": [{"days": "Mon-Fri", "time": "4:00pm"}, {"days": "Sat", "time": "2:00pm"}, {"days": "Sun", "time": "Closed"}], "id": "4016000001", "name": "USPS COLLECTION BOX - BLUE BOX", "address": {"city": "RADCLIFF", "state": "KY", "street": "590 W LINCOLN TRAIL BLVD", "postcode": "40160"}}},
{"geometry": {"type": "Point", "coordinates": [-85.9149910426, 37.8102850905]}, "type": "Feature", "properties": {"collection_times": [{"days": "Mon-Sat", "time": "11:00am"}, {"days": "Sun", "time": "Closed"}], "id": "4016000002", "name": "USPS COLLECTION BOX - BLUE BOX", "address": {"city": "RADCLIFF", "state": "KY", "street": "2855 CENTENNIAL AVE", "postcode": "40160"}}},
{"geometry": {"type": "Point", "coordinates": [-85.9474636994, 37.8369942372]}, "type": "Feature", "properties": {"collection_times": [{"days": "Mon-Fri", "time": "4:30pm"}, {"days": "Sat", "time": "2:00pm"}, {"days": "Sun", "time": "Closed"}], "id": "4016000009", "name": "USPS COLLECTION BOX - PO LOBBY", "address": {"city": "RADCLIFF", "state": "KY", "street": "590 W LINCOLN TRAIL BLVD", "postcode": "40160"}}},
{"geometry": {"type": "Point", "coordinates": [-85.9509719911, 37.8535367427]}, "type": "Feature", "properties": {"collection_times": [{"days": "Mon-Sat", "time": "12:00pm"}, {"days": "Sun", "time": "Closed"}], "id": "4016000012", "name": "USPS COLLECTION BOX - BLUE BOX", "address": {"city": "RADCLIFF", "state": "KY", "street": "3939 S DIXIE BLVD", "postcode": "40160"}}},
{"geometry": {"type": "Point", "coordinates": [-86.4179773923, 38.0024614974]}, "type": "Feature", "properties": {"collection_times": [{"days": "Mon-Sat", "time": "10:45am"}, {"days": "Sun", "time": "Closed"}], "id": "4016100001", "name": "USPS COLLECTION BOX - BLUE BOX", "address": {"city": "RHODELIA", "state": "KY", "street": "11195 RHODELIA RD", "postcode": "40161"}}},
{"geometry": {"type": "Point", "coordinates": [-85.9702553169, 37.7501623079]}, "type": "Feature", "properties": {"collection_times": [{"days": "Mon-Fri", "time": "3:45pm"}, {"days": "Sat", "time": "10:45am"}, {"days": "Sun", "time": "Closed"}], "id": "4016200001", "name": "USPS COLLECTION BOX - BLUE BOX", "address": {"city": "RINEYVILLE", "state": "KY", "street": "6127 RINEYVILLE RD", "postcode": "40162"}}},
{"geometry": {"type": "Point", "coordinates": [-85.9702553169, 37.7501623079]}, "type": "Feature", "properties": {"collection_times": [{"days": "Mon-Fri", "time": "3:45pm"}, {"days": "Sat", "time": "10:45am"}, {"days": "Sun", "time": "Closed"}], "id": "4016200002", "name": "USPS COLLECTION BOX - PO LOBBY", "address": {"city": "RINEYVILLE", "state": "KY", "street": "6127 RINEYVILLE RD", "postcode": "40162"}}},
{"geometry": {"type": "Point", "coordinates": [-85.7098620871, 38.0021343641]}, "type": "Feature", "properties": {"collection_times": [{"days": "Mon-Fri", "time": "4:30pm"}, {"days": "Sat", "time": "2:00pm"}, {"days": "Sun", "time": "Closed"}], "id": "4016500001", "name": "USPS COLLECTION BOX - BLUE BOX", "address": {"city": "SHEPHERDSVILLE", "state": "KY", "street": "921 N BUCKMAN ST", "postcode": "40165"}}},
{"geometry": {"type": "Point", "coordinates": [-85.7078928083, 37.9911251353]}, "type": "Feature", "properties": {"collection_times": [{"days": "Mon-Sat", "time": "11:00am"}, {"days": "Sun", "time": "Closed"}], "id": "4016500004", "name": "USPS COLLECTION BOX - BLUE BOX", "address": {"city": "SHEPHERDSVILLE", "state": "KY", "street": "189 ADAM SHEPHERD PKWY", "postcode": "40165"}}},
{"geometry": {"type": "Point", "coordinates": [-85.7116300038, 37.9902043101]}, "type": "Feature", "properties": {"collection_times": [{"days": "Mon-Sat", "time": "10:00am"}, {"days": "Sun", "time": "Closed"}], "id": "4016500006", "name": "USPS COLLECTION BOX - BLUE BOX", "address": {"city": "SHEPHERDSVILLE", "state": "KY", "street": "445 HIGHWAY 44 E", "postcode": "40165"}}},
{"geometry": {"type": "Point", "coordinates": [-85.7151762834, 37.9897984783]}, "type": "Feature", "properties": {"collection_times": [{"days": "Mon-Sat", "time": "10:00am"}, {"days": "Sun", "time": "Closed"}], "id": "4016500009", "name": "USPS COLLECTION BOX - BLUE BOX", "address": {"city": "SHEPHERDSVILLE", "state": "KY", "street": "170 FRANK E SIMON AVE", "postcode": "40165"}}},
{"geometry": {"type": "Point", "coordinates": [-85.7001572381, 38.0514854771]}, "type": "Feature", "properties": {"collection_times": [{"days": "Mon-Sat", "time": "11:00am"}, {"days": "Sun", "time": "Closed"}], "id": "4016500011", "name": "USPS COLLECTION BOX - BLUE BOX", "address": {"city": "SHEPHERDSVILLE", "state": "KY", "street": "2050 E BLUE LICK RD", "postcode": "40165"}}},
{"geometry": {"type": "Point", "coordinates": [-85.7098620871, 38.0021343641]}, "type": "Feature", "properties": {"collection_times": [{"days": "Mon-Fri", "time": "4:30pm"}, {"days": "Sat", "time": "2:00pm"}, {"days": "Sun", "time": "Closed"}], "id": "4016500012", "name": "USPS COLLECTION BOX - PO LOBBY", "address": {"city": "SHEPHERDSVILLE", "state": "KY", "street": "921 N BUCKMAN ST", "postcode": "40165"}}},
{"geometry": {"type": "Point", "coordinates": [-85.6693561213, 38.0520227365]}, "type": "Feature", "properties": {"collection_times": [{"days": "Mon-Sat", "time": "11:00am"}, {"days": "Sun", "time": "Closed"}], "id": "4016500014", "name": "USPS COLLECTION BOX - BLUE BOX", "address": {"city": "SHEPHERDSVILLE", "state": "KY", "street": "3390 BURKLAND BLVD", "postcode": "40165"}}},
{"geometry": {"type": "Point", "coordinates": [-85.6929482023, 37.9787413141]}, "type": "Feature", "properties": {"collection_times": [{"days": "Mon-Sat", "time": "11:30am"}, {"days": "Sun", "time": "Closed"}], "id": "4016500016", "name": "USPS COLLECTION BOX - BLUE BOX", "address": {"city": "SHEPHERDSVILLE", "state": "KY", "street": "1090 CEDAR GROVE RD", "postcode": "40165"}}},
{"geometry": {"type": "Point", "coordinates": [-85.7098620871, 38.0021343641]}, "type": "Feature", "properties": {"collection_times": [{"days": "Mon-Fri", "time": "4:30pm"}, {"days": "Sat", "time": "2:00pm"}, {"days": "Sun", "time": "Closed"}], "id": "4016500018", "name": "USPS COLLECTION BOX - PO LOBBY", "address": {"city": "SHEPHERDSVILLE", "state": "KY", "street": "921 N BUCKMAN ST", "postcode": "40165"}}},
{"geometry": {"type": "Point", "coordinates": [-85.6899588674, 37.9255483282]}, "type": "Feature", "properties": {"collection_times": [{"days": "Mon-Sat", "time": "10:00am"}, {"days": "Sun", "time": "Closed"}], "id": "4016500021", "name": "USPS COLLECTION BOX - BLUE BOX", "address": {"city": "SHEPHERDSVILLE", "state": "KY", "street": "995 CLERMONT RD", "postcode": "40165"}}},
{"geometry": {"type": "Point", "coordinates": [-86.5370633988, 37.8985741979]}, "type": "Feature", "properties": {"collection_times": [{"days": "Mon-Sat", "time": "8:30am"}, {"days": "Sun", "time": "Closed"}], "id": "4017000001", "name": "USPS COLLECTION BOX - BLUE BOX", "address": {"city": "STEPHENSPORT", "state": "KY", "street": "9757 E HIGHWAY 144", "postcode": "40170"}}},
{"geometry": {"type": "Point", "coordinates": [-85.9726252952, 37.8141597965]}, "type": "Feature", "properties": {"collection_times": [{"days": "Mon-Fri", "time": "4:00pm"}, {"days": "Sat", "time": "3:00pm"}, {"days": "Sun", "time": "Closed"}], "id": "4017500001", "name": "USPS COLLECTION BOX - BLUE BOX", "address": {"city": "VINE GROVE", "state": "KY", "street": "414 1/2 HIGHLAND AVE", "postcode": "40175"}}},
{"geometry": {"type": "Point", "coordinates": [-85.9707760586, 37.8163618887]}, "type": "Feature", "properties": {"collection_times": [{"days": "Mon-Sat", "time": "9:00am"}, {"days": "Sun", "time": "Closed"}], "id": "4017500002", "name": "USPS COLLECTION BOX - BLUE BOX", "address": {"city": "VINE GROVE", "state": "KY", "street": "536 HIGHLAND AVE", "postcode": "40175"}}},
{"geometry": {"type": "Point", "coordinates": [-85.9726252952, 37.8141597965]}, "type": "Feature", "properties": {"collection_times": [{"days": "Mon-Fri", "time": "4:00pm"}, {"days": "Sat", "time": "3:00pm"}, {"days": "Sun", "time": "Closed"}], "id": "4017500008", "name": "USPS COLLECTION BOX - PO LOBBY", "address": {"city": "VINE GROVE", "state": "KY", "street": "414 1/2 HIGHLAND AVE", "postcode": "40175"}}},
{"geometry": {"type": "Point", "coordinates": [-86.0494449941, 37.8296960178]}, "type": "Feature", "properties": {"collection_times": [{"days": "Mon-Sat", "time": "9:30am"}, {"days": "Sun", "time": "Closed"}], "id": "4017500009", "name": "USPS COLLECTION BOX - BLUE BOX", "address": {"city": "VINE GROVE", "state": "KY", "street": "4055 FLAHERTY RD", "postcode": "40175"}}},
{"geometry": {"type": "Point", "coordinates": [-86.3706212761, 37.9369822791]}, "type": "Feature", "properties": {"collection_times": [{"days": "Mon-Fri", "time": "10:45am"}, {"days": "Sat", "time": "11:30am"}, {"days": "Sun", "time": "Closed"}], "id": "4017600001", "name": "USPS COLLECTION BOX - BLUE BOX", "address": {"city": "WEBSTER", "state": "KY", "street": "12321 N HIGHWAY 261", "postcode": "40176"}}},
{"geometry": {"type": "Point", "coordinates": [-85.9496715491, 37.9985898763]}, "type": "Feature", "properties": {"collection_times": [{"days": "Mon-Fri", "time": "10:45am"}, {"days": "Sat", "time": "9:00am"}, {"days": "Sun", "time": "Closed"}], "id": "4017700001", "name": "USPS COLLECTION BOX - BLUE BOX", "address": {"city": "WEST POINT", "state": "KY", "street": "602 MAIN ST", "postcode": "40177"}}}
]}
