{"type": "FeatureCollection", "features": [
{"geometry": {"type": "Point", "coordinates": [-85.7513951303, 38.2568991517]}, "type": "Feature", "properties": {"collection_times": [{"days": "Mon-Fri", "time": "2:30pm"}, {"days": "Sat-Sun", "time": "Closed"}], "id": "4020200000", "name": "USPS COLLECTION BOX - BLUE BOX", "address": {"city": "LOUISVILLE", "state": "KY", "street": "101 E WASHINGTON ST", "postcode": "40202"}}},
{"geometry": {"type": "Point", "coordinates": [-85.7521458364, 38.2524581798]}, "type": "Feature", "properties": {"collection_times": [{"days": "Mon-Fri", "time": "4:00pm"}, {"days": "Sat-Sun", "time": "Closed"}], "id": "4020200002", "name": "USPS COLLECTION BOX - BLUE BOX", "address": {"city": "LOUISVILLE", "state": "KY", "street": "100 E LIBERTY ST", "postcode": "40202"}}},
{"geometry": {"type": "Point", "coordinates": [-85.7518898427, 38.254648092]}, "type": "Feature", "properties": {"collection_times": [{"days": "Mon-Fri", "time": "2:30pm"}, {"days": "Sat-Sun", "time": "Closed"}], "id": "4020200004", "name": "USPS COLLECTION BOX - BLUE BOX", "address": {"city": "LOUISVILLE", "state": "KY", "street": "222 S 1ST ST", "postcode": "40202"}}},
{"geometry": {"type": "Point", "coordinates": [-85.7566263008, 38.249945251]}, "type": "Feature", "properties": {"collection_times": [{"days": "Mon-Fri", "time": "4:30pm"}, {"days": "Sat-Sun", "time": "Closed"}], "id": "4020200011", "name": "USPS COLLECTION BOX - BLUE BOX", "address": {"city": "LOUISVILLE", "state": "KY", "street": "333 GUTHRIE ST", "postcode": "40202"}}},
{"geometry": {"type": "Point", "coordinates": [-85.7560562286, 38.2498983039]}, "type": "Feature", "properties": {"collection_times": [{"days": "Mon-Fri", "time": "4:30pm"}, {"days": "Sat-Sun", "time": "Closed"}], "id": "4020200012", "name": "USPS COLLECTION BOX - BLUE BOX", "address": {"city": "LOUISVILLE", "state": "KY", "street": "301 GUTHRIE ST", "postcode": "40202"}}},
{"geometry": {"type": "Point", "coordinates": [-85.7555893228, 38.2528325878]}, "type": "Feature", "properties": {"collection_times": [{"days": "Mon-Fri", "time": "3:00pm"}, {"days": "Sat-Sun", "time": "Closed"}], "id": "4020200015", "name": "USPS COLLECTION BOX - BLUE BOX", "address": {"city": "LOUISVILLE", "state": "KY", "street": "400 S 3RD ST", "postcode": "40202"}}},
{"geometry": {"type": "Point", "coordinates": [-85.7557980653, 38.2508165324]}, "type": "Feature", "properties": {"collection_times": [{"days": "Mon-Fri", "time": "4:30pm"}, {"days": "Sat-Sun", "time": "Closed"}], "id": "4020200017", "name": "USPS COLLECTION BOX - BLUE BOX", "address": {"city": "LOUISVILLE", "state": "KY", "street": "505 S 3RD ST", "postcode": "40202"}}},
{"geometry": {"type": "Point", "coordinates": [-85.7579247247, 38.2489012322]}, "type": "Feature", "properties": {"collection_times": [{"days": "Mon-Fri", "time": "1:00pm"}, {"days": "Sat-Sun", "time": "Closed"}], "id": "4020200028", "name": "USPS COLLECTION BOX - BLUE BOX", "address": {"city": "LOUISVILLE", "state": "KY", "street": "400 W CHESTNUT ST", "postcode": "40202"}}},
{"geometry": {"type": "Point", "coordinates": [-85.7559387337, 38.2551799885]}, "type": "Feature", "properties": {"collection_times": [{"days": "Mon-Fri", "time": "11:00am"}, {"days": "Sat-Sun", "time": "Closed"}], "id": "4020200032", "name": "USPS COLLECTION BOX - BLUE BOX", "address": {"city": "LOUISVILLE", "state": "KY", "street": "351 W MARKET ST", "postcode": "40202"}}},
{"geometry": {"type": "Point", "coordinates": [-85.7560913172, 38.2551766939]}, "type": "Feature", "properties": {"collection_times": [{"days": "Mon-Fri", "time": "4:00pm"}, {"days": "Sat-Sun", "time": "Closed"}], "id": "4020200033", "name": "USPS COLLECTION BOX - BLUE BOX", "address": {"city": "LOUISVILLE", "state": "KY", "street": "351 W MARKET ST", "postcode": "40202"}}},
{"geometry": {"type": "Point", "coordinates": [-85.7575011743, 38.2504744801]}, "type": "Feature", "properties": {"collection_times": [{"days": "Mon-Fri", "time": "4:30pm"}, {"days": "Sat-Sun", "time": "Closed"}], "id": "4020200044", "name": "USPS COLLECTION BOX - BLUE BOX", "address": {"city": "LOUISVILLE", "state": "KY", "street": "455 S 4TH ST", "postcode": "40202"}}},
{"geometry": {"type": "Point", "coordinates": [-85.758498922, 38.255376122]}, "type": "Feature", "properties": {"collection_times": [{"days": "Mon-Fri", "time": "5:00pm"}, {"days": "Sat-Sun", "time": "Closed"}], "id": "4020200060", "name": "USPS COLLECTION BOX - BLUE BOX", "address": {"city": "LOUISVILLE", "state": "KY", "street": "200 S 5TH ST", "postcode": "40202"}}},
{"geometry": {"type": "Point", "coordinates": [-85.7589648568, 38.2528305165]}, "type": "Feature", "properties": {"collection_times": [{"days": "Mon-Fri", "time": "3:00pm"}, {"days": "Sat-Sun", "time": "Closed"}], "id": "4020200069", "name": "USPS COLLECTION BOX - BLUE BOX", "address": {"city": "LOUISVILLE", "state": "KY", "street": "424 S 5TH ST", "postcode": "40202"}}},
{"geometry": {"type": "Point", "coordinates": [-85.7577551036, 38.2512277939]}, "type": "Feature", "properties": {"collection_times": [{"days": "Mon-Fri", "time": "4:30pm"}, {"days": "Sat-Sun", "time": "Closed"}], "id": "4020200070", "name": "USPS COLLECTION BOX - BLUE BOX", "address": {"city": "LOUISVILLE", "state": "KY", "street": "429 W MUHAMMAD ALI BLVD", "postcode": "40202"}}},
{"geometry": {"type": "Point", "coordinates": [-85.7577551036, 38.2512277939]}, "type": "Feature", "properties": {"collection_times": [{"days": "Mon-Fri", "time": "4:30pm"}, {"days": "Sat-Sun", "time": "Closed"}], "id": "4020200071", "name": "USPS COLLECTION BOX - BLUE BOX", "address": {"city": "LOUISVILLE", "state": "KY", "street": "429 W MUHAMMAD ALI BLVD", "postcode": "40202"}}},
{"geometry": {"type": "Point", "coordinates": [-85.7599207004, 38.2569510222]}, "type": "Feature", "properties": {"collection_times": [{"days": "Mon-Fri", "time": "5:00pm"}, {"days": "Sat-Sun", "time": "Closed"}], "id": "4020200085", "name": "USPS COLLECTION BOX - BLUE BOX", "address": {"city": "LOUISVILLE", "state": "KY", "street": "100 S 6TH ST", "postcode": "40202"}}},
{"geometry": {"type": "Point", "coordinates": [-85.7603082291, 38.2546989257]}, "type": "Feature", "properties": {"collection_times": [{"days": "Mon-Fri", "time": "10:00am"}, {"days": "Sat-Sun", "time": "Closed"}], "id": "4020200086", "name": "USPS COLLECTION BOX - BLUE BOX", "address": {"city": "LOUISVILLE", "state": "KY", "street": "238 S 6TH ST", "postcode": "40202"}}},
{"geometry": {"type": "Point", "coordinates": [-85.7606309712, 38.2527675925]}, "type": "Feature", "properties": {"collection_times": [{"days": "Mon-Fri", "time": "2:30pm"}, {"days": "Sat-Sun", "time": "Closed"}], "id": "4020200087", "name": "USPS COLLECTION BOX - BLUE BOX", "address": {"city": "LOUISVILLE", "state": "KY", "street": "600 W CEDAR ST", "postcode": "40202"}}},
{"geometry": {"type": "Point", "coordinates": [-85.7606309712, 38.2527675925]}, "type": "Feature", "properties": {"collection_times": [{"days": "Mon-Fri", "time": "2:30pm"}, {"days": "Sat-Sun", "time": "Closed"}], "id": "4020200088", "name": "USPS COLLECTION BOX - BLUE BOX", "address": {"city": "LOUISVILLE", "state": "KY", "street": "600 W CEDAR ST", "postcode": "40202"}}},
{"geometry": {"type": "Point", "coordinates": [-85.761178173, 38.2542306012]}, "type": "Feature", "properties": {"collection_times": [{"days": "Mon-Fri", "time": "3:00pm"}, {"days": "Sat-Sun", "time": "Closed"}], "id": "4020200090", "name": "USPS COLLECTION BOX - BLUE BOX", "address": {"city": "LOUISVILLE", "state": "KY", "street": "650 W JEFFERSON ST", "postcode": "40202"}}},
{"geometry": {"type": "Point", "coordinates": [-85.7621824507, 38.2571452166]}, "type": "Feature", "properties": {"collection_times": [{"days": "Mon-Fri", "time": "3:45pm"}, {"days": "Sat-Sun", "time": "Closed"}], "id": "4020200096", "name": "USPS COLLECTION BOX - BLUE BOX", "address": {"city": "LOUISVILLE", "state": "KY", "street": "740 W MAIN ST", "postcode": "40202"}}},
{"geometry": {"type": "Point", "coordinates": [-85.7621824507, 38.2571452166]}, "type": "Feature", "properties": {"collection_times": [{"days": "Mon-Fri", "time": "3:45pm"}, {"days": "Sat-Sun", "time": "Closed"}], "id": "4020200097", "name": "USPS COLLECTION BOX - BLUE BOX", "address": {"city": "LOUISVILLE", "state": "KY", "street": "740 W MAIN ST", "postcode": "40202"}}},
{"geometry": {"type": "Point", "coordinates": [-85.7530471353, 38.2525413741]}, "type": "Feature", "properties": {"collection_times": [{"days": "Mon-Fri", "time": "4:15pm"}, {"days": "Sat-Sun", "time": "Closed"}], "id": "4020200099", "name": "USPS COLLECTION BOX - BLUE BOX", "address": {"city": "LOUISVILLE", "state": "KY", "street": "730 W MARKET ST", "postcode": "40202"}}},
{"geometry": {"type": "Point", "coordinates": [-85.7530471353, 38.2525413741]}, "type": "Feature", "properties": {"collection_times": [{"days": "Mon-Fri", "time": "4:15pm"}, {"days": "Sat-Sun", "time": "Closed"}], "id": "4020200100", "name": "USPS COLLECTION BOX - BLUE BOX", "address": {"city": "LOUISVILLE", "state": "KY", "street": "730 W MARKET ST", "postcode": "40202"}}},
{"geometry": {"type": "Point", "coordinates": [-85.7502770567, 38.2493369748]}, "type": "Feature", "properties": {"collection_times": [{"days": "Mon-Fri", "time": "2:00pm"}, {"days": "Sat-Sun", "time": "Closed"}], "id": "4020200103", "name": "USPS COLLECTION BOX - BLUE BOX", "address": {"city": "LOUISVILLE", "state": "KY", "street": "225 ABRAHAM FLEXNER WAY", "postcode": "40202"}}},
{"geometry": {"type": "Point", "coordinates": [-85.7508297886, 38.2455189212]}, "type": "Feature", "properties": {"collection_times": [{"days": "Mon-Fri", "time": "2:30pm"}, {"days": "Sat-Sun", "time": "Closed"}], "id": "4020200111", "name": "USPS COLLECTION BOX - BLUE BOX", "address": {"city": "LOUISVILLE", "state": "KY", "street": "224 E BROADWAY", "postcode": "40202"}}},
{"geometry": {"type": "Point", "coordinates": [-85.7455086646, 38.2451798201]}, "type": "Feature", "properties": {"collection_times": [{"days": "Mon-Fri", "time": "3:15pm"}, {"days": "Sat-Sun", "time": "Closed"}], "id": "4020200114", "name": "USPS COLLECTION BOX - BLUE BOX", "address": {"city": "LOUISVILLE", "state": "KY", "street": "501 E BROADWAY", "postcode": "40202"}}},
{"geometry": {"type": "Point", "coordinates": [-85.7542728124, 38.245773521]}, "type": "Feature", "properties": {"collection_times": [{"days": "Mon-Fri", "time": "2:30pm"}, {"days": "Sat-Sun", "time": "Closed"}], "id": "4020200117", "name": "USPS COLLECTION BOX - BLUE BOX", "address": {"city": "LOUISVILLE", "state": "KY", "street": "120 W BROADWAY", "postcode": "40202"}}},
{"geometry": {"type": "Point", "coordinates": [-85.7509348924, 38.2482494616]}, "type": "Feature", "properties": {"collection_times": [{"days": "Mon-Fri", "time": "1:00pm"}, {"days": "Sat-Sun", "time": "Closed"}], "id": "4020200130", "name": "USPS COLLECTION BOX - BLUE BOX", "address": {"city": "LOUISVILLE", "state": "KY", "street": "217 E CHESTNUT ST", "postcode": "40202"}}},
{"geometry": {"type": "Point", "coordinates": [-85.7471479338, 38.2477828511]}, "type": "Feature", "properties": {"collection_times": [{"days": "Mon-Fri", "time": "3:30pm"}, {"days": "Sat-Sun", "time": "Closed"}], "id": "4020200134", "name": "USPS COLLECTION BOX - BLUE BOX", "address": {"city": "LOUISVILLE", "state": "KY", "street": "601 S PRESTON ST", "postcode": "40202"}}},
{"geometry": {"type": "Point", "coordinates": [-85.7534239094, 38.2485156186]}, "type": "Feature", "properties": {"collection_times": [{"days": "Mon-Fri", "time": "1:00pm"}, {"days": "Sat-Sun", "time": "Closed"}], "id": "4020200135", "name": "USPS COLLECTION BOX - BLUE BOX", "address": {"city": "LOUISVILLE", "state": "KY", "street": "131 W CHESTNUT ST", "postcode": "40202"}}},
{"geometry": {"type": "Point", "coordinates": [-85.7490393994, 38.2557531593]}, "type": "Feature", "properties": {"collection_times": [{"days": "Mon-Fri", "time": "3:00pm"}, {"days": "Sat-Sun", "time": "Closed"}], "id": "4020200143", "name": "USPS COLLECTION BOX - BLUE BOX", "address": {"city": "LOUISVILLE", "state": "KY", "street": "242 E MAIN ST", "postcode": "40202"}}},
{"geometry": {"type": "Point", "coordinates": [-85.7491302427, 38.2479828165]}, "type": "Feature", "properties": {"collection_times": [{"days": "Mon-Fri", "time": "3:30pm"}, {"days": "Sat-Sun", "time": "Closed"}], "id": "4020200146", "name": "USPS COLLECTION BOX - BLUE BOX", "address": {"city": "LOUISVILLE", "state": "KY", "street": "601 S FLOYD ST", "postcode": "40202"}}},
{"geometry": {"type": "Point", "coordinates": [-85.7507616381, 38.2468277607]}, "type": "Feature", "properties": {"collection_times": [{"days": "Mon-Fri", "time": "3:30pm"}, {"days": "Sat-Sun", "time": "Closed"}], "id": "4020200147", "name": "USPS COLLECTION BOX - BLUE BOX", "address": {"city": "LOUISVILLE", "state": "KY", "street": "234 E GRAY ST", "postcode": "40202"}}},
{"geometry": {"type": "Point", "coordinates": [-85.7512569044, 38.2468567802]}, "type": "Feature", "properties": {"collection_times": [{"days": "Mon-Fri", "time": "3:30pm"}, {"days": "Sat-Sun", "time": "Closed"}], "id": "4020200152", "name": "USPS COLLECTION BOX - BLUE BOX", "address": {"city": "LOUISVILLE", "state": "KY", "street": "210 E GRAY ST", "postcode": "40202"}}},
{"geometry": {"type": "Point", "coordinates": [-85.7566263008, 38.249945251]}, "type": "Feature", "properties": {"collection_times": [{"days": "Mon-Fri", "time": "4:30pm"}, {"days": "Sat-Sun", "time": "Closed"}], "id": "4020200154", "name": "USPS COLLECTION BOX - BLUE BOX", "address": {"city": "LOUISVILLE", "state": "KY", "street": "333 GUTHRIE ST", "postcode": "40202"}}},
{"geometry": {"type": "Point", "coordinates": [-85.7449179593, 38.2489106418]}, "type": "Feature", "properties": {"collection_times": [{"days": "Mon-Fri", "time": "4:00pm"}, {"days": "Sat-Sun", "time": "Closed"}], "id": "4020200159", "name": "USPS COLLECTION BOX - BLUE BOX", "address": {"city": "LOUISVILLE", "state": "KY", "street": "545 S JACKSON ST", "postcode": "40202"}}},
{"geometry": {"type": "Point", "coordinates": [-85.7596070682, 38.2532753615]}, "type": "Feature", "properties": {"collection_times": [{"days": "Mon-Fri", "time": "3:00pm"}, {"days": "Sat-Sun", "time": "Closed"}], "id": "4020200171", "name": "USPS COLLECTION BOX - BLUE BOX", "address": {"city": "LOUISVILLE", "state": "KY", "street": "514 W LIBERTY ST", "postcode": "40202"}}},
{"geometry": {"type": "Point", "coordinates": [-85.7665476125, 38.2576738019]}, "type": "Feature", "properties": {"collection_times": [{"days": "Mon-Fri", "time": "4:00pm"}, {"days": "Sat-Sun", "time": "Closed"}], "id": "4020200172", "name": "USPS COLLECTION BOX - BLUE BOX", "address": {"city": "LOUISVILLE", "state": "KY", "street": "100 S 10TH ST", "postcode": "40202"}}},
{"geometry": {"type": "Point", "coordinates": [-85.7638290274, 38.2573344196]}, "type": "Feature", "properties": {"collection_times": [{"days": "Mon-Fri", "time": "12:00pm"}, {"days": "Sat-Sun", "time": "Closed"}], "id": "4020200181", "name": "USPS COLLECTION BOX - BLUE BOX", "address": {"city": "LOUISVILLE", "state": "KY", "street": "848 W MAIN ST", "postcode": "40202"}}},
{"geometry": {"type": "Point", "coordinates": [-85.7465443811, 38.2500072038]}, "type": "Feature", "properties": {"collection_times": [{"days": "Mon-Fri", "time": "4:00pm"}, {"days": "Sat-Sun", "time": "Closed"}], "id": "4020200187", "name": "USPS COLLECTION BOX - BLUE BOX", "address": {"city": "LOUISVILLE", "state": "KY", "street": "413 E MUHAMMAD ALI BLVD", "postcode": "40202"}}},
{"geometry": {"type": "Point", "coordinates": [-85.7469039978, 38.2498751211]}, "type": "Feature", "properties": {"collection_times": [{"days": "Mon-Fri", "time": "2:00pm"}, {"days": "Sat-Sun", "time": "Closed"}], "id": "4020200189", "name": "USPS COLLECTION BOX - BLUE BOX", "address": {"city": "LOUISVILLE", "state": "KY", "street": "500 S PRESTON ST", "postcode": "40202"}}},
{"geometry": {"type": "Point", "coordinates": [-85.7605289827, 38.2569883233]}, "type": "Feature", "properties": {"collection_times": [{"days": "Mon-Fri", "time": "3:45pm"}, {"days": "Sat-Sun", "time": "Closed"}], "id": "4020200192", "name": "USPS COLLECTION BOX - BLUE BOX", "address": {"city": "LOUISVILLE", "state": "KY", "street": "640 W MAIN ST", "postcode": "40202"}}},
{"geometry": {"type": "Point", "coordinates": [-85.7490395651, 38.2486259468]}, "type": "Feature", "properties": {"collection_times": [{"days": "Mon-Fri", "time": "2:00pm"}, {"days": "Sat-Sun", "time": "Closed"}], "id": "4020200209", "name": "USPS COLLECTION BOX - BLUE BOX", "address": {"city": "LOUISVILLE", "state": "KY", "street": "571 S FLOYD ST", "postcode": "40202"}}},
{"geometry": {"type": "Point", "coordinates": [-85.751389329, 38.248203836]}, "type": "Feature", "properties": {"collection_times": [{"days": "Mon-Fri", "time": "1:00pm"}, {"days": "Sat-Sun", "time": "Closed"}], "id": "4020200212", "name": "USPS COLLECTION BOX - BLUE BOX", "address": {"city": "LOUISVILLE", "state": "KY", "street": "200 E CHESTNUT ST", "postcode": "40202"}}},
{"geometry": {"type": "Point", "coordinates": [-85.7609017636, 38.2514513085]}, "type": "Feature", "properties": {"collection_times": [{"days": "Mon-Fri", "time": "5:00pm"}, {"days": "Sat-Sun", "time": "Closed"}], "id": "4020200215", "name": "USPS COLLECTION BOX - BLUE BOX", "address": {"city": "LOUISVILLE", "state": "KY", "street": "500 S 6TH ST", "postcode": "40202"}}},
{"geometry": {"type": "Point", "coordinates": [-85.7552989914, 38.2565356571]}, "type": "Feature", "properties": {"collection_times": [{"days": "Mon-Fri", "time": "4:30pm"}, {"days": "Sat-Sun", "time": "Closed"}], "id": "4020200216", "name": "USPS COLLECTION BOX - BLUE BOX", "address": {"city": "LOUISVILLE", "state": "KY", "street": "325 W MAIN ST", "postcode": "40202"}}},
{"geometry": {"type": "Point", "coordinates": [-85.7552989914, 38.2565356571]}, "type": "Feature", "properties": {"collection_times": [{"days": "Mon-Fri", "time": "4:30pm"}, {"days": "Sat-Sun", "time": "Closed"}], "id": "4020200217", "name": "USPS COLLECTION BOX - BLUE BOX", "address": {"city": "LOUISVILLE", "state": "KY", "street": "325 W MAIN ST", "postcode": "40202"}}},
{"geometry": {"type": "Point", "coordinates": [-85.7582654169, 38.2567159259]}, "type": "Feature", "properties": {"collection_times": [{"days": "Mon-Fri", "time": "5:00pm"}, {"days": "Sat-Sun", "time": "Closed"}], "id": "4020200236", "name": "USPS COLLECTION BOX - BLUE BOX", "address": {"city": "LOUISVILLE", "state": "KY", "street": "102 S 5TH ST", "postcode": "40202"}}},
{"geometry": {"type": "Point", "coordinates": [-85.7472077719, 38.2556626918]}, "type": "Feature", "properties": {"collection_times": [{"days": "Mon-Fri", "time": "3:00pm"}, {"days": "Sat-Sun", "time": "Closed"}], "id": "4020200240", "name": "USPS COLLECTION BOX - BLUE BOX", "address": {"city": "LOUISVILLE", "state": "KY", "street": "333 E MAIN ST", "postcode": "40202"}}},
{"geometry": {"type": "Point", "coordinates": [-85.7455086646, 38.2451798201]}, "type": "Feature", "properties": {"collection_times": [{"days": "Mon-Fri", "time": "3:15pm"}, {"days": "Sat-Sun", "time": "Closed"}], "id": "4020200242", "name": "USPS COLLECTION BOX - BLUE BOX", "address": {"city": "LOUISVILLE", "state": "KY", "street": "501 E BROADWAY", "postcode": "40202"}}},
{"geometry": {"type": "Point", "coordinates": [-85.7512569044, 38.2468567802]}, "type": "Feature", "properties": {"collection_times": [{"days": "Mon-Fri", "time": "3:30pm"}, {"days": "Sat-Sun", "time": "Closed"}], "id": "4020200243", "name": "USPS COLLECTION BOX - BLUE BOX", "address": {"city": "LOUISVILLE", "state": "KY", "street": "210 E GRAY ST", "postcode": "40202"}}},
{"geometry": {"type": "Point", "coordinates": [-85.7530471353, 38.2525413741]}, "type": "Feature", "properties": {"collection_times": [{"days": "Mon-Fri", "time": "5:00pm"}, {"days": "Sat-Sun", "time": "Closed"}], "id": "4020200247", "name": "USPS COLLECTION BOX - BLUE BOX", "address": {"city": "LOUISVILLE", "state": "KY", "street": "233 S 5TH ST", "postcode": "40202"}}},
{"geometry": {"type": "Point", "coordinates": [-85.7530471353, 38.2525413741]}, "type": "Feature", "properties": {"collection_times": [{"days": "Mon-Fri", "time": "4:15pm"}, {"days": "Sat-Sun", "time": "Closed"}], "id": "4020200248", "name": "USPS COLLECTION BOX - BLUE BOX", "address": {"city": "LOUISVILLE", "state": "KY", "street": "730 W MARKET ST", "postcode": "40202"}}},
{"geometry": {"type": "Point", "coordinates": [-85.757413749, 38.25161395]}, "type": "Feature", "properties": {"collection_times": [{"days": "Mon-Fri", "time": "4:00pm"}, {"days": "Sat-Sun", "time": "Closed"}], "id": "4020200251", "name": "USPS COLLECTION BOX - BLUE BOX", "address": {"city": "LOUISVILLE", "state": "KY", "street": "462 S 4TH ST", "postcode": "40202"}}},
{"geometry": {"type": "Point", "coordinates": [-85.7557969253, 38.232473878]}, "type": "Feature", "properties": {"collection_times": [{"days": "Mon-Fri", "time": "1:00pm"}, {"days": "Sat-Sun", "time": "Closed"}], "id": "4020300001", "name": "USPS COLLECTION BOX - BLUE BOX", "address": {"city": "LOUISVILLE", "state": "KY", "street": "101 W ORMSBY AVE", "postcode": "40203"}}},
{"geometry": {"type": "Point", "coordinates": [-85.7601125009, 38.2359187704]}, "type": "Feature", "properties": {"collection_times": [{"days": "Mon-Fri", "time": "2:30pm"}, {"days": "Sat-Sun", "time": "Closed"}], "id": "4020300020", "name": "USPS COLLECTION BOX - BLUE BOX", "address": {"city": "LOUISVILLE", "state": "KY", "street": "1163 S 4TH ST", "postcode": "40203"}}},
{"geometry": {"type": "Point", "coordinates": [-85.7678991967, 38.2499659048]}, "type": "Feature", "properties": {"collection_times": [{"days": "Mon-Fri", "time": "1:00pm"}, {"days": "Sat-Sun", "time": "Closed"}], "id": "4020300036", "name": "USPS COLLECTION BOX - BLUE BOX", "address": {"city": "LOUISVILLE", "state": "KY", "street": "604 S 10TH ST", "postcode": "40203"}}},
{"geometry": {"type": "Point", "coordinates": [-85.7702154184, 38.2560236833]}, "type": "Feature", "properties": {"collection_times": [{"days": "Mon-Fri", "time": "4:15pm"}, {"days": "Sat-Sun", "time": "Closed"}], "id": "4020300040", "name": "USPS COLLECTION BOX - BLUE BOX", "address": {"city": "LOUISVILLE", "state": "KY", "street": "212 S 12TH ST", "postcode": "40203"}}},
{"geometry": {"type": "Point", "coordinates": [-85.7830643193, 38.2675688327]}, "type": "Feature", "properties": {"collection_times": [{"days": "Mon-Fri", "time": "12:00pm"}, {"days": "Sat-Sun", "time": "Closed"}], "id": "4020300054", "name": "USPS COLLECTION BOX - BLUE BOX", "address": {"city": "LOUISVILLE", "state": "KY", "street": "522 N 22ND ST", "postcode": "40203"}}},
{"geometry": {"type": "Point", "coordinates": [-85.7426739439, 38.2371233416]}, "type": "Feature", "properties": {"collection_times": [{"days": "Mon-Fri", "time": "1:00pm"}, {"days": "Sat-Sun", "time": "Closed"}], "id": "4020300061", "name": "USPS COLLECTION BOX - BLUE BOX", "address": {"city": "LOUISVILLE", "state": "KY", "street": "700 E KENTUCKY ST", "postcode": "40203"}}},
{"geometry": {"type": "Point", "coordinates": [-85.764128099, 38.2447081444]}, "type": "Feature", "properties": {"collection_times": [{"days": "Mon-Fri", "time": "5:00pm"}, {"days": "Sat", "time": "3:30pm"}, {"days": "Sun", "time": "Closed"}], "id": "4020300078", "name": "USPS COLLECTION BOX - BLUE BOX", "address": {"city": "LOUISVILLE", "state": "KY", "street": "650 YORK ST", "postcode": "40203"}}},
{"geometry": {"type": "Point", "coordinates": [-85.7637623726, 38.2439582231]}, "type": "Feature", "properties": {"collection_times": [{"days": "Mon-Fri", "time": "5:00pm"}, {"days": "Sat", "time": "3:30pm"}, {"days": "Sun", "time": "Closed"}], "id": "4020300085", "name": "USPS COLLECTION BOX - PO LOBBY", "address": {"city": "LOUISVILLE", "state": "KY", "street": "835 S 7TH ST", "postcode": "40203"}}},
{"geometry": {"type": "Point", "coordinates": [-85.758756682, 38.2341017112]}, "type": "Feature", "properties": {"collection_times": [{"days": "Mon-Sat", "time": "10:00am"}, {"days": "Sun", "time": "Closed"}], "id": "4020300100", "name": "USPS COLLECTION BOX - BLUE BOX", "address": {"city": "LOUISVILLE", "state": "KY", "street": "1235 S 3RD ST", "postcode": "40203"}}},
{"geometry": {"type": "Point", "coordinates": [-85.7168385664, 38.2360788413]}, "type": "Feature", "properties": {"collection_times": [{"days": "Mon-Fri", "time": "2:30pm"}, {"days": "Sat", "time": "4:00pm"}, {"days": "Sun", "time": "Closed"}], "id": "4020400003", "name": "USPS COLLECTION BOX - BLUE BOX", "address": {"city": "LOUISVILLE", "state": "KY", "street": "1250 BARDSTOWN RD", "postcode": "40204"}}},
{"geometry": {"type": "Point", "coordinates": [-85.7140033489, 38.2345086018]}, "type": "Feature", "properties": {"collection_times": [{"days": "Mon-Fri", "time": "1:00pm"}, {"days": "Sat-Sun", "time": "Closed"}], "id": "4020400005", "name": "USPS COLLECTION BOX - BLUE BOX", "address": {"city": "LOUISVILLE", "state": "KY", "street": "1336 BARDSTOWN RD", "postcode": "40204"}}},
{"geometry": {"type": "Point", "coordinates": [-85.7323796566, 38.2418845358]}, "type": "Feature", "properties": {"collection_times": [{"days": "Mon-Fri", "time": "5:00pm"}, {"days": "Sat-Sun", "time": "Closed"}], "id": "4020400008", "name": "USPS COLLECTION BOX - BLUE BOX", "address": {"city": "LOUISVILLE", "state": "KY", "street": "801 BARRET AVE", "postcode": "40204"}}},
{"geometry": {"type": "Point", "coordinates": [-85.7322697658, 38.2415260183]}, "type": "Feature", "properties": {"collection_times": [{"days": "Mon-Fri", "time": "5:00pm"}, {"days": "Sat-Sun", "time": "Closed"}], "id": "4020400009", "name": "USPS COLLECTION BOX - BLUE BOX", "address": {"city": "LOUISVILLE", "state": "KY", "street": "810 BARRET AVE", "postcode": "40204"}}},
{"geometry": {"type": "Point", "coordinates": [-85.7317090267, 38.2408037934]}, "type": "Feature", "properties": {"collection_times": [{"days": "Mon-Fri", "time": "5:00pm"}, {"days": "Sat-Sun", "time": "Closed"}], "id": "4020400010", "name": "USPS COLLECTION BOX - BLUE BOX", "address": {"city": "LOUISVILLE", "state": "KY", "street": "850 BARRET AVE", "postcode": "40204"}}},
{"geometry": {"type": "Point", "coordinates": [-85.7306346241, 38.2439633461]}, "type": "Feature", "properties": {"collection_times": [{"days": "Mon-Fri", "time": "4:00pm"}, {"days": "Sat-Sun", "time": "Closed"}], "id": "4020400016", "name": "USPS COLLECTION BOX - BLUE BOX", "address": {"city": "LOUISVILLE", "state": "KY", "street": "1170 E BROADWAY", "postcode": "40204"}}},
{"geometry": {"type": "Point", "coordinates": [-85.7377329589, 38.2445428842]}, "type": "Feature", "properties": {"collection_times": [{"days": "Mon-Fri", "time": "2:30pm"}, {"days": "Sat-Sun", "time": "Closed"}], "id": "4020400018", "name": "USPS COLLECTION BOX - BLUE BOX", "address": {"city": "LOUISVILLE", "state": "KY", "street": "834 E BROADWAY", "postcode": "40204"}}},
{"geometry": {"type": "Point", "coordinates": [-85.7368353036, 38.2488779256]}, "type": "Feature", "properties": {"collection_times": [{"days": "Mon-Fri", "time": "2:30pm"}, {"days": "Sat-Sun", "time": "Closed"}], "id": "4020400021", "name": "USPS COLLECTION BOX - BLUE BOX", "address": {"city": "LOUISVILLE", "state": "KY", "street": "500 S CAMPBELL ST", "postcode": "40204"}}},
{"geometry": {"type": "Point", "coordinates": [-85.7294052047, 38.2310101598]}, "type": "Feature", "properties": {"collection_times": [{"days": "Mon-Fri", "time": "1:00pm"}, {"days": "Sat-Sun", "time": "Closed"}], "id": "4020400023", "name": "USPS COLLECTION BOX - BLUE BOX", "address": {"city": "LOUISVILLE", "state": "KY", "street": "1301 ELLISON AVE", "postcode": "40204"}}},
{"geometry": {"type": "Point", "coordinates": [-85.7255060549, 38.239705652]}, "type": "Feature", "properties": {"collection_times": [{"days": "Mon-Fri", "time": "5:00pm"}, {"days": "Sat", "time": "3:30pm"}, {"days": "Sun", "time": "Closed"}], "id": "4020400026", "name": "USPS COLLECTION BOX - BLUE BOX", "address": {"city": "LOUISVILLE", "state": "KY", "street": "1527 HIGHLAND AVE", "postcode": "40204"}}},
{"geometry": {"type": "Point", "coordinates": [-85.7326443087, 38.2354532281]}, "type": "Feature", "properties": {"collection_times": [{"days": "Mon-Fri", "time": "1:00pm"}, {"days": "Sat-Sun", "time": "Closed"}], "id": "4020400031", "name": "USPS COLLECTION BOX - BLUE BOX", "address": {"city": "LOUISVILLE", "state": "KY", "street": "1096 E KENTUCKY ST", "postcode": "40204"}}},
{"geometry": {"type": "Point", "coordinates": [-85.7255060549, 38.239705652]}, "type": "Feature", "properties": {"collection_times": [{"days": "Mon-Fri", "time": "4:30pm"}, {"days": "Sat", "time": "12:30pm"}, {"days": "Sun", "time": "Closed"}], "id": "4020400040", "name": "USPS COLLECTION BOX - PO LOBBY", "address": {"city": "LOUISVILLE", "state": "KY", "street": "1527 HIGHLAND AVE", "postcode": "40204"}}},
{"geometry": {"type": "Point", "coordinates": [-85.6517634514, 38.2230296413]}, "type": "Feature", "properties": {"collection_times": [{"days": "Mon-Fri", "time": "1:45pm"}, {"days": "Sat-Sun", "time": "Closed"}], "id": "4020500001", "name": "USPS COLLECTION BOX - BLUE BOX", "address": {"city": "LOUISVILLE", "state": "KY", "street": "3532 EPHRAIM MCDOWELL DR", "postcode": "40205"}}},
{"geometry": {"type": "Point", "coordinates": [-85.6970008373, 38.2260041408]}, "type": "Feature", "properties": {"collection_times": [{"days": "Mon-Fri", "time": "10:00am"}, {"days": "Sat-Sun", "time": "Closed"}], "id": "4020500015", "name": "USPS COLLECTION BOX - BLUE BOX", "address": {"city": "LOUISVILLE", "state": "KY", "street": "1971 BARDSTOWN RD", "postcode": "40205"}}},
{"geometry": {"type": "Point", "coordinates": [-85.6745229763, 38.215214912]}, "type": "Feature", "properties": {"collection_times": [{"days": "Mon-Fri", "time": "4:30pm"}, {"days": "Sat", "time": "3:45pm"}, {"days": "Sun", "time": "Closed"}], "id": "4020500017", "name": "USPS COLLECTION BOX - BLUE BOX", "address": {"city": "LOUISVILLE", "state": "KY", "street": "3010 BARDSTOWN RD", "postcode": "40205"}}},
{"geometry": {"type": "Point", "coordinates": [-85.6415366546, 38.2300139976]}, "type": "Feature", "properties": {"collection_times": [{"days": "Mon-Fri", "time": "2:00pm"}, {"days": "Sat", "time": "12:00pm"}, {"days": "Sun", "time": "Closed"}], "id": "4020500035", "name": "USPS COLLECTION BOX - BLUE BOX", "address": {"city": "LOUISVILLE", "state": "KY", "street": "6400 DUTCHMANS PKWY", "postcode": "40205"}}},
{"geometry": {"type": "Point", "coordinates": [-85.6761296001, 38.2105290367]}, "type": "Feature", "properties": {"collection_times": [{"days": "Mon-Fri", "time": "3:00pm"}, {"days": "Sat", "time": "3:45pm"}, {"days": "Sun", "time": "Closed"}], "id": "4020500040", "name": "USPS COLLECTION BOX - BLUE BOX", "address": {"city": "LOUISVILLE", "state": "KY", "street": "2100 GARDINER LN", "postcode": "40205"}}},
{"geometry": {"type": "Point", "coordinates": [-85.6930230805, 38.2242584913]}, "type": "Feature", "properties": {"collection_times": [{"days": "Mon-Fri", "time": "4:15pm"}, {"days": "Sat-Sun", "time": "Closed"}], "id": "4020500064", "name": "USPS COLLECTION BOX - BLUE BOX", "address": {"city": "LOUISVILLE", "state": "KY", "street": "2226 BARDSTOWN RD", "postcode": "40205"}}},
{"geometry": {"type": "Point", "coordinates": [-85.6826015002, 38.2234771349]}, "type": "Feature", "properties": {"collection_times": [{"days": "Mon-Fri", "time": "4:30pm"}, {"days": "Sat", "time": "4:00pm"}, {"days": "Sun", "time": "Closed"}], "id": "4020500065", "name": "USPS COLLECTION BOX - BLUE BOX", "address": {"city": "LOUISVILLE", "state": "KY", "street": "2250 TAYLORSVILLE RD", "postcode": "40205"}}},
{"geometry": {"type": "Point", "coordinates": [-85.6828335698, 38.2234241405]}, "type": "Feature", "properties": {"collection_times": [{"days": "Mon-Fri", "time": "4:30pm"}, {"days": "Sat", "time": "12:30pm"}, {"days": "Sun", "time": "Closed"}], "id": "4020500071", "name": "USPS COLLECTION BOX - PO LOBBY", "address": {"city": "LOUISVILLE", "state": "KY", "street": "2240 TAYLORSVILLE RD", "postcode": "40205"}}},
{"geometry": {"type": "Point", "coordinates": [-85.6826015002, 38.2234771349]}, "type": "Feature", "properties": {"collection_times": [{"days": "Mon-Fri", "time": "4:30pm"}, {"days": "Sat", "time": "4:00pm"}, {"days": "Sun", "time": "Closed"}], "id": "4020500076", "name": "USPS COLLECTION BOX - BLUE BOX", "address": {"city": "LOUISVILLE", "state": "KY", "street": "2250 TAYLORSVILLE RD", "postcode": "40205"}}},
{"geometry": {"type": "Point", "coordinates": [-85.6516555009, 38.2254090898]}, "type": "Feature", "properties": {"collection_times": [{"days": "Mon-Fri", "time": "1:45pm"}, {"days": "Sat-Sun", "time": "Closed"}], "id": "4020500081", "name": "USPS COLLECTION BOX - BLUE BOX", "address": {"city": "LOUISVILLE", "state": "KY", "street": "3600 DUTCHMANS LN", "postcode": "40205"}}},
{"geometry": {"type": "Point", "coordinates": [-85.639181903, 38.2307774402]}, "type": "Feature", "properties": {"collection_times": [{"days": "Mon-Fri", "time": "2:30pm"}, {"days": "Sat-Sun", "time": "Closed"}], "id": "4020500086", "name": "USPS COLLECTION BOX - BLUE BOX", "address": {"city": "LOUISVILLE", "state": "KY", "street": "6200 DUTCHMANS LN", "postcode": "40205"}}},
{"geometry": {"type": "Point", "coordinates": [-85.7045685847, 38.258738823]}, "type": "Feature", "properties": {"collection_times": [{"days": "Mon-Fri", "time": "4:00pm"}, {"days": "Sat", "time": "2:00pm"}, {"days": "Sun", "time": "Closed"}], "id": "4020600008", "name": "USPS COLLECTION BOX - BLUE BOX", "address": {"city": "LOUISVILLE", "state": "KY", "street": "2204 BROWNSBORO RD", "postcode": "40206"}}},
{"geometry": {"type": "Point", "coordinates": [-85.6895074913, 38.2599977585]}, "type": "Feature", "properties": {"collection_times": [{"days": "Mon-Fri", "time": "2:00pm"}, {"days": "Sat-Sun", "time": "Closed"}], "id": "4020600010", "name": "USPS COLLECTION BOX - BLUE BOX", "address": {"city": "LOUISVILLE", "state": "KY", "street": "2843 BROWNSBORO RD", "postcode": "40206"}}},
{"geometry": {"type": "Point", "coordinates": [-85.7230631395, 38.249985789]}, "type": "Feature", "properties": {"collection_times": [{"days": "Mon-Fri", "time": "3:30pm"}, {"days": "Sat-Sun", "time": "Closed"}], "id": "4020600024", "name": "USPS COLLECTION BOX - BLUE BOX", "address": {"city": "LOUISVILLE", "state": "KY", "street": "240 DISTILLERY CMNS", "postcode": "40206"}}},
{"geometry": {"type": "Point", "coordinates": [-85.7282511028, 38.2570358355]}, "type": "Feature", "properties": {"collection_times": [{"days": "Mon-Fri", "time": "2:30pm"}, {"days": "Sat-Sun", "time": "Closed"}], "id": "4020600026", "name": "USPS COLLECTION BOX - BLUE BOX", "address": {"city": "LOUISVILLE", "state": "KY", "street": "1324 E WASHINGTON ST", "postcode": "40206"}}},
{"geometry": {"type": "Point", "coordinates": [-85.7007837897, 38.2535803128]}, "type": "Feature", "properties": {"collection_times": [{"days": "Mon-Fri", "time": "12:00pm"}, {"days": "Sat", "time": "2:00pm"}, {"days": "Sun", "time": "Closed"}], "id": "4020600029", "name": "USPS COLLECTION BOX - BLUE BOX", "address": {"city": "LOUISVILLE", "state": "KY", "street": "2366 FRANKFORT AVE", "postcode": "40206"}}},
{"geometry": {"type": "Point", "coordinates": [-85.7077754026, 38.2540270385]}, "type": "Feature", "properties": {"collection_times": [{"days": "Mon-Fri", "time": "12:00pm"}, {"days": "Sat-Sun", "time": "Closed"}], "id": "4020600037", "name": "USPS COLLECTION BOX - BLUE BOX", "address": {"city": "LOUISVILLE", "state": "KY", "street": "2101 FRANKFORT AVE", "postcode": "40206"}}},
{"geometry": {"type": "Point", "coordinates": [-85.7312785354, 38.2538146714]}, "type": "Feature", "properties": {"collection_times": [{"days": "Mon-Fri", "time": "2:30pm"}, {"days": "Sat-Sun", "time": "Closed"}], "id": "4020600044", "name": "USPS COLLECTION BOX - BLUE BOX", "address": {"city": "LOUISVILLE", "state": "KY", "street": "1048 E MAIN ST", "postcode": "40206"}}},
{"geometry": {"type": "Point", "coordinates": [-85.706108533, 38.2456166423]}, "type": "Feature", "properties": {"collection_times": [{"days": "Mon-Fri", "time": "1:30pm"}, {"days": "Sat-Sun", "time": "Closed"}], "id": "4020600056", "name": "USPS COLLECTION BOX - BLUE BOX", "address": {"city": "LOUISVILLE", "state": "KY", "street": "2225 LEXINGTON RD", "postcode": "40206"}}},
{"geometry": {"type": "Point", "coordinates": [-85.708525881, 38.2717964854]}, "type": "Feature", "properties": {"collection_times": [{"days": "Mon-Fri", "time": "4:00pm"}, {"days": "Sat-Sun", "time": "Closed"}], "id": "4020600057", "name": "USPS COLLECTION BOX - BLUE BOX", "address": {"city": "LOUISVILLE", "state": "KY", "street": "2301 RIVER RD", "postcode": "40206"}}},
{"geometry": {"type": "Point", "coordinates": [-85.6936034973, 38.270032659]}, "type": "Feature", "properties": {"collection_times": [{"days": "Mon-Fri", "time": "12:00pm"}, {"days": "Sat-Sun", "time": "Closed"}], "id": "4020600060", "name": "USPS COLLECTION BOX - BLUE BOX", "address": {"city": "LOUISVILLE", "state": "KY", "street": "800 ZORN AVE", "postcode": "40206"}}},
{"geometry": {"type": "Point", "coordinates": [-85.6980943866, 38.2762022589]}, "type": "Feature", "properties": {"collection_times": [{"days": "Mon-Fri", "time": "12:00pm"}, {"days": "Sat-Sun", "time": "Closed"}], "id": "4020600061", "name": "USPS COLLECTION BOX - BLUE BOX", "address": {"city": "LOUISVILLE", "state": "KY", "street": "1031 ZORN AVE", "postcode": "40206"}}},
{"geometry": {"type": "Point", "coordinates": [-85.65912172, 38.2380200587]}, "type": "Feature", "properties": {"collection_times": [{"days": "Mon-Fri", "time": "1:00pm"}, {"days": "Sat", "time": "12:00pm"}, {"days": "Sun", "time": "Closed"}], "id": "4020700013", "name": "USPS COLLECTION BOX - BLUE BOX", "address": {"city": "LOUISVILLE", "state": "KY", "street": "3408 WINCHESTER RD", "postcode": "40207"}}},
{"geometry": {"type": "Point", "coordinates": [-85.6684663292, 38.2650847029]}, "type": "Feature", "properties": {"collection_times": [{"days": "Mon-Sat", "time": "9:00am"}, {"days": "Sun", "time": "Closed"}], "id": "4020700015", "name": "USPS COLLECTION BOX - BLUE BOX", "address": {"city": "LOUISVILLE", "state": "KY", "street": "3630 BROWNSBORO RD", "postcode": "40207"}}},
{"geometry": {"type": "Point", "coordinates": [-85.6680642099, 38.2653243246]}, "type": "Feature", "properties": {"collection_times": [{"days": "Mon-Fri", "time": "3:45pm"}, {"days": "Sat", "time": "2:00pm"}, {"days": "Sun", "time": "Closed"}], "id": "4020700017", "name": "USPS COLLECTION BOX - BLUE BOX", "address": {"city": "LOUISVILLE", "state": "KY", "street": "3700 OLD BROWNSBORO RD", "postcode": "40207"}}},
{"geometry": {"type": "Point", "coordinates": [-85.6379912487, 38.2784005778]}, "type": "Feature", "properties": {"collection_times": [{"days": "Mon-Fri", "time": "3:30pm"}, {"days": "Sat", "time": "2:00pm"}, {"days": "Sun", "time": "Closed"}], "id": "4020700023", "name": "USPS COLLECTION BOX - BLUE BOX", "address": {"city": "LOUISVILLE", "state": "KY", "street": "4898 BROWNSBORO RD", "postcode": "40207"}}},
{"geometry": {"type": "Point", "coordinates": [-85.6556856548, 38.2533669816]}, "type": "Feature", "properties": {"collection_times": [{"days": "Mon-Fri", "time": "1:00pm"}, {"days": "Sat", "time": "2:00pm"}, {"days": "Sun", "time": "Closed"}], "id": "4020700027", "name": "USPS COLLECTION BOX - BLUE BOX", "address": {"city": "LOUISVILLE", "state": "KY", "street": "109 CHENOWETH LN", "postcode": "40207"}}},
{"geometry": {"type": "Point", "coordinates": [-85.6556856548, 38.2533669816]}, "type": "Feature", "properties": {"collection_times": [{"days": "Mon-Fri", "time": "1:00pm"}, {"days": "Sat", "time": "2:00pm"}, {"days": "Sun", "time": "Closed"}], "id": "4020700029", "name": "USPS COLLECTION BOX - BLUE BOX", "address": {"city": "LOUISVILLE", "state": "KY", "street": "109 CHENOWETH LN", "postcode": "40207"}}},
{"geometry": {"type": "Point", "coordinates": [-85.6307499022, 38.2333554705]}, "type": "Feature", "properties": {"collection_times": [{"days": "Mon-Fri", "time": "11:00am"}, {"days": "Sat-Sun", "time": "Closed"}], "id": "4020700035", "name": "USPS COLLECTION BOX - BLUE BOX", "address": {"city": "LOUISVILLE", "state": "KY", "street": "4012 DUPONT CIR", "postcode": "40207"}}},
{"geometry": {"type": "Point", "coordinates": [-85.6318713577, 38.2326428167]}, "type": "Feature", "properties": {"collection_times": [{"days": "Mon-Fri", "time": "3:00pm"}, {"days": "Sat", "time": "12:00pm"}, {"days": "Sun", "time": "Closed"}], "id": "4020700036", "name": "USPS COLLECTION BOX - BLUE BOX", "address": {"city": "LOUISVILLE", "state": "KY", "street": "3938 DUPONT CIR", "postcode": "40207"}}},
{"geometry": {"type": "Point", "coordinates": [-85.6353474948, 38.2339062121]}, "type": "Feature", "properties": {"collection_times": [{"days": "Mon-Fri", "time": "11:00am"}, {"days": "Sat-Sun", "time": "Closed"}], "id": "4020700042", "name": "USPS COLLECTION BOX - BLUE BOX", "address": {"city": "LOUISVILLE", "state": "KY", "street": "1015 N DUPONT SQ", "postcode": "40207"}}},
{"geometry": {"type": "Point", "coordinates": [-85.6309848408, 38.2349337155]}, "type": "Feature", "properties": {"collection_times": [{"days": "Mon-Fri", "time": "3:30pm"}, {"days": "Sat-Sun", "time": "Closed"}], "id": "4020700046", "name": "USPS COLLECTION BOX - BLUE BOX", "address": {"city": "LOUISVILLE", "state": "KY", "street": "4130 DUTCHMANS LN", "postcode": "40207"}}},
{"geometry": {"type": "Point", "coordinates": [-85.6401402245, 38.238773704]}, "type": "Feature", "properties": {"collection_times": [{"days": "Mon-Fri", "time": "4:00pm"}, {"days": "Sat", "time": "12:30pm"}, {"days": "Sun", "time": "Closed"}], "id": "4020700052", "name": "USPS COLLECTION BOX - BLUE BOX", "address": {"city": "LOUISVILLE", "state": "KY", "street": "3950 KRESGE WAY", "postcode": "40207"}}},
{"geometry": {"type": "Point", "coordinates": [-85.6392944684, 38.2391332681]}, "type": "Feature", "properties": {"collection_times": [{"days": "Mon-Sat", "time": "9:30am"}, {"days": "Sun", "time": "Closed"}], "id": "4020700054", "name": "USPS COLLECTION BOX - BLUE BOX", "address": {"city": "LOUISVILLE", "state": "KY", "street": "4000 KRESGE WAY", "postcode": "40207"}}},
{"geometry": {"type": "Point", "coordinates": [-85.6393568269, 38.2392313661]}, "type": "Feature", "properties": {"collection_times": [{"days": "Mon-Fri", "time": "4:00pm"}, {"days": "Sat", "time": "12:30pm"}, {"days": "Sun", "time": "Closed"}], "id": "4020700055", "name": "USPS COLLECTION BOX - BLUE BOX", "address": {"city": "LOUISVILLE", "state": "KY", "street": "4001 KRESGE WAY", "postcode": "40207"}}},
{"geometry": {"type": "Point", "coordinates": [-85.6588438429, 38.2524712321]}, "type": "Feature", "properties": {"collection_times": [{"days": "Mon-Fri", "time": "1:00pm"}, {"days": "Sat", "time": "1:30pm"}, {"days": "Sun", "time": "Closed"}], "id": "4020700057", "name": "USPS COLLECTION BOX - BLUE BOX", "address": {"city": "LOUISVILLE", "state": "KY", "street": "3747 LEXINGTON RD", "postcode": "40207"}}},
{"geometry": {"type": "Point", "coordinates": [-85.6295146808, 38.2508163345]}, "type": "Feature", "properties": {"collection_times": [{"days": "Mon-Fri", "time": "5:15pm"}, {"days": "Sat", "time": "3:00pm"}, {"days": "Sun", "time": "Closed"}], "id": "4020700063", "name": "USPS COLLECTION BOX - BLUE BOX", "address": {"city": "LOUISVILLE", "state": "KY", "street": "4600 SHELBYVILLE RD", "postcode": "40207"}}},
{"geometry": {"type": "Point", "coordinates": [-85.6295146808, 38.2508163345]}, "type": "Feature", "properties": {"collection_times": [{"days": "Mon-Fri", "time": "5:15pm"}, {"days": "Sat", "time": "3:00pm"}, {"days": "Sun", "time": "Closed"}], "id": "4020700064", "name": "USPS COLLECTION BOX - BLUE BOX", "address": {"city": "LOUISVILLE", "state": "KY", "street": "4600 SHELBYVILLE RD", "postcode": "40207"}}},
{"geometry": {"type": "Point", "coordinates": [-85.6241565665, 38.2428929031]}, "type": "Feature", "properties": {"collection_times": [{"days": "Mon-Fri", "time": "4:30pm"}, {"days": "Sat-Sun", "time": "Closed"}], "id": "4020700073", "name": "USPS COLLECTION BOX - BLUE BOX", "address": {"city": "LOUISVILLE", "state": "KY", "street": "600 SHERBURN LN", "postcode": "40207"}}},
{"geometry": {"type": "Point", "coordinates": [-85.6409472757, 38.2597150004]}, "type": "Feature", "properties": {"collection_times": [{"days": "Mon-Fri", "time": "1:00pm"}, {"days": "Sat", "time": "1:30pm"}, {"days": "Sun", "time": "Closed"}], "id": "4020700081", "name": "USPS COLLECTION BOX - BLUE BOX", "address": {"city": "LOUISVILLE", "state": "KY", "street": "291 N HUBBARDS LN", "postcode": "40207"}}},
{"geometry": {"type": "Point", "coordinates": [-85.6399625135, 38.2804920671]}, "type": "Feature", "properties": {"collection_times": [{"days": "Mon-Fri", "time": "3:30pm"}, {"days": "Sat", "time": "2:00pm"}, {"days": "Sun", "time": "Closed"}], "id": "4020700092", "name": "USPS COLLECTION BOX - BLUE BOX", "address": {"city": "LOUISVILLE", "state": "KY", "street": "6000 BROWNSBORO PARK BLVD", "postcode": "40207"}}},
{"geometry": {"type": "Point", "coordinates": [-85.6295146808, 38.2508163345]}, "type": "Feature", "properties": {"collection_times": [{"days": "Mon-Fri", "time": "6:00pm"}, {"days": "Sat", "time": "3:00pm"}, {"days": "Sun", "time": "Closed"}], "id": "4020700094", "name": "USPS COLLECTION BOX - PO LOBBY", "address": {"city": "LOUISVILLE", "state": "KY", "street": "4600 SHELBYVILLE RD", "postcode": "40207"}}},
{"geometry": {"type": "Point", "coordinates": [-85.6310928726, 38.2404550619]}, "type": "Feature", "properties": {"collection_times": [{"days": "Mon-Fri", "time": "3:00pm"}, {"days": "Sat-Sun", "time": "Closed"}], "id": "4020700099", "name": "USPS COLLECTION BOX - BLUE BOX", "address": {"city": "LOUISVILLE", "state": "KY", "street": "4500 BOWLING BLVD", "postcode": "40207"}}},
{"geometry": {"type": "Point", "coordinates": [-85.6402551755, 38.2340076546]}, "type": "Feature", "properties": {"collection_times": [{"days": "Mon-Fri", "time": "3:00pm"}, {"days": "Sat", "time": "12:00pm"}, {"days": "Sun", "time": "Closed"}], "id": "4020700100", "name": "USPS COLLECTION BOX - BLUE BOX", "address": {"city": "LOUISVILLE", "state": "KY", "street": "994 BRECKENRIDGE LN", "postcode": "40207"}}},
{"geometry": {"type": "Point", "coordinates": [-85.6295146808, 38.2508163345]}, "type": "Feature", "properties": {"collection_times": [{"days": "Mon-Fri", "time": "5:15pm"}, {"days": "Sat", "time": "3:00pm"}, {"days": "Sun", "time": "Closed"}], "id": "4020700107", "name": "USPS COLLECTION BOX - BLUE BOX", "address": {"city": "LOUISVILLE", "state": "KY", "street": "4600 SHELBYVILLE RD", "postcode": "40207"}}},
{"geometry": {"type": "Point", "coordinates": [-85.6295146808, 38.2508163345]}, "type": "Feature", "properties": {"collection_times": [{"days": "Mon-Fri", "time": "6:00pm"}, {"days": "Sat", "time": "3:00pm"}, {"days": "Sun", "time": "Closed"}], "id": "4020700108", "name": "USPS COLLECTION BOX - APC", "address": {"city": "LOUISVILLE", "state": "KY", "street": "4600 SHELBYVILLE RD", "postcode": "40207"}}},
{"geometry": {"type": "Point", "coordinates": [-85.631268141, 38.2348823632]}, "type": "Feature", "properties": {"collection_times": [{"days": "Mon-Fri", "time": "3:30pm"}, {"days": "Sat", "time": "12:00pm"}, {"days": "Sun", "time": "Closed"}], "id": "4020700110", "name": "USPS COLLECTION BOX - BLUE BOX", "address": {"city": "LOUISVILLE", "state": "KY", "street": "4121 DUTCHMANS LN", "postcode": "40207"}}},
{"geometry": {"type": "Point", "coordinates": [-85.7614162427, 38.219242079]}, "type": "Feature", "properties": {"collection_times": [{"days": "Mon-Fri", "time": "1:00pm"}, {"days": "Sat-Sun", "time": "Closed"}], "id": "4020800003", "name": "USPS COLLECTION BOX - BLUE BOX", "address": {"city": "LOUISVILLE", "state": "KY", "street": "300 BRANDEIS AVE S", "postcode": "40208"}}},
{"geometry": {"type": "Point", "coordinates": [-85.7822061125, 38.2156236052]}, "type": "Feature", "properties": {"collection_times": [{"days": "Mon-Fri", "time": "2:00pm"}, {"days": "Sat-Sun", "time": "Closed"}], "id": "4020800017", "name": "USPS COLLECTION BOX - BLUE BOX", "address": {"city": "LOUISVILLE", "state": "KY", "street": "2500 7TH STREET RD", "postcode": "40208"}}},
{"geometry": {"type": "Point", "coordinates": [-85.7567847838, 38.2162513602]}, "type": "Feature", "properties": {"collection_times": [{"days": "Mon-Fri", "time": "2:00pm"}, {"days": "Sat-Sun", "time": "Closed"}], "id": "4020800021", "name": "USPS COLLECTION BOX - BLUE BOX", "address": {"city": "LOUISVILLE", "state": "KY", "street": "2211 S BROOK ST", "postcode": "40208"}}},
{"geometry": {"type": "Point", "coordinates": [-85.764839028, 38.2089754047]}, "type": "Feature", "properties": {"collection_times": [{"days": "Mon-Fri", "time": "1:15pm"}, {"days": "Sat-Sun", "time": "Closed"}], "id": "4020800033", "name": "USPS COLLECTION BOX - BLUE BOX", "address": {"city": "LOUISVILLE", "state": "KY", "street": "2801 S 4TH ST", "postcode": "40208"}}},
{"geometry": {"type": "Point", "coordinates": [-85.7656751421, 38.2143826443]}, "type": "Feature", "properties": {"collection_times": [{"days": "Mon-Fri", "time": "1:15pm"}, {"days": "Sat-Sun", "time": "Closed"}], "id": "4020800034", "name": "USPS COLLECTION BOX - BLUE BOX", "address": {"city": "LOUISVILLE", "state": "KY", "street": "2400 S 5TH ST", "postcode": "40208"}}},
{"geometry": {"type": "Point", "coordinates": [-85.7590526094, 38.1811383331]}, "type": "Feature", "properties": {"collection_times": [{"days": "Mon-Fri", "time": "4:45pm"}, {"days": "Sat", "time": "3:00pm"}, {"days": "Sun", "time": "Closed"}], "id": "4020900009", "name": "USPS COLLECTION BOX - BLUE BOX", "address": {"city": "LOUISVILLE", "state": "KY", "street": "4772 ALLMOND AVE", "postcode": "40209"}}},
{"geometry": {"type": "Point", "coordinates": [-85.7590526094, 38.1811383331]}, "type": "Feature", "properties": {"collection_times": [{"days": "Mon-Fri", "time": "4:45pm"}, {"days": "Sat", "time": "3:00pm"}, {"days": "Sun", "time": "Closed"}], "id": "4020900019", "name": "USPS COLLECTION BOX - PO LOBBY", "address": {"city": "LOUISVILLE", "state": "KY", "street": "4772 ALLMOND AVE", "postcode": "40209"}}},
{"geometry": {"type": "Point", "coordinates": [-85.7941396457, 38.2193705288]}, "type": "Feature", "properties": {"collection_times": [{"days": "Mon-Fri", "time": "12:45pm"}, {"days": "Sat-Sun", "time": "Closed"}], "id": "4021000016", "name": "USPS COLLECTION BOX - BLUE BOX", "address": {"city": "LOUISVILLE", "state": "KY", "street": "1801 RATCLIFFE AVE", "postcode": "40210"}}},
{"geometry": {"type": "Point", "coordinates": [-85.7970562953, 38.2496028909]}, "type": "Feature", "properties": {"collection_times": [{"days": "Mon-Fri", "time": "5:00pm"}, {"days": "Sat", "time": "3:00pm"}, {"days": "Sun", "time": "Closed"}], "id": "4021100023", "name": "USPS COLLECTION BOX - BLUE BOX", "address": {"city": "LOUISVILLE", "state": "KY", "street": "2727 W BROADWAY", "postcode": "40211"}}},
{"geometry": {"type": "Point", "coordinates": [-85.7970562953, 38.2496028909]}, "type": "Feature", "properties": {"collection_times": [{"days": "Mon-Fri", "time": "5:00pm"}, {"days": "Sat", "time": "1:00pm"}, {"days": "Sun", "time": "Closed"}], "id": "4021100037", "name": "USPS COLLECTION BOX - PO LOBBY", "address": {"city": "LOUISVILLE", "state": "KY", "street": "2727 W BROADWAY", "postcode": "40211"}}},
{"geometry": {"type": "Point", "coordinates": [-85.7909776123, 38.2693841365]}, "type": "Feature", "properties": {"collection_times": [{"days": "Mon-Fri", "time": "12:30pm"}, {"days": "Sat-Sun", "time": "Closed"}], "id": "4021200008", "name": "USPS COLLECTION BOX - BLUE BOX", "address": {"city": "LOUISVILLE", "state": "KY", "street": "2601 BANK ST", "postcode": "40212"}}},
{"geometry": {"type": "Point", "coordinates": [-85.8044287531, 38.2727275988]}, "type": "Feature", "properties": {"collection_times": [{"days": "Mon-Fri", "time": "12:30pm"}, {"days": "Sat-Sun", "time": "Closed"}], "id": "4021200024", "name": "USPS COLLECTION BOX - BLUE BOX", "address": {"city": "LOUISVILLE", "state": "KY", "street": "520 35 TH ST N", "postcode": "40212"}}},
{"geometry": {"type": "Point", "coordinates": [-85.8132027388, 38.2614253963]}, "type": "Feature", "properties": {"collection_times": [{"days": "Mon-Fri", "time": "12:25pm"}, {"days": "Sat", "time": "3:00pm"}, {"days": "Sun", "time": "Closed"}], "id": "4021200030", "name": "USPS COLLECTION BOX - BLUE BOX", "address": {"city": "LOUISVILLE", "state": "KY", "street": "214 AMY AVE", "postcode": "40212"}}},
{"geometry": {"type": "Point", "coordinates": [-85.7091341542, 38.1770554131]}, "type": "Feature", "properties": {"collection_times": [{"days": "Mon-Fri", "time": "5:00pm"}, {"days": "Sat-Sun", "time": "Closed"}], "id": "4021300012", "name": "USPS COLLECTION BOX - BLUE BOX", "address": {"city": "LOUISVILLE", "state": "KY", "street": "1239 GILMORE LN", "postcode": "40213"}}},
{"geometry": {"type": "Point", "coordinates": [-85.7341356075, 38.1529667375]}, "type": "Feature", "properties": {"collection_times": [{"days": "Mon-Fri", "time": "1:45pm"}, {"days": "Sat-Sun", "time": "Closed"}], "id": "4021300015", "name": "USPS COLLECTION BOX - BLUE BOX", "address": {"city": "LOUISVILLE", "state": "KY", "street": "6710 GRADE LN", "postcode": "40213"}}},
{"geometry": {"type": "Point", "coordinates": [-85.7094172152, 38.2013339068]}, "type": "Feature", "properties": {"collection_times": [{"days": "Mon-Fri", "time": "10:00am"}, {"days": "Sat", "time": "12:00pm"}, {"days": "Sun", "time": "Closed"}], "id": "4021300032", "name": "USPS COLLECTION BOX - BLUE BOX", "address": {"city": "LOUISVILLE", "state": "KY", "street": "4009 POPLAR LEVEL RD", "postcode": "40213"}}},
{"geometry": {"type": "Point", "coordinates": [-85.7323055366, 38.1985957753]}, "type": "Feature", "properties": {"collection_times": [{"days": "Mon-Fri", "time": "10:00am"}, {"days": "Sat-Sun", "time": "Closed"}], "id": "4021300037", "name": "USPS COLLECTION BOX - BLUE BOX", "address": {"city": "LOUISVILLE", "state": "KY", "street": "3442 PRESTON HWY", "postcode": "40213"}}},
{"geometry": {"type": "Point", "coordinates": [-85.8012737549, 38.1223191357]}, "type": "Feature", "properties": {"collection_times": [{"days": "Mon-Fri", "time": "2:00pm"}, {"days": "Sat-Sun", "time": "Closed"}], "id": "4021400010", "name": "USPS COLLECTION BOX - BLUE BOX", "address": {"city": "LOUISVILLE", "state": "KY", "street": "8320 3RD STREET RD", "postcode": "40214"}}},
{"geometry": {"type": "Point", "coordinates": [-85.7649337077, 38.1951924408]}, "type": "Feature", "properties": {"collection_times": [{"days": "Mon-Fri", "time": "2:30pm"}, {"days": "Sat-Sun", "time": "Closed"}], "id": "4021400012", "name": "USPS COLLECTION BOX - BLUE BOX", "address": {"city": "LOUISVILLE", "state": "KY", "street": "4211 S 3RD ST", "postcode": "40214"}}},
{"geometry": {"type": "Point", "coordinates": [-85.7672126256, 38.1996697429]}, "type": "Feature", "properties": {"collection_times": [{"days": "Mon-Fri", "time": "2:30pm"}, {"days": "Sat-Sun", "time": "Closed"}], "id": "4021400013", "name": "USPS COLLECTION BOX - BLUE BOX", "address": {"city": "LOUISVILLE", "state": "KY", "street": "3731 S 4TH ST", "postcode": "40214"}}},
{"geometry": {"type": "Point", "coordinates": [-85.775717815, 38.1453998026]}, "type": "Feature", "properties": {"collection_times": [{"days": "Mon-Fri", "time": "3:30pm"}, {"days": "Sat", "time": "1:00pm"}, {"days": "Sun", "time": "Closed"}], "id": "4021400019", "name": "USPS COLLECTION BOX - BLUE BOX", "address": {"city": "LOUISVILLE", "state": "KY", "street": "7415 3RD STREET RD", "postcode": "40214"}}},
{"geometry": {"type": "Point", "coordinates": [-85.7752340865, 38.1280615007]}, "type": "Feature", "properties": {"collection_times": [{"days": "Mon-Fri", "time": "3:30pm"}, {"days": "Sat-Sun", "time": "Closed"}], "id": "4021400037", "name": "USPS COLLECTION BOX - BLUE BOX", "address": {"city": "LOUISVILLE", "state": "KY", "street": "5901 NEW CUT RD", "postcode": "40214"}}},
{"geometry": {"type": "Point", "coordinates": [-85.7749060399, 38.1447035247]}, "type": "Feature", "properties": {"collection_times": [{"days": "Mon-Fri", "time": "1:30pm"}, {"days": "Sat-Sun", "time": "Closed"}], "id": "4021400038", "name": "USPS COLLECTION BOX - BLUE BOX", "address": {"city": "LOUISVILLE", "state": "KY", "street": "5533 NEWCUT RD", "postcode": "40214"}}},
{"geometry": {"type": "Point", "coordinates": [-85.7737887458, 38.1752802587]}, "type": "Feature", "properties": {"collection_times": [{"days": "Mon-Fri", "time": "1:30pm"}, {"days": "Sat-Sun", "time": "Closed"}], "id": "4021400040", "name": "USPS COLLECTION BOX - BLUE BOX", "address": {"city": "LOUISVILLE", "state": "KY", "street": "5115 SOUTHERN PKWY", "postcode": "40214"}}},
{"geometry": {"type": "Point", "coordinates": [-85.7677154231, 38.1840289812]}, "type": "Feature", "properties": {"collection_times": [{"days": "Mon-Fri", "time": "1:30pm"}, {"days": "Sat-Sun", "time": "Closed"}], "id": "4021400043", "name": "USPS COLLECTION BOX - BLUE BOX", "address": {"city": "LOUISVILLE", "state": "KY", "street": "4602 SOUTHERN PKWY", "postcode": "40214"}}},
{"geometry": {"type": "Point", "coordinates": [-85.7663764269, 38.1816430953]}, "type": "Feature", "properties": {"collection_times": [{"days": "Mon-Fri", "time": "3:00pm"}, {"days": "Sat", "time": "1:00pm"}, {"days": "Sun", "time": "Closed"}], "id": "4021400047", "name": "USPS COLLECTION BOX - BLUE BOX", "address": {"city": "LOUISVILLE", "state": "KY", "street": "307 W WOODLAWN AVE", "postcode": "40214"}}},
{"geometry": {"type": "Point", "coordinates": [-85.7663764269, 38.1816430953]}, "type": "Feature", "properties": {"collection_times": [{"days": "Mon-Fri", "time": "3:00pm"}, {"days": "Sat", "time": "1:00pm"}, {"days": "Sun", "time": "Closed"}], "id": "4021400048", "name": "USPS COLLECTION BOX - BLUE BOX", "address": {"city": "LOUISVILLE", "state": "KY", "street": "307 W WOODLAWN AVE", "postcode": "40214"}}},
{"geometry": {"type": "Point", "coordinates": [-85.8044013796, 38.1555639201]}, "type": "Feature", "properties": {"collection_times": [{"days": "Mon-Fri", "time": "2:00pm"}, {"days": "Sat-Sun", "time": "Closed"}], "id": "4021400055", "name": "USPS COLLECTION BOX - BLUE BOX", "address": {"city": "LOUISVILLE", "state": "KY", "street": "2538 PENNACOOK RD", "postcode": "40214"}}},
{"geometry": {"type": "Point", "coordinates": [-85.7678150138, 38.172242293]}, "type": "Feature", "properties": {"collection_times": [{"days": "Mon-Fri", "time": "1:30pm"}, {"days": "Sat", "time": "1:00pm"}, {"days": "Sun", "time": "Closed"}], "id": "4021400058", "name": "USPS COLLECTION BOX - BLUE BOX", "address": {"city": "LOUISVILLE", "state": "KY", "street": "5201 S 3RD ST", "postcode": "40214"}}},
{"geometry": {"type": "Point", "coordinates": [-85.7765263627, 38.1507446113]}, "type": "Feature", "properties": {"collection_times": [{"days": "Mon-Fri", "time": "1:30pm"}, {"days": "Sat", "time": "1:00pm"}, {"days": "Sun", "time": "Closed"}], "id": "4021400059", "name": "USPS COLLECTION BOX - BLUE BOX", "address": {"city": "LOUISVILLE", "state": "KY", "street": "5400 NEW CUT RD", "postcode": "40214"}}},
{"geometry": {"type": "Point", "coordinates": [-85.7838843088, 38.1830079927]}, "type": "Feature", "properties": {"collection_times": [{"days": "Mon-Fri", "time": "4:00pm"}, {"days": "Sat-Sun", "time": "Closed"}], "id": "4021500007", "name": "USPS COLLECTION BOX - BLUE BOX", "address": {"city": "LOUISVILLE", "state": "KY", "street": "4102 TAYLOR BLVD", "postcode": "40215"}}},
{"geometry": {"type": "Point", "coordinates": [-85.7956978949, 38.1791644774]}, "type": "Feature", "properties": {"collection_times": [{"days": "Mon-Fri", "time": "4:00pm"}, {"days": "Sat-Sun", "time": "Closed"}], "id": "4021500008", "name": "USPS COLLECTION BOX - BLUE BOX", "address": {"city": "LOUISVILLE", "state": "KY", "street": "1850 BLUEGRASS AVE", "postcode": "40215"}}},
{"geometry": {"type": "Point", "coordinates": [-85.7956978949, 38.1791644774]}, "type": "Feature", "properties": {"collection_times": [{"days": "Mon-Fri", "time": "4:00pm"}, {"days": "Sat-Sun", "time": "Closed"}], "id": "4021500009", "name": "USPS COLLECTION BOX - BLUE BOX", "address": {"city": "LOUISVILLE", "state": "KY", "street": "1850 BLUEGRASS AVE", "postcode": "40215"}}},
{"geometry": {"type": "Point", "coordinates": [-85.7926538734, 38.1779655466]}, "type": "Feature", "properties": {"collection_times": [{"days": "Mon-Fri", "time": "4:00pm"}, {"days": "Sat-Sun", "time": "Closed"}], "id": "4021500015", "name": "USPS COLLECTION BOX - BLUE BOX", "address": {"city": "LOUISVILLE", "state": "KY", "street": "4402 CHURCHMAN AVE", "postcode": "40215"}}},
{"geometry": {"type": "Point", "coordinates": [-85.7926538734, 38.1779655466]}, "type": "Feature", "properties": {"collection_times": [{"days": "Mon-Fri", "time": "4:00pm"}, {"days": "Sat-Sun", "time": "Closed"}], "id": "4021500016", "name": "USPS COLLECTION BOX - BLUE BOX", "address": {"city": "LOUISVILLE", "state": "KY", "street": "4402 CHURCHMAN AVE", "postcode": "40215"}}},
{"geometry": {"type": "Point", "coordinates": [-85.7865509512, 38.2009762829]}, "type": "Feature", "properties": {"collection_times": [{"days": "Mon-Fri", "time": "2:30pm"}, {"days": "Sat-Sun", "time": "Closed"}], "id": "4021500021", "name": "USPS COLLECTION BOX - BLUE BOX", "address": {"city": "LOUISVILLE", "state": "KY", "street": "3343 LESTER AVE", "postcode": "40215"}}},
{"geometry": {"type": "Point", "coordinates": [-85.7829479459, 38.1973970491]}, "type": "Feature", "properties": {"collection_times": [{"days": "Mon-Fri", "time": "2:30pm"}, {"days": "Sat-Sun", "time": "Closed"}], "id": "4021500023", "name": "USPS COLLECTION BOX - BLUE BOX", "address": {"city": "LOUISVILLE", "state": "KY", "street": "3454 TAYLOR BLVD", "postcode": "40215"}}},
{"geometry": {"type": "Point", "coordinates": [-85.7799244587, 38.2091473523]}, "type": "Feature", "properties": {"collection_times": [{"days": "Mon-Fri", "time": "2:30pm"}, {"days": "Sat-Sun", "time": "Closed"}], "id": "4021500027", "name": "USPS COLLECTION BOX - BLUE BOX", "address": {"city": "LOUISVILLE", "state": "KY", "street": "1300 LARCHMONT AVE", "postcode": "40215"}}},
{"geometry": {"type": "Point", "coordinates": [-85.8045641772, 38.1940198912]}, "type": "Feature", "properties": {"collection_times": [{"days": "Mon-Fri", "time": "4:00pm"}, {"days": "Sat", "time": "1:30pm"}, {"days": "Sun", "time": "Closed"}], "id": "4021600001", "name": "USPS COLLECTION BOX - BLUE BOX", "address": {"city": "LOUISVILLE", "state": "KY", "street": "3917 7TH STREET RD", "postcode": "40216"}}},
{"geometry": {"type": "Point", "coordinates": [-85.8068936271, 38.1939849639]}, "type": "Feature", "properties": {"collection_times": [{"days": "Mon-Fri", "time": "4:00pm"}, {"days": "Sat-Sun", "time": "Closed"}], "id": "4021600030", "name": "USPS COLLECTION BOX - BLUE BOX", "address": {"city": "LOUISVILLE", "state": "KY", "street": "3934 DIXIE HWY", "postcode": "40216"}}},
{"geometry": {"type": "Point", "coordinates": [-85.8090124375, 38.1908427383]}, "type": "Feature", "properties": {"collection_times": [{"days": "Mon-Sat", "time": "11:00am"}, {"days": "Sun", "time": "Closed"}], "id": "4021600031", "name": "USPS COLLECTION BOX - BLUE BOX", "address": {"city": "LOUISVILLE", "state": "KY", "street": "4048 DIXIE HWY", "postcode": "40216"}}},
{"geometry": {"type": "Point", "coordinates": [-85.8293999641, 38.166654374]}, "type": "Feature", "properties": {"collection_times": [{"days": "Mon-Fri", "time": "3:30pm"}, {"days": "Sat-Sun", "time": "Closed"}], "id": "4021600035", "name": "USPS COLLECTION BOX - BLUE BOX", "address": {"city": "LOUISVILLE", "state": "KY", "street": "5129 DIXIE HWY", "postcode": "40216"}}},
{"geometry": {"type": "Point", "coordinates": [-85.832170131, 38.1613376956]}, "type": "Feature", "properties": {"collection_times": [{"days": "Mon-Fri", "time": "3:30pm"}, {"days": "Sat", "time": "1:30pm"}, {"days": "Sun", "time": "Closed"}], "id": "4021600036", "name": "USPS COLLECTION BOX - BLUE BOX", "address": {"city": "LOUISVILLE", "state": "KY", "street": "5300 DIXIE HWY", "postcode": "40216"}}},
{"geometry": {"type": "Point", "coordinates": [-85.7980027797, 38.1725070747]}, "type": "Feature", "properties": {"collection_times": [{"days": "Mon-Fri", "time": "2:00pm"}, {"days": "Sat", "time": "1:00pm"}, {"days": "Sun", "time": "Closed"}], "id": "4021600040", "name": "USPS COLLECTION BOX - BLUE BOX", "address": {"city": "LOUISVILLE", "state": "KY", "street": "4934 MANSLICK RD", "postcode": "40216"}}},
{"geometry": {"type": "Point", "coordinates": [-85.8274372791, 38.1771040737]}, "type": "Feature", "properties": {"collection_times": [{"days": "Mon-Fri", "time": "3:30pm"}, {"days": "Sat-Sun", "time": "Closed"}], "id": "4021600041", "name": "USPS COLLECTION BOX - BLUE BOX", "address": {"city": "LOUISVILLE", "state": "KY", "street": "4741 ROCKFORD PLZ", "postcode": "40216"}}},
{"geometry": {"type": "Point", "coordinates": [-85.8356644387, 38.168186392]}, "type": "Feature", "properties": {"collection_times": [{"days": "Mon-Fri", "time": "1:00pm"}, {"days": "Sat-Sun", "time": "Closed"}], "id": "4021600043", "name": "USPS COLLECTION BOX - BLUE BOX", "address": {"city": "LOUISVILLE", "state": "KY", "street": "2119 UPPER HUNTERS TRCE", "postcode": "40216"}}},
{"geometry": {"type": "Point", "coordinates": [-85.8332934833, 38.1975702157]}, "type": "Feature", "properties": {"collection_times": [{"days": "Mon-Fri", "time": "5:00pm"}, {"days": "Sat", "time": "1:00pm"}, {"days": "Sun", "time": "Closed"}], "id": "4021600044", "name": "USPS COLLECTION BOX - PO LOBBY", "address": {"city": "LOUISVILLE", "state": "KY", "street": "3131 CRUMS LN", "postcode": "40216"}}},
{"geometry": {"type": "Point", "coordinates": [-85.8332934833, 38.1975702157]}, "type": "Feature", "properties": {"collection_times": [{"days": "Mon-Fri", "time": "5:00pm"}, {"days": "Sat", "time": "1:00pm"}, {"days": "Sun", "time": "Closed"}], "id": "4021600045", "name": "USPS COLLECTION BOX - BLUE BOX", "address": {"city": "LOUISVILLE", "state": "KY", "street": "3131 CRUMS LN", "postcode": "40216"}}},
{"geometry": {"type": "Point", "coordinates": [-85.8332934833, 38.1975702157]}, "type": "Feature", "properties": {"collection_times": [{"days": "Mon-Fri", "time": "5:00pm"}, {"days": "Sat", "time": "1:00pm"}, {"days": "Sun", "time": "Closed"}], "id": "4021600046", "name": "USPS COLLECTION BOX - BLUE BOX", "address": {"city": "LOUISVILLE", "state": "KY", "street": "3131 CRUMS LN", "postcode": "40216"}}},
{"geometry": {"type": "Point", "coordinates": [-85.7228905954, 38.2141829489]}, "type": "Feature", "properties": {"collection_times": [{"days": "Mon-Sat", "time": "12:00pm"}, {"days": "Sun", "time": "Closed"}], "id": "4021700004", "name": "USPS COLLECTION BOX - BLUE BOX", "address": {"city": "LOUISVILLE", "state": "KY", "street": "3 AUDUBON PLAZA DR", "postcode": "40217"}}},
{"geometry": {"type": "Point", "coordinates": [-85.7229866615, 38.2141297392]}, "type": "Feature", "properties": {"collection_times": [{"days": "Mon-Sat", "time": "12:00pm"}, {"days": "Sun", "time": "Closed"}], "id": "4021700006", "name": "USPS COLLECTION BOX - BLUE BOX", "address": {"city": "LOUISVILLE", "state": "KY", "street": "1 AUDUBON PLAZA DR", "postcode": "40217"}}},
{"geometry": {"type": "Point", "coordinates": [-85.7258691791, 38.2253977395]}, "type": "Feature", "properties": {"collection_times": [{"days": "Mon-Fri", "time": "5:00pm"}, {"days": "Sat", "time": "12:00pm"}, {"days": "Sun", "time": "Closed"}], "id": "4021700021", "name": "USPS COLLECTION BOX - BLUE BOX", "address": {"city": "LOUISVILLE", "state": "KY", "street": "1169 EASTERN PKWY", "postcode": "40217"}}},
{"geometry": {"type": "Point", "coordinates": [-85.7316773162, 38.2251666086]}, "type": "Feature", "properties": {"collection_times": [{"days": "Mon-Fri", "time": "10:00am"}, {"days": "Sat", "time": "12:00pm"}, {"days": "Sun", "time": "Closed"}], "id": "4021700029", "name": "USPS COLLECTION BOX - BLUE BOX", "address": {"city": "LOUISVILLE", "state": "KY", "street": "1247 GOSS AVE", "postcode": "40217"}}},
{"geometry": {"type": "Point", "coordinates": [-85.7430719555, 38.2144569135]}, "type": "Feature", "properties": {"collection_times": [{"days": "Mon-Fri", "time": "4:30pm"}, {"days": "Sat", "time": "1:45pm"}, {"days": "Sun", "time": "Closed"}], "id": "4021700040", "name": "USPS COLLECTION BOX - BLUE BOX", "address": {"city": "LOUISVILLE", "state": "KY", "street": "2312 S PRESTON ST", "postcode": "40217"}}},
{"geometry": {"type": "Point", "coordinates": [-85.7430719555, 38.2144569135]}, "type": "Feature", "properties": {"collection_times": [{"days": "Mon-Fri", "time": "4:30pm"}, {"days": "Sat", "time": "1:00pm"}, {"days": "Sun", "time": "Closed"}], "id": "4021700046", "name": "USPS COLLECTION BOX - PO LOBBY", "address": {"city": "LOUISVILLE", "state": "KY", "street": "2312 S PRESTON ST", "postcode": "40217"}}},
{"geometry": {"type": "Point", "coordinates": [-85.6889672407, 38.2001074404]}, "type": "Feature", "properties": {"collection_times": [{"days": "Mon-Fri", "time": "4:30pm"}, {"days": "Sat-Sun", "time": "Closed"}], "id": "4021800001", "name": "USPS COLLECTION BOX - BLUE BOX", "address": {"city": "LOUISVILLE", "state": "KY", "street": "3901 ATKINSON SQUARE DR", "postcode": "40218"}}},
{"geometry": {"type": "Point", "coordinates": [-85.6663213685, 38.2054482628]}, "type": "Feature", "properties": {"collection_times": [{"days": "Mon-Fri", "time": "3:30pm"}, {"days": "Sat-Sun", "time": "Closed"}], "id": "4021800005", "name": "USPS COLLECTION BOX - BLUE BOX", "address": {"city": "LOUISVILLE", "state": "KY", "street": "3415 BARDSTOWN RD", "postcode": "40218"}}},
{"geometry": {"type": "Point", "coordinates": [-85.6236951032, 38.1793047806]}, "type": "Feature", "properties": {"collection_times": [{"days": "Mon-Fri", "time": "3:15pm"}, {"days": "Sat", "time": "1:00pm"}, {"days": "Sun", "time": "Closed"}], "id": "4021800015", "name": "USPS COLLECTION BOX - BLUE BOX", "address": {"city": "LOUISVILLE", "state": "KY", "street": "4748 BARDSTOWN RD", "postcode": "40218"}}},
{"geometry": {"type": "Point", "coordinates": [-85.6838456151, 38.2021881269]}, "type": "Feature", "properties": {"collection_times": [{"days": "Mon-Fri", "time": "4:00pm"}, {"days": "Sat-Sun", "time": "Closed"}], "id": "4021800020", "name": "USPS COLLECTION BOX - BLUE BOX", "address": {"city": "LOUISVILLE", "state": "KY", "street": "1930 BISHOP LN", "postcode": "40218"}}},
{"geometry": {"type": "Point", "coordinates": [-85.6822652489, 38.2030598992]}, "type": "Feature", "properties": {"collection_times": [{"days": "Mon-Fri", "time": "3:45pm"}, {"days": "Sat-Sun", "time": "Closed"}], "id": "4021800037", "name": "USPS COLLECTION BOX - BLUE BOX", "address": {"city": "LOUISVILLE", "state": "KY", "street": "3201 LEITH LN", "postcode": "40218"}}},
{"geometry": {"type": "Point", "coordinates": [-85.6648730159, 38.2040078058]}, "type": "Feature", "properties": {"collection_times": [{"days": "Mon-Fri", "time": "3:30pm"}, {"days": "Sat-Sun", "time": "Closed"}], "id": "4021800043", "name": "USPS COLLECTION BOX - BLUE BOX", "address": {"city": "LOUISVILLE", "state": "KY", "street": "2210 MEADOW DR", "postcode": "40218"}}},
{"geometry": {"type": "Point", "coordinates": [-85.6810059322, 38.1967980301]}, "type": "Feature", "properties": {"collection_times": [{"days": "Mon-Fri", "time": "3:00pm"}, {"days": "Sat-Sun", "time": "Closed"}], "id": "4021800044", "name": "USPS COLLECTION BOX - BLUE BOX", "address": {"city": "LOUISVILLE", "state": "KY", "street": "3430 NEWBURG RD", "postcode": "40218"}}},
{"geometry": {"type": "Point", "coordinates": [-85.6893005929, 38.180729523]}, "type": "Feature", "properties": {"collection_times": [{"days": "Mon-Fri", "time": "4:45pm"}, {"days": "Sat-Sun", "time": "Closed"}], "id": "4021800045", "name": "USPS COLLECTION BOX - BLUE BOX", "address": {"city": "LOUISVILLE", "state": "KY", "street": "3899 PRODUCE RD", "postcode": "40218"}}},
{"geometry": {"type": "Point", "coordinates": [-85.6841596241, 38.186380055]}, "type": "Feature", "properties": {"collection_times": [{"days": "Mon-Fri", "time": "4:45pm"}, {"days": "Sat-Sun", "time": "Closed"}], "id": "4021800048", "name": "USPS COLLECTION BOX - BLUE BOX", "address": {"city": "LOUISVILLE", "state": "KY", "street": "4601 JENNINGS LN", "postcode": "40218"}}},
{"geometry": {"type": "Point", "coordinates": [-85.6475304349, 38.2074191508]}, "type": "Feature", "properties": {"collection_times": [{"days": "Mon-Fri", "time": "4:30pm"}, {"days": "Sat", "time": "4:00pm"}, {"days": "Sun", "time": "Closed"}], "id": "4021800060", "name": "USPS COLLECTION BOX - BLUE BOX", "address": {"city": "LOUISVILLE", "state": "KY", "street": "2247 HIKES LN", "postcode": "40218"}}},
{"geometry": {"type": "Point", "coordinates": [-85.6455944643, 38.1916794423]}, "type": "Feature", "properties": {"collection_times": [{"days": "Mon-Fri", "time": "3:00pm"}, {"days": "Sat-Sun", "time": "Closed"}], "id": "4021800065", "name": "USPS COLLECTION BOX - BLUE BOX", "address": {"city": "LOUISVILLE", "state": "KY", "street": "2202 BUECHEL AVE", "postcode": "40218"}}},
{"geometry": {"type": "Point", "coordinates": [-85.6823464204, 38.2031323266]}, "type": "Feature", "properties": {"collection_times": [{"days": "Mon-Fri", "time": "3:45pm"}, {"days": "Sat-Sun", "time": "Closed"}], "id": "4021800068", "name": "USPS COLLECTION BOX - BLUE BOX", "address": {"city": "LOUISVILLE", "state": "KY", "street": "1951 BISHOP LN", "postcode": "40218"}}},
{"geometry": {"type": "Point", "coordinates": [-85.6396154576, 38.1882604367]}, "type": "Feature", "properties": {"collection_times": [{"days": "Mon-Fri", "time": "3:00pm"}, {"days": "Sat-Sun", "time": "Closed"}], "id": "4021800073", "name": "USPS COLLECTION BOX - BLUE BOX", "address": {"city": "LOUISVILLE", "state": "KY", "street": "4229 BARDSTOWN RD", "postcode": "40218"}}},
{"geometry": {"type": "Point", "coordinates": [-85.6831343837, 38.2027066416]}, "type": "Feature", "properties": {"collection_times": [{"days": "Mon-Fri", "time": "3:45pm"}, {"days": "Sat-Sun", "time": "Closed"}], "id": "4021800075", "name": "USPS COLLECTION BOX - BLUE BOX", "address": {"city": "LOUISVILLE", "state": "KY", "street": "1941 BISHOP LN", "postcode": "40218"}}},
{"geometry": {"type": "Point", "coordinates": [-85.6406947772, 38.2110763898]}, "type": "Feature", "properties": {"collection_times": [{"days": "Mon-Fri", "time": "12:00pm"}, {"days": "Sat", "time": "3:30pm"}, {"days": "Sun", "time": "Closed"}], "id": "4021800078", "name": "USPS COLLECTION BOX - BLUE BOX", "address": {"city": "LOUISVILLE", "state": "KY", "street": "3606 KLONDIKE LN", "postcode": "40218"}}},
{"geometry": {"type": "Point", "coordinates": [-85.674881438, 38.1438228558]}, "type": "Feature", "properties": {"collection_times": [{"days": "Mon-Fri", "time": "5:30pm"}, {"days": "Sat", "time": "3:00pm"}, {"days": "Sun", "time": "Closed"}], "id": "4021900004", "name": "USPS COLLECTION BOX - BLUE BOX", "address": {"city": "LOUISVILLE", "state": "KY", "street": "7400 JEFFERSON BLVD", "postcode": "40219"}}},
{"geometry": {"type": "Point", "coordinates": [-85.6571302814, 38.1389982271]}, "type": "Feature", "properties": {"collection_times": [{"days": "Mon-Fri", "time": "12:00pm"}, {"days": "Sat", "time": "2:30pm"}, {"days": "Sun", "time": "Closed"}], "id": "4021900017", "name": "USPS COLLECTION BOX - BLUE BOX", "address": {"city": "LOUISVILLE", "state": "KY", "street": "5629 OUTER LOOP", "postcode": "40219"}}},
{"geometry": {"type": "Point", "coordinates": [-85.6860473172, 38.1337932645]}, "type": "Feature", "properties": {"collection_times": [{"days": "Mon-Fri", "time": "12:00pm"}, {"days": "Sat-Sun", "time": "Closed"}], "id": "4021900020", "name": "USPS COLLECTION BOX - BLUE BOX", "address": {"city": "LOUISVILLE", "state": "KY", "street": "4100 PINECROFT DR", "postcode": "40219"}}},
{"geometry": {"type": "Point", "coordinates": [-85.6800496088, 38.1647427925]}, "type": "Feature", "properties": {"collection_times": [{"days": "Mon-Fri", "time": "12:00pm"}, {"days": "Sat", "time": "3:00pm"}, {"days": "Sun", "time": "Closed"}], "id": "4021900021", "name": "USPS COLLECTION BOX - BLUE BOX", "address": {"city": "LOUISVILLE", "state": "KY", "street": "5028 POPLAR LEVEL RD", "postcode": "40219"}}},
{"geometry": {"type": "Point", "coordinates": [-85.7048788199, 38.1672401836]}, "type": "Feature", "properties": {"collection_times": [{"days": "Mon-Fri", "time": "10:45am"}, {"days": "Sat", "time": "12:00pm"}, {"days": "Sun", "time": "Closed"}], "id": "4021900025", "name": "USPS COLLECTION BOX - BLUE BOX", "address": {"city": "LOUISVILLE", "state": "KY", "street": "5703 PRESTON HWY", "postcode": "40219"}}},
{"geometry": {"type": "Point", "coordinates": [-85.6813462152, 38.1283612958]}, "type": "Feature", "properties": {"collection_times": [{"days": "Mon-Fri", "time": "1:30pm"}, {"days": "Sat", "time": "12:30pm"}, {"days": "Sun", "time": "Closed"}], "id": "4021900027", "name": "USPS COLLECTION BOX - BLUE BOX", "address": {"city": "LOUISVILLE", "state": "KY", "street": "8600 PRESTON HWY", "postcode": "40219"}}},
{"geometry": {"type": "Point", "coordinates": [-85.674881438, 38.1438228558]}, "type": "Feature", "properties": {"collection_times": [{"days": "Mon-Fri", "time": "5:30pm"}, {"days": "Sat", "time": "3:00pm"}, {"days": "Sun", "time": "Closed"}], "id": "4021900035", "name": "USPS COLLECTION BOX - BLUE BOX", "address": {"city": "LOUISVILLE", "state": "KY", "street": "7400 JEFFERSON BLVD", "postcode": "40219"}}},
{"geometry": {"type": "Point", "coordinates": [-85.674881438, 38.1438228558]}, "type": "Feature", "properties": {"collection_times": [{"days": "Mon-Fri", "time": "5:30pm"}, {"days": "Sat", "time": "12:15pm"}, {"days": "Sun", "time": "Closed"}], "id": "4021900037", "name": "USPS COLLECTION BOX - PO LOBBY", "address": {"city": "LOUISVILLE", "state": "KY", "street": "7400 JEFFERSON BLVD", "postcode": "40219"}}},
{"geometry": {"type": "Point", "coordinates": [-85.674881438, 38.1438228558]}, "type": "Feature", "properties": {"collection_times": [{"days": "Mon-Fri", "time": "5:00pm"}, {"days": "Sat", "time": "1:00pm"}, {"days": "Sun", "time": "Closed"}], "id": "4021900043", "name": "USPS COLLECTION BOX - APC", "address": {"city": "LOUISVILLE", "state": "KY", "street": "7400 JEFFERSON BLVD", "postcode": "40219"}}},
{"geometry": {"type": "Point", "coordinates": [-85.6321185354, 38.2216974206]}, "type": "Feature", "properties": {"collection_times": [{"days": "Mon-Fri", "time": "4:30pm"}, {"days": "Sat-Sun", "time": "Closed"}], "id": "4022000007", "name": "USPS COLLECTION BOX - BLUE BOX", "address": {"city": "LOUISVILLE", "state": "KY", "street": "2950 BRECKENRIDGE LN", "postcode": "40220"}}},
{"geometry": {"type": "Point", "coordinates": [-85.6274547775, 38.2143112097]}, "type": "Feature", "properties": {"collection_times": [{"days": "Mon-Fri", "time": "4:30pm"}, {"days": "Sat-Sun", "time": "Closed"}], "id": "4022000010", "name": "USPS COLLECTION BOX - BLUE BOX", "address": {"city": "LOUISVILLE", "state": "KY", "street": "3101 BRECKENRIDGE LN", "postcode": "40220"}}},
{"geometry": {"type": "Point", "coordinates": [-85.585960342, 38.2209287809]}, "type": "Feature", "properties": {"collection_times": [{"days": "Mon-Fri", "time": "3:00pm"}, {"days": "Sat", "time": "12:30pm"}, {"days": "Sun", "time": "Closed"}], "id": "4022000014", "name": "USPS COLLECTION BOX - BLUE BOX", "address": {"city": "LOUISVILLE", "state": "KY", "street": "9420 BUNSEN PKWY", "postcode": "40220"}}},
{"geometry": {"type": "Point", "coordinates": [-85.6555537424, 38.2148216357]}, "type": "Feature", "properties": {"collection_times": [{"days": "Mon-Sat", "time": "3:30pm"}, {"days": "Sun", "time": "Closed"}], "id": "4022000016", "name": "USPS COLLECTION BOX - BLUE BOX", "address": {"city": "LOUISVILLE", "state": "KY", "street": "2817 DEL RIO PL", "postcode": "40220"}}},
{"geometry": {"type": "Point", "coordinates": [-85.5976778789, 38.2137601974]}, "type": "Feature", "properties": {"collection_times": [{"days": "Mon-Fri", "time": "3:45pm"}, {"days": "Sat", "time": "12:00pm"}, {"days": "Sun", "time": "Closed"}], "id": "4022000018", "name": "USPS COLLECTION BOX - BLUE BOX", "address": {"city": "LOUISVILLE", "state": "KY", "street": "2300 GREENE WAY", "postcode": "40220"}}},
{"geometry": {"type": "Point", "coordinates": [-85.5976778789, 38.2137601974]}, "type": "Feature", "properties": {"collection_times": [{"days": "Mon-Fri", "time": "3:45pm"}, {"days": "Sat", "time": "12:00pm"}, {"days": "Sun", "time": "Closed"}], "id": "4022000019", "name": "USPS COLLECTION BOX - BLUE BOX", "address": {"city": "LOUISVILLE", "state": "KY", "street": "2300 GREENE WAY", "postcode": "40220"}}},
{"geometry": {"type": "Point", "coordinates": [-85.6249017934, 38.2181067875]}, "type": "Feature", "properties": {"collection_times": [{"days": "Mon-Fri", "time": "5:00pm"}, {"days": "Sat", "time": "3:30pm"}, {"days": "Sun", "time": "Closed"}], "id": "4022000023", "name": "USPS COLLECTION BOX - BLUE BOX", "address": {"city": "LOUISVILLE", "state": "KY", "street": "3050 HUNSINGER LN", "postcode": "40220"}}},
{"geometry": {"type": "Point", "coordinates": [-85.6249017934, 38.2181067875]}, "type": "Feature", "properties": {"collection_times": [{"days": "Mon-Fri", "time": "5:00pm"}, {"days": "Sat", "time": "3:30pm"}, {"days": "Sun", "time": "Closed"}], "id": "4022000024", "name": "USPS COLLECTION BOX - BLUE BOX", "address": {"city": "LOUISVILLE", "state": "KY", "street": "3050 HUNSINGER LN", "postcode": "40220"}}},
{"geometry": {"type": "Point", "coordinates": [-85.6276669411, 38.2168471265]}, "type": "Feature", "properties": {"collection_times": [{"days": "Mon-Fri", "time": "4:30pm"}, {"days": "Sat-Sun", "time": "Closed"}], "id": "4022000045", "name": "USPS COLLECTION BOX - BLUE BOX", "address": {"city": "LOUISVILLE", "state": "KY", "street": "3040 BRECKENRIDGE LN", "postcode": "40220"}}},
{"geometry": {"type": "Point", "coordinates": [-85.6249017934, 38.2181067875]}, "type": "Feature", "properties": {"collection_times": [{"days": "Mon-Fri", "time": "5:00pm"}, {"days": "Sat", "time": "1:00pm"}, {"days": "Sun", "time": "Closed"}], "id": "4022000047", "name": "USPS COLLECTION BOX - PO LOBBY", "address": {"city": "LOUISVILLE", "state": "KY", "street": "3050 HUNSINGER LN", "postcode": "40220"}}},
{"geometry": {"type": "Point", "coordinates": [-85.644548732, 38.2210852284]}, "type": "Feature", "properties": {"collection_times": [{"days": "Mon-Fri", "time": "4:30pm"}, {"days": "Sat-Sun", "time": "Closed"}], "id": "4022000051", "name": "USPS COLLECTION BOX - BLUE BOX", "address": {"city": "LOUISVILLE", "state": "KY", "street": "3703 TAYLORSVILLE RD", "postcode": "40220"}}},
{"geometry": {"type": "Point", "coordinates": [-85.60485418, 38.1995860926]}, "type": "Feature", "properties": {"collection_times": [{"days": "Mon-Fri", "time": "12:30pm"}, {"days": "Sat-Sun", "time": "Closed"}], "id": "4022000054", "name": "USPS COLLECTION BOX - BLUE BOX", "address": {"city": "LOUISVILLE", "state": "KY", "street": "3409 STONY SPRING CIR", "postcode": "40220"}}},
{"geometry": {"type": "Point", "coordinates": [-85.6249017934, 38.2181067875]}, "type": "Feature", "properties": {"collection_times": [{"days": "Mon-Fri", "time": "5:00pm"}, {"days": "Sat", "time": "1:00pm"}, {"days": "Sun", "time": "Closed"}], "id": "4022000056", "name": "USPS COLLECTION BOX - APC", "address": {"city": "LOUISVILLE", "state": "KY", "street": "3050 HUNSINGER LN", "postcode": "40220"}}},
{"geometry": {"type": "Point", "coordinates": [-85.585960342, 38.2209287809]}, "type": "Feature", "properties": {"collection_times": [{"days": "Mon-Fri", "time": "3:00pm"}, {"days": "Sat", "time": "12:30pm"}, {"days": "Sun", "time": "Closed"}], "id": "4022000058", "name": "USPS COLLECTION BOX - BLUE BOX", "address": {"city": "LOUISVILLE", "state": "KY", "street": "9420 BUNSEN PKWY", "postcode": "40220"}}},
{"geometry": {"type": "Point", "coordinates": [-85.7508009257, 38.18886926]}, "type": "Feature", "properties": {"collection_times": [{"days": "Mon-Fri", "time": "6:00pm"}, {"days": "Sat", "time": "4:00pm"}, {"days": "Sun", "time": "Closed"}], "id": "4022100003", "name": "USPS COLLECTION BOX - BLUE BOX", "address": {"city": "LOUISVILLE", "state": "KY", "street": "4440 CRITTENDEN DR", "postcode": "40221"}}},
{"geometry": {"type": "Point", "coordinates": [-85.7508009257, 38.18886926]}, "type": "Feature", "properties": {"collection_times": [{"days": "Mon-Fri", "time": "6:00pm"}, {"days": "Sat", "time": "3:00pm"}, {"days": "Sun", "time": "Closed"}], "id": "4022100005", "name": "USPS COLLECTION BOX - PO LOBBY", "address": {"city": "LOUISVILLE", "state": "KY", "street": "4440 CRITTENDEN DR", "postcode": "40221"}}},
{"geometry": {"type": "Point", "coordinates": [-85.7508009257, 38.18886926]}, "type": "Feature", "properties": {"collection_times": [{"days": "Mon-Fri", "time": "6:00pm"}, {"days": "Sat", "time": "4:00pm"}, {"days": "Sun", "time": "Closed"}], "id": "4022100006", "name": "USPS COLLECTION BOX - BLUE BOX", "address": {"city": "LOUISVILLE", "state": "KY", "street": "4440 CRITTENDEN DR", "postcode": "40221"}}},
{"geometry": {"type": "Point", "coordinates": [-85.7508009257, 38.18886926]}, "type": "Feature", "properties": {"collection_times": [{"days": "Mon-Fri", "time": "6:00pm"}, {"days": "Sat", "time": "3:00pm"}, {"days": "Sun", "time": "Closed"}], "id": "4022100007", "name": "USPS COLLECTION BOX - APC", "address": {"city": "LOUISVILLE", "state": "KY", "street": "4440 CRITTENDEN DR", "postcode": "40221"}}},
{"geometry": {"type": "Point", "coordinates": [-85.6351344196, 38.2811833964]}, "type": "Feature", "properties": {"collection_times": [{"days": "Mon-Fri", "time": "12:00pm"}, {"days": "Sat-Sun", "time": "Closed"}], "id": "4022200001", "name": "USPS COLLECTION BOX - BLUE BOX", "address": {"city": "LOUISVILLE", "state": "KY", "street": "4912 US HIGHWAY 42", "postcode": "40222"}}},
{"geometry": {"type": "Point", "coordinates": [-85.633507601, 38.2808173707]}, "type": "Feature", "properties": {"collection_times": [{"days": "Mon-Fri", "time": "3:30pm"}, {"days": "Sat", "time": "2:00pm"}, {"days": "Sun", "time": "Closed"}], "id": "4022200003", "name": "USPS COLLECTION BOX - BLUE BOX", "address": {"city": "LOUISVILLE", "state": "KY", "street": "4900 BROWNSBORO RD", "postcode": "40222"}}},
{"geometry": {"type": "Point", "coordinates": [-85.633507601, 38.2808173707]}, "type": "Feature", "properties": {"collection_times": [{"days": "Mon-Fri", "time": "3:30pm"}, {"days": "Sat", "time": "2:00pm"}, {"days": "Sun", "time": "Closed"}], "id": "4022200004", "name": "USPS COLLECTION BOX - BLUE BOX", "address": {"city": "LOUISVILLE", "state": "KY", "street": "4900 BROWNSBORO RD", "postcode": "40222"}}},
{"geometry": {"type": "Point", "coordinates": [-85.6137143414, 38.2467891156]}, "type": "Feature", "properties": {"collection_times": [{"days": "Mon-Fri", "time": "12:30pm"}, {"days": "Sat-Sun", "time": "Closed"}], "id": "4022200008", "name": "USPS COLLECTION BOX - BLUE BOX", "address": {"city": "LOUISVILLE", "state": "KY", "street": "101 BULLITT LN", "postcode": "40222"}}},
{"geometry": {"type": "Point", "coordinates": [-85.6306152217, 38.2852077246]}, "type": "Feature", "properties": {"collection_times": [{"days": "Mon-Fri", "time": "3:00pm"}, {"days": "Sat-Sun", "time": "Closed"}], "id": "4022200012", "name": "USPS COLLECTION BOX - BLUE BOX", "address": {"city": "LOUISVILLE", "state": "KY", "street": "6511 GLENRIDGE PARK PL", "postcode": "40222"}}},
{"geometry": {"type": "Point", "coordinates": [-85.6318858661, 38.2806281666]}, "type": "Feature", "properties": {"collection_times": [{"days": "Mon-Sat", "time": "11:30am"}, {"days": "Sun", "time": "Closed"}], "id": "4022200022", "name": "USPS COLLECTION BOX - BLUE BOX", "address": {"city": "LOUISVILLE", "state": "KY", "street": "2000 WARRINGTON WAY", "postcode": "40222"}}},
{"geometry": {"type": "Point", "coordinates": [-85.6023301028, 38.2633639673]}, "type": "Feature", "properties": {"collection_times": [{"days": "Mon-Fri", "time": "5:00pm"}, {"days": "Sat", "time": "3:00pm"}, {"days": "Sun", "time": "Closed"}], "id": "4022200028", "name": "USPS COLLECTION BOX - BLUE BOX", "address": {"city": "LOUISVILLE", "state": "KY", "street": "8127 LAGRANGE RD", "postcode": "40222"}}},
{"geometry": {"type": "Point", "coordinates": [-85.5787123605, 38.2278395029]}, "type": "Feature", "properties": {"collection_times": [{"days": "Mon-Fri", "time": "4:30pm"}, {"days": "Sat-Sun", "time": "Closed"}], "id": "4022200034", "name": "USPS COLLECTION BOX - BLUE BOX", "address": {"city": "LOUISVILLE", "state": "KY", "street": "1230 LIBERTY BANK LN", "postcode": "40222"}}},
{"geometry": {"type": "Point", "coordinates": [-85.6158992643, 38.2521229244]}, "type": "Feature", "properties": {"collection_times": [{"days": "Mon-Fri", "time": "12:00pm"}, {"days": "Sat", "time": "2:15pm"}, {"days": "Sun", "time": "Closed"}], "id": "4022200043", "name": "USPS COLLECTION BOX - BLUE BOX", "address": {"city": "LOUISVILLE", "state": "KY", "street": "7410 NEW LA GRANGE RD", "postcode": "40222"}}},
{"geometry": {"type": "Point", "coordinates": [-85.6084297605, 38.2489483892]}, "type": "Feature", "properties": {"collection_times": [{"days": "Mon-Fri", "time": "12:30pm"}, {"days": "Sat", "time": "3:30pm"}, {"days": "Sun", "time": "Closed"}], "id": "4022200045", "name": "USPS COLLECTION BOX - BLUE BOX", "address": {"city": "LOUISVILLE", "state": "KY", "street": "7900 SHELBYVILLE RD", "postcode": "40222"}}},
{"geometry": {"type": "Point", "coordinates": [-85.5800722556, 38.2432651484]}, "type": "Feature", "properties": {"collection_times": [{"days": "Mon-Fri", "time": "4:15pm"}, {"days": "Sat", "time": "2:00pm"}, {"days": "Sun", "time": "Closed"}], "id": "4022200055", "name": "USPS COLLECTION BOX - BLUE BOX", "address": {"city": "LOUISVILLE", "state": "KY", "street": "313 WHITTINGTON PKWY", "postcode": "40222"}}},
{"geometry": {"type": "Point", "coordinates": [-85.5800722556, 38.2432651484]}, "type": "Feature", "properties": {"collection_times": [{"days": "Mon-Fri", "time": "4:15pm"}, {"days": "Sat", "time": "2:00pm"}, {"days": "Sun", "time": "Closed"}], "id": "4022200056", "name": "USPS COLLECTION BOX - BLUE BOX", "address": {"city": "LOUISVILLE", "state": "KY", "street": "313 WHITTINGTON PKWY", "postcode": "40222"}}},
{"geometry": {"type": "Point", "coordinates": [-85.6062689309, 38.2573910655]}, "type": "Feature", "properties": {"collection_times": [{"days": "Mon-Fri", "time": "12:30pm"}, {"days": "Sat-Sun", "time": "Closed"}], "id": "4022200063", "name": "USPS COLLECTION BOX - BLUE BOX", "address": {"city": "LOUISVILLE", "state": "KY", "street": "8011 NEW LAGRANGE RD", "postcode": "40222"}}},
{"geometry": {"type": "Point", "coordinates": [-85.6313609176, 38.2854549823]}, "type": "Feature", "properties": {"collection_times": [{"days": "Mon-Fri", "time": "11:30am"}, {"days": "Sat-Sun", "time": "Closed"}], "id": "4022200065", "name": "USPS COLLECTION BOX - BLUE BOX", "address": {"city": "LOUISVILLE", "state": "KY", "street": "4967 US HIGHWAY 42", "postcode": "40222"}}},
{"geometry": {"type": "Point", "coordinates": [-85.6314728616, 38.2852826241]}, "type": "Feature", "properties": {"collection_times": [{"days": "Mon-Fri", "time": "3:00pm"}, {"days": "Sat-Sun", "time": "Closed"}], "id": "4022200083", "name": "USPS COLLECTION BOX - BLUE BOX", "address": {"city": "LOUISVILLE", "state": "KY", "street": "4965 US HIGHWAY 42", "postcode": "40222"}}},
{"geometry": {"type": "Point", "coordinates": [-85.6023301028, 38.2633639673]}, "type": "Feature", "properties": {"collection_times": [{"days": "Mon-Fri", "time": "5:00pm"}, {"days": "Sat", "time": "3:00pm"}, {"days": "Sun", "time": "Closed"}], "id": "4022200084", "name": "USPS COLLECTION BOX - PO LOBBY", "address": {"city": "LOUISVILLE", "state": "KY", "street": "8127 LAGRANGE RD", "postcode": "40222"}}},
{"geometry": {"type": "Point", "coordinates": [-85.6068230769, 38.256952241]}, "type": "Feature", "properties": {"collection_times": [{"days": "Mon-Fri", "time": "12:30pm"}, {"days": "Sat-Sun", "time": "Closed"}], "id": "4022200092", "name": "USPS COLLECTION BOX - BLUE BOX", "address": {"city": "LOUISVILLE", "state": "KY", "street": "7980 NEW LAGRANGE RD", "postcode": "40222"}}},
{"geometry": {"type": "Point", "coordinates": [-85.5787123605, 38.2278395029]}, "type": "Feature", "properties": {"collection_times": [{"days": "Mon-Fri", "time": "4:30pm"}, {"days": "Sat-Sun", "time": "Closed"}], "id": "4022200093", "name": "USPS COLLECTION BOX - BLUE BOX", "address": {"city": "LOUISVILLE", "state": "KY", "street": "1230 LIBERTY BANK LN", "postcode": "40222"}}},
{"geometry": {"type": "Point", "coordinates": [-85.628392422, 38.2845566602]}, "type": "Feature", "properties": {"collection_times": [{"days": "Mon-Fri", "time": "10:30am"}, {"days": "Sat-Sun", "time": "Closed"}], "id": "4022200094", "name": "USPS COLLECTION BOX - BLUE BOX", "address": {"city": "LOUISVILLE", "state": "KY", "street": "2321 LIME KILN LN", "postcode": "40222"}}},
{"geometry": {"type": "Point", "coordinates": [-85.6312849779, 38.2855803897]}, "type": "Feature", "properties": {"collection_times": [{"days": "Mon-Fri", "time": "3:00pm"}, {"days": "Sat-Sun", "time": "Closed"}], "id": "4022200095", "name": "USPS COLLECTION BOX - BLUE BOX", "address": {"city": "LOUISVILLE", "state": "KY", "street": "4969 US HIGHWAY 42", "postcode": "40222"}}},
{"geometry": {"type": "Point", "coordinates": [-85.6093355007, 38.2596238484]}, "type": "Feature", "properties": {"collection_times": [{"days": "Mon-Fri", "time": "1:00pm"}, {"days": "Sat-Sun", "time": "Closed"}], "id": "4022200097", "name": "USPS COLLECTION BOX - BLUE BOX", "address": {"city": "LOUISVILLE", "state": "KY", "street": "8012 VINE CREST AVE", "postcode": "40222"}}},
{"geometry": {"type": "Point", "coordinates": [-85.5796459356, 38.2404076847]}, "type": "Feature", "properties": {"collection_times": [{"days": "Mon-Fri", "time": "4:30pm"}, {"days": "Sat-Sun", "time": "Closed"}], "id": "4022200100", "name": "USPS COLLECTION BOX - BLUE BOX", "address": {"city": "LOUISVILLE", "state": "KY", "street": "9500 WILLIAMSBURG PLZ", "postcode": "40222"}}},
{"geometry": {"type": "Point", "coordinates": [-85.5796459356, 38.2404076847]}, "type": "Feature", "properties": {"collection_times": [{"days": "Mon-Fri", "time": "4:30pm"}, {"days": "Sat-Sun", "time": "Closed"}], "id": "4022200101", "name": "USPS COLLECTION BOX - BLUE BOX", "address": {"city": "LOUISVILLE", "state": "KY", "street": "9500 WILLIAMSBURG PLZ", "postcode": "40222"}}},
{"geometry": {"type": "Point", "coordinates": [-85.5826675165, 38.2468045909]}, "type": "Feature", "properties": {"collection_times": [{"days": "Mon-Fri", "time": "4:00pm"}, {"days": "Sat-Sun", "time": "Closed"}], "id": "4022200103", "name": "USPS COLLECTION BOX - BLUE BOX", "address": {"city": "LOUISVILLE", "state": "KY", "street": "9200 SHELBYVILLE RD", "postcode": "40222"}}},
{"geometry": {"type": "Point", "coordinates": [-85.6023301028, 38.2633639673]}, "type": "Feature", "properties": {"collection_times": [{"days": "Mon-Fri", "time": "5:00pm"}, {"days": "Sat", "time": "3:00pm"}, {"days": "Sun", "time": "Closed"}], "id": "4022200105", "name": "USPS COLLECTION BOX - APC", "address": {"city": "LOUISVILLE", "state": "KY", "street": "8127 LAGRANGE RD", "postcode": "40222"}}},
{"geometry": {"type": "Point", "coordinates": [-85.6072287507, 38.2624001916]}, "type": "Feature", "properties": {"collection_times": [{"days": "Mon-Fri", "time": "4:30pm"}, {"days": "Sat-Sun", "time": "Closed"}], "id": "4022200115", "name": "USPS COLLECTION BOX - BLUE BOX", "address": {"city": "LOUISVILLE", "state": "KY", "street": "305 N HURSTBOURNE PKWY", "postcode": "40222"}}},
{"geometry": {"type": "Point", "coordinates": [-85.5737904194, 38.2255166431]}, "type": "Feature", "properties": {"collection_times": [{"days": "Mon-Fri", "time": "1:30pm"}, {"days": "Sat", "time": "12:30pm"}, {"days": "Sun", "time": "Closed"}], "id": "4022300004", "name": "USPS COLLECTION BOX - BLUE BOX", "address": {"city": "LOUISVILLE", "state": "KY", "street": "9900 LINN STATION RD", "postcode": "40223"}}},
{"geometry": {"type": "Point", "coordinates": [-85.5737904194, 38.2255166431]}, "type": "Feature", "properties": {"collection_times": [{"days": "Mon-Fri", "time": "1:30pm"}, {"days": "Sat", "time": "12:30pm"}, {"days": "Sun", "time": "Closed"}], "id": "4022300005", "name": "USPS COLLECTION BOX - BLUE BOX", "address": {"city": "LOUISVILLE", "state": "KY", "street": "9900 LINN STATION RD", "postcode": "40223"}}},
{"geometry": {"type": "Point", "coordinates": [-85.569795649, 38.2244050244]}, "type": "Feature", "properties": {"collection_times": [{"days": "Mon-Fri", "time": "2:15pm"}, {"days": "Sat-Sun", "time": "Closed"}], "id": "4022300013", "name": "USPS COLLECTION BOX - BLUE BOX", "address": {"city": "LOUISVILLE", "state": "KY", "street": "10101 LINN STATION RD", "postcode": "40223"}}},
{"geometry": {"type": "Point", "coordinates": [-85.5676803825, 38.224443517]}, "type": "Feature", "properties": {"collection_times": [{"days": "Mon-Fri", "time": "2:15pm"}, {"days": "Sat-Sun", "time": "Closed"}], "id": "4022300020", "name": "USPS COLLECTION BOX - BLUE BOX", "address": {"city": "LOUISVILLE", "state": "KY", "street": "10200 LINN STATION RD", "postcode": "40223"}}},
{"geometry": {"type": "Point", "coordinates": [-85.5436647259, 38.2614270614]}, "type": "Feature", "properties": {"collection_times": [{"days": "Mon-Fri", "time": "12:00pm"}, {"days": "Sat-Sun", "time": "Closed"}], "id": "4022300031", "name": "USPS COLLECTION BOX - BLUE BOX", "address": {"city": "LOUISVILLE", "state": "KY", "street": "13005 MDDLTWN IND BLVD", "postcode": "40223"}}},
{"geometry": {"type": "Point", "coordinates": [-85.5409233447, 38.2656286425]}, "type": "Feature", "properties": {"collection_times": [{"days": "Mon-Fri", "time": "4:00pm"}, {"days": "Sat", "time": "1:30pm"}, {"days": "Sun", "time": "Closed"}], "id": "4022300035", "name": "USPS COLLECTION BOX - BLUE BOX", "address": {"city": "LOUISVILLE", "state": "KY", "street": "11501 PARK RD", "postcode": "40223"}}},
{"geometry": {"type": "Point", "coordinates": [-85.5697941436, 38.2458048113]}, "type": "Feature", "properties": {"collection_times": [{"days": "Mon-Fri", "time": "3:00pm"}, {"days": "Sat-Sun", "time": "Closed"}], "id": "4022300040", "name": "USPS COLLECTION BOX - BLUE BOX", "address": {"city": "LOUISVILLE", "state": "KY", "street": "10000 SHELBYVILLE RD", "postcode": "40223"}}},
{"geometry": {"type": "Point", "coordinates": [-85.5711844459, 38.2459065102]}, "type": "Feature", "properties": {"collection_times": [{"days": "Mon-Fri", "time": "3:00pm"}, {"days": "Sat", "time": "2:00pm"}, {"days": "Sun", "time": "Closed"}], "id": "4022300053", "name": "USPS COLLECTION BOX - BLUE BOX", "address": {"city": "LOUISVILLE", "state": "KY", "street": "9900 SHELBYVILLE RD", "postcode": "40223"}}},
{"geometry": {"type": "Point", "coordinates": [-85.5407600308, 38.265543409]}, "type": "Feature", "properties": {"collection_times": [{"days": "Mon-Fri", "time": "2:00pm"}, {"days": "Sat-Sun", "time": "Closed"}], "id": "4022300055", "name": "USPS COLLECTION BOX - PO LOBBY", "address": {"city": "LOUISVILLE", "state": "KY", "street": "11501 PARK RD", "postcode": "40223"}}},
{"geometry": {"type": "Point", "coordinates": [-85.5677790049, 38.2664242806]}, "type": "Feature", "properties": {"collection_times": [{"days": "Mon-Fri", "time": "1:30pm"}, {"days": "Sat-Sun", "time": "Closed"}], "id": "4022300063", "name": "USPS COLLECTION BOX - BLUE BOX", "address": {"city": "LOUISVILLE", "state": "KY", "street": "9900 CORPORATE CAMPUS DR", "postcode": "40223"}}},
{"geometry": {"type": "Point", "coordinates": [-85.5677790049, 38.2664242806]}, "type": "Feature", "properties": {"collection_times": [{"days": "Mon-Fri", "time": "1:30pm"}, {"days": "Sat-Sun", "time": "Closed"}], "id": "4022300064", "name": "USPS COLLECTION BOX - BLUE BOX", "address": {"city": "LOUISVILLE", "state": "KY", "street": "9900 CORPORATE CAMPUS DR", "postcode": "40223"}}},
{"geometry": {"type": "Point", "coordinates": [-85.5690937776, 38.2707233775]}, "type": "Feature", "properties": {"collection_times": [{"days": "Mon-Fri", "time": "1:30pm"}, {"days": "Sat-Sun", "time": "Closed"}], "id": "4022300068", "name": "USPS COLLECTION BOX - BLUE BOX", "address": {"city": "LOUISVILLE", "state": "KY", "street": "1700 UPS DR", "postcode": "40223"}}},
{"geometry": {"type": "Point", "coordinates": [-85.5677512446, 38.2665431057]}, "type": "Feature", "properties": {"collection_times": [{"days": "Mon-Fri", "time": "1:30pm"}, {"days": "Sat-Sun", "time": "Closed"}], "id": "4022300070", "name": "USPS COLLECTION BOX - BLUE BOX", "address": {"city": "LOUISVILLE", "state": "KY", "street": "9931 CORPORATE CAMPUS DR", "postcode": "40223"}}},
{"geometry": {"type": "Point", "coordinates": [-85.5676538856, 38.2664495572]}, "type": "Feature", "properties": {"collection_times": [{"days": "Mon-Fri", "time": "1:30pm"}, {"days": "Sat-Sun", "time": "Closed"}], "id": "4022300072", "name": "USPS COLLECTION BOX - BLUE BOX", "address": {"city": "LOUISVILLE", "state": "KY", "street": "9960 CORPORATE CAMPUS DR", "postcode": "40223"}}},
{"geometry": {"type": "Point", "coordinates": [-85.5719350587, 38.2683915746]}, "type": "Feature", "properties": {"collection_times": [{"days": "Mon-Fri", "time": "2:00pm"}, {"days": "Sat-Sun", "time": "Closed"}], "id": "4022300077", "name": "USPS COLLECTION BOX - BLUE BOX", "address": {"city": "LOUISVILLE", "state": "KY", "street": "1650 LYNDON FARM CT", "postcode": "40223"}}},
{"geometry": {"type": "Point", "coordinates": [-85.5102971386, 38.280708769]}, "type": "Feature", "properties": {"collection_times": [{"days": "Mon-Fri", "time": "3:00pm"}, {"days": "Sat-Sun", "time": "Closed"}], "id": "4022300080", "name": "USPS COLLECTION BOX - BLUE BOX", "address": {"city": "LOUISVILLE", "state": "KY", "street": "13425 EASTPOINT CENTRE DR", "postcode": "40223"}}},
{"geometry": {"type": "Point", "coordinates": [-85.5749318545, 38.2657737367]}, "type": "Feature", "properties": {"collection_times": [{"days": "Mon-Fri", "time": "1:30pm"}, {"days": "Sat-Sun", "time": "Closed"}], "id": "4022300082", "name": "USPS COLLECTION BOX - BLUE BOX", "address": {"city": "LOUISVILLE", "state": "KY", "street": "9780 ORMSBY STATION RD", "postcode": "40223"}}},
{"geometry": {"type": "Point", "coordinates": [-85.5609410599, 38.2451380316]}, "type": "Feature", "properties": {"collection_times": [{"days": "Mon-Fri", "time": "3:00pm"}, {"days": "Sat", "time": "2:00pm"}, {"days": "Sun", "time": "Closed"}], "id": "4022300085", "name": "USPS COLLECTION BOX - BLUE BOX", "address": {"city": "LOUISVILLE", "state": "KY", "street": "10430 SHELBYVILLE RD", "postcode": "40223"}}},
{"geometry": {"type": "Point", "coordinates": [-85.5455852521, 38.2398779207]}, "type": "Feature", "properties": {"collection_times": [{"days": "Mon-Fri", "time": "1:00pm"}, {"days": "Sat-Sun", "time": "Closed"}], "id": "4022300086", "name": "USPS COLLECTION BOX - BLUE BOX", "address": {"city": "LOUISVILLE", "state": "KY", "street": "400 BLANKENBAKER PKWY", "postcode": "40223"}}},
{"geometry": {"type": "Point", "coordinates": [-85.5739595349, 38.2340717591]}, "type": "Feature", "properties": {"collection_times": [{"days": "Mon-Fri", "time": "2:15pm"}, {"days": "Sat-Sun", "time": "Closed"}], "id": "4022300093", "name": "USPS COLLECTION BOX - BLUE BOX", "address": {"city": "LOUISVILLE", "state": "KY", "street": "10600 TIMBERWOOD CIR", "postcode": "40223"}}},
{"geometry": {"type": "Point", "coordinates": [-85.5763665929, 38.2369667032]}, "type": "Feature", "properties": {"collection_times": [{"days": "Mon-Fri", "time": "2:15pm"}, {"days": "Sat", "time": "12:30pm"}, {"days": "Sun", "time": "Closed"}], "id": "4022300094", "name": "USPS COLLECTION BOX - BLUE BOX", "address": {"city": "LOUISVILLE", "state": "KY", "street": "804 STONE CREEK PKWY", "postcode": "40223"}}},
{"geometry": {"type": "Point", "coordinates": [-85.5741631927, 38.2677373106]}, "type": "Feature", "properties": {"collection_times": [{"days": "Mon-Fri", "time": "2:00pm"}, {"days": "Sat-Sun", "time": "Closed"}], "id": "4022300095", "name": "USPS COLLECTION BOX - BLUE BOX", "address": {"city": "LOUISVILLE", "state": "KY", "street": "1552 ORMSBY STATION CT", "postcode": "40223"}}},
{"geometry": {"type": "Point", "coordinates": [-85.5038398086, 38.2794579865]}, "type": "Feature", "properties": {"collection_times": [{"days": "Mon-Fri", "time": "11:00am"}, {"days": "Sat-Sun", "time": "Closed"}], "id": "4022300097", "name": "USPS COLLECTION BOX - BLUE BOX", "address": {"city": "LOUISVILLE", "state": "KY", "street": "13551 TRITON PARK BLVD", "postcode": "40223"}}},
{"geometry": {"type": "Point", "coordinates": [-85.5102971386, 38.280708769]}, "type": "Feature", "properties": {"collection_times": [{"days": "Mon-Fri", "time": "3:00pm"}, {"days": "Sat-Sun", "time": "Closed"}], "id": "4022300099", "name": "USPS COLLECTION BOX - BLUE BOX", "address": {"city": "LOUISVILLE", "state": "KY", "street": "13425 EASTPOINT CENTRE DR", "postcode": "40223"}}},
{"geometry": {"type": "Point", "coordinates": [-85.5681408919, 38.2647114428]}, "type": "Feature", "properties": {"collection_times": [{"days": "Mon-Fri", "time": "2:00pm"}, {"days": "Sat-Sun", "time": "Closed"}], "id": "4022300104", "name": "USPS COLLECTION BOX - BLUE BOX", "address": {"city": "LOUISVILLE", "state": "KY", "street": "9500 ORMSBY STATION RD", "postcode": "40223"}}},
{"geometry": {"type": "Point", "coordinates": [-85.5682798078, 38.2636713406]}, "type": "Feature", "properties": {"collection_times": [{"days": "Mon-Fri", "time": "1:00pm"}, {"days": "Sat-Sun", "time": "Closed"}], "id": "4022300105", "name": "USPS COLLECTION BOX - BLUE BOX", "address": {"city": "LOUISVILLE", "state": "KY", "street": "10300 ORMSBY PARK PL", "postcode": "40223"}}},
{"geometry": {"type": "Point", "coordinates": [-85.5088217829, 38.2682816957]}, "type": "Feature", "properties": {"collection_times": [{"days": "Mon-Fri", "time": "3:00pm"}, {"days": "Sat-Sun", "time": "Closed"}], "id": "4022300107", "name": "USPS COLLECTION BOX - BLUE BOX", "address": {"city": "LOUISVILLE", "state": "KY", "street": "13205 MAGISTERIAL DR", "postcode": "40223"}}},
{"geometry": {"type": "Point", "coordinates": [-85.569795649, 38.2244050244]}, "type": "Feature", "properties": {"collection_times": [{"days": "Mon-Fri", "time": "2:15pm"}, {"days": "Sat-Sun", "time": "Closed"}], "id": "4022300112", "name": "USPS COLLECTION BOX - BLUE BOX", "address": {"city": "LOUISVILLE", "state": "KY", "street": "10101 LINN STATION RD", "postcode": "40223"}}},
{"geometry": {"type": "Point", "coordinates": [-85.6251875938, 38.1436992589]}, "type": "Feature", "properties": {"collection_times": [{"days": "Mon-Fri", "time": "10:30am"}, {"days": "Sat", "time": "2:00pm"}, {"days": "Sun", "time": "Closed"}], "id": "4022800001", "name": "USPS COLLECTION BOX - BLUE BOX", "address": {"city": "LOUISVILLE", "state": "KY", "street": "7306 FEGENBUSH LN", "postcode": "40228"}}},
{"geometry": {"type": "Point", "coordinates": [-85.627218914, 38.1373183583]}, "type": "Feature", "properties": {"collection_times": [{"days": "Mon-Fri", "time": "4:30pm"}, {"days": "Sat", "time": "2:00pm"}, {"days": "Sun", "time": "Closed"}], "id": "4022800005", "name": "USPS COLLECTION BOX - BLUE BOX", "address": {"city": "LOUISVILLE", "state": "KY", "street": "7201 OUTER LOOP", "postcode": "40228"}}},
{"geometry": {"type": "Point", "coordinates": [-85.6895827021, 38.1139267297]}, "type": "Feature", "properties": {"collection_times": [{"days": "Mon-Fri", "time": "12:00pm"}, {"days": "Sat", "time": "12:30pm"}, {"days": "Sun", "time": "Closed"}], "id": "4022900001", "name": "USPS COLLECTION BOX - BLUE BOX", "address": {"city": "LOUISVILLE", "state": "KY", "street": "9316 BLUE LICK RD", "postcode": "40229"}}},
{"geometry": {"type": "Point", "coordinates": [-85.6454612943, 38.1111080229]}, "type": "Feature", "properties": {"collection_times": [{"days": "Mon-Fri", "time": "12:30pm"}, {"days": "Sat-Sun", "time": "Closed"}], "id": "4022900002", "name": "USPS COLLECTION BOX - BLUE BOX", "address": {"city": "LOUISVILLE", "state": "KY", "street": "9415 SMYRNA PKWY", "postcode": "40229"}}},
{"geometry": {"type": "Point", "coordinates": [-85.6874650082, 38.077885516]}, "type": "Feature", "properties": {"collection_times": [{"days": "Mon-Fri", "time": "12:30pm"}, {"days": "Sat", "time": "12:45pm"}, {"days": "Sun", "time": "Closed"}], "id": "4022900003", "name": "USPS COLLECTION BOX - BLUE BOX", "address": {"city": "LOUISVILLE", "state": "KY", "street": "1191 HILLVIEW BLVD", "postcode": "40229"}}},
{"geometry": {"type": "Point", "coordinates": [-85.6520507313, 38.100158017]}, "type": "Feature", "properties": {"collection_times": [{"days": "Mon-Fri", "time": "12:30pm"}, {"days": "Sat", "time": "12:45pm"}, {"days": "Sun", "time": "Closed"}], "id": "4022900012", "name": "USPS COLLECTION BOX - BLUE BOX", "address": {"city": "LOUISVILLE", "state": "KY", "street": "11901 STANFORD PLZ", "postcode": "40229"}}},
{"geometry": {"type": "Point", "coordinates": [-85.6797485725, 38.1032720586]}, "type": "Feature", "properties": {"collection_times": [{"days": "Mon-Fri", "time": "1:00pm"}, {"days": "Sat-Sun", "time": "Closed"}], "id": "4022900016", "name": "USPS COLLECTION BOX - BLUE BOX", "address": {"city": "LOUISVILLE", "state": "KY", "street": "5111 COMMERCE CROSSINGS DR", "postcode": "40229"}}},
{"geometry": {"type": "Point", "coordinates": [-85.6677450546, 38.080286341]}, "type": "Feature", "properties": {"collection_times": [{"days": "Mon-Fri", "time": "12:30pm"}, {"days": "Sat", "time": "12:45pm"}, {"days": "Sun", "time": "Closed"}], "id": "4022900021", "name": "USPS COLLECTION BOX - BLUE BOX", "address": {"city": "LOUISVILLE", "state": "KY", "street": "1679 OLD PRESTON HWY N", "postcode": "40229"}}},
{"geometry": {"type": "Point", "coordinates": [-85.6970252512, 38.1969137122]}, "type": "Feature", "properties": {"collection_times": [{"days": "Mon-Sat", "time": "7:00pm"}, {"days": "Sun", "time": "Closed"}], "id": "4023200001", "name": "USPS COLLECTION BOX - APC", "address": {"city": "LOUISVILLE", "state": "KY", "street": "1420 GARDINER LN", "postcode": "40232"}}},
{"geometry": {"type": "Point", "coordinates": [-85.6970252512, 38.1969137122]}, "type": "Feature", "properties": {"collection_times": [{"days": "Mon-Sat", "time": "8:00pm"}, {"days": "Sun", "time": "Closed"}], "id": "4023200003", "name": "USPS COLLECTION BOX - BLUE BOX", "address": {"city": "LOUISVILLE", "state": "KY", "street": "1420 GARDINER LN", "postcode": "40232"}}},
{"geometry": {"type": "Point", "coordinates": [-85.6970252512, 38.1969137122]}, "type": "Feature", "properties": {"collection_times": [{"days": "Mon-Sat", "time": "8:00pm"}, {"days": "Sun", "time": "Closed"}], "id": "4023200004", "name": "USPS COLLECTION BOX - BLUE BOX", "address": {"city": "LOUISVILLE", "state": "KY", "street": "1420 GARDINER LN", "postcode": "40232"}}},
{"geometry": {"type": "Point", "coordinates": [-85.6970252512, 38.1969137122]}, "type": "Feature", "properties": {"collection_times": [{"days": "Mon-Sat", "time": "7:00pm"}, {"days": "Sun", "time": "Closed"}], "id": "4023200005", "name": "USPS COLLECTION BOX - BLUE BOX", "address": {"city": "LOUISVILLE", "state": "KY", "street": "1420 GARDINER LN", "postcode": "40232"}}},
{"geometry": {"type": "Point", "coordinates": [-85.6970252512, 38.1969137122]}, "type": "Feature", "properties": {"collection_times": [{"days": "Mon-Sat", "time": "7:00pm"}, {"days": "Sun", "time": "Closed"}], "id": "4023200006", "name": "USPS COLLECTION BOX - PO LOBBY", "address": {"city": "LOUISVILLE", "state": "KY", "street": "1420 GARDINER LN", "postcode": "40232"}}},
{"geometry": {"type": "Point", "coordinates": [-85.6970252512, 38.1969137122]}, "type": "Feature", "properties": {"collection_times": [{"days": "Mon-Sat", "time": "7:00pm"}, {"days": "Sun", "time": "Closed"}], "id": "4023200007", "name": "USPS COLLECTION BOX - PO LOBBY", "address": {"city": "LOUISVILLE", "state": "KY", "street": "1420 GARDINER LN", "postcode": "40232"}}},
{"geometry": {"type": "Point", "coordinates": [-85.5528324962, 38.303033003]}, "type": "Feature", "properties": {"collection_times": [{"days": "Mon-Fri", "time": "2:00pm"}, {"days": "Sat-Sun", "time": "Closed"}], "id": "4024100002", "name": "USPS COLLECTION BOX - BLUE BOX", "address": {"city": "LOUISVILLE", "state": "KY", "street": "3600 CHAMBERLAIN LN", "postcode": "40241"}}},
{"geometry": {"type": "Point", "coordinates": [-85.5742308105, 38.2868867469]}, "type": "Feature", "properties": {"collection_times": [{"days": "Mon-Fri", "time": "1:00pm"}, {"days": "Sat", "time": "2:00pm"}, {"days": "Sun", "time": "Closed"}], "id": "4024100008", "name": "USPS COLLECTION BOX - BLUE BOX", "address": {"city": "LOUISVILLE", "state": "KY", "street": "9501 WESTPORT RD", "postcode": "40241"}}},
{"geometry": {"type": "Point", "coordinates": [-85.5742308105, 38.2868867469]}, "type": "Feature", "properties": {"collection_times": [{"days": "Mon-Fri", "time": "1:00pm"}, {"days": "Sat", "time": "2:00pm"}, {"days": "Sun", "time": "Closed"}], "id": "4024100009", "name": "USPS COLLECTION BOX - BLUE BOX", "address": {"city": "LOUISVILLE", "state": "KY", "street": "9501 WESTPORT RD", "postcode": "40241"}}},
{"geometry": {"type": "Point", "coordinates": [-85.5742308105, 38.2868867469]}, "type": "Feature", "properties": {"collection_times": [{"days": "Mon-Fri", "time": "1:00pm"}, {"days": "Sat", "time": "2:00pm"}, {"days": "Sun", "time": "Closed"}], "id": "4024100010", "name": "USPS COLLECTION BOX - BLUE BOX", "address": {"city": "LOUISVILLE", "state": "KY", "street": "9501 WESTPORT RD", "postcode": "40241"}}},
{"geometry": {"type": "Point", "coordinates": [-85.5763574866, 38.3034040085]}, "type": "Feature", "properties": {"collection_times": [{"days": "Mon-Fri", "time": "1:30pm"}, {"days": "Sat", "time": "3:00pm"}, {"days": "Sun", "time": "Closed"}], "id": "4024100013", "name": "USPS COLLECTION BOX - BLUE BOX", "address": {"city": "LOUISVILLE", "state": "KY", "street": "9486 BROWNSBORO RD", "postcode": "40241"}}},
{"geometry": {"type": "Point", "coordinates": [-85.5531993129, 38.2963877806]}, "type": "Feature", "properties": {"collection_times": [{"days": "Mon-Fri", "time": "9:30am"}, {"days": "Sat-Sun", "time": "Closed"}], "id": "4024100016", "name": "USPS COLLECTION BOX - BLUE BOX", "address": {"city": "LOUISVILLE", "state": "KY", "street": "4101 TOWNE CENTER DR", "postcode": "40241"}}},
{"geometry": {"type": "Point", "coordinates": [-85.5821782294, 38.3117069633]}, "type": "Feature", "properties": {"collection_times": [{"days": "Mon-Fri", "time": "3:30pm"}, {"days": "Sat-Sun", "time": "Closed"}], "id": "4024100020", "name": "USPS COLLECTION BOX - BLUE BOX", "address": {"city": "LOUISVILLE", "state": "KY", "street": "4801 OLYMPIA PARK PLZ", "postcode": "40241"}}},
{"geometry": {"type": "Point", "coordinates": [-85.5788845655, 38.3044555356]}, "type": "Feature", "properties": {"collection_times": [{"days": "Mon-Sat", "time": "9:30am"}, {"days": "Sun", "time": "Closed"}], "id": "4024100025", "name": "USPS COLLECTION BOX - BLUE BOX", "address": {"city": "LOUISVILLE", "state": "KY", "street": "9700 PARK PLAZA AVE", "postcode": "40241"}}},
{"geometry": {"type": "Point", "coordinates": [-85.5813947118, 38.2845247454]}, "type": "Feature", "properties": {"collection_times": [{"days": "Mon-Fri", "time": "1:00pm"}, {"days": "Sat", "time": "2:00pm"}, {"days": "Sun", "time": "Closed"}], "id": "4024200006", "name": "USPS COLLECTION BOX - BLUE BOX", "address": {"city": "LOUISVILLE", "state": "KY", "street": "9212 WESTPORT RD", "postcode": "40242"}}},
{"geometry": {"type": "Point", "coordinates": [-85.5781791339, 38.2689916597]}, "type": "Feature", "properties": {"collection_times": [{"days": "Mon-Fri", "time": "1:00pm"}, {"days": "Sat-Sun", "time": "Closed"}], "id": "4024200008", "name": "USPS COLLECTION BOX - BLUE BOX", "address": {"city": "LOUISVILLE", "state": "KY", "street": "9615 WHIPPS MILL RD", "postcode": "40242"}}},
{"geometry": {"type": "Point", "coordinates": [-85.5297619366, 38.2448437303]}, "type": "Feature", "properties": {"collection_times": [{"days": "Mon-Fri", "time": "6:00pm"}, {"days": "Sat", "time": "3:00pm"}, {"days": "Sun", "time": "Closed"}], "id": "4024300002", "name": "USPS COLLECTION BOX - BLUE BOX", "address": {"city": "LOUISVILLE", "state": "KY", "street": "119 EVERGREEN RD", "postcode": "40243"}}},
{"geometry": {"type": "Point", "coordinates": [-85.5236896304, 38.2450702089]}, "type": "Feature", "properties": {"collection_times": [{"days": "Mon-Fri", "time": "4:00pm"}, {"days": "Sat-Sun", "time": "Closed"}], "id": "4024300015", "name": "USPS COLLECTION BOX - BLUE BOX", "address": {"city": "LOUISVILLE", "state": "KY", "street": "12535 SHELBYVILLE RD", "postcode": "40243"}}},
{"geometry": {"type": "Point", "coordinates": [-85.5204689772, 38.2436901253]}, "type": "Feature", "properties": {"collection_times": [{"days": "Mon-Fri", "time": "4:00pm"}, {"days": "Sat-Sun", "time": "Closed"}], "id": "4024300017", "name": "USPS COLLECTION BOX - BLUE BOX", "address": {"city": "LOUISVILLE", "state": "KY", "street": "12700 SHELBYVILLE RD", "postcode": "40243"}}},
{"geometry": {"type": "Point", "coordinates": [-85.5204689772, 38.2436901253]}, "type": "Feature", "properties": {"collection_times": [{"days": "Mon-Fri", "time": "4:00pm"}, {"days": "Sat-Sun", "time": "Closed"}], "id": "4024300018", "name": "USPS COLLECTION BOX - BLUE BOX", "address": {"city": "LOUISVILLE", "state": "KY", "street": "12700 SHELBYVILLE RD", "postcode": "40243"}}},
{"geometry": {"type": "Point", "coordinates": [-85.5167535876, 38.2432723116]}, "type": "Feature", "properties": {"collection_times": [{"days": "Mon-Fri", "time": "4:00pm"}, {"days": "Sat-Sun", "time": "Closed"}], "id": "4024300019", "name": "USPS COLLECTION BOX - BLUE BOX", "address": {"city": "LOUISVILLE", "state": "KY", "street": "12910 SHELBYVILLE RD", "postcode": "40243"}}},
{"geometry": {"type": "Point", "coordinates": [-85.5297619366, 38.2448437303]}, "type": "Feature", "properties": {"collection_times": [{"days": "Mon-Fri", "time": "6:00pm"}, {"days": "Sat", "time": "3:00pm"}, {"days": "Sun", "time": "Closed"}], "id": "4024300025", "name": "USPS COLLECTION BOX - PO LOBBY", "address": {"city": "LOUISVILLE", "state": "KY", "street": "119 EVERGREEN RD", "postcode": "40243"}}},
{"geometry": {"type": "Point", "coordinates": [-85.5297619366, 38.2448437303]}, "type": "Feature", "properties": {"collection_times": [{"days": "Mon-Fri", "time": "6:00pm"}, {"days": "Sat", "time": "3:00pm"}, {"days": "Sun", "time": "Closed"}], "id": "4024300027", "name": "USPS COLLECTION BOX - BLUE BOX", "address": {"city": "LOUISVILLE", "state": "KY", "street": "119 EVERGREEN RD", "postcode": "40243"}}},
{"geometry": {"type": "Point", "coordinates": [-85.540639153, 38.231162543]}, "type": "Feature", "properties": {"collection_times": [{"days": "Mon-Fri", "time": "1:00pm"}, {"days": "Sat-Sun", "time": "Closed"}], "id": "4024300033", "name": "USPS COLLECTION BOX - BLUE BOX", "address": {"city": "LOUISVILLE", "state": "KY", "street": "913 LILY CREEK RD", "postcode": "40243"}}},
{"geometry": {"type": "Point", "coordinates": [-85.5307304947, 38.2419021517]}, "type": "Feature", "properties": {"collection_times": [{"days": "Mon-Fri", "time": "3:30pm"}, {"days": "Sat-Sun", "time": "Closed"}], "id": "4024300034", "name": "USPS COLLECTION BOX - BLUE BOX", "address": {"city": "LOUISVILLE", "state": "KY", "street": "320 S EVERGREEN RD", "postcode": "40243"}}},
{"geometry": {"type": "Point", "coordinates": [-85.5297619366, 38.2448437303]}, "type": "Feature", "properties": {"collection_times": [{"days": "Mon-Fri", "time": "6:00pm"}, {"days": "Sat", "time": "3:00pm"}, {"days": "Sun", "time": "Closed"}], "id": "4024300037", "name": "USPS COLLECTION BOX - APC", "address": {"city": "LOUISVILLE", "state": "KY", "street": "119 EVERGREEN RD", "postcode": "40243"}}},
{"geometry": {"type": "Point", "coordinates": [-85.5323401946, 38.3021518377]}, "type": "Feature", "properties": {"collection_times": [{"days": "Mon-Fri", "time": "10:00am"}, {"days": "Sat-Sun", "time": "Closed"}], "id": "4024500003", "name": "USPS COLLECTION BOX - BLUE BOX", "address": {"city": "LOUISVILLE", "state": "KY", "street": "11701 WESTPORT RD", "postcode": "40245"}}},
{"geometry": {"type": "Point", "coordinates": [-85.4977924899, 38.2416235859]}, "type": "Feature", "properties": {"collection_times": [{"days": "Mon-Fri", "time": "2:00pm"}, {"days": "Sat-Sun", "time": "Closed"}], "id": "4024500004", "name": "USPS COLLECTION BOX - BLUE BOX", "address": {"city": "LOUISVILLE", "state": "KY", "street": "14041 SHELBYVILLE RD", "postcode": "40245"}}},
{"geometry": {"type": "Point", "coordinates": [-85.5106374645, 38.2914109948]}, "type": "Feature", "properties": {"collection_times": [{"days": "Mon-Fri", "time": "2:00pm"}, {"days": "Sat-Sun", "time": "Closed"}], "id": "4024500006", "name": "USPS COLLECTION BOX - BLUE BOX", "address": {"city": "LOUISVILLE", "state": "KY", "street": "12450 LA GRANGE RD", "postcode": "40245"}}},
{"geometry": {"type": "Point", "coordinates": [-85.8364108101, 38.1517809716]}, "type": "Feature", "properties": {"collection_times": [{"days": "Mon-Fri", "time": "3:30pm"}, {"days": "Sat", "time": "1:30pm"}, {"days": "Sun", "time": "Closed"}], "id": "4025800002", "name": "USPS COLLECTION BOX - BLUE BOX", "address": {"city": "LOUISVILLE", "state": "KY", "street": "6801 DIXIE HWY", "postcode": "40258"}}},
{"geometry": {"type": "Point", "coordinates": [-85.8817371114, 38.161174391]}, "type": "Feature", "properties": {"collection_times": [{"days": "Mon-Fri", "time": "3:00pm"}, {"days": "Sat-Sun", "time": "Closed"}], "id": "4025800011", "name": "USPS COLLECTION BOX - BLUE BOX", "address": {"city": "LOUISVILLE", "state": "KY", "street": "6900 RIVERPORT DR", "postcode": "40258"}}},
{"geometry": {"type": "Point", "coordinates": [-85.8386138409, 38.1433966148]}, "type": "Feature", "properties": {"collection_times": [{"days": "Mon-Fri", "time": "3:30pm"}, {"days": "Sat", "time": "2:00pm"}, {"days": "Sun", "time": "Closed"}], "id": "4025800016", "name": "USPS COLLECTION BOX - BLUE BOX", "address": {"city": "LOUISVILLE", "state": "KY", "street": "8409 SAINT ANDREWS CHURCH RD", "postcode": "40258"}}},
{"geometry": {"type": "Point", "coordinates": [-85.8742007134, 38.1309120654]}, "type": "Feature", "properties": {"collection_times": [{"days": "Mon-Fri", "time": "1:30pm"}, {"days": "Sat-Sun", "time": "Closed"}], "id": "4025800019", "name": "USPS COLLECTION BOX - BLUE BOX", "address": {"city": "LOUISVILLE", "state": "KY", "street": "8505 TERRY RD", "postcode": "40258"}}},
{"geometry": {"type": "Point", "coordinates": [-85.8364108101, 38.1517809716]}, "type": "Feature", "properties": {"collection_times": [{"days": "Mon-Fri", "time": "3:30pm"}, {"days": "Sat-Sun", "time": "Closed"}], "id": "4025800025", "name": "USPS COLLECTION BOX - BLUE BOX", "address": {"city": "LOUISVILLE", "state": "KY", "street": "6801 DIXIE HWY", "postcode": "40258"}}},
{"geometry": {"type": "Point", "coordinates": [-85.8656558647, 38.1445960828]}, "type": "Feature", "properties": {"collection_times": [{"days": "Mon-Fri", "time": "5:00pm"}, {"days": "Sat", "time": "1:00pm"}, {"days": "Sun", "time": "Closed"}], "id": "4025800030", "name": "USPS COLLECTION BOX - PO LOBBY", "address": {"city": "LOUISVILLE", "state": "KY", "street": "6121 GREENWOOD RD", "postcode": "40258"}}},
{"geometry": {"type": "Point", "coordinates": [-85.8656558647, 38.1445960828]}, "type": "Feature", "properties": {"collection_times": [{"days": "Mon-Fri", "time": "5:00pm"}, {"days": "Sat", "time": "1:00pm"}, {"days": "Sun", "time": "Closed"}], "id": "4025800031", "name": "USPS COLLECTION BOX - BLUE BOX", "address": {"city": "LOUISVILLE", "state": "KY", "street": "6121 GREENWOOD RD", "postcode": "40258"}}},
{"geometry": {"type": "Point", "coordinates": [-85.8656558647, 38.1445960828]}, "type": "Feature", "properties": {"collection_times": [{"days": "Mon-Fri", "time": "5:00pm"}, {"days": "Sat", "time": "1:00pm"}, {"days": "Sun", "time": "Closed"}], "id": "4025800032", "name": "USPS COLLECTION BOX - BLUE BOX", "address": {"city": "LOUISVILLE", "state": "KY", "street": "6121 GREENWOOD RD", "postcode": "40258"}}},
{"geometry": {"type": "Point", "coordinates": [-85.8372491085, 38.1125389178]}, "type": "Feature", "properties": {"collection_times": [{"days": "Mon-Fri", "time": "1:30pm"}, {"days": "Sat", "time": "2:00pm"}, {"days": "Sun", "time": "Closed"}], "id": "4027200003", "name": "USPS COLLECTION BOX - BLUE BOX", "address": {"city": "LOUISVILLE", "state": "KY", "street": "9835 3RD STREET RD", "postcode": "40272"}}},
{"geometry": {"type": "Point", "coordinates": [-85.8712746097, 38.1003153836]}, "type": "Feature", "properties": {"collection_times": [{"days": "Mon-Fri", "time": "1:45pm"}, {"days": "Sat", "time": "2:00pm"}, {"days": "Sun", "time": "Closed"}], "id": "4027200027", "name": "USPS COLLECTION BOX - BLUE BOX", "address": {"city": "LOUISVILLE", "state": "KY", "street": "10526 DIXIE HWY", "postcode": "40272"}}},
{"geometry": {"type": "Point", "coordinates": [-85.6039760547, 38.1680659652]}, "type": "Feature", "properties": {"collection_times": [{"days": "Mon-Fri", "time": "3:15pm"}, {"days": "Sat", "time": "1:30pm"}, {"days": "Sun", "time": "Closed"}], "id": "4029100001", "name": "USPS COLLECTION BOX - BLUE BOX", "address": {"city": "LOUISVILLE", "state": "KY", "street": "5340 BARDSTOWN RD", "postcode": "40291"}}},
{"geometry": {"type": "Point", "coordinates": [-85.5890721206, 38.1539805893]}, "type": "Feature", "properties": {"collection_times": [{"days": "Mon-Fri", "time": "3:15pm"}, {"days": "Sat", "time": "1:30pm"}, {"days": "Sun", "time": "Closed"}], "id": "4029100004", "name": "USPS COLLECTION BOX - BLUE BOX", "address": {"city": "LOUISVILLE", "state": "KY", "street": "6401 BARDSTOWN RD", "postcode": "40291"}}},
{"geometry": {"type": "Point", "coordinates": [-85.5861285904, 38.147254632]}, "type": "Feature", "properties": {"collection_times": [{"days": "Mon-Fri", "time": "3:30pm"}, {"days": "Sat", "time": "1:00pm"}, {"days": "Sun", "time": "Closed"}], "id": "4029100006", "name": "USPS COLLECTION BOX - BLUE BOX", "address": {"city": "LOUISVILLE", "state": "KY", "street": "6900 BARDSTOWN RD", "postcode": "40291"}}},
{"geometry": {"type": "Point", "coordinates": [-85.5924873107, 38.1538087784]}, "type": "Feature", "properties": {"collection_times": [{"days": "Mon-Fri", "time": "5:00pm"}, {"days": "Sat", "time": "1:00pm"}, {"days": "Sun", "time": "Closed"}], "id": "4029100008", "name": "USPS COLLECTION BOX - BLUE BOX", "address": {"city": "LOUISVILLE", "state": "KY", "street": "9100 FERN CREEK RD", "postcode": "40291"}}},
{"geometry": {"type": "Point", "coordinates": [-85.5924873107, 38.1538087784]}, "type": "Feature", "properties": {"collection_times": [{"days": "Mon-Fri", "time": "5:00pm"}, {"days": "Sat", "time": "1:00pm"}, {"days": "Sun", "time": "Closed"}], "id": "4029100013", "name": "USPS COLLECTION BOX - PO LOBBY", "address": {"city": "LOUISVILLE", "state": "KY", "street": "9100 FERN CREEK RD", "postcode": "40291"}}},
{"geometry": {"type": "Point", "coordinates": [-85.5923987539, 38.14651726]}, "type": "Feature", "properties": {"collection_times": [{"days": "Mon-Sat", "time": "9:00am"}, {"days": "Sun", "time": "Closed"}], "id": "4029100018", "name": "USPS COLLECTION BOX - BLUE BOX", "address": {"city": "LOUISVILLE", "state": "KY", "street": "7001 ALLSPICE CT", "postcode": "40291"}}},
{"geometry": {"type": "Point", "coordinates": [-85.5758275746, 38.1282152777]}, "type": "Feature", "properties": {"collection_times": [{"days": "Mon-Fri", "time": "3:45pm"}, {"days": "Sat", "time": "1:00pm"}, {"days": "Sun", "time": "Closed"}], "id": "4029100019", "name": "USPS COLLECTION BOX - BLUE BOX", "address": {"city": "LOUISVILLE", "state": "KY", "street": "8141 BARDSTOWN RD", "postcode": "40291"}}},
{"geometry": {"type": "Point", "coordinates": [-85.5689550001, 38.1901478738]}, "type": "Feature", "properties": {"collection_times": [{"days": "Mon-Fri", "time": "5:00pm"}, {"days": "Sat", "time": "3:00pm"}, {"days": "Sun", "time": "Closed"}], "id": "4029900004", "name": "USPS COLLECTION BOX - BLUE BOX", "address": {"city": "LOUISVILLE", "state": "KY", "street": "3801 BILLTOWN RD", "postcode": "40299"}}},
{"geometry": {"type": "Point", "coordinates": [-85.5536051588, 38.2212590649]}, "type": "Feature", "properties": {"collection_times": [{"days": "Mon-Fri", "time": "3:30pm"}, {"days": "Sat-Sun", "time": "Closed"}], "id": "4029900015", "name": "USPS COLLECTION BOX - BLUE BOX", "address": {"city": "LOUISVILLE", "state": "KY", "street": "11003 BLUEGRASS PKWY", "postcode": "40299"}}},
{"geometry": {"type": "Point", "coordinates": [-85.5723409322, 38.216552024]}, "type": "Feature", "properties": {"collection_times": [{"days": "Mon-Fri", "time": "1:30pm"}, {"days": "Sat", "time": "1:00pm"}, {"days": "Sun", "time": "Closed"}], "id": "4029900022", "name": "USPS COLLECTION BOX - BLUE BOX", "address": {"city": "LOUISVILLE", "state": "KY", "street": "9800 BUNSEN WAY", "postcode": "40299"}}},
{"geometry": {"type": "Point", "coordinates": [-85.5723409322, 38.216552024]}, "type": "Feature", "properties": {"collection_times": [{"days": "Mon-Fri", "time": "1:30pm"}, {"days": "Sat", "time": "1:00pm"}, {"days": "Sun", "time": "Closed"}], "id": "4029900025", "name": "USPS COLLECTION BOX - BLUE BOX", "address": {"city": "LOUISVILLE", "state": "KY", "street": "9800 BUNSEN WAY", "postcode": "40299"}}},
{"geometry": {"type": "Point", "coordinates": [-85.5767797853, 38.2152498858]}, "type": "Feature", "properties": {"collection_times": [{"days": "Mon-Fri", "time": "1:30pm"}, {"days": "Sat-Sun", "time": "Closed"}], "id": "4029900030", "name": "USPS COLLECTION BOX - BLUE BOX", "address": {"city": "LOUISVILLE", "state": "KY", "street": "1100 ENVOY CIR", "postcode": "40299"}}},
{"geometry": {"type": "Point", "coordinates": [-85.5625028891, 38.2090138449]}, "type": "Feature", "properties": {"collection_times": [{"days": "Mon-Sat", "time": "1:00pm"}, {"days": "Sun", "time": "Closed"}], "id": "4029900042", "name": "USPS COLLECTION BOX - BLUE BOX", "address": {"city": "LOUISVILLE", "state": "KY", "street": "2517 PLANTSIDE DR", "postcode": "40299"}}},
{"geometry": {"type": "Point", "coordinates": [-85.5675305387, 38.2222457273]}, "type": "Feature", "properties": {"collection_times": [{"days": "Mon-Fri", "time": "3:30pm"}, {"days": "Sat-Sun", "time": "Closed"}], "id": "4029900045", "name": "USPS COLLECTION BOX - BLUE BOX", "address": {"city": "LOUISVILLE", "state": "KY", "street": "10100 BLUEGRASS PKWY", "postcode": "40299"}}},
{"geometry": {"type": "Point", "coordinates": [-85.5886098325, 38.213402274]}, "type": "Feature", "properties": {"collection_times": [{"days": "Mon-Fri", "time": "12:30pm"}, {"days": "Sat", "time": "12:00pm"}, {"days": "Sun", "time": "Closed"}], "id": "4029900047", "name": "USPS COLLECTION BOX - BLUE BOX", "address": {"city": "LOUISVILLE", "state": "KY", "street": "9132 TAYLORSVILLE RD", "postcode": "40299"}}},
{"geometry": {"type": "Point", "coordinates": [-85.5671839065, 38.1932413292]}, "type": "Feature", "properties": {"collection_times": [{"days": "Mon-Fri", "time": "3:45pm"}, {"days": "Sat", "time": "12:00pm"}, {"days": "Sun", "time": "Closed"}], "id": "4029900053", "name": "USPS COLLECTION BOX - BLUE BOX", "address": {"city": "LOUISVILLE", "state": "KY", "street": "10417 WATTERSON TRL", "postcode": "40299"}}},
{"geometry": {"type": "Point", "coordinates": [-85.5671839065, 38.1932413292]}, "type": "Feature", "properties": {"collection_times": [{"days": "Mon-Fri", "time": "3:45pm"}, {"days": "Sat", "time": "12:00pm"}, {"days": "Sun", "time": "Closed"}], "id": "4029900054", "name": "USPS COLLECTION BOX - BLUE BOX", "address": {"city": "LOUISVILLE", "state": "KY", "street": "10417 WATTERSON TRL", "postcode": "40299"}}},
{"geometry": {"type": "Point", "coordinates": [-85.5536051588, 38.2212590649]}, "type": "Feature", "properties": {"collection_times": [{"days": "Mon-Fri", "time": "3:30pm"}, {"days": "Sat-Sun", "time": "Closed"}], "id": "4029900058", "name": "USPS COLLECTION BOX - BLUE BOX", "address": {"city": "LOUISVILLE", "state": "KY", "street": "11003 BLUEGRASS PKWY", "postcode": "40299"}}},
{"geometry": {"type": "Point", "coordinates": [-85.5689550001, 38.1901478738]}, "type": "Feature", "properties": {"collection_times": [{"days": "Mon-Fri", "time": "5:00pm"}, {"days": "Sat", "time": "1:00pm"}, {"days": "Sun", "time": "Closed"}], "id": "4029900059", "name": "USPS COLLECTION BOX - PO LOBBY", "address": {"city": "LOUISVILLE", "state": "KY", "street": "3801 BILLTOWN RD", "postcode": "40299"}}},
{"geometry": {"type": "Point", "coordinates": [-85.6039396329, 38.1950301925]}, "type": "Feature", "properties": {"collection_times": [{"days": "Mon-Fri", "time": "12:30pm"}, {"days": "Sat-Sun", "time": "Closed"}], "id": "4029900060", "name": "USPS COLLECTION BOX - BLUE BOX", "address": {"city": "LOUISVILLE", "state": "KY", "street": "3741 S HURSTBOURNE PKWY", "postcode": "40299"}}},
{"geometry": {"type": "Point", "coordinates": [-85.537942389, 38.2071113468]}, "type": "Feature", "properties": {"collection_times": [{"days": "Mon-Fri", "time": "12:30pm"}, {"days": "Sat-Sun", "time": "Closed"}], "id": "4029900065", "name": "USPS COLLECTION BOX - BLUE BOX", "address": {"city": "LOUISVILLE", "state": "KY", "street": "11830 CAPITAL WAY", "postcode": "40299"}}},
{"geometry": {"type": "Point", "coordinates": [-85.5675305387, 38.2222457273]}, "type": "Feature", "properties": {"collection_times": [{"days": "Mon-Fri", "time": "3:30pm"}, {"days": "Sat-Sun", "time": "Closed"}], "id": "4029900069", "name": "USPS COLLECTION BOX - BLUE BOX", "address": {"city": "LOUISVILLE", "state": "KY", "street": "10100 BLUEGRASS PKWY", "postcode": "40299"}}},
{"geometry": {"type": "Point", "coordinates": [-85.537363891, 38.2182763097]}, "type": "Feature", "properties": {"collection_times": [{"days": "Mon-Fri", "time": "12:30pm"}, {"days": "Sat-Sun", "time": "Closed"}], "id": "4029900071", "name": "USPS COLLECTION BOX - BLUE BOX", "address": {"city": "LOUISVILLE", "state": "KY", "street": "1717 ALLIANT AVE", "postcode": "40299"}}},
{"geometry": {"type": "Point", "coordinates": [-85.5784946628, 38.2162303324]}, "type": "Feature", "properties": {"collection_times": [{"days": "Mon-Fri", "time": "1:30pm"}, {"days": "Sat", "time": "12:30pm"}, {"days": "Sun", "time": "Closed"}], "id": "4029900072", "name": "USPS COLLECTION BOX - BLUE BOX", "address": {"city": "LOUISVILLE", "state": "KY", "street": "2301 HURSTBOURNE VILLAGE DR", "postcode": "40299"}}},
{"geometry": {"type": "Point", "coordinates": [-85.5383106845, 38.2055590499]}, "type": "Feature", "properties": {"collection_times": [{"days": "Mon-Fri", "time": "12:30pm"}, {"days": "Sat-Sun", "time": "Closed"}], "id": "4029900075", "name": "USPS COLLECTION BOX - BLUE BOX", "address": {"city": "LOUISVILLE", "state": "KY", "street": "2700 BLANKENBAKER PKWY", "postcode": "40299"}}},
{"geometry": {"type": "Point", "coordinates": [-85.537335831, 38.2182997532]}, "type": "Feature", "properties": {"collection_times": [{"days": "Mon-Fri", "time": "12:30pm"}, {"days": "Sat-Sun", "time": "Closed"}], "id": "4029900076", "name": "USPS COLLECTION BOX - BLUE BOX", "address": {"city": "LOUISVILLE", "state": "KY", "street": "1717 ALLIANT AVE", "postcode": "40299"}}},
{"geometry": {"type": "Point", "coordinates": [-85.5689550001, 38.1901478738]}, "type": "Feature", "properties": {"collection_times": [{"days": "Mon-Fri", "time": "5:00pm"}, {"days": "Sat", "time": "1:00pm"}, {"days": "Sun", "time": "Closed"}], "id": "4029900077", "name": "USPS COLLECTION BOX - APC", "address": {"city": "LOUISVILLE", "state": "KY", "street": "3801 BILLTOWN RD", "postcode": "40299"}}},
{"geometry": {"type": "Point", "coordinates": [-85.5421054095, 38.2189888285]}, "type": "Feature", "properties": {"collection_times": [{"days": "Mon-Fri", "time": "1:00pm"}, {"days": "Sat-Sun", "time": "Closed"}], "id": "4029900078", "name": "USPS COLLECTION BOX - BLUE BOX", "address": {"city": "LOUISVILLE", "state": "KY", "street": "11521 BLUEGRASS PKWY", "postcode": "40299"}}},
{"geometry": {"type": "Point", "coordinates": [-85.5357844976, 38.2152569005]}, "type": "Feature", "properties": {"collection_times": [{"days": "Mon-Fri", "time": "12:30pm"}, {"days": "Sat-Sun", "time": "Closed"}], "id": "4029900079", "name": "USPS COLLECTION BOX - BLUE BOX", "address": {"city": "LOUISVILLE", "state": "KY", "street": "1902 CAMPUS PL", "postcode": "40299"}}},
{"geometry": {"type": "Point", "coordinates": [-85.5814128138, 38.2063996011]}, "type": "Feature", "properties": {"collection_times": [{"days": "Mon-Fri", "time": "3:45pm"}, {"days": "Sat", "time": "12:30pm"}, {"days": "Sun", "time": "Closed"}], "id": "4029900080", "name": "USPS COLLECTION BOX - BLUE BOX", "address": {"city": "LOUISVILLE", "state": "KY", "street": "9501 TAYLORSVILLE RD", "postcode": "40299"}}},
{"geometry": {"type": "Point", "coordinates": [-85.5814128138, 38.2063996011]}, "type": "Feature", "properties": {"collection_times": [{"days": "Mon-Fri", "time": "3:45pm"}, {"days": "Sat", "time": "12:30pm"}, {"days": "Sun", "time": "Closed"}], "id": "4029900081", "name": "USPS COLLECTION BOX - BLUE BOX", "address": {"city": "LOUISVILLE", "state": "KY", "street": "9501 TAYLORSVILLE RD", "postcode": "40299"}}}
]}
