{"type": "FeatureCollection", "features": [
{"geometry": {"type": "Point", "coordinates": [-84.7570744479, 37.7505220757]}, "type": "Feature", "properties": {"collection_times": [{"days": "Mon-Fri", "time": "3:45pm"}, {"days": "Sat", "time": "11:45am"}, {"days": "Sun", "time": "Closed"}], "id": "4031000000", "name": "USPS COLLECTION BOX - BLUE BOX", "address": {"city": "BURGIN", "state": "KY", "street": "217 MAIN ST", "postcode": "40310"}}},
{"geometry": {"type": "Point", "coordinates": [-84.7570744479, 37.7505220757]}, "type": "Feature", "properties": {"collection_times": [{"days": "Mon-Fri", "time": "4:00pm"}, {"days": "Sat", "time": "12:00pm"}, {"days": "Sun", "time": "Closed"}], "id": "4031000001", "name": "USPS COLLECTION BOX - PO LOBBY", "address": {"city": "BURGIN", "state": "KY", "street": "217 MAIN ST", "postcode": "40310"}}},
{"geometry": {"type": "Point", "coordinates": [-84.030332759, 38.3126946037]}, "type": "Feature", "properties": {"collection_times": [{"days": "Mon-Fri", "time": "4:25pm"}, {"days": "Sat", "time": "1:00pm"}, {"days": "Sun", "time": "Closed"}], "id": "4031100001", "name": "USPS COLLECTION BOX - BLUE BOX", "address": {"city": "CARLISLE", "state": "KY", "street": "231 W MAIN ST", "postcode": "40311"}}},
{"geometry": {"type": "Point", "coordinates": [-84.0283992462, 38.3132270999]}, "type": "Feature", "properties": {"collection_times": [{"days": "Mon-Sat", "time": "12:00pm"}, {"days": "Sun", "time": "Closed"}], "id": "4031100005", "name": "USPS COLLECTION BOX - BLUE BOX", "address": {"city": "CARLISLE", "state": "KY", "street": "107 E CHESTNUT ST", "postcode": "40311"}}},
{"geometry": {"type": "Point", "coordinates": [-84.030332759, 38.3126946037]}, "type": "Feature", "properties": {"collection_times": [{"days": "Mon-Fri", "time": "4:25pm"}, {"days": "Sat", "time": "1:00pm"}, {"days": "Sun", "time": "Closed"}], "id": "4031100010", "name": "USPS COLLECTION BOX - PO LOBBY", "address": {"city": "CARLISLE", "state": "KY", "street": "231 W MAIN ST", "postcode": "40311"}}},
{"geometry": {"type": "Point", "coordinates": [-83.9343172619, 37.8644681247]}, "type": "Feature", "properties": {"collection_times": [{"days": "Mon-Fri", "time": "3:55pm"}, {"days": "Sat", "time": "12:00pm"}, {"days": "Sun", "time": "Closed"}], "id": "4031200000", "name": "USPS COLLECTION BOX - BLUE BOX", "address": {"city": "CLAY CITY", "state": "KY", "street": "70 RIVER ST", "postcode": "40312"}}},
{"geometry": {"type": "Point", "coordinates": [-83.9343172619, 37.8644681247]}, "type": "Feature", "properties": {"collection_times": [{"days": "Mon-Fri", "time": "3:55pm"}, {"days": "Sat", "time": "12:00pm"}, {"days": "Sun", "time": "Closed"}], "id": "4031200001", "name": "USPS COLLECTION BOX - PO LOBBY", "address": {"city": "CLAY CITY", "state": "KY", "street": "70 RIVER ST", "postcode": "40312"}}},
{"geometry": {"type": "Point", "coordinates": [-83.4381134811, 38.168441025]}, "type": "Feature", "properties": {"collection_times": [{"days": "Mon-Fri", "time": "4:15pm"}, {"days": "Sat", "time": "12:00pm"}, {"days": "Sun", "time": "Closed"}], "id": "4031300000", "name": "USPS COLLECTION BOX - BLUE BOX", "address": {"city": "CLEARFIELD", "state": "KY", "street": "519 KY HIGHWAY 519", "postcode": "40313"}}},
{"geometry": {"type": "Point", "coordinates": [-83.4381134811, 38.168441025]}, "type": "Feature", "properties": {"collection_times": [{"days": "Mon-Fri", "time": "4:15pm"}, {"days": "Sat", "time": "12:00pm"}, {"days": "Sun", "time": "Closed"}], "id": "4031300002", "name": "USPS COLLECTION BOX - PO LOBBY", "address": {"city": "CLEARFIELD", "state": "KY", "street": "519 KY HIGHWAY 519", "postcode": "40313"}}},
{"geometry": {"type": "Point", "coordinates": [-83.517017202, 37.9253503122]}, "type": "Feature", "properties": {"collection_times": [{"days": "Mon-Fri", "time": "3:15pm"}, {"days": "Sat", "time": "11:45am"}, {"days": "Sun", "time": "Closed"}], "id": "4031600000", "name": "USPS COLLECTION BOX - PO LOBBY", "address": {"city": "DENNISTON", "state": "KY", "street": "6969 US HIGHWAY 460 E", "postcode": "40316"}}},
{"geometry": {"type": "Point", "coordinates": [-83.517017202, 37.9253503122]}, "type": "Feature", "properties": {"collection_times": [{"days": "Mon-Fri", "time": "3:15pm"}, {"days": "Sat", "time": "11:45am"}, {"days": "Sun", "time": "Closed"}], "id": "4031600001", "name": "USPS COLLECTION BOX - BLUE BOX", "address": {"city": "DENNISTON", "state": "KY", "street": "6969 US HIGHWAY 460 E", "postcode": "40316"}}},
{"geometry": {"type": "Point", "coordinates": [-83.2805843681, 38.184035481]}, "type": "Feature", "properties": {"collection_times": [{"days": "Mon-Fri", "time": "1:00pm"}, {"days": "Sat", "time": "12:00pm"}, {"days": "Sun", "time": "Closed"}], "id": "4031700000", "name": "USPS COLLECTION BOX - BLUE BOX", "address": {"city": "ELLIOTTVILLE", "state": "KY", "street": "8061 CHRISTY CREEK RD", "postcode": "40317"}}},
{"geometry": {"type": "Point", "coordinates": [-83.2805843681, 38.184035481]}, "type": "Feature", "properties": {"collection_times": [{"days": "Mon-Fri", "time": "1:00pm"}, {"days": "Sat", "time": "12:00pm"}, {"days": "Sun", "time": "Closed"}], "id": "4031700001", "name": "USPS COLLECTION BOX - PO LOBBY", "address": {"city": "ELLIOTTVILLE", "state": "KY", "street": "8061 CHRISTY CREEK RD", "postcode": "40317"}}},
{"geometry": {"type": "Point", "coordinates": [-83.5461717105, 38.1413622032]}, "type": "Feature", "properties": {"collection_times": [{"days": "Mon-Fri", "time": "4:15pm"}, {"days": "Sat", "time": "11:00am"}, {"days": "Sun", "time": "Closed"}], "id": "4031900000", "name": "USPS COLLECTION BOX - BLUE BOX", "address": {"city": "FARMERS", "state": "KY", "street": "7355 US 60 W", "postcode": "40319"}}},
{"geometry": {"type": "Point", "coordinates": [-83.5461717105, 38.1413622032]}, "type": "Feature", "properties": {"collection_times": [{"days": "Mon-Fri", "time": "4:15pm"}, {"days": "Sat", "time": "11:00am"}, {"days": "Sun", "time": "Closed"}], "id": "4031900001", "name": "USPS COLLECTION BOX - PO LOBBY", "address": {"city": "FARMERS", "state": "KY", "street": "7355 US 60 W", "postcode": "40319"}}},
{"geometry": {"type": "Point", "coordinates": [-83.6128690421, 37.9487222257]}, "type": "Feature", "properties": {"collection_times": [{"days": "Mon-Fri", "time": "3:45pm"}, {"days": "Sat", "time": "2:00pm"}, {"days": "Sun", "time": "Closed"}], "id": "4032200000", "name": "USPS COLLECTION BOX - BLUE BOX", "address": {"city": "FRENCHBURG", "state": "KY", "street": "70 BRYANT LN", "postcode": "40322"}}},
{"geometry": {"type": "Point", "coordinates": [-83.6128690421, 37.9487222257]}, "type": "Feature", "properties": {"collection_times": [{"days": "Mon-Fri", "time": "3:45pm"}, {"days": "Sat", "time": "12:00pm"}, {"days": "Sun", "time": "Closed"}], "id": "4032200002", "name": "USPS COLLECTION BOX - PO LOBBY", "address": {"city": "FRENCHBURG", "state": "KY", "street": "835 MAIN ST", "postcode": "40322"}}},
{"geometry": {"type": "Point", "coordinates": [-83.6128690421, 37.9487222257]}, "type": "Feature", "properties": {"collection_times": [{"days": "Mon-Fri", "time": "3:30pm"}, {"days": "Sat", "time": "12:00pm"}, {"days": "Sun", "time": "Closed"}], "id": "4032200003", "name": "USPS COLLECTION BOX - BLUE BOX", "address": {"city": "FRENCHBURG", "state": "KY", "street": "835 MAIN ST", "postcode": "40322"}}},
{"geometry": {"type": "Point", "coordinates": [-84.5431537789, 38.1985141698]}, "type": "Feature", "properties": {"collection_times": [{"days": "Mon-Fri", "time": "4:30pm"}, {"days": "Sat", "time": "9:00am"}, {"days": "Sun", "time": "Closed"}], "id": "4032400003", "name": "USPS COLLECTION BOX - BLUE BOX", "address": {"city": "GEORGETOWN", "state": "KY", "street": "100 CARLEY CT", "postcode": "40324"}}},
{"geometry": {"type": "Point", "coordinates": [-84.553038584, 38.2753946729]}, "type": "Feature", "properties": {"collection_times": [{"days": "Mon-Sat", "time": "10:00am"}, {"days": "Sun", "time": "Closed"}], "id": "4032400015", "name": "USPS COLLECTION BOX - BLUE BOX", "address": {"city": "GEORGETOWN", "state": "KY", "street": "110 TRIPORT RD", "postcode": "40324"}}},
{"geometry": {"type": "Point", "coordinates": [-84.5629683416, 38.1935138022]}, "type": "Feature", "properties": {"collection_times": [{"days": "Mon-Fri", "time": "5:15pm"}, {"days": "Sat", "time": "4:00pm"}, {"days": "Sun", "time": "Closed"}], "id": "4032400016", "name": "USPS COLLECTION BOX - BLUE BOX", "address": {"city": "GEORGETOWN", "state": "KY", "street": "101 N BRADFORD LN", "postcode": "40324"}}},
{"geometry": {"type": "Point", "coordinates": [-84.5579880843, 38.2107163915]}, "type": "Feature", "properties": {"collection_times": [{"days": "Mon-Fri", "time": "4:45pm"}, {"days": "Sat", "time": "9:45am"}, {"days": "Sun", "time": "Closed"}], "id": "4032400017", "name": "USPS COLLECTION BOX - BLUE BOX", "address": {"city": "GEORGETOWN", "state": "KY", "street": "119 N HAMILTON ST", "postcode": "40324"}}},
{"geometry": {"type": "Point", "coordinates": [-84.5570689252, 38.2098007813]}, "type": "Feature", "properties": {"collection_times": [{"days": "Mon-Fri", "time": "5:00pm"}, {"days": "Sat", "time": "2:30pm"}, {"days": "Sun", "time": "Closed"}], "id": "4032400019", "name": "USPS COLLECTION BOX - BLUE BOX", "address": {"city": "GEORGETOWN", "state": "KY", "street": "229 E MAIN ST", "postcode": "40324"}}},
{"geometry": {"type": "Point", "coordinates": [-84.5629683416, 38.1935138022]}, "type": "Feature", "properties": {"collection_times": [{"days": "Mon-Fri", "time": "5:00pm"}, {"days": "Sat", "time": "4:00pm"}, {"days": "Sun", "time": "Closed"}], "id": "4032400020", "name": "USPS COLLECTION BOX - PO LOBBY", "address": {"city": "GEORGETOWN", "state": "KY", "street": "101 N BRADFORD LN", "postcode": "40324"}}},
{"geometry": {"type": "Point", "coordinates": [-84.5629683416, 38.1935138022]}, "type": "Feature", "properties": {"collection_times": [{"days": "Mon-Fri", "time": "5:00pm"}, {"days": "Sat", "time": "4:00pm"}, {"days": "Sun", "time": "Closed"}], "id": "4032400021", "name": "USPS COLLECTION BOX - PO LOBBY", "address": {"city": "GEORGETOWN", "state": "KY", "street": "101 N BRADFORD LN", "postcode": "40324"}}},
{"geometry": {"type": "Point", "coordinates": [-84.5629683416, 38.1935138022]}, "type": "Feature", "properties": {"collection_times": [{"days": "Mon-Fri", "time": "5:00pm"}, {"days": "Sat", "time": "4:00pm"}, {"days": "Sun", "time": "Closed"}], "id": "4032400023", "name": "USPS COLLECTION BOX - PO LOBBY", "address": {"city": "GEORGETOWN", "state": "KY", "street": "101 N BRADFORD LN", "postcode": "40324"}}},
{"geometry": {"type": "Point", "coordinates": [-84.5588954139, 38.2099001498]}, "type": "Feature", "properties": {"collection_times": [{"days": "Mon-Fri", "time": "5:00pm"}, {"days": "Sat", "time": "9:30am"}, {"days": "Sun", "time": "Closed"}], "id": "4032400026", "name": "USPS COLLECTION BOX - BLUE BOX", "address": {"city": "GEORGETOWN", "state": "KY", "street": "135 E MAIN ST", "postcode": "40324"}}},
{"geometry": {"type": "Point", "coordinates": [-84.5379227344, 38.2318428557]}, "type": "Feature", "properties": {"collection_times": [{"days": "Mon-Sat", "time": "11:00am"}, {"days": "Sun", "time": "Closed"}], "id": "4032400027", "name": "USPS COLLECTION BOX - BLUE BOX", "address": {"city": "GEORGETOWN", "state": "KY", "street": "112 OSBOURNE WAY", "postcode": "40324"}}},
{"geometry": {"type": "Point", "coordinates": [-84.5629683416, 38.1935138022]}, "type": "Feature", "properties": {"collection_times": [{"days": "Mon-Fri", "time": "5:00pm"}, {"days": "Sat", "time": "4:00pm"}, {"days": "Sun", "time": "Closed"}], "id": "4032400028", "name": "USPS COLLECTION BOX - APC", "address": {"city": "GEORGETOWN", "state": "KY", "street": "101 N BRADFORD LN", "postcode": "40324"}}},
{"geometry": {"type": "Point", "coordinates": [-84.5426995227, 38.2222857302]}, "type": "Feature", "properties": {"collection_times": [{"days": "Mon-Sat", "time": "11:00am"}, {"days": "Sun", "time": "Closed"}], "id": "4032400029", "name": "USPS COLLECTION BOX - BLUE BOX", "address": {"city": "GEORGETOWN", "state": "KY", "street": "205 CHAMPION WAY", "postcode": "40324"}}},
{"geometry": {"type": "Point", "coordinates": [-84.5588220704, 38.1803202609]}, "type": "Feature", "properties": {"collection_times": [{"days": "Mon-Fri", "time": "4:30pm"}, {"days": "Sat-Sun", "time": "Closed"}], "id": "4032400032", "name": "USPS COLLECTION BOX - BLUE BOX", "address": {"city": "GEORGETOWN", "state": "KY", "street": "100 MARY LYNN DR STE 16", "postcode": "40324"}}},
{"geometry": {"type": "Point", "coordinates": [-84.5664947423, 38.1826495071]}, "type": "Feature", "properties": {"collection_times": [{"days": "Mon-Fri", "time": "4:30pm"}, {"days": "Sat-Sun", "time": "Closed"}], "id": "4032400033", "name": "USPS COLLECTION BOX - BLUE BOX", "address": {"city": "GEORGETOWN", "state": "KY", "street": "208 BEVINS LN STE B", "postcode": "40324"}}},
{"geometry": {"type": "Point", "coordinates": [-84.5105054315, 38.2688173795]}, "type": "Feature", "properties": {"collection_times": [{"days": "Mon-Fri", "time": "12:00pm"}, {"days": "Sat-Sun", "time": "Closed"}], "id": "4032400035", "name": "USPS COLLECTION BOX - BLUE BOX", "address": {"city": "GEORGETOWN", "state": "KY", "street": "100 TECHNOLOGY CT", "postcode": "40324"}}},
{"geometry": {"type": "Point", "coordinates": [-85.0697367157, 37.572631549]}, "type": "Feature", "properties": {"collection_times": [{"days": "Mon-Fri", "time": "3:45pm"}, {"days": "Sat", "time": "10:45am"}, {"days": "Sun", "time": "Closed"}], "id": "4032800000", "name": "USPS COLLECTION BOX - BLUE BOX", "address": {"city": "GRAVEL SWITCH", "state": "KY", "street": "885 GRAVEL SWITCH RD", "postcode": "40328"}}},
{"geometry": {"type": "Point", "coordinates": [-85.0697367157, 37.572631549]}, "type": "Feature", "properties": {"collection_times": [{"days": "Mon-Fri", "time": "3:45pm"}, {"days": "Sat", "time": "10:45am"}, {"days": "Sun", "time": "Closed"}], "id": "4032800001", "name": "USPS COLLECTION BOX - PO LOBBY", "address": {"city": "GRAVEL SWITCH", "state": "KY", "street": "885 GRAVEL SWITCH RD", "postcode": "40328"}}},
{"geometry": {"type": "Point", "coordinates": [-84.82971248, 37.7590568206]}, "type": "Feature", "properties": {"collection_times": [{"days": "Mon-Sat", "time": "10:00am"}, {"days": "Sun", "time": "Closed"}], "id": "4033000007", "name": "USPS COLLECTION BOX - BLUE BOX", "address": {"city": "HARRODSBURG", "state": "KY", "street": "680 E OFFICE ST", "postcode": "40330"}}},
{"geometry": {"type": "Point", "coordinates": [-84.841622506, 37.7450476528]}, "type": "Feature", "properties": {"collection_times": [{"days": "Mon-Sat", "time": "12:00pm"}, {"days": "Sun", "time": "Closed"}], "id": "4033000009", "name": "USPS COLLECTION BOX - BLUE BOX", "address": {"city": "HARRODSBURG", "state": "KY", "street": "844 S COLLEGE ST", "postcode": "40330"}}},
{"geometry": {"type": "Point", "coordinates": [-84.8435065333, 37.7597570541]}, "type": "Feature", "properties": {"collection_times": [{"days": "Mon-Sat", "time": "11:00am"}, {"days": "Sun", "time": "Closed"}], "id": "4033000011", "name": "USPS COLLECTION BOX - BLUE BOX", "address": {"city": "HARRODSBURG", "state": "KY", "street": "331 S MAIN ST", "postcode": "40330"}}},
{"geometry": {"type": "Point", "coordinates": [-84.8434965955, 37.7611823303]}, "type": "Feature", "properties": {"collection_times": [{"days": "Mon-Sat", "time": "2:00pm"}, {"days": "Sun", "time": "Closed"}], "id": "4033000012", "name": "USPS COLLECTION BOX - BLUE BOX", "address": {"city": "HARRODSBURG", "state": "KY", "street": "200 S MAIN ST", "postcode": "40330"}}},
{"geometry": {"type": "Point", "coordinates": [-84.8432105379, 37.7623980361]}, "type": "Feature", "properties": {"collection_times": [{"days": "Mon-Fri", "time": "4:30pm"}, {"days": "Sat", "time": "4:00pm"}, {"days": "Sun", "time": "Closed"}], "id": "4033000018", "name": "USPS COLLECTION BOX - PO LOBBY", "address": {"city": "HARRODSBURG", "state": "KY", "street": "105 N MAIN ST", "postcode": "40330"}}},
{"geometry": {"type": "Point", "coordinates": [-84.8432105379, 37.7623980361]}, "type": "Feature", "properties": {"collection_times": [{"days": "Mon-Fri", "time": "4:45pm"}, {"days": "Sat", "time": "4:00pm"}, {"days": "Sun", "time": "Closed"}], "id": "4033000019", "name": "USPS COLLECTION BOX - BLUE BOX", "address": {"city": "HARRODSBURG", "state": "KY", "street": "105 N MAIN ST", "postcode": "40330"}}},
{"geometry": {"type": "Point", "coordinates": [-84.8432105379, 37.7623980361]}, "type": "Feature", "properties": {"collection_times": [{"days": "Mon-Fri", "time": "4:45pm"}, {"days": "Sat", "time": "4:00pm"}, {"days": "Sun", "time": "Closed"}], "id": "4033000020", "name": "USPS COLLECTION BOX - BLUE BOX", "address": {"city": "HARRODSBURG", "state": "KY", "street": "105 N MAIN ST", "postcode": "40330"}}},
{"geometry": {"type": "Point", "coordinates": [-84.8569554804, 37.7512312137]}, "type": "Feature", "properties": {"collection_times": [{"days": "Mon-Sat", "time": "10:00am"}, {"days": "Sun", "time": "Closed"}], "id": "4033000022", "name": "USPS COLLECTION BOX - BLUE BOX", "address": {"city": "HARRODSBURG", "state": "KY", "street": "735 PERRYVILLE RD", "postcode": "40330"}}},
{"geometry": {"type": "Point", "coordinates": [-83.9755302959, 37.7025984454]}, "type": "Feature", "properties": {"collection_times": [{"days": "Mon-Fri", "time": "4:30pm"}, {"days": "Sat", "time": "3:00pm"}, {"days": "Sun", "time": "Closed"}], "id": "4033600007", "name": "USPS COLLECTION BOX - BLUE BOX", "address": {"city": "RAVENNA", "state": "KY", "street": "230 MAIN ST", "postcode": "40336"}}},
{"geometry": {"type": "Point", "coordinates": [-83.9757472759, 37.7038457326]}, "type": "Feature", "properties": {"collection_times": [{"days": "Mon-Sat", "time": "2:00pm"}, {"days": "Sun", "time": "Closed"}], "id": "4033600012", "name": "USPS COLLECTION BOX - BLUE BOX", "address": {"city": "RAVENNA", "state": "KY", "street": "314 MAIN ST", "postcode": "40336"}}},
{"geometry": {"type": "Point", "coordinates": [-83.9797994184, 37.6955797201]}, "type": "Feature", "properties": {"collection_times": [{"days": "Mon-Sat", "time": "12:00pm"}, {"days": "Sun", "time": "Closed"}], "id": "4033600017", "name": "USPS COLLECTION BOX - BLUE BOX", "address": {"city": "RAVENNA", "state": "KY", "street": "148 RICHMOND RD", "postcode": "40336"}}},
{"geometry": {"type": "Point", "coordinates": [-83.9755302959, 37.7025984454]}, "type": "Feature", "properties": {"collection_times": [{"days": "Mon-Fri", "time": "4:30pm"}, {"days": "Sat", "time": "3:00pm"}, {"days": "Sun", "time": "Closed"}], "id": "4033600019", "name": "USPS COLLECTION BOX - PO LOBBY", "address": {"city": "RAVENNA", "state": "KY", "street": "230 MAIN ST", "postcode": "40336"}}},
{"geometry": {"type": "Point", "coordinates": [-83.9755302959, 37.7025984454]}, "type": "Feature", "properties": {"collection_times": [{"days": "Mon-Fri", "time": "4:30pm"}, {"days": "Sat", "time": "3:00pm"}, {"days": "Sun", "time": "Closed"}], "id": "4033600021", "name": "USPS COLLECTION BOX - PO LOBBY", "address": {"city": "RAVENNA", "state": "KY", "street": "230 MAIN ST", "postcode": "40336"}}},
{"geometry": {"type": "Point", "coordinates": [-83.8437121363, 37.973974987]}, "type": "Feature", "properties": {"collection_times": [{"days": "Mon-Fri", "time": "3:30pm"}, {"days": "Sat", "time": "12:00pm"}, {"days": "Sun", "time": "Closed"}], "id": "4033700000", "name": "USPS COLLECTION BOX - BLUE BOX", "address": {"city": "JEFFERSONVILLE", "state": "KY", "street": "8000 MAIN ST", "postcode": "40337"}}},
{"geometry": {"type": "Point", "coordinates": [-83.8437121363, 37.973974987]}, "type": "Feature", "properties": {"collection_times": [{"days": "Mon-Fri", "time": "3:30pm"}, {"days": "Sat", "time": "12:00pm"}, {"days": "Sun", "time": "Closed"}], "id": "4033700001", "name": "USPS COLLECTION BOX - PO LOBBY", "address": {"city": "JEFFERSONVILLE", "state": "KY", "street": "8000 MAIN ST", "postcode": "40337"}}},
{"geometry": {"type": "Point", "coordinates": [-84.6423684414, 37.9427691365]}, "type": "Feature", "properties": {"collection_times": [{"days": "Mon-Fri", "time": "3:00pm"}, {"days": "Sat", "time": "12:00pm"}, {"days": "Sun", "time": "Closed"}], "id": "4033900000", "name": "USPS COLLECTION BOX - BLUE BOX", "address": {"city": "KEENE", "state": "KY", "street": "106 KEENE SOUTH ELKHORN RD", "postcode": "40339"}}},
{"geometry": {"type": "Point", "coordinates": [-84.6423684414, 37.9427691365]}, "type": "Feature", "properties": {"collection_times": [{"days": "Mon-Fri", "time": "3:00pm"}, {"days": "Sat", "time": "12:00pm"}, {"days": "Sun", "time": "Closed"}], "id": "4033900001", "name": "USPS COLLECTION BOX - PO LOBBY", "address": {"city": "KEENE", "state": "KY", "street": "106 KEENE SOUTH ELKHORN RD", "postcode": "40339"}}},
{"geometry": {"type": "Point", "coordinates": [-84.8967089808, 38.0359309454]}, "type": "Feature", "properties": {"collection_times": [{"days": "Mon-Fri", "time": "2:30pm"}, {"days": "Sat", "time": "12:00pm"}, {"days": "Sun", "time": "Closed"}], "id": "4034200002", "name": "USPS COLLECTION BOX - BLUE BOX", "address": {"city": "LAWRENCEBURG", "state": "KY", "street": "107 W JACKSON ST", "postcode": "40342"}}},
{"geometry": {"type": "Point", "coordinates": [-84.8925912644, 38.0283688844]}, "type": "Feature", "properties": {"collection_times": [{"days": "Mon-Fri", "time": "2:30pm"}, {"days": "Sat", "time": "12:00pm"}, {"days": "Sun", "time": "Closed"}], "id": "4034200003", "name": "USPS COLLECTION BOX - BLUE BOX", "address": {"city": "LAWRENCEBURG", "state": "KY", "street": "151 S MAIN ST", "postcode": "40342"}}},
{"geometry": {"type": "Point", "coordinates": [-84.9249977121, 38.0258537472]}, "type": "Feature", "properties": {"collection_times": [{"days": "Mon-Fri", "time": "5:00pm"}, {"days": "Sat", "time": "3:30pm"}, {"days": "Sun", "time": "Closed"}], "id": "4034200009", "name": "USPS COLLECTION BOX - BLUE BOX", "address": {"city": "LAWRENCEBURG", "state": "KY", "street": "1269 FOX CREEK RD", "postcode": "40342"}}},
{"geometry": {"type": "Point", "coordinates": [-84.9249977121, 38.0258537472]}, "type": "Feature", "properties": {"collection_times": [{"days": "Mon-Fri", "time": "5:00pm"}, {"days": "Sat", "time": "3:30pm"}, {"days": "Sun", "time": "Closed"}], "id": "4034200010", "name": "USPS COLLECTION BOX - PO LOBBY", "address": {"city": "LAWRENCEBURG", "state": "KY", "street": "1269 FOX CREEK RD", "postcode": "40342"}}},
{"geometry": {"type": "Point", "coordinates": [-84.8967089808, 38.0359309454]}, "type": "Feature", "properties": {"collection_times": [{"days": "Mon-Fri", "time": "2:30pm"}, {"days": "Sat", "time": "12:00pm"}, {"days": "Sun", "time": "Closed"}], "id": "4034200012", "name": "USPS COLLECTION BOX - BLUE BOX", "address": {"city": "LAWRENCEBURG", "state": "KY", "street": "107 W JACKSON ST", "postcode": "40342"}}},
{"geometry": {"type": "Point", "coordinates": [-84.9075829734, 38.034210767]}, "type": "Feature", "properties": {"collection_times": [{"days": "Mon-Fri", "time": "2:30pm"}, {"days": "Sat", "time": "12:00pm"}, {"days": "Sun", "time": "Closed"}], "id": "4034200014", "name": "USPS COLLECTION BOX - BLUE BOX", "address": {"city": "LAWRENCEBURG", "state": "KY", "street": "201 W WOODFORD ST", "postcode": "40342"}}},
{"geometry": {"type": "Point", "coordinates": [-83.7325019818, 37.9442453321]}, "type": "Feature", "properties": {"collection_times": [{"days": "Mon-Fri", "time": "3:45pm"}, {"days": "Sat", "time": "11:00am"}, {"days": "Sun", "time": "Closed"}], "id": "4034600000", "name": "USPS COLLECTION BOX - BLUE BOX", "address": {"city": "MEANS", "state": "KY", "street": "8422 US HIGHWAY 460 W", "postcode": "40346"}}},
{"geometry": {"type": "Point", "coordinates": [-83.7325019818, 37.9442453321]}, "type": "Feature", "properties": {"collection_times": [{"days": "Mon-Fri", "time": "3:45pm"}, {"days": "Sat", "time": "11:00am"}, {"days": "Sun", "time": "Closed"}], "id": "4034600001", "name": "USPS COLLECTION BOX - PO LOBBY", "address": {"city": "MEANS", "state": "KY", "street": "8422 US HIGHWAY 460 W", "postcode": "40346"}}},
{"geometry": {"type": "Point", "coordinates": [-84.6848213957, 38.1495562301]}, "type": "Feature", "properties": {"collection_times": [{"days": "Mon-Fri", "time": "4:30pm"}, {"days": "Sat", "time": "11:30am"}, {"days": "Sun", "time": "Closed"}], "id": "4034700000", "name": "USPS COLLECTION BOX - BLUE BOX", "address": {"city": "MIDWAY", "state": "KY", "street": "100 S WINTER ST", "postcode": "40347"}}},
{"geometry": {"type": "Point", "coordinates": [-84.6848213957, 38.1495562301]}, "type": "Feature", "properties": {"collection_times": [{"days": "Mon-Fri", "time": "4:30pm"}, {"days": "Sat", "time": "11:30am"}, {"days": "Sun", "time": "Closed"}], "id": "4034700001", "name": "USPS COLLECTION BOX - PO LOBBY", "address": {"city": "MIDWAY", "state": "KY", "street": "100 S WINTER ST", "postcode": "40347"}}},
{"geometry": {"type": "Point", "coordinates": [-84.147638313, 38.3022050121]}, "type": "Feature", "properties": {"collection_times": [{"days": "Mon-Fri", "time": "4:00pm"}, {"days": "Sat", "time": "12:00pm"}, {"days": "Sun", "time": "Closed"}], "id": "4034800000", "name": "USPS COLLECTION BOX - PO LOBBY", "address": {"city": "MILLERSBURG", "state": "KY", "street": "425 MAIN ST", "postcode": "40348"}}},
{"geometry": {"type": "Point", "coordinates": [-84.147638313, 38.3022050121]}, "type": "Feature", "properties": {"collection_times": [{"days": "Mon-Fri", "time": "4:00pm"}, {"days": "Sat", "time": "12:00pm"}, {"days": "Sun", "time": "Closed"}], "id": "4034800001", "name": "USPS COLLECTION BOX - BLUE BOX", "address": {"city": "MILLERSBURG", "state": "KY", "street": "425 MAIN ST", "postcode": "40348"}}},
{"geometry": {"type": "Point", "coordinates": [-83.4295684792, 38.1913636967]}, "type": "Feature", "properties": {"collection_times": [{"days": "Mon-Sat", "time": "11:30am"}, {"days": "Sun", "time": "Closed"}], "id": "4035100003", "name": "USPS COLLECTION BOX - BLUE BOX", "address": {"city": "MOREHEAD", "state": "KY", "street": "300 CRIQUE SIDE DR", "postcode": "40351"}}},
{"geometry": {"type": "Point", "coordinates": [-83.4693423145, 38.1815739252]}, "type": "Feature", "properties": {"collection_times": [{"days": "Mon-Sat", "time": "11:00am"}, {"days": "Sun", "time": "Closed"}], "id": "4035100004", "name": "USPS COLLECTION BOX - BLUE BOX", "address": {"city": "MOREHEAD", "state": "KY", "street": "1453 DIVIDE HILLS DR", "postcode": "40351"}}},
{"geometry": {"type": "Point", "coordinates": [-83.4385607526, 38.1740265742]}, "type": "Feature", "properties": {"collection_times": [{"days": "Mon-Fri", "time": "4:15pm"}, {"days": "Sat", "time": "3:30pm"}, {"days": "Sun", "time": "Closed"}], "id": "4035100005", "name": "USPS COLLECTION BOX - BLUE BOX", "address": {"city": "MOREHEAD", "state": "KY", "street": "700 W 1ST ST", "postcode": "40351"}}},
{"geometry": {"type": "Point", "coordinates": [-83.4385607526, 38.1740265742]}, "type": "Feature", "properties": {"collection_times": [{"days": "Mon-Fri", "time": "4:15pm"}, {"days": "Sat", "time": "3:30pm"}, {"days": "Sun", "time": "Closed"}], "id": "4035100006", "name": "USPS COLLECTION BOX - BLUE BOX", "address": {"city": "MOREHEAD", "state": "KY", "street": "700 W 1ST ST", "postcode": "40351"}}},
{"geometry": {"type": "Point", "coordinates": [-83.4442381051, 38.1760749859]}, "type": "Feature", "properties": {"collection_times": [{"days": "Mon-Sat", "time": "10:30am"}, {"days": "Sun", "time": "Closed"}], "id": "4035100007", "name": "USPS COLLECTION BOX - BLUE BOX", "address": {"city": "MOREHEAD", "state": "KY", "street": "200 HERITAGE PL", "postcode": "40351"}}},
{"geometry": {"type": "Point", "coordinates": [-83.4354565308, 38.1815914736]}, "type": "Feature", "properties": {"collection_times": [{"days": "Mon-Fri", "time": "3:30pm"}, {"days": "Sat", "time": "2:30pm"}, {"days": "Sun", "time": "Closed"}], "id": "4035100009", "name": "USPS COLLECTION BOX - BLUE BOX", "address": {"city": "MOREHEAD", "state": "KY", "street": "105 E MAIN ST", "postcode": "40351"}}},
{"geometry": {"type": "Point", "coordinates": [-83.4335465701, 38.1837821458]}, "type": "Feature", "properties": {"collection_times": [{"days": "Mon-Fri", "time": "3:15pm"}, {"days": "Sat", "time": "2:15pm"}, {"days": "Sun", "time": "Closed"}], "id": "4035100011", "name": "USPS COLLECTION BOX - BLUE BOX", "address": {"city": "MOREHEAD", "state": "KY", "street": "206 E MAIN ST", "postcode": "40351"}}},
{"geometry": {"type": "Point", "coordinates": [-83.4324114404, 38.1851306387]}, "type": "Feature", "properties": {"collection_times": [{"days": "Mon-Fri", "time": "3:15pm"}, {"days": "Sat", "time": "2:15pm"}, {"days": "Sun", "time": "Closed"}], "id": "4035100012", "name": "USPS COLLECTION BOX - BLUE BOX", "address": {"city": "MOREHEAD", "state": "KY", "street": "310 E MAIN ST", "postcode": "40351"}}},
{"geometry": {"type": "Point", "coordinates": [-83.4284129278, 38.1885229388]}, "type": "Feature", "properties": {"collection_times": [{"days": "Mon-Fri", "time": "3:30pm"}, {"days": "Sat", "time": "2:30pm"}, {"days": "Sun", "time": "Closed"}], "id": "4035100013", "name": "USPS COLLECTION BOX - BLUE BOX", "address": {"city": "MOREHEAD", "state": "KY", "street": "627 E MAIN ST", "postcode": "40351"}}},
{"geometry": {"type": "Point", "coordinates": [-83.4400617659, 38.1740327343]}, "type": "Feature", "properties": {"collection_times": [{"days": "Mon-Sat", "time": "1:00pm"}, {"days": "Sun", "time": "Closed"}], "id": "4035100015", "name": "USPS COLLECTION BOX - BLUE BOX", "address": {"city": "MOREHEAD", "state": "KY", "street": "723 W MAIN ST", "postcode": "40351"}}},
{"geometry": {"type": "Point", "coordinates": [-83.2965994568, 38.154818458]}, "type": "Feature", "properties": {"collection_times": [{"days": "Mon-Fri", "time": "3:15pm"}, {"days": "Sat", "time": "2:15pm"}, {"days": "Sun", "time": "Closed"}], "id": "4035100017", "name": "USPS COLLECTION BOX - BLUE BOX", "address": {"city": "MOREHEAD", "state": "KY", "street": "208 MOREHEAD PLZ", "postcode": "40351"}}},
{"geometry": {"type": "Point", "coordinates": [-83.4343700419, 38.1844402321]}, "type": "Feature", "properties": {"collection_times": [{"days": "Mon-Sat", "time": "10:30am"}, {"days": "Sun", "time": "Closed"}], "id": "4035100018", "name": "USPS COLLECTION BOX - BLUE BOX", "address": {"city": "MOREHEAD", "state": "KY", "street": "150 UNIVERSITY BLVD", "postcode": "40351"}}},
{"geometry": {"type": "Point", "coordinates": [-83.4385607526, 38.1740265742]}, "type": "Feature", "properties": {"collection_times": [{"days": "Mon-Fri", "time": "4:15pm"}, {"days": "Sat", "time": "3:30pm"}, {"days": "Sun", "time": "Closed"}], "id": "4035100020", "name": "USPS COLLECTION BOX - BLUE BOX", "address": {"city": "MOREHEAD", "state": "KY", "street": "700 W 1ST ST", "postcode": "40351"}}},
{"geometry": {"type": "Point", "coordinates": [-83.4817058975, 38.189615634]}, "type": "Feature", "properties": {"collection_times": [{"days": "Mon-Sat", "time": "11:00am"}, {"days": "Sun", "time": "Closed"}], "id": "4035100023", "name": "USPS COLLECTION BOX - BLUE BOX", "address": {"city": "MOREHEAD", "state": "KY", "street": "352 PINE CREST RD", "postcode": "40351"}}},
{"geometry": {"type": "Point", "coordinates": [-83.4119368486, 38.1991985183]}, "type": "Feature", "properties": {"collection_times": [{"days": "Mon-Sat", "time": "10:30am"}, {"days": "Sun", "time": "Closed"}], "id": "4035100024", "name": "USPS COLLECTION BOX - BLUE BOX", "address": {"city": "MOREHEAD", "state": "KY", "street": "100 RODBURN HOLLOW RD", "postcode": "40351"}}},
{"geometry": {"type": "Point", "coordinates": [-83.4333416887, 38.1818630776]}, "type": "Feature", "properties": {"collection_times": [{"days": "Mon-Fri", "time": "3:15pm"}, {"days": "Sat", "time": "2:15pm"}, {"days": "Sun", "time": "Closed"}], "id": "4035100031", "name": "USPS COLLECTION BOX - BLUE BOX", "address": {"city": "MOREHEAD", "state": "KY", "street": "143 E 1ST ST", "postcode": "40351"}}},
{"geometry": {"type": "Point", "coordinates": [-83.4828247792, 38.1932752907]}, "type": "Feature", "properties": {"collection_times": [{"days": "Mon-Sat", "time": "11:00am"}, {"days": "Sun", "time": "Closed"}], "id": "4035100032", "name": "USPS COLLECTION BOX - BLUE BOX", "address": {"city": "MOREHEAD", "state": "KY", "street": "216 TRADEMORE SHOPPING CTR", "postcode": "40351"}}},
{"geometry": {"type": "Point", "coordinates": [-83.442343755, 38.1798391957]}, "type": "Feature", "properties": {"collection_times": [{"days": "Mon-Sat", "time": "11:00am"}, {"days": "Sun", "time": "Closed"}], "id": "4035100033", "name": "USPS COLLECTION BOX - BLUE BOX", "address": {"city": "MOREHEAD", "state": "KY", "street": "222 MEDICAL CIR", "postcode": "40351"}}},
{"geometry": {"type": "Point", "coordinates": [-83.4385607526, 38.1740265742]}, "type": "Feature", "properties": {"collection_times": [{"days": "Mon-Fri", "time": "4:15pm"}, {"days": "Sat", "time": "3:30pm"}, {"days": "Sun", "time": "Closed"}], "id": "4035100034", "name": "USPS COLLECTION BOX - PO LOBBY", "address": {"city": "MOREHEAD", "state": "KY", "street": "700 W 1ST ST", "postcode": "40351"}}},
{"geometry": {"type": "Point", "coordinates": [-83.901683146, 38.0033082388]}, "type": "Feature", "properties": {"collection_times": [{"days": "Mon-Fri", "time": "4:00pm"}, {"days": "Sat", "time": "3:45pm"}, {"days": "Sun", "time": "Closed"}], "id": "4035300000", "name": "USPS COLLECTION BOX - BLUE BOX", "address": {"city": "MT STERLING", "state": "KY", "street": "4085 CAMARGO RD", "postcode": "40353"}}},
{"geometry": {"type": "Point", "coordinates": [-83.9552886979, 38.070592384]}, "type": "Feature", "properties": {"collection_times": [{"days": "Mon-Sat", "time": "3:00pm"}, {"days": "Sun", "time": "Closed"}], "id": "4035300005", "name": "USPS COLLECTION BOX - BLUE BOX", "address": {"city": "MT STERLING", "state": "KY", "street": "499 INDIAN MOUND DR", "postcode": "40353"}}},
{"geometry": {"type": "Point", "coordinates": [-83.951515927, 38.0736206799]}, "type": "Feature", "properties": {"collection_times": [{"days": "Mon-Sat", "time": "3:00pm"}, {"days": "Sun", "time": "Closed"}], "id": "4035300006", "name": "USPS COLLECTION BOX - BLUE BOX", "address": {"city": "MT STERLING", "state": "KY", "street": "225 INDIAN MOUND DR", "postcode": "40353"}}},
{"geometry": {"type": "Point", "coordinates": [-83.9444589523, 38.0647563169]}, "type": "Feature", "properties": {"collection_times": [{"days": "Mon-Sat", "time": "9:45am"}, {"days": "Sun", "time": "Closed"}], "id": "4035300008", "name": "USPS COLLECTION BOX - BLUE BOX", "address": {"city": "MT STERLING", "state": "KY", "street": "105 BRUCE PROFESSIONAL PLZ", "postcode": "40353"}}},
{"geometry": {"type": "Point", "coordinates": [-83.9492044394, 38.075563364]}, "type": "Feature", "properties": {"collection_times": [{"days": "Mon-Sat", "time": "3:00pm"}, {"days": "Sun", "time": "Closed"}], "id": "4035300009", "name": "USPS COLLECTION BOX - BLUE BOX", "address": {"city": "MT STERLING", "state": "KY", "street": "153 EVANS AVE", "postcode": "40353"}}},
{"geometry": {"type": "Point", "coordinates": [-83.9422633248, 38.0566151419]}, "type": "Feature", "properties": {"collection_times": [{"days": "Mon-Sat", "time": "2:30pm"}, {"days": "Sun", "time": "Closed"}], "id": "4035300010", "name": "USPS COLLECTION BOX - BLUE BOX", "address": {"city": "MT STERLING", "state": "KY", "street": "21 N MAYSVILLE ST", "postcode": "40353"}}},
{"geometry": {"type": "Point", "coordinates": [-83.9452194516, 38.0657026559]}, "type": "Feature", "properties": {"collection_times": [{"days": "Mon-Sat", "time": "8:15am"}, {"days": "Sun", "time": "Closed"}], "id": "4035300013", "name": "USPS COLLECTION BOX - BLUE BOX", "address": {"city": "MT STERLING", "state": "KY", "street": "624 MAYSVILLE RD", "postcode": "40353"}}},
{"geometry": {"type": "Point", "coordinates": [-83.943164954, 38.0559792048]}, "type": "Feature", "properties": {"collection_times": [{"days": "Mon-Sat", "time": "2:30pm"}, {"days": "Sun", "time": "Closed"}], "id": "4035300014", "name": "USPS COLLECTION BOX - BLUE BOX", "address": {"city": "MT STERLING", "state": "KY", "street": "14 N BANK ST", "postcode": "40353"}}},
{"geometry": {"type": "Point", "coordinates": [-83.9430307222, 38.0548775259]}, "type": "Feature", "properties": {"collection_times": [{"days": "Mon-Fri", "time": "4:30pm"}, {"days": "Sat", "time": "3:00pm"}, {"days": "Sun", "time": "Closed"}], "id": "4035300015", "name": "USPS COLLECTION BOX - BLUE BOX", "address": {"city": "MT STERLING", "state": "KY", "street": "108 W LOCUST ST", "postcode": "40353"}}},
{"geometry": {"type": "Point", "coordinates": [-83.9430307222, 38.0548775259]}, "type": "Feature", "properties": {"collection_times": [{"days": "Mon-Fri", "time": "4:30pm"}, {"days": "Sat", "time": "3:00pm"}, {"days": "Sun", "time": "Closed"}], "id": "4035300016", "name": "USPS COLLECTION BOX - BLUE BOX", "address": {"city": "MT STERLING", "state": "KY", "street": "108 W LOCUST ST", "postcode": "40353"}}},
{"geometry": {"type": "Point", "coordinates": [-83.9430307222, 38.0548775259]}, "type": "Feature", "properties": {"collection_times": [{"days": "Mon-Fri", "time": "4:30pm"}, {"days": "Sat", "time": "3:00pm"}, {"days": "Sun", "time": "Closed"}], "id": "4035300018", "name": "USPS COLLECTION BOX - BLUE BOX", "address": {"city": "MT STERLING", "state": "KY", "street": "108 W LOCUST ST", "postcode": "40353"}}},
{"geometry": {"type": "Point", "coordinates": [-83.9430307222, 38.0548775259]}, "type": "Feature", "properties": {"collection_times": [{"days": "Mon-Fri", "time": "4:30pm"}, {"days": "Sat", "time": "3:00pm"}, {"days": "Sun", "time": "Closed"}], "id": "4035300019", "name": "USPS COLLECTION BOX - PO LOBBY", "address": {"city": "MT STERLING", "state": "KY", "street": "108 W LOCUST ST", "postcode": "40353"}}},
{"geometry": {"type": "Point", "coordinates": [-83.9046452219, 38.0928590383]}, "type": "Feature", "properties": {"collection_times": [{"days": "Mon-Sat", "time": "10:00am"}, {"days": "Sun", "time": "Closed"}], "id": "4035300022", "name": "USPS COLLECTION BOX - BLUE BOX", "address": {"city": "MT STERLING", "state": "KY", "street": "100 CLARENCE DR", "postcode": "40353"}}},
{"geometry": {"type": "Point", "coordinates": [-83.9192092157, 38.0758095787]}, "type": "Feature", "properties": {"collection_times": [{"days": "Mon-Sat", "time": "11:30am"}, {"days": "Sun", "time": "Closed"}], "id": "4035300023", "name": "USPS COLLECTION BOX - BLUE BOX", "address": {"city": "MT STERLING", "state": "KY", "street": "210 MIDLAND TRL", "postcode": "40353"}}},
{"geometry": {"type": "Point", "coordinates": [-83.9551869354, 38.0657276505]}, "type": "Feature", "properties": {"collection_times": [{"days": "Mon-Sat", "time": "9:00am"}, {"days": "Sun", "time": "Closed"}], "id": "4035300024", "name": "USPS COLLECTION BOX - BLUE BOX", "address": {"city": "MT STERLING", "state": "KY", "street": "800 INDIAN MOUND DR", "postcode": "40353"}}},
{"geometry": {"type": "Point", "coordinates": [-83.9430307222, 38.0548775259]}, "type": "Feature", "properties": {"collection_times": [{"days": "Mon-Fri", "time": "4:30pm"}, {"days": "Sat", "time": "3:00pm"}, {"days": "Sun", "time": "Closed"}], "id": "4035300025", "name": "USPS COLLECTION BOX - PO LOBBY", "address": {"city": "MT STERLING", "state": "KY", "street": "108 W LOCUST ST", "postcode": "40353"}}},
{"geometry": {"type": "Point", "coordinates": [-83.9430307222, 38.0548775259]}, "type": "Feature", "properties": {"collection_times": [{"days": "Mon-Fri", "time": "4:30pm"}, {"days": "Sat", "time": "3:00pm"}, {"days": "Sun", "time": "Closed"}], "id": "4035300026", "name": "USPS COLLECTION BOX - PO LOBBY", "address": {"city": "MT STERLING", "state": "KY", "street": "108 W LOCUST ST", "postcode": "40353"}}},
{"geometry": {"type": "Point", "coordinates": [-83.8969756154, 38.099234673]}, "type": "Feature", "properties": {"collection_times": [{"days": "Mon-Sat", "time": "9:00am"}, {"days": "Sun", "time": "Closed"}], "id": "4035300028", "name": "USPS COLLECTION BOX - BLUE BOX", "address": {"city": "MT STERLING", "state": "KY", "street": "3060 OWINGSVILLE RD", "postcode": "40353"}}},
{"geometry": {"type": "Point", "coordinates": [-83.9444589523, 38.0647563169]}, "type": "Feature", "properties": {"collection_times": [{"days": "Mon-Sat", "time": "1:00pm"}, {"days": "Sun", "time": "Closed"}], "id": "4035300029", "name": "USPS COLLECTION BOX - BLUE BOX", "address": {"city": "MT STERLING", "state": "KY", "street": "509 WILLIN WAY", "postcode": "40353"}}},
{"geometry": {"type": "Point", "coordinates": [-83.9552746178, 38.0636917077]}, "type": "Feature", "properties": {"collection_times": [{"days": "Mon-Sat", "time": "9:00am"}, {"days": "Sun", "time": "Closed"}], "id": "4035300030", "name": "USPS COLLECTION BOX - BLUE BOX", "address": {"city": "MT STERLING", "state": "KY", "street": "900 INDIAN MOUND DR", "postcode": "40353"}}},
{"geometry": {"type": "Point", "coordinates": [-84.9059275277, 38.6154275144]}, "type": "Feature", "properties": {"collection_times": [{"days": "Mon-Fri", "time": "3:45pm"}, {"days": "Sat", "time": "11:45am"}, {"days": "Sun", "time": "Closed"}], "id": "4035500000", "name": "USPS COLLECTION BOX - BLUE BOX", "address": {"city": "NEW LIBERTY", "state": "KY", "street": "345 HIGHWAY 227 N", "postcode": "40355"}}},
{"geometry": {"type": "Point", "coordinates": [-84.9059275277, 38.6154275144]}, "type": "Feature", "properties": {"collection_times": [{"days": "Mon-Fri", "time": "3:45pm"}, {"days": "Sat", "time": "11:45am"}, {"days": "Sun", "time": "Closed"}], "id": "4035500001", "name": "USPS COLLECTION BOX - PO LOBBY", "address": {"city": "NEW LIBERTY", "state": "KY", "street": "345 HIGHWAY 227 N", "postcode": "40355"}}},
{"geometry": {"type": "Point", "coordinates": [-84.5747352344, 37.875806513]}, "type": "Feature", "properties": {"collection_times": [{"days": "Mon-Fri", "time": "5:00pm"}, {"days": "Sat", "time": "3:00pm"}, {"days": "Sun", "time": "Closed"}], "id": "4035600000", "name": "USPS COLLECTION BOX - BLUE BOX", "address": {"city": "NICHOLASVILLE", "state": "KY", "street": "410 S MAIN ST", "postcode": "40356"}}},
{"geometry": {"type": "Point", "coordinates": [-84.5747352344, 37.875806513]}, "type": "Feature", "properties": {"collection_times": [{"days": "Mon-Fri", "time": "5:00pm"}, {"days": "Sat", "time": "3:00pm"}, {"days": "Sun", "time": "Closed"}], "id": "4035600001", "name": "USPS COLLECTION BOX - BLUE BOX", "address": {"city": "NICHOLASVILLE", "state": "KY", "street": "410 S MAIN ST", "postcode": "40356"}}},
{"geometry": {"type": "Point", "coordinates": [-84.5747352344, 37.875806513]}, "type": "Feature", "properties": {"collection_times": [{"days": "Mon-Fri", "time": "5:00pm"}, {"days": "Sat", "time": "3:00pm"}, {"days": "Sun", "time": "Closed"}], "id": "4035600002", "name": "USPS COLLECTION BOX - BLUE BOX", "address": {"city": "NICHOLASVILLE", "state": "KY", "street": "410 S MAIN ST", "postcode": "40356"}}},
{"geometry": {"type": "Point", "coordinates": [-84.545083185, 37.9356666025]}, "type": "Feature", "properties": {"collection_times": [{"days": "Mon-Sat", "time": "9:00am"}, {"days": "Sun", "time": "Closed"}], "id": "4035600004", "name": "USPS COLLECTION BOX - BLUE BOX", "address": {"city": "NICHOLASVILLE", "state": "KY", "street": "2005 PARK CENTRAL AVE", "postcode": "40356"}}},
{"geometry": {"type": "Point", "coordinates": [-84.5653148072, 37.8986186137]}, "type": "Feature", "properties": {"collection_times": [{"days": "Mon-Fri", "time": "2:30pm"}, {"days": "Sat", "time": "10:00am"}, {"days": "Sun", "time": "Closed"}], "id": "4035600013", "name": "USPS COLLECTION BOX - BLUE BOX", "address": {"city": "NICHOLASVILLE", "state": "KY", "street": "1021 N MAIN ST", "postcode": "40356"}}},
{"geometry": {"type": "Point", "coordinates": [-84.5728779888, 37.880706329]}, "type": "Feature", "properties": {"collection_times": [{"days": "Mon-Fri", "time": "4:15pm"}, {"days": "Sat", "time": "10:00am"}, {"days": "Sun", "time": "Closed"}], "id": "4035600017", "name": "USPS COLLECTION BOX - BLUE BOX", "address": {"city": "NICHOLASVILLE", "state": "KY", "street": "101 N MAIN ST", "postcode": "40356"}}},
{"geometry": {"type": "Point", "coordinates": [-84.5661940003, 37.8962757783]}, "type": "Feature", "properties": {"collection_times": [{"days": "Mon-Fri", "time": "2:30pm"}, {"days": "Sat", "time": "10:00am"}, {"days": "Sun", "time": "Closed"}], "id": "4035600022", "name": "USPS COLLECTION BOX - BLUE BOX", "address": {"city": "NICHOLASVILLE", "state": "KY", "street": "960 N MAIN ST", "postcode": "40356"}}},
{"geometry": {"type": "Point", "coordinates": [-84.5747352344, 37.875806513]}, "type": "Feature", "properties": {"collection_times": [{"days": "Mon-Fri", "time": "5:00pm"}, {"days": "Sat", "time": "3:00pm"}, {"days": "Sun", "time": "Closed"}], "id": "4035600023", "name": "USPS COLLECTION BOX - PO LOBBY", "address": {"city": "NICHOLASVILLE", "state": "KY", "street": "410 S MAIN ST", "postcode": "40356"}}},
{"geometry": {"type": "Point", "coordinates": [-84.5747352344, 37.875806513]}, "type": "Feature", "properties": {"collection_times": [{"days": "Mon-Fri", "time": "5:00pm"}, {"days": "Sat", "time": "3:00pm"}, {"days": "Sun", "time": "Closed"}], "id": "4035600024", "name": "USPS COLLECTION BOX - PO LOBBY", "address": {"city": "NICHOLASVILLE", "state": "KY", "street": "410 S MAIN ST", "postcode": "40356"}}},
{"geometry": {"type": "Point", "coordinates": [-84.5788306383, 37.8684130195]}, "type": "Feature", "properties": {"collection_times": [{"days": "Mon-Fri", "time": "2:30pm"}, {"days": "Sat", "time": "10:00am"}, {"days": "Sun", "time": "Closed"}], "id": "4035600026", "name": "USPS COLLECTION BOX - BLUE BOX", "address": {"city": "NICHOLASVILLE", "state": "KY", "street": "104 EDGEWOOD PLAZA DR", "postcode": "40356"}}},
{"geometry": {"type": "Point", "coordinates": [-84.5632640813, 37.9019049537]}, "type": "Feature", "properties": {"collection_times": [{"days": "Mon-Fri", "time": "2:30pm"}, {"days": "Sat", "time": "10:00am"}, {"days": "Sun", "time": "Closed"}], "id": "4035600028", "name": "USPS COLLECTION BOX - BLUE BOX", "address": {"city": "NICHOLASVILLE", "state": "KY", "street": "100 JOHN SUTHERLAND DR", "postcode": "40356"}}},
{"geometry": {"type": "Point", "coordinates": [-84.5728779888, 37.880706329]}, "type": "Feature", "properties": {"collection_times": [{"days": "Mon-Fri", "time": "4:15pm"}, {"days": "Sat", "time": "10:00am"}, {"days": "Sun", "time": "Closed"}], "id": "4035600030", "name": "USPS COLLECTION BOX - BLUE BOX", "address": {"city": "NICHOLASVILLE", "state": "KY", "street": "101 N MAIN ST", "postcode": "40356"}}},
{"geometry": {"type": "Point", "coordinates": [-84.5750806584, 37.8748802561]}, "type": "Feature", "properties": {"collection_times": [{"days": "Mon-Fri", "time": "2:30pm"}, {"days": "Sat", "time": "10:00am"}, {"days": "Sun", "time": "Closed"}], "id": "4035600031", "name": "USPS COLLECTION BOX - BLUE BOX", "address": {"city": "NICHOLASVILLE", "state": "KY", "street": "508 N MAIN ST", "postcode": "40356"}}},
{"geometry": {"type": "Point", "coordinates": [-84.5645594214, 37.9002050417]}, "type": "Feature", "properties": {"collection_times": [{"days": "Mon-Fri", "time": "2:30pm"}, {"days": "Sat", "time": "10:00am"}, {"days": "Sun", "time": "Closed"}], "id": "4035600032", "name": "USPS COLLECTION BOX - BLUE BOX", "address": {"city": "NICHOLASVILLE", "state": "KY", "street": "1024 N MAIN ST", "postcode": "40356"}}},
{"geometry": {"type": "Point", "coordinates": [-84.1100213924, 38.1449927656]}, "type": "Feature", "properties": {"collection_times": [{"days": "Mon-Fri", "time": "1:00pm"}, {"days": "Sat", "time": "12:00pm"}, {"days": "Sun", "time": "Closed"}], "id": "4035700000", "name": "USPS COLLECTION BOX - BLUE BOX", "address": {"city": "N MIDDLETOWN", "state": "KY", "street": "216 E MAIN ST", "postcode": "40357"}}},
{"geometry": {"type": "Point", "coordinates": [-84.1100213924, 38.1449927656]}, "type": "Feature", "properties": {"collection_times": [{"days": "Mon-Fri", "time": "1:00pm"}, {"days": "Sat", "time": "12:00pm"}, {"days": "Sun", "time": "Closed"}], "id": "4035700001", "name": "USPS COLLECTION BOX - PO LOBBY", "address": {"city": "N MIDDLETOWN", "state": "KY", "street": "216 E MAIN ST", "postcode": "40357"}}},
{"geometry": {"type": "Point", "coordinates": [-83.6921943518, 38.0916968799]}, "type": "Feature", "properties": {"collection_times": [{"days": "Mon-Fri", "time": "4:30pm"}, {"days": "Sat", "time": "12:00pm"}, {"days": "Sun", "time": "Closed"}], "id": "4035800000", "name": "USPS COLLECTION BOX - PO LOBBY", "address": {"city": "OLYMPIA", "state": "KY", "street": "5724 E HIGHWAY 36", "postcode": "40358"}}},
{"geometry": {"type": "Point", "coordinates": [-84.8367758249, 38.5390786468]}, "type": "Feature", "properties": {"collection_times": [{"days": "Mon-Fri", "time": "4:30pm"}, {"days": "Sat", "time": "12:00pm"}, {"days": "Sun", "time": "Closed"}], "id": "4035900001", "name": "USPS COLLECTION BOX - PO LOBBY", "address": {"city": "OWENTON", "state": "KY", "street": "1065 HIGHWAY 127 N", "postcode": "40359"}}},
{"geometry": {"type": "Point", "coordinates": [-84.8378252062, 38.5360010444]}, "type": "Feature", "properties": {"collection_times": [{"days": "Mon-Fri", "time": "2:45pm"}, {"days": "Sat", "time": "12:00pm"}, {"days": "Sun", "time": "Closed"}], "id": "4035900003", "name": "USPS COLLECTION BOX - BLUE BOX", "address": {"city": "OWENTON", "state": "KY", "street": "101 N MADISON ST", "postcode": "40359"}}},
{"geometry": {"type": "Point", "coordinates": [-84.8367758249, 38.5390786468]}, "type": "Feature", "properties": {"collection_times": [{"days": "Mon-Fri", "time": "4:00pm"}, {"days": "Sat", "time": "12:00pm"}, {"days": "Sun", "time": "Closed"}], "id": "4035900004", "name": "USPS COLLECTION BOX - BLUE BOX", "address": {"city": "OWENTON", "state": "KY", "street": "1065 HIGHWAY 127 N", "postcode": "40359"}}},
{"geometry": {"type": "Point", "coordinates": [-84.8367758249, 38.5390786468]}, "type": "Feature", "properties": {"collection_times": [{"days": "Mon-Fri", "time": "4:30pm"}, {"days": "Sat", "time": "12:00pm"}, {"days": "Sun", "time": "Closed"}], "id": "4035900005", "name": "USPS COLLECTION BOX - PO LOBBY", "address": {"city": "OWENTON", "state": "KY", "street": "1065 HIGHWAY 127 N", "postcode": "40359"}}},
{"geometry": {"type": "Point", "coordinates": [-83.763487051, 38.1449046967]}, "type": "Feature", "properties": {"collection_times": [{"days": "Mon-Fri", "time": "4:30pm"}, {"days": "Sat", "time": "12:00pm"}, {"days": "Sun", "time": "Closed"}], "id": "4036000000", "name": "USPS COLLECTION BOX - BLUE BOX", "address": {"city": "OWINGSVILLE", "state": "KY", "street": "95 E MAIN ST", "postcode": "40360"}}},
{"geometry": {"type": "Point", "coordinates": [-83.763487051, 38.1449046967]}, "type": "Feature", "properties": {"collection_times": [{"days": "Mon-Fri", "time": "4:30pm"}, {"days": "Sat", "time": "12:00pm"}, {"days": "Sun", "time": "Closed"}], "id": "4036000002", "name": "USPS COLLECTION BOX - PO LOBBY", "address": {"city": "OWINGSVILLE", "state": "KY", "street": "95 E MAIN ST", "postcode": "40360"}}},
{"geometry": {"type": "Point", "coordinates": [-83.7631258614, 38.1471228507]}, "type": "Feature", "properties": {"collection_times": [{"days": "Mon-Sat", "time": "10:00am"}, {"days": "Sun", "time": "Closed"}], "id": "4036000003", "name": "USPS COLLECTION BOX - BLUE BOX", "address": {"city": "OWINGSVILLE", "state": "KY", "street": "79 BLEVINS VALLEY RD", "postcode": "40360"}}},
{"geometry": {"type": "Point", "coordinates": [-84.2486227245, 38.2136817708]}, "type": "Feature", "properties": {"collection_times": [{"days": "Mon-Sat", "time": "9:00am"}, {"days": "Sun", "time": "Closed"}], "id": "4036100008", "name": "USPS COLLECTION BOX - BLUE BOX", "address": {"city": "PARIS", "state": "KY", "street": "400 MAIN ST", "postcode": "40361"}}},
{"geometry": {"type": "Point", "coordinates": [-84.108894421, 38.1450108138]}, "type": "Feature", "properties": {"collection_times": [{"days": "Mon-Fri", "time": "2:00pm"}, {"days": "Sat", "time": "9:00am"}, {"days": "Sun", "time": "Closed"}], "id": "4036100009", "name": "USPS COLLECTION BOX - BLUE BOX", "address": {"city": "PARIS", "state": "KY", "street": "301 MAIN ST", "postcode": "40361"}}},
{"geometry": {"type": "Point", "coordinates": [-84.2682590785, 38.1984092643]}, "type": "Feature", "properties": {"collection_times": [{"days": "Mon-Sat", "time": "9:30am"}, {"days": "Sun", "time": "Closed"}], "id": "4036100020", "name": "USPS COLLECTION BOX - BLUE BOX", "address": {"city": "PARIS", "state": "KY", "street": "1978 MAIN ST", "postcode": "40361"}}},
{"geometry": {"type": "Point", "coordinates": [-84.2234258271, 38.2051298761]}, "type": "Feature", "properties": {"collection_times": [{"days": "Mon-Sat", "time": "9:30am"}, {"days": "Sun", "time": "Closed"}], "id": "4036100022", "name": "USPS COLLECTION BOX - BLUE BOX", "address": {"city": "PARIS", "state": "KY", "street": "205 LETTON DR", "postcode": "40361"}}},
{"geometry": {"type": "Point", "coordinates": [-84.2547540813, 38.2102486687]}, "type": "Feature", "properties": {"collection_times": [{"days": "Mon-Fri", "time": "4:45pm"}, {"days": "Sat", "time": "12:00pm"}, {"days": "Sun", "time": "Closed"}], "id": "4036100026", "name": "USPS COLLECTION BOX - BLUE BOX", "address": {"city": "PARIS", "state": "KY", "street": "201 W 8TH ST", "postcode": "40361"}}},
{"geometry": {"type": "Point", "coordinates": [-84.2547540813, 38.2102486687]}, "type": "Feature", "properties": {"collection_times": [{"days": "Mon-Fri", "time": "4:45pm"}, {"days": "Sat", "time": "12:00pm"}, {"days": "Sun", "time": "Closed"}], "id": "4036100028", "name": "USPS COLLECTION BOX - PO LOBBY", "address": {"city": "PARIS", "state": "KY", "street": "201 W 8TH ST", "postcode": "40361"}}},
{"geometry": {"type": "Point", "coordinates": [-84.2547540813, 38.2102486687]}, "type": "Feature", "properties": {"collection_times": [{"days": "Mon-Fri", "time": "4:45pm"}, {"days": "Sat", "time": "12:00pm"}, {"days": "Sun", "time": "Closed"}], "id": "4036100036", "name": "USPS COLLECTION BOX - PO LOBBY", "address": {"city": "PARIS", "state": "KY", "street": "201 W 8TH ST", "postcode": "40361"}}},
{"geometry": {"type": "Point", "coordinates": [-84.2778035266, 38.1925595563]}, "type": "Feature", "properties": {"collection_times": [{"days": "Mon-Sat", "time": "9:30am"}, {"days": "Sun", "time": "Closed"}], "id": "4036100037", "name": "USPS COLLECTION BOX - BLUE BOX", "address": {"city": "PARIS", "state": "KY", "street": "101 REINHOLD ST", "postcode": "40361"}}},
{"geometry": {"type": "Point", "coordinates": [-84.9992426416, 38.5475760045]}, "type": "Feature", "properties": {"collection_times": [{"days": "Mon-Sat", "time": "10:00am"}, {"days": "Sun", "time": "Closed"}], "id": "4036300000", "name": "USPS COLLECTION BOX - PO LOBBY", "address": {"city": "PERRY PARK", "state": "KY", "street": "7020 SQUIRESVILLE RD", "postcode": "40363"}}},
{"geometry": {"type": "Point", "coordinates": [-84.9992426416, 38.5475760045]}, "type": "Feature", "properties": {"collection_times": [{"days": "Mon-Sat", "time": "10:00am"}, {"days": "Sun", "time": "Closed"}], "id": "4036300001", "name": "USPS COLLECTION BOX - BLUE BOX", "address": {"city": "PERRY PARK", "state": "KY", "street": "7020 SQUIRESVILLE RD", "postcode": "40363"}}},
{"geometry": {"type": "Point", "coordinates": [-84.5367338606, 38.3906420842]}, "type": "Feature", "properties": {"collection_times": [{"days": "Mon-Fri", "time": "3:30pm"}, {"days": "Sat", "time": "9:30am"}, {"days": "Sun", "time": "Closed"}], "id": "4037000000", "name": "USPS COLLECTION BOX - BLUE BOX", "address": {"city": "SADIEVILLE", "state": "KY", "street": "131 MAIN ST", "postcode": "40370"}}},
{"geometry": {"type": "Point", "coordinates": [-84.5367338606, 38.3906420842]}, "type": "Feature", "properties": {"collection_times": [{"days": "Mon-Fri", "time": "3:30pm"}, {"days": "Sat", "time": "9:30am"}, {"days": "Sun", "time": "Closed"}], "id": "4037000001", "name": "USPS COLLECTION BOX - PO LOBBY", "address": {"city": "SADIEVILLE", "state": "KY", "street": "131 MAIN ST", "postcode": "40370"}}},
{"geometry": {"type": "Point", "coordinates": [-83.6155330737, 38.1210397061]}, "type": "Feature", "properties": {"collection_times": [{"days": "Mon-Fri", "time": "4:15pm"}, {"days": "Sat", "time": "11:15am"}, {"days": "Sun", "time": "Closed"}], "id": "4037100000", "name": "USPS COLLECTION BOX - BLUE BOX", "address": {"city": "SALT LICK", "state": "KY", "street": "91 MAIN ST", "postcode": "40371"}}},
{"geometry": {"type": "Point", "coordinates": [-83.6155330737, 38.1210397061]}, "type": "Feature", "properties": {"collection_times": [{"days": "Mon-Fri", "time": "4:15pm"}, {"days": "Sat", "time": "11:15am"}, {"days": "Sun", "time": "Closed"}], "id": "4037100001", "name": "USPS COLLECTION BOX - PO LOBBY", "address": {"city": "SALT LICK", "state": "KY", "street": "91 MAIN ST", "postcode": "40371"}}},
{"geometry": {"type": "Point", "coordinates": [-84.8571040306, 37.9130451717]}, "type": "Feature", "properties": {"collection_times": [{"days": "Mon-Fri", "time": "3:40pm"}, {"days": "Sat", "time": "11:00am"}, {"days": "Sun", "time": "Closed"}], "id": "4037200000", "name": "USPS COLLECTION BOX - BLUE BOX", "address": {"city": "SALVISA", "state": "KY", "street": "355 MAIN ST", "postcode": "40372"}}},
{"geometry": {"type": "Point", "coordinates": [-84.8571040306, 37.9130451717]}, "type": "Feature", "properties": {"collection_times": [{"days": "Mon-Fri", "time": "3:40pm"}, {"days": "Sat", "time": "11:00am"}, {"days": "Sun", "time": "Closed"}], "id": "4037200001", "name": "USPS COLLECTION BOX - PO LOBBY", "address": {"city": "SALVISA", "state": "KY", "street": "355 MAIN ST", "postcode": "40372"}}},
{"geometry": {"type": "Point", "coordinates": [-83.9293888958, 38.2012093516]}, "type": "Feature", "properties": {"collection_times": [{"days": "Mon-Fri", "time": "1:30pm"}, {"days": "Sat", "time": "11:00am"}, {"days": "Sun", "time": "Closed"}], "id": "4037400000", "name": "USPS COLLECTION BOX - BLUE BOX", "address": {"city": "SHARPSBURG", "state": "KY", "street": "581 MAIN ST", "postcode": "40374"}}},
{"geometry": {"type": "Point", "coordinates": [-83.9293888958, 38.2012093516]}, "type": "Feature", "properties": {"collection_times": [{"days": "Mon-Fri", "time": "1:30pm"}, {"days": "Sat", "time": "11:00am"}, {"days": "Sun", "time": "Closed"}], "id": "4037400001", "name": "USPS COLLECTION BOX - PO LOBBY", "address": {"city": "SHARPSBURG", "state": "KY", "street": "581 MAIN ST", "postcode": "40374"}}},
{"geometry": {"type": "Point", "coordinates": [-84.6834432485, 38.2697377631]}, "type": "Feature", "properties": {"collection_times": [{"days": "Mon-Fri", "time": "4:15pm"}, {"days": "Sat", "time": "10:45am"}, {"days": "Sun", "time": "Closed"}], "id": "4037900000", "name": "USPS COLLECTION BOX - BLUE BOX", "address": {"city": "STAMPING GROUND", "state": "KY", "street": "3283 MAIN ST", "postcode": "40379"}}},
{"geometry": {"type": "Point", "coordinates": [-84.6834432485, 38.2697377631]}, "type": "Feature", "properties": {"collection_times": [{"days": "Mon-Fri", "time": "3:00pm"}, {"days": "Sat", "time": "10:45am"}, {"days": "Sun", "time": "Closed"}], "id": "4037900001", "name": "USPS COLLECTION BOX - PO LOBBY", "address": {"city": "STAMPING GROUND", "state": "KY", "street": "3283 MAIN ST", "postcode": "40379"}}},
{"geometry": {"type": "Point", "coordinates": [-84.6834432485, 38.2697377631]}, "type": "Feature", "properties": {"collection_times": [{"days": "Mon-Fri", "time": "3:00pm"}, {"days": "Sat", "time": "10:45am"}, {"days": "Sun", "time": "Closed"}], "id": "4037900002", "name": "USPS COLLECTION BOX - PO LOBBY", "address": {"city": "STAMPING GROUND", "state": "KY", "street": "3283 MAIN ST", "postcode": "40379"}}},
{"geometry": {"type": "Point", "coordinates": [-83.8589741392, 37.8429017215]}, "type": "Feature", "properties": {"collection_times": [{"days": "Mon-Fri", "time": "4:00pm"}, {"days": "Sat", "time": "2:30pm"}, {"days": "Sun", "time": "Closed"}], "id": "4038000000", "name": "USPS COLLECTION BOX - BLUE BOX", "address": {"city": "STANTON", "state": "KY", "street": "165 S SIPPLE ST", "postcode": "40380"}}},
{"geometry": {"type": "Point", "coordinates": [-83.8589741392, 37.8429017215]}, "type": "Feature", "properties": {"collection_times": [{"days": "Mon-Fri", "time": "4:00pm"}, {"days": "Sat", "time": "2:30pm"}, {"days": "Sun", "time": "Closed"}], "id": "4038000004", "name": "USPS COLLECTION BOX - PO LOBBY", "address": {"city": "STANTON", "state": "KY", "street": "165 S SIPPLE ST", "postcode": "40380"}}},
{"geometry": {"type": "Point", "coordinates": [-84.7317127061, 38.0515670071]}, "type": "Feature", "properties": {"collection_times": [{"days": "Mon-Fri", "time": "4:00pm"}, {"days": "Sat", "time": "1:30pm"}, {"days": "Sun", "time": "Closed"}], "id": "4038300005", "name": "USPS COLLECTION BOX - BLUE BOX", "address": {"city": "VERSAILLES", "state": "KY", "street": "121 ROSE HILL AVE", "postcode": "40383"}}},
{"geometry": {"type": "Point", "coordinates": [-84.7183199945, 38.0643063255]}, "type": "Feature", "properties": {"collection_times": [{"days": "Mon-Fri", "time": "5:00pm"}, {"days": "Sat", "time": "4:00pm"}, {"days": "Sun", "time": "Closed"}], "id": "4038300006", "name": "USPS COLLECTION BOX - PO LOBBY", "address": {"city": "VERSAILLES", "state": "KY", "street": "149 FIELDVIEW DR", "postcode": "40383"}}},
{"geometry": {"type": "Point", "coordinates": [-84.7285939529, 38.0535247442]}, "type": "Feature", "properties": {"collection_times": [{"days": "Mon-Fri", "time": "4:00pm"}, {"days": "Sat", "time": "1:30pm"}, {"days": "Sun", "time": "Closed"}], "id": "4038300008", "name": "USPS COLLECTION BOX - BLUE BOX", "address": {"city": "VERSAILLES", "state": "KY", "street": "146 E GREEN ST", "postcode": "40383"}}},
{"geometry": {"type": "Point", "coordinates": [-84.7354130017, 38.0436695731]}, "type": "Feature", "properties": {"collection_times": [{"days": "Mon-Sat", "time": "12:30pm"}, {"days": "Sun", "time": "Closed"}], "id": "4038300014", "name": "USPS COLLECTION BOX - BLUE BOX", "address": {"city": "VERSAILLES", "state": "KY", "street": "348 HIGHLAND AVE", "postcode": "40383"}}},
{"geometry": {"type": "Point", "coordinates": [-84.7330719259, 38.0458864382]}, "type": "Feature", "properties": {"collection_times": [{"days": "Mon-Fri", "time": "1:00pm"}, {"days": "Sat", "time": "12:30pm"}, {"days": "Sun", "time": "Closed"}], "id": "4038300015", "name": "USPS COLLECTION BOX - BLUE BOX", "address": {"city": "VERSAILLES", "state": "KY", "street": "231 MACEY AVE", "postcode": "40383"}}},
{"geometry": {"type": "Point", "coordinates": [-84.7304847947, 38.0516521802]}, "type": "Feature", "properties": {"collection_times": [{"days": "Mon-Fri", "time": "4:00pm"}, {"days": "Sat", "time": "1:30pm"}, {"days": "Sun", "time": "Closed"}], "id": "4038300017", "name": "USPS COLLECTION BOX - BLUE BOX", "address": {"city": "VERSAILLES", "state": "KY", "street": "196 S MAIN ST", "postcode": "40383"}}},
{"geometry": {"type": "Point", "coordinates": [-84.7302769492, 38.053866695]}, "type": "Feature", "properties": {"collection_times": [{"days": "Mon-Fri", "time": "4:00pm"}, {"days": "Sat", "time": "1:30pm"}, {"days": "Sun", "time": "Closed"}], "id": "4038300019", "name": "USPS COLLECTION BOX - BLUE BOX", "address": {"city": "VERSAILLES", "state": "KY", "street": "175 N MAIN ST", "postcode": "40383"}}},
{"geometry": {"type": "Point", "coordinates": [-84.7239195476, 38.0277829296]}, "type": "Feature", "properties": {"collection_times": [{"days": "Mon-Sat", "time": "11:00am"}, {"days": "Sun", "time": "Closed"}], "id": "4038300022", "name": "USPS COLLECTION BOX - BLUE BOX", "address": {"city": "VERSAILLES", "state": "KY", "street": "501 MARSAILLES RD", "postcode": "40383"}}},
{"geometry": {"type": "Point", "coordinates": [-84.7163969364, 38.0511896432]}, "type": "Feature", "properties": {"collection_times": [{"days": "Mon-Fri", "time": "4:00pm"}, {"days": "Sat", "time": "1:30pm"}, {"days": "Sun", "time": "Closed"}], "id": "4038300023", "name": "USPS COLLECTION BOX - BLUE BOX", "address": {"city": "VERSAILLES", "state": "KY", "street": "480 LEXINGTON RD", "postcode": "40383"}}},
{"geometry": {"type": "Point", "coordinates": [-84.7160384998, 38.0531155004]}, "type": "Feature", "properties": {"collection_times": [{"days": "Mon-Sat", "time": "9:30am"}, {"days": "Sun", "time": "Closed"}], "id": "4038300024", "name": "USPS COLLECTION BOX - BLUE BOX", "address": {"city": "VERSAILLES", "state": "KY", "street": "100 UNITED DR", "postcode": "40383"}}},
{"geometry": {"type": "Point", "coordinates": [-84.7183199945, 38.0643063255]}, "type": "Feature", "properties": {"collection_times": [{"days": "Mon-Fri", "time": "5:00pm"}, {"days": "Sat", "time": "4:00pm"}, {"days": "Sun", "time": "Closed"}], "id": "4038300026", "name": "USPS COLLECTION BOX - BLUE BOX", "address": {"city": "VERSAILLES", "state": "KY", "street": "149 FIELDVIEW DR", "postcode": "40383"}}},
{"geometry": {"type": "Point", "coordinates": [-84.7183199945, 38.0643063255]}, "type": "Feature", "properties": {"collection_times": [{"days": "Mon-Fri", "time": "5:00pm"}, {"days": "Sat", "time": "4:00pm"}, {"days": "Sun", "time": "Closed"}], "id": "4038300027", "name": "USPS COLLECTION BOX - BLUE BOX", "address": {"city": "VERSAILLES", "state": "KY", "street": "149 FIELDVIEW DR", "postcode": "40383"}}},
{"geometry": {"type": "Point", "coordinates": [-84.7303570351, 38.0526044622]}, "type": "Feature", "properties": {"collection_times": [{"days": "Mon-Fri", "time": "4:10pm"}, {"days": "Sat", "time": "1:30pm"}, {"days": "Sun", "time": "Closed"}], "id": "4038300028", "name": "USPS COLLECTION BOX - BLUE BOX", "address": {"city": "VERSAILLES", "state": "KY", "street": "103 S MAIN ST", "postcode": "40383"}}},
{"geometry": {"type": "Point", "coordinates": [-84.7288144566, 38.052321735]}, "type": "Feature", "properties": {"collection_times": [{"days": "Mon-Fri", "time": "3:30pm"}, {"days": "Sat", "time": "1:30pm"}, {"days": "Sun", "time": "Closed"}], "id": "4038300030", "name": "USPS COLLECTION BOX - BLUE BOX", "address": {"city": "VERSAILLES", "state": "KY", "street": "120 S LOCUST ST", "postcode": "40383"}}},
{"geometry": {"type": "Point", "coordinates": [-84.1254058691, 37.7587675319]}, "type": "Feature", "properties": {"collection_times": [{"days": "Mon-Fri", "time": "4:30pm"}, {"days": "Sat", "time": "11:00am"}, {"days": "Sun", "time": "Closed"}], "id": "4038500000", "name": "USPS COLLECTION BOX - BLUE BOX", "address": {"city": "WACO", "state": "KY", "street": "4045 NEW IRVINE RD", "postcode": "40385"}}},
{"geometry": {"type": "Point", "coordinates": [-84.1254058691, 37.7587675319]}, "type": "Feature", "properties": {"collection_times": [{"days": "Mon-Fri", "time": "4:30pm"}, {"days": "Sat", "time": "11:00am"}, {"days": "Sun", "time": "Closed"}], "id": "4038500001", "name": "USPS COLLECTION BOX - PO LOBBY", "address": {"city": "WACO", "state": "KY", "street": "4045 NEW IRVINE RD", "postcode": "40385"}}},
{"geometry": {"type": "Point", "coordinates": [-83.4784585176, 37.967330247]}, "type": "Feature", "properties": {"collection_times": [{"days": "Mon-Fri", "time": "3:15pm"}, {"days": "Sat", "time": "11:30am"}, {"days": "Sun", "time": "Closed"}], "id": "4038700000", "name": "USPS COLLECTION BOX - PO LOBBY", "address": {"city": "WELLINGTON", "state": "KY", "street": "8483 US HIGHWAY 460 E", "postcode": "40387"}}},
{"geometry": {"type": "Point", "coordinates": [-83.4784585176, 37.967330247]}, "type": "Feature", "properties": {"collection_times": [{"days": "Mon-Fri", "time": "3:15pm"}, {"days": "Sat", "time": "11:30am"}, {"days": "Sun", "time": "Closed"}], "id": "4038700001", "name": "USPS COLLECTION BOX - BLUE BOX", "address": {"city": "WELLINGTON", "state": "KY", "street": "8483 US HIGHWAY 460 E", "postcode": "40387"}}},
{"geometry": {"type": "Point", "coordinates": [-84.6602761801, 37.8592001351]}, "type": "Feature", "properties": {"collection_times": [{"days": "Mon-Fri", "time": "4:15pm"}, {"days": "Sat", "time": "12:45pm"}, {"days": "Sun", "time": "Closed"}], "id": "4039000000", "name": "USPS COLLECTION BOX - BLUE BOX", "address": {"city": "WILMORE", "state": "KY", "street": "301 E MAIN ST", "postcode": "40390"}}},
{"geometry": {"type": "Point", "coordinates": [-84.6502857444, 37.8758670338]}, "type": "Feature", "properties": {"collection_times": [{"days": "Mon-Sat", "time": "8:45am"}, {"days": "Sun", "time": "Closed"}], "id": "4039000001", "name": "USPS COLLECTION BOX - BLUE BOX", "address": {"city": "WILMORE", "state": "KY", "street": "100 VETERANS DR", "postcode": "40390"}}},
{"geometry": {"type": "Point", "coordinates": [-84.6622801126, 37.8623089512]}, "type": "Feature", "properties": {"collection_times": [{"days": "Mon-Sat", "time": "8:00am"}, {"days": "Sun", "time": "Closed"}], "id": "4039000003", "name": "USPS COLLECTION BOX - BLUE BOX", "address": {"city": "WILMORE", "state": "KY", "street": "1 MACKLEM DR", "postcode": "40390"}}},
{"geometry": {"type": "Point", "coordinates": [-84.6525467262, 37.8732714319]}, "type": "Feature", "properties": {"collection_times": [{"days": "Mon-Sat", "time": "8:00am"}, {"days": "Sun", "time": "Closed"}], "id": "4039000004", "name": "USPS COLLECTION BOX - BLUE BOX", "address": {"city": "WILMORE", "state": "KY", "street": "1125 LEXINGTON RD", "postcode": "40390"}}},
{"geometry": {"type": "Point", "coordinates": [-84.6602761801, 37.8592001351]}, "type": "Feature", "properties": {"collection_times": [{"days": "Mon-Fri", "time": "4:15pm"}, {"days": "Sat", "time": "12:45pm"}, {"days": "Sun", "time": "Closed"}], "id": "4039000010", "name": "USPS COLLECTION BOX - PO LOBBY", "address": {"city": "WILMORE", "state": "KY", "street": "301 E MAIN ST", "postcode": "40390"}}},
{"geometry": {"type": "Point", "coordinates": [-84.198393423, 37.9780490961]}, "type": "Feature", "properties": {"collection_times": [{"days": "Mon-Sat", "time": "9:00am"}, {"days": "Sun", "time": "Closed"}], "id": "4039100001", "name": "USPS COLLECTION BOX - BLUE BOX", "address": {"city": "WINCHESTER", "state": "KY", "street": "740 BYPASS RD", "postcode": "40391"}}},
{"geometry": {"type": "Point", "coordinates": [-84.1779904644, 37.9931031305]}, "type": "Feature", "properties": {"collection_times": [{"days": "Mon-Fri", "time": "2:30pm"}, {"days": "Sat", "time": "9:30am"}, {"days": "Sun", "time": "Closed"}], "id": "4039100017", "name": "USPS COLLECTION BOX - BLUE BOX", "address": {"city": "WINCHESTER", "state": "KY", "street": "25 WALL ST", "postcode": "40391"}}},
{"geometry": {"type": "Point", "coordinates": [-84.1756194026, 37.996131162]}, "type": "Feature", "properties": {"collection_times": [{"days": "Mon-Fri", "time": "5:15pm"}, {"days": "Sat", "time": "3:00pm"}, {"days": "Sun", "time": "Closed"}], "id": "4039100020", "name": "USPS COLLECTION BOX - BLUE BOX", "address": {"city": "WINCHESTER", "state": "KY", "street": "120 N MAIN ST", "postcode": "40391"}}},
{"geometry": {"type": "Point", "coordinates": [-84.1756194026, 37.996131162]}, "type": "Feature", "properties": {"collection_times": [{"days": "Mon-Fri", "time": "5:15pm"}, {"days": "Sat", "time": "3:30pm"}, {"days": "Sun", "time": "Closed"}], "id": "4039100024", "name": "USPS COLLECTION BOX - PO LOBBY", "address": {"city": "WINCHESTER", "state": "KY", "street": "120 N MAIN ST", "postcode": "40391"}}},
{"geometry": {"type": "Point", "coordinates": [-84.1970073623, 38.0000801974]}, "type": "Feature", "properties": {"collection_times": [{"days": "Mon-Fri", "time": "2:30pm"}, {"days": "Sat", "time": "9:30am"}, {"days": "Sun", "time": "Closed"}], "id": "4039100029", "name": "USPS COLLECTION BOX - BLUE BOX", "address": {"city": "WINCHESTER", "state": "KY", "street": "175 HOSPITAL DR", "postcode": "40391"}}},
{"geometry": {"type": "Point", "coordinates": [-84.1443037306, 37.9707387102]}, "type": "Feature", "properties": {"collection_times": [{"days": "Mon-Fri", "time": "12:00pm"}, {"days": "Sat", "time": "10:00am"}, {"days": "Sun", "time": "Closed"}], "id": "4039100030", "name": "USPS COLLECTION BOX - BLUE BOX", "address": {"city": "WINCHESTER", "state": "KY", "street": "695 BULLION BLVD", "postcode": "40391"}}},
{"geometry": {"type": "Point", "coordinates": [-84.1992416145, 37.9792526687]}, "type": "Feature", "properties": {"collection_times": [{"days": "Mon-Fri", "time": "2:30pm"}, {"days": "Sat", "time": "9:30am"}, {"days": "Sun", "time": "Closed"}], "id": "4039100031", "name": "USPS COLLECTION BOX - BLUE BOX", "address": {"city": "WINCHESTER", "state": "KY", "street": "865 BYPASS RD", "postcode": "40391"}}}
]}
