{"type": "FeatureCollection", "features": [
{"geometry": {"type": "Point", "coordinates": [-84.0264411907, 37.3042579942]}, "type": "Feature", "properties": {"collection_times": [{"days": "Mon-Fri", "time": "4:00pm"}, {"days": "Sat", "time": "12:00pm"}, {"days": "Sun", "time": "Closed"}], "id": "4040200000", "name": "USPS COLLECTION BOX - BLUE BOX", "address": {"city": "ANNVILLE", "state": "KY", "street": "3560 HIGHWAY 3630", "postcode": "40402"}}},
{"geometry": {"type": "Point", "coordinates": [-83.9529618183, 37.3238463076]}, "type": "Feature", "properties": {"collection_times": [{"days": "Mon-Fri", "time": "4:00pm"}, {"days": "Sat", "time": "12:00pm"}, {"days": "Sun", "time": "Closed"}], "id": "4040200001", "name": "USPS COLLECTION BOX - PO LOBBY", "address": {"city": "ANNVILLE", "state": "KY", "street": "3560 HIGHWAY 30 W", "postcode": "40402"}}},
{"geometry": {"type": "Point", "coordinates": [-84.3039041076, 37.5681342949]}, "type": "Feature", "properties": {"collection_times": [{"days": "Mon-Fri", "time": "10:00am"}, {"days": "Sat", "time": "9:30am"}, {"days": "Sun", "time": "Closed"}], "id": "4040300006", "name": "USPS COLLECTION BOX - BLUE BOX", "address": {"city": "BEREA", "state": "KY", "street": "707 CHESTNUT ST", "postcode": "40403"}}},
{"geometry": {"type": "Point", "coordinates": [-84.2557060626, 37.5750046191]}, "type": "Feature", "properties": {"collection_times": [{"days": "Mon-Sat", "time": "8:30am"}, {"days": "Sun", "time": "Closed"}], "id": "4040300008", "name": "USPS COLLECTION BOX - BLUE BOX", "address": {"city": "BEREA", "state": "KY", "street": "378 PAINT LICK RD", "postcode": "40403"}}},
{"geometry": {"type": "Point", "coordinates": [-84.3154153623, 37.6049198168]}, "type": "Feature", "properties": {"collection_times": [{"days": "Mon-Fri", "time": "10:00am"}, {"days": "Sat", "time": "9:30am"}, {"days": "Sun", "time": "Closed"}], "id": "4040300014", "name": "USPS COLLECTION BOX - BLUE BOX", "address": {"city": "BEREA", "state": "KY", "street": "104 LEGACY DR", "postcode": "40403"}}},
{"geometry": {"type": "Point", "coordinates": [-84.2936824927, 37.5866279569]}, "type": "Feature", "properties": {"collection_times": [{"days": "Mon-Fri", "time": "5:10pm"}, {"days": "Sat", "time": "3:45pm"}, {"days": "Sun", "time": "Closed"}], "id": "4040300022", "name": "USPS COLLECTION BOX - BLUE BOX", "address": {"city": "BEREA", "state": "KY", "street": "222 GLADES RD", "postcode": "40403"}}},
{"geometry": {"type": "Point", "coordinates": [-84.2936824927, 37.5866279569]}, "type": "Feature", "properties": {"collection_times": [{"days": "Mon-Fri", "time": "5:10pm"}, {"days": "Sat", "time": "3:45pm"}, {"days": "Sun", "time": "Closed"}], "id": "4040300023", "name": "USPS COLLECTION BOX - BLUE BOX", "address": {"city": "BEREA", "state": "KY", "street": "222 GLADES RD", "postcode": "40403"}}},
{"geometry": {"type": "Point", "coordinates": [-84.2936824927, 37.5866279569]}, "type": "Feature", "properties": {"collection_times": [{"days": "Mon-Fri", "time": "5:10pm"}, {"days": "Sat", "time": "3:45pm"}, {"days": "Sun", "time": "Closed"}], "id": "4040300025", "name": "USPS COLLECTION BOX - PO LOBBY", "address": {"city": "BEREA", "state": "KY", "street": "222 GLADES RD", "postcode": "40403"}}},
{"geometry": {"type": "Point", "coordinates": [-84.3213910609, 37.5881296111]}, "type": "Feature", "properties": {"collection_times": [{"days": "Mon-Fri", "time": "12:00pm"}, {"days": "Sat", "time": "11:30am"}, {"days": "Sun", "time": "Closed"}], "id": "4040300026", "name": "USPS COLLECTION BOX - BLUE BOX", "address": {"city": "BEREA", "state": "KY", "street": "100 OAK MEADOW DR", "postcode": "40403"}}},
{"geometry": {"type": "Point", "coordinates": [-84.3228886102, 37.5981851752]}, "type": "Feature", "properties": {"collection_times": [{"days": "Mon-Sat", "time": "12:00pm"}, {"days": "Sun", "time": "Closed"}], "id": "4040300029", "name": "USPS COLLECTION BOX - BLUE BOX", "address": {"city": "BEREA", "state": "KY", "street": "201 PAULINE DR", "postcode": "40403"}}},
{"geometry": {"type": "Point", "coordinates": [-85.2876172144, 37.5272361307]}, "type": "Feature", "properties": {"collection_times": [{"days": "Mon-Fri", "time": "4:00pm"}, {"days": "Sat", "time": "11:30am"}, {"days": "Sun", "time": "Closed"}], "id": "4040500000", "name": "USPS COLLECTION BOX - BLUE BOX", "address": {"city": "BIG HILL", "state": "KY", "street": "10050 BATTLEFIELD MEMORIAL HWY", "postcode": "40405"}}},
{"geometry": {"type": "Point", "coordinates": [-85.2876172144, 37.5272361307]}, "type": "Feature", "properties": {"collection_times": [{"days": "Mon-Fri", "time": "4:00pm"}, {"days": "Sat", "time": "11:30am"}, {"days": "Sun", "time": "Closed"}], "id": "4040500001", "name": "USPS COLLECTION BOX - PO LOBBY", "address": {"city": "BIG HILL", "state": "KY", "street": "10050 BATTLEFIELD MEMORIAL HWY", "postcode": "40405"}}},
{"geometry": {"type": "Point", "coordinates": [-84.428335704, 37.3874297402]}, "type": "Feature", "properties": {"collection_times": [{"days": "Mon-Fri", "time": "3:45pm"}, {"days": "Sat", "time": "12:15pm"}, {"days": "Sun", "time": "Closed"}], "id": "4040900000", "name": "USPS COLLECTION BOX - BLUE BOX", "address": {"city": "BRODHEAD", "state": "KY", "street": "170 W MAIN ST", "postcode": "40409"}}},
{"geometry": {"type": "Point", "coordinates": [-84.428335704, 37.3874297402]}, "type": "Feature", "properties": {"collection_times": [{"days": "Mon-Fri", "time": "3:45pm"}, {"days": "Sat", "time": "12:15pm"}, {"days": "Sun", "time": "Closed"}], "id": "4040900001", "name": "USPS COLLECTION BOX - PO LOBBY", "address": {"city": "BRODHEAD", "state": "KY", "street": "170 W MAIN ST", "postcode": "40409"}}},
{"geometry": {"type": "Point", "coordinates": [-84.6535912222, 37.717799196]}, "type": "Feature", "properties": {"collection_times": [{"days": "Mon-Fri", "time": "4:30pm"}, {"days": "Sat", "time": "11:00am"}, {"days": "Sun", "time": "Closed"}], "id": "4041000000", "name": "USPS COLLECTION BOX - PO LOBBY", "address": {"city": "BRYANTSVILLE", "state": "KY", "street": "302 BRYANTSVILLE RD", "postcode": "40410"}}},
{"geometry": {"type": "Point", "coordinates": [-84.6535912222, 37.717799196]}, "type": "Feature", "properties": {"collection_times": [{"days": "Mon-Fri", "time": "4:30pm"}, {"days": "Sat", "time": "11:00am"}, {"days": "Sun", "time": "Closed"}], "id": "4041000001", "name": "USPS COLLECTION BOX - BLUE BOX", "address": {"city": "BRYANTSVILLE", "state": "KY", "street": "302 BRYANTSVILLE RD", "postcode": "40410"}}},
{"geometry": {"type": "Point", "coordinates": [-84.5051628747, 37.4609569484]}, "type": "Feature", "properties": {"collection_times": [{"days": "Mon-Fri", "time": "3:45pm"}, {"days": "Sat", "time": "12:30pm"}, {"days": "Sun", "time": "Closed"}], "id": "4041900001", "name": "USPS COLLECTION BOX - BLUE BOX", "address": {"city": "CRAB ORCHARD", "state": "KY", "street": "209 MAIN ST", "postcode": "40419"}}},
{"geometry": {"type": "Point", "coordinates": [-84.5051628747, 37.4609569484]}, "type": "Feature", "properties": {"collection_times": [{"days": "Mon-Fri", "time": "3:45pm"}, {"days": "Sat", "time": "12:30pm"}, {"days": "Sun", "time": "Closed"}], "id": "4041900002", "name": "USPS COLLECTION BOX - PO LOBBY", "address": {"city": "CRAB ORCHARD", "state": "KY", "street": "209 MAIN ST", "postcode": "40419"}}},
{"geometry": {"type": "Point", "coordinates": [-84.7725382871, 37.6458830417]}, "type": "Feature", "properties": {"collection_times": [{"days": "Mon-Fri", "time": "2:30pm"}, {"days": "Sat", "time": "1:30pm"}, {"days": "Sun", "time": "Closed"}], "id": "4042200007", "name": "USPS COLLECTION BOX - BLUE BOX", "address": {"city": "DANVILLE", "state": "KY", "street": "301 W MAIN ST", "postcode": "40422"}}},
{"geometry": {"type": "Point", "coordinates": [-84.7708652065, 37.6457853716]}, "type": "Feature", "properties": {"collection_times": [{"days": "Mon-Fri", "time": "2:30pm"}, {"days": "Sat", "time": "1:30pm"}, {"days": "Sun", "time": "Closed"}], "id": "4042200010", "name": "USPS COLLECTION BOX - BLUE BOX", "address": {"city": "DANVILLE", "state": "KY", "street": "201 W MAIN ST", "postcode": "40422"}}},
{"geometry": {"type": "Point", "coordinates": [-84.809398769, 37.6484265262]}, "type": "Feature", "properties": {"collection_times": [{"days": "Mon-Sat", "time": "9:00am"}, {"days": "Sun", "time": "Closed"}], "id": "4042200016", "name": "USPS COLLECTION BOX - BLUE BOX", "address": {"city": "DANVILLE", "state": "KY", "street": "204 SKYWATCH DR", "postcode": "40422"}}},
{"geometry": {"type": "Point", "coordinates": [-84.768204011, 37.645516043]}, "type": "Feature", "properties": {"collection_times": [{"days": "Mon-Fri", "time": "4:00pm"}, {"days": "Sat", "time": "1:30pm"}, {"days": "Sun", "time": "Closed"}], "id": "4042200021", "name": "USPS COLLECTION BOX - BLUE BOX", "address": {"city": "DANVILLE", "state": "KY", "street": "200 E MAIN ST", "postcode": "40422"}}},
{"geometry": {"type": "Point", "coordinates": [-84.768204011, 37.645516043]}, "type": "Feature", "properties": {"collection_times": [{"days": "Mon-Fri", "time": "4:00pm"}, {"days": "Sat", "time": "1:30pm"}, {"days": "Sun", "time": "Closed"}], "id": "4042200022", "name": "USPS COLLECTION BOX - BLUE BOX", "address": {"city": "DANVILLE", "state": "KY", "street": "200 E MAIN ST", "postcode": "40422"}}},
{"geometry": {"type": "Point", "coordinates": [-84.7746482962, 37.6447587287]}, "type": "Feature", "properties": {"collection_times": [{"days": "Mon-Fri", "time": "2:30pm"}, {"days": "Sat", "time": "1:30pm"}, {"days": "Sun", "time": "Closed"}], "id": "4042200023", "name": "USPS COLLECTION BOX - BLUE BOX", "address": {"city": "DANVILLE", "state": "KY", "street": "410 W WALNUT ST", "postcode": "40422"}}},
{"geometry": {"type": "Point", "coordinates": [-84.7740891988, 37.6459692256]}, "type": "Feature", "properties": {"collection_times": [{"days": "Mon-Fri", "time": "2:30pm"}, {"days": "Sat", "time": "1:30pm"}, {"days": "Sun", "time": "Closed"}], "id": "4042200026", "name": "USPS COLLECTION BOX - BLUE BOX", "address": {"city": "DANVILLE", "state": "KY", "street": "401 W MAIN ST", "postcode": "40422"}}},
{"geometry": {"type": "Point", "coordinates": [-84.772834273, 37.6458992953]}, "type": "Feature", "properties": {"collection_times": [{"days": "Mon-Fri", "time": "2:30pm"}, {"days": "Sat", "time": "1:30pm"}, {"days": "Sun", "time": "Closed"}], "id": "4042200032", "name": "USPS COLLECTION BOX - BLUE BOX", "address": {"city": "DANVILLE", "state": "KY", "street": "321 W MAIN ST", "postcode": "40422"}}},
{"geometry": {"type": "Point", "coordinates": [-84.769241881, 37.6167166039]}, "type": "Feature", "properties": {"collection_times": [{"days": "Mon-Sat", "time": "9:00am"}, {"days": "Sun", "time": "Closed"}], "id": "4042200033", "name": "USPS COLLECTION BOX - BLUE BOX", "address": {"city": "DANVILLE", "state": "KY", "street": "270 JANE TRL", "postcode": "40422"}}},
{"geometry": {"type": "Point", "coordinates": [-84.7758464757, 37.6438419777]}, "type": "Feature", "properties": {"collection_times": [{"days": "Mon-Fri", "time": "2:30pm"}, {"days": "Sat", "time": "1:30pm"}, {"days": "Sun", "time": "Closed"}], "id": "4042200034", "name": "USPS COLLECTION BOX - BLUE BOX", "address": {"city": "DANVILLE", "state": "KY", "street": "459 W MARTIN L KING BLVD", "postcode": "40422"}}},
{"geometry": {"type": "Point", "coordinates": [-84.768204011, 37.645516043]}, "type": "Feature", "properties": {"collection_times": [{"days": "Mon-Fri", "time": "4:00pm"}, {"days": "Sat", "time": "1:30pm"}, {"days": "Sun", "time": "Closed"}], "id": "4042200035", "name": "USPS COLLECTION BOX - BLUE BOX", "address": {"city": "DANVILLE", "state": "KY", "street": "200 E MAIN ST", "postcode": "40422"}}},
{"geometry": {"type": "Point", "coordinates": [-84.7993379042, 37.6554996991]}, "type": "Feature", "properties": {"collection_times": [{"days": "Mon-Sat", "time": "10:00am"}, {"days": "Sun", "time": "Closed"}], "id": "4042200036", "name": "USPS COLLECTION BOX - BLUE BOX", "address": {"city": "DANVILLE", "state": "KY", "street": "101 MAN O WAR DR", "postcode": "40422"}}},
{"geometry": {"type": "Point", "coordinates": [-84.768204011, 37.645516043]}, "type": "Feature", "properties": {"collection_times": [{"days": "Mon-Fri", "time": "4:00pm"}, {"days": "Sat", "time": "1:30pm"}, {"days": "Sun", "time": "Closed"}], "id": "4042200038", "name": "USPS COLLECTION BOX - PO LOBBY", "address": {"city": "DANVILLE", "state": "KY", "street": "200 E MAIN ST", "postcode": "40422"}}},
{"geometry": {"type": "Point", "coordinates": [-84.768204011, 37.645516043]}, "type": "Feature", "properties": {"collection_times": [{"days": "Mon-Fri", "time": "4:00pm"}, {"days": "Sat", "time": "1:30pm"}, {"days": "Sun", "time": "Closed"}], "id": "4042200039", "name": "USPS COLLECTION BOX - PO LOBBY", "address": {"city": "DANVILLE", "state": "KY", "street": "200 E MAIN ST", "postcode": "40422"}}},
{"geometry": {"type": "Point", "coordinates": [-83.9367952379, 37.3928741884]}, "type": "Feature", "properties": {"collection_times": [{"days": "Mon-Fri", "time": "3:30pm"}, {"days": "Sat", "time": "11:15am"}, {"days": "Sun", "time": "Closed"}], "id": "4043400000", "name": "USPS COLLECTION BOX - PO LOBBY", "address": {"city": "GRAY HAWK", "state": "KY", "street": "811 US HIGHWAY 421 S", "postcode": "40434"}}},
{"geometry": {"type": "Point", "coordinates": [-83.9367952379, 37.3928741884]}, "type": "Feature", "properties": {"collection_times": [{"days": "Mon-Fri", "time": "3:30pm"}, {"days": "Sat", "time": "11:15am"}, {"days": "Sun", "time": "Closed"}], "id": "4043400001", "name": "USPS COLLECTION BOX - BLUE BOX", "address": {"city": "GRAY HAWK", "state": "KY", "street": "811 US HIGHWAY 421 S", "postcode": "40434"}}},
{"geometry": {"type": "Point", "coordinates": [-84.8301308639, 37.4606243217]}, "type": "Feature", "properties": {"collection_times": [{"days": "Mon-Fri", "time": "3:30pm"}, {"days": "Sat", "time": "10:30am"}, {"days": "Sun", "time": "Closed"}], "id": "4043700000", "name": "USPS COLLECTION BOX - BLUE BOX", "address": {"city": "HUSTONVILLE", "state": "KY", "street": "7831 KY HIGHWAY 2141", "postcode": "40437"}}},
{"geometry": {"type": "Point", "coordinates": [-84.8301308639, 37.4606243217]}, "type": "Feature", "properties": {"collection_times": [{"days": "Mon-Fri", "time": "3:30pm"}, {"days": "Sat", "time": "10:30am"}, {"days": "Sun", "time": "Closed"}], "id": "4043700001", "name": "USPS COLLECTION BOX - PO LOBBY", "address": {"city": "HUSTONVILLE", "state": "KY", "street": "7831 KY HIGHWAY 2141", "postcode": "40437"}}},
{"geometry": {"type": "Point", "coordinates": [-84.7962873668, 37.5872905841]}, "type": "Feature", "properties": {"collection_times": [{"days": "Mon-Fri", "time": "4:00pm"}, {"days": "Sat", "time": "10:00am"}, {"days": "Sun", "time": "Closed"}], "id": "4044000000", "name": "USPS COLLECTION BOX - BLUE BOX", "address": {"city": "JUNCTION CITY", "state": "KY", "street": "810 W SHELBY ST", "postcode": "40440"}}},
{"geometry": {"type": "Point", "coordinates": [-84.7962873668, 37.5872905841]}, "type": "Feature", "properties": {"collection_times": [{"days": "Mon-Fri", "time": "4:00pm"}, {"days": "Sat", "time": "10:00am"}, {"days": "Sun", "time": "Closed"}], "id": "4044000001", "name": "USPS COLLECTION BOX - PO LOBBY", "address": {"city": "JUNCTION CITY", "state": "KY", "street": "810 W SHELBY ST", "postcode": "40440"}}},
{"geometry": {"type": "Point", "coordinates": [-84.7840568925, 37.5818147748]}, "type": "Feature", "properties": {"collection_times": [{"days": "Mon-Sat", "time": "12:00pm"}, {"days": "Sun", "time": "Closed"}], "id": "4044000002", "name": "USPS COLLECTION BOX - BLUE BOX", "address": {"city": "JUNCTION CITY", "state": "KY", "street": "100 E SHELBY ST", "postcode": "40440"}}},
{"geometry": {"type": "Point", "coordinates": [-84.7270289939, 37.3587226936]}, "type": "Feature", "properties": {"collection_times": [{"days": "Mon-Fri", "time": "3:45pm"}, {"days": "Sat", "time": "10:00am"}, {"days": "Sun", "time": "Closed"}], "id": "4044200000", "name": "USPS COLLECTION BOX - BLUE BOX", "address": {"city": "KINGS MOUNTAIN", "state": "KY", "street": "2705 KY HIGHWAY 501", "postcode": "40442"}}},
{"geometry": {"type": "Point", "coordinates": [-84.7270289939, 37.3587226936]}, "type": "Feature", "properties": {"collection_times": [{"days": "Mon-Fri", "time": "3:45pm"}, {"days": "Sat", "time": "10:00am"}, {"days": "Sun", "time": "Closed"}], "id": "4044200001", "name": "USPS COLLECTION BOX - PO LOBBY", "address": {"city": "KINGS MOUNTAIN", "state": "KY", "street": "2705 KY HIGHWAY 501", "postcode": "40442"}}},
{"geometry": {"type": "Point", "coordinates": [-84.7270289939, 37.3587226936]}, "type": "Feature", "properties": {"collection_times": [{"days": "Mon-Fri", "time": "3:45pm"}, {"days": "Sat", "time": "10:00am"}, {"days": "Sun", "time": "Closed"}], "id": "4044200002", "name": "USPS COLLECTION BOX - PO LOBBY", "address": {"city": "KINGS MOUNTAIN", "state": "KY", "street": "2705 KY HIGHWAY 501", "postcode": "40442"}}},
{"geometry": {"type": "Point", "coordinates": [-84.5788108699, 37.6194019095]}, "type": "Feature", "properties": {"collection_times": [{"days": "Mon-Sat", "time": "3:15pm"}, {"days": "Sun", "time": "Closed"}], "id": "4044400000", "name": "USPS COLLECTION BOX - BLUE BOX", "address": {"city": "LANCASTER", "state": "KY", "street": "107 DANVILLE ST", "postcode": "40444"}}},
{"geometry": {"type": "Point", "coordinates": [-84.5788108699, 37.6194019095]}, "type": "Feature", "properties": {"collection_times": [{"days": "Mon-Sat", "time": "4:00pm"}, {"days": "Sun", "time": "Closed"}], "id": "4044400015", "name": "USPS COLLECTION BOX - PO LOBBY", "address": {"city": "LANCASTER", "state": "KY", "street": "107 DANVILLE ST", "postcode": "40444"}}},
{"geometry": {"type": "Point", "coordinates": [-84.1741771562, 37.3444936171]}, "type": "Feature", "properties": {"collection_times": [{"days": "Mon-Fri", "time": "1:30pm"}, {"days": "Sat", "time": "12:00pm"}, {"days": "Sun", "time": "Closed"}], "id": "4044500000", "name": "USPS COLLECTION BOX - BLUE BOX", "address": {"city": "LIVINGSTON", "state": "KY", "street": "9121 MAIN ST", "postcode": "40445"}}},
{"geometry": {"type": "Point", "coordinates": [-84.1741771562, 37.3444936171]}, "type": "Feature", "properties": {"collection_times": [{"days": "Mon-Fri", "time": "1:30pm"}, {"days": "Sat", "time": "12:00pm"}, {"days": "Sun", "time": "Closed"}], "id": "4044500001", "name": "USPS COLLECTION BOX - PO LOBBY", "address": {"city": "LIVINGSTON", "state": "KY", "street": "9121 MAIN ST", "postcode": "40445"}}},
{"geometry": {"type": "Point", "coordinates": [-84.0026063569, 37.4300470937]}, "type": "Feature", "properties": {"collection_times": [{"days": "Mon-Fri", "time": "3:30pm"}, {"days": "Sat", "time": "2:30pm"}, {"days": "Sun", "time": "Closed"}], "id": "4044700000", "name": "USPS COLLECTION BOX - BLUE BOX", "address": {"city": "MCKEE", "state": "KY", "street": "320 MAIN ST N", "postcode": "40447"}}},
{"geometry": {"type": "Point", "coordinates": [-84.0026063569, 37.4300470937]}, "type": "Feature", "properties": {"collection_times": [{"days": "Mon-Fri", "time": "3:30pm"}, {"days": "Sat", "time": "2:30pm"}, {"days": "Sun", "time": "Closed"}], "id": "4044700004", "name": "USPS COLLECTION BOX - PO LOBBY", "address": {"city": "MCKEE", "state": "KY", "street": "320 MAIN ST N", "postcode": "40447"}}},
{"geometry": {"type": "Point", "coordinates": [-84.75705847, 37.4535147135]}, "type": "Feature", "properties": {"collection_times": [{"days": "Mon-Fri", "time": "3:15pm"}, {"days": "Sat", "time": "10:15am"}, {"days": "Sun", "time": "Closed"}], "id": "4044800000", "name": "USPS COLLECTION BOX - BLUE BOX", "address": {"city": "MCKINNEY", "state": "KY", "street": "70 BUSY BEE ST", "postcode": "40448"}}},
{"geometry": {"type": "Point", "coordinates": [-84.75705847, 37.4535147135]}, "type": "Feature", "properties": {"collection_times": [{"days": "Mon-Fri", "time": "3:15pm"}, {"days": "Sat", "time": "10:15am"}, {"days": "Sun", "time": "Closed"}], "id": "4044800001", "name": "USPS COLLECTION BOX - PO LOBBY", "address": {"city": "MCKINNEY", "state": "KY", "street": "70 BUSY BEE ST", "postcode": "40448"}}},
{"geometry": {"type": "Point", "coordinates": [-84.3400622307, 37.3536818892]}, "type": "Feature", "properties": {"collection_times": [{"days": "Mon-Fri", "time": "3:45pm"}, {"days": "Sat", "time": "12:00pm"}, {"days": "Sun", "time": "Closed"}], "id": "4045600000", "name": "USPS COLLECTION BOX - BLUE BOX", "address": {"city": "MOUNT VERNON", "state": "KY", "street": "380 RICHMOND ST", "postcode": "40456"}}},
{"geometry": {"type": "Point", "coordinates": [-84.3400622307, 37.3536818892]}, "type": "Feature", "properties": {"collection_times": [{"days": "Mon-Fri", "time": "3:45pm"}, {"days": "Sat", "time": "12:00pm"}, {"days": "Sun", "time": "Closed"}], "id": "4045600001", "name": "USPS COLLECTION BOX - BLUE BOX", "address": {"city": "MOUNT VERNON", "state": "KY", "street": "380 RICHMOND ST", "postcode": "40456"}}},
{"geometry": {"type": "Point", "coordinates": [-84.3366528362, 37.3523955658]}, "type": "Feature", "properties": {"collection_times": [{"days": "Mon-Fri", "time": "1:30pm"}, {"days": "Sat", "time": "12:00pm"}, {"days": "Sun", "time": "Closed"}], "id": "4045600002", "name": "USPS COLLECTION BOX - BLUE BOX", "address": {"city": "MOUNT VERNON", "state": "KY", "street": "205 E MAIN ST", "postcode": "40456"}}},
{"geometry": {"type": "Point", "coordinates": [-84.3400622307, 37.3536818892]}, "type": "Feature", "properties": {"collection_times": [{"days": "Mon-Fri", "time": "4:00pm"}, {"days": "Sat", "time": "12:00pm"}, {"days": "Sun", "time": "Closed"}], "id": "4045600003", "name": "USPS COLLECTION BOX - PO LOBBY", "address": {"city": "MOUNT VERNON", "state": "KY", "street": "380 RICHMOND ST", "postcode": "40456"}}},
{"geometry": {"type": "Point", "coordinates": [-84.3402442697, 37.3552964978]}, "type": "Feature", "properties": {"collection_times": [{"days": "Mon-Sat", "time": "8:00am"}, {"days": "Sun", "time": "Closed"}], "id": "4045600005", "name": "USPS COLLECTION BOX - BLUE BOX", "address": {"city": "MOUNT VERNON", "state": "KY", "street": "1040 RICHMOND ST", "postcode": "40456"}}},
{"geometry": {"type": "Point", "coordinates": [-84.3400622307, 37.3536818892]}, "type": "Feature", "properties": {"collection_times": [{"days": "Mon-Fri", "time": "4:00pm"}, {"days": "Sat", "time": "12:00pm"}, {"days": "Sun", "time": "Closed"}], "id": "4045600006", "name": "USPS COLLECTION BOX - PO LOBBY", "address": {"city": "MOUNT VERNON", "state": "KY", "street": "380 RICHMOND ST", "postcode": "40456"}}},
{"geometry": {"type": "Point", "coordinates": [-84.331182912, 37.38535417]}, "type": "Feature", "properties": {"collection_times": [{"days": "Mon-Sat", "time": "11:00am"}, {"days": "Sun", "time": "Closed"}], "id": "4045600008", "name": "USPS COLLECTION BOX - BLUE BOX", "address": {"city": "MOUNT VERNON", "state": "KY", "street": "2385 RICHMOND ST", "postcode": "40456"}}},
{"geometry": {"type": "Point", "coordinates": [-84.4079125976, 37.6180310026]}, "type": "Feature", "properties": {"collection_times": [{"days": "Mon-Fri", "time": "11:00am"}, {"days": "Sat", "time": "10:00am"}, {"days": "Sun", "time": "Closed"}], "id": "4046100000", "name": "USPS COLLECTION BOX - BLUE BOX", "address": {"city": "PAINT LICK", "state": "KY", "street": "11642 RICHMOND RD", "postcode": "40461"}}},
{"geometry": {"type": "Point", "coordinates": [-84.4079125976, 37.6180310026]}, "type": "Feature", "properties": {"collection_times": [{"days": "Mon-Fri", "time": "11:00am"}, {"days": "Sat", "time": "10:00am"}, {"days": "Sun", "time": "Closed"}], "id": "4046100001", "name": "USPS COLLECTION BOX - PO LOBBY", "address": {"city": "PAINT LICK", "state": "KY", "street": "11642 RICHMOND RD", "postcode": "40461"}}},
{"geometry": {"type": "Point", "coordinates": [-84.8963149566, 37.5969489427]}, "type": "Feature", "properties": {"collection_times": [{"days": "Mon-Fri", "time": "3:30pm"}, {"days": "Sat", "time": "11:15am"}, {"days": "Sun", "time": "Closed"}], "id": "4046400000", "name": "USPS COLLECTION BOX - BLUE BOX", "address": {"city": "PARKSVILLE", "state": "KY", "street": "8355 LEBANON RD", "postcode": "40464"}}},
{"geometry": {"type": "Point", "coordinates": [-84.8963149566, 37.5969489427]}, "type": "Feature", "properties": {"collection_times": [{"days": "Mon-Fri", "time": "3:30pm"}, {"days": "Sat", "time": "11:15am"}, {"days": "Sun", "time": "Closed"}], "id": "4046400001", "name": "USPS COLLECTION BOX - PO LOBBY", "address": {"city": "PARKSVILLE", "state": "KY", "street": "8355 LEBANON RD", "postcode": "40464"}}},
{"geometry": {"type": "Point", "coordinates": [-84.9484381933, 37.6503276581]}, "type": "Feature", "properties": {"collection_times": [{"days": "Mon-Fri", "time": "3:15pm"}, {"days": "Sat", "time": "10:30am"}, {"days": "Sun", "time": "Closed"}], "id": "4046800000", "name": "USPS COLLECTION BOX - BLUE BOX", "address": {"city": "PERRYVILLE", "state": "KY", "street": "207 POLK ST", "postcode": "40468"}}},
{"geometry": {"type": "Point", "coordinates": [-84.9484381933, 37.6503276581]}, "type": "Feature", "properties": {"collection_times": [{"days": "Mon-Fri", "time": "3:15pm"}, {"days": "Sat", "time": "10:30am"}, {"days": "Sun", "time": "Closed"}], "id": "4046800001", "name": "USPS COLLECTION BOX - PO LOBBY", "address": {"city": "PERRYVILLE", "state": "KY", "street": "207 POLK ST", "postcode": "40468"}}},
{"geometry": {"type": "Point", "coordinates": [-84.294139147, 37.7474369044]}, "type": "Feature", "properties": {"collection_times": [{"days": "Mon-Sat", "time": "12:30pm"}, {"days": "Sun", "time": "Closed"}], "id": "4047500002", "name": "USPS COLLECTION BOX - BLUE BOX", "address": {"city": "RICHMOND", "state": "KY", "street": "101 W MAIN ST", "postcode": "40475"}}},
{"geometry": {"type": "Point", "coordinates": [-84.2813874362, 37.7384732579]}, "type": "Feature", "properties": {"collection_times": [{"days": "Mon-Fri", "time": "3:15pm"}, {"days": "Sat", "time": "3:00pm"}, {"days": "Sun", "time": "Closed"}], "id": "4047500008", "name": "USPS COLLECTION BOX - BLUE BOX", "address": {"city": "RICHMOND", "state": "KY", "street": "444 BIG HILL AVE", "postcode": "40475"}}},
{"geometry": {"type": "Point", "coordinates": [-84.2978046072, 37.7489820194]}, "type": "Feature", "properties": {"collection_times": [{"days": "Mon-Fri", "time": "4:45pm"}, {"days": "Sat", "time": "3:45pm"}, {"days": "Sun", "time": "Closed"}], "id": "4047500010", "name": "USPS COLLECTION BOX - BLUE BOX", "address": {"city": "RICHMOND", "state": "KY", "street": "357 W MAIN ST", "postcode": "40475"}}},
{"geometry": {"type": "Point", "coordinates": [-84.2760133124, 37.7328998478]}, "type": "Feature", "properties": {"collection_times": [{"days": "Mon-Fri", "time": "3:45pm"}, {"days": "Sat", "time": "3:15pm"}, {"days": "Sun", "time": "Closed"}], "id": "4047500012", "name": "USPS COLLECTION BOX - BLUE BOX", "address": {"city": "RICHMOND", "state": "KY", "street": "801 EASTERN BYP", "postcode": "40475"}}},
{"geometry": {"type": "Point", "coordinates": [-84.3137783272, 37.7367714076]}, "type": "Feature", "properties": {"collection_times": [{"days": "Mon-Sat", "time": "11:00am"}, {"days": "Sun", "time": "Closed"}], "id": "4047500014", "name": "USPS COLLECTION BOX - BLUE BOX", "address": {"city": "RICHMOND", "state": "KY", "street": "527 LEIGHWAY DR", "postcode": "40475"}}},
{"geometry": {"type": "Point", "coordinates": [-84.2829170609, 37.731249754]}, "type": "Feature", "properties": {"collection_times": [{"days": "Mon-Sat", "time": "1:30pm"}, {"days": "Sun", "time": "Closed"}], "id": "4047500015", "name": "USPS COLLECTION BOX - BLUE BOX", "address": {"city": "RICHMOND", "state": "KY", "street": "690 UNIVERSITY SHOPPING CTR", "postcode": "40475"}}},
{"geometry": {"type": "Point", "coordinates": [-84.2712637493, 37.7347166243]}, "type": "Feature", "properties": {"collection_times": [{"days": "Mon-Fri", "time": "3:30pm"}, {"days": "Sat", "time": "3:00pm"}, {"days": "Sun", "time": "Closed"}], "id": "4047500019", "name": "USPS COLLECTION BOX - BLUE BOX", "address": {"city": "RICHMOND", "state": "KY", "street": "946 COMMERCIAL DR", "postcode": "40475"}}},
{"geometry": {"type": "Point", "coordinates": [-84.3017494425, 37.7648257592]}, "type": "Feature", "properties": {"collection_times": [{"days": "Mon-Fri", "time": "3:30pm"}, {"days": "Sat", "time": "3:15pm"}, {"days": "Sun", "time": "Closed"}], "id": "4047500020", "name": "USPS COLLECTION BOX - BLUE BOX", "address": {"city": "RICHMOND", "state": "KY", "street": "890 RICHMOND PLZ", "postcode": "40475"}}},
{"geometry": {"type": "Point", "coordinates": [-84.3017494425, 37.7648257592]}, "type": "Feature", "properties": {"collection_times": [{"days": "Mon-Fri", "time": "4:00pm"}, {"days": "Sat", "time": "3:30pm"}, {"days": "Sun", "time": "Closed"}], "id": "4047500032", "name": "USPS COLLECTION BOX - BLUE BOX", "address": {"city": "RICHMOND", "state": "KY", "street": "201 PARK DR", "postcode": "40475"}}},
{"geometry": {"type": "Point", "coordinates": [-84.2655069239, 37.7384872524]}, "type": "Feature", "properties": {"collection_times": [{"days": "Mon-Fri", "time": "3:45pm"}, {"days": "Sat", "time": "3:00pm"}, {"days": "Sun", "time": "Closed"}], "id": "4047500043", "name": "USPS COLLECTION BOX - BLUE BOX", "address": {"city": "RICHMOND", "state": "KY", "street": "300 HIGHLAND PARK DR", "postcode": "40475"}}},
{"geometry": {"type": "Point", "coordinates": [-84.2934761547, 37.7480535045]}, "type": "Feature", "properties": {"collection_times": [{"days": "Mon-Fri", "time": "4:45pm"}, {"days": "Sat", "time": "3:45pm"}, {"days": "Sun", "time": "Closed"}], "id": "4047500046", "name": "USPS COLLECTION BOX - BLUE BOX", "address": {"city": "RICHMOND", "state": "KY", "street": "120 E IRVINE ST", "postcode": "40475"}}},
{"geometry": {"type": "Point", "coordinates": [-84.2984870241, 37.7536826026]}, "type": "Feature", "properties": {"collection_times": [{"days": "Mon-Fri", "time": "4:45pm"}, {"days": "Sat", "time": "3:45pm"}, {"days": "Sun", "time": "Closed"}], "id": "4047500048", "name": "USPS COLLECTION BOX - BLUE BOX", "address": {"city": "RICHMOND", "state": "KY", "street": "140 N MADISON AVE", "postcode": "40475"}}},
{"geometry": {"type": "Point", "coordinates": [-84.2960505236, 37.7482287826]}, "type": "Feature", "properties": {"collection_times": [{"days": "Mon-Fri", "time": "4:45pm"}, {"days": "Sat", "time": "3:45pm"}, {"days": "Sun", "time": "Closed"}], "id": "4047500053", "name": "USPS COLLECTION BOX - BLUE BOX", "address": {"city": "RICHMOND", "state": "KY", "street": "231 W MAIN ST", "postcode": "40475"}}},
{"geometry": {"type": "Point", "coordinates": [-84.2984870241, 37.7536826026]}, "type": "Feature", "properties": {"collection_times": [{"days": "Mon-Fri", "time": "5:00pm"}, {"days": "Sat", "time": "12:00pm"}, {"days": "Sun", "time": "Closed"}], "id": "4047500057", "name": "USPS COLLECTION BOX - APC", "address": {"city": "RICHMOND", "state": "KY", "street": "140 N MADISON AVE", "postcode": "40475"}}},
{"geometry": {"type": "Point", "coordinates": [-84.2713523463, 37.7589820736]}, "type": "Feature", "properties": {"collection_times": [{"days": "Mon-Fri", "time": "10:00am"}, {"days": "Sat", "time": "9:30am"}, {"days": "Sun", "time": "Closed"}], "id": "4047500058", "name": "USPS COLLECTION BOX - BLUE BOX", "address": {"city": "RICHMOND", "state": "KY", "street": "5021 ATWOOD DR", "postcode": "40475"}}},
{"geometry": {"type": "Point", "coordinates": [-84.2944642828, 37.7463843187]}, "type": "Feature", "properties": {"collection_times": [{"days": "Mon-Fri", "time": "5:15pm"}, {"days": "Sat", "time": "4:45pm"}, {"days": "Sun", "time": "Closed"}], "id": "4047500059", "name": "USPS COLLECTION BOX - BLUE BOX", "address": {"city": "RICHMOND", "state": "KY", "street": "120 E WATER ST", "postcode": "40475"}}},
{"geometry": {"type": "Point", "coordinates": [-84.314582619, 37.7350415447]}, "type": "Feature", "properties": {"collection_times": [{"days": "Mon-Sat", "time": "1:00pm"}, {"days": "Sun", "time": "Closed"}], "id": "4047500062", "name": "USPS COLLECTION BOX - BLUE BOX", "address": {"city": "RICHMOND", "state": "KY", "street": "309 SPANGLER DR", "postcode": "40475"}}},
{"geometry": {"type": "Point", "coordinates": [-84.2686740145, 37.7520832285]}, "type": "Feature", "properties": {"collection_times": [{"days": "Mon-Fri", "time": "3:30pm"}, {"days": "Sat", "time": "11:00am"}, {"days": "Sun", "time": "Closed"}], "id": "4047500063", "name": "USPS COLLECTION BOX - BLUE BOX", "address": {"city": "RICHMOND", "state": "KY", "street": "2011 MERCHANT DR", "postcode": "40475"}}},
{"geometry": {"type": "Point", "coordinates": [-84.3216442666, 37.7770396564]}, "type": "Feature", "properties": {"collection_times": [{"days": "Mon-Fri", "time": "3:00pm"}, {"days": "Sat", "time": "11:15am"}, {"days": "Sun", "time": "Closed"}], "id": "4047500064", "name": "USPS COLLECTION BOX - BLUE BOX", "address": {"city": "RICHMOND", "state": "KY", "street": "2187 LEXINGTON RD STE 1", "postcode": "40475"}}},
{"geometry": {"type": "Point", "coordinates": [-84.2984870241, 37.7536826026]}, "type": "Feature", "properties": {"collection_times": [{"days": "Mon-Fri", "time": "5:00pm"}, {"days": "Sat", "time": "12:00pm"}, {"days": "Sun", "time": "Closed"}], "id": "4047500066", "name": "USPS COLLECTION BOX - PO LOBBY", "address": {"city": "RICHMOND", "state": "KY", "street": "140 N MADISON AVE", "postcode": "40475"}}},
{"geometry": {"type": "Point", "coordinates": [-84.0258415178, 37.4848075034]}, "type": "Feature", "properties": {"collection_times": [{"days": "Mon-Fri", "time": "3:30pm"}, {"days": "Sat", "time": "11:00am"}, {"days": "Sun", "time": "Closed"}], "id": "4048100000", "name": "USPS COLLECTION BOX - BLUE BOX", "address": {"city": "SANDGAP", "state": "KY", "street": "955 US HIGHWAY 421 N", "postcode": "40481"}}},
{"geometry": {"type": "Point", "coordinates": [-84.0258415178, 37.4848075034]}, "type": "Feature", "properties": {"collection_times": [{"days": "Mon-Fri", "time": "3:30pm"}, {"days": "Sat", "time": "11:00am"}, {"days": "Sun", "time": "Closed"}], "id": "4048100001", "name": "USPS COLLECTION BOX - PO LOBBY", "address": {"city": "SANDGAP", "state": "KY", "street": "955 US HIGHWAY 421 N", "postcode": "40481"}}},
{"geometry": {"type": "Point", "coordinates": [-84.652823744, 37.5411531016]}, "type": "Feature", "properties": {"collection_times": [{"days": "Mon-Fri", "time": "1:45pm"}, {"days": "Sat", "time": "1:00pm"}, {"days": "Sun", "time": "Closed"}], "id": "4048400001", "name": "USPS COLLECTION BOX - BLUE BOX", "address": {"city": "STANFORD", "state": "KY", "street": "101 US HIGHWAY 150 BYP", "postcode": "40484"}}},
{"geometry": {"type": "Point", "coordinates": [-84.6623940892, 37.5291940001]}, "type": "Feature", "properties": {"collection_times": [{"days": "Mon-Fri", "time": "2:30pm"}, {"days": "Sat", "time": "1:00pm"}, {"days": "Sun", "time": "Closed"}], "id": "4048400005", "name": "USPS COLLECTION BOX - BLUE BOX", "address": {"city": "STANFORD", "state": "KY", "street": "111 E MAIN ST", "postcode": "40484"}}},
{"geometry": {"type": "Point", "coordinates": [-84.6725178034, 37.5466422334]}, "type": "Feature", "properties": {"collection_times": [{"days": "Mon-Fri", "time": "5:00pm"}, {"days": "Sat", "time": "3:00pm"}, {"days": "Sun", "time": "Closed"}], "id": "4048400006", "name": "USPS COLLECTION BOX - PO LOBBY", "address": {"city": "STANFORD", "state": "KY", "street": "113 CANE RUN RD", "postcode": "40484"}}},
{"geometry": {"type": "Point", "coordinates": [-84.6725178034, 37.5466422334]}, "type": "Feature", "properties": {"collection_times": [{"days": "Mon-Fri", "time": "5:00pm"}, {"days": "Sat", "time": "3:00pm"}, {"days": "Sun", "time": "Closed"}], "id": "4048400008", "name": "USPS COLLECTION BOX - BLUE BOX", "address": {"city": "STANFORD", "state": "KY", "street": "113 CANE RUN RD", "postcode": "40484"}}},
{"geometry": {"type": "Point", "coordinates": [-84.6725178034, 37.5466422334]}, "type": "Feature", "properties": {"collection_times": [{"days": "Mon-Fri", "time": "5:00pm"}, {"days": "Sat", "time": "3:00pm"}, {"days": "Sun", "time": "Closed"}], "id": "4048400009", "name": "USPS COLLECTION BOX - BLUE BOX", "address": {"city": "STANFORD", "state": "KY", "street": "113 CANE RUN RD", "postcode": "40484"}}},
{"geometry": {"type": "Point", "coordinates": [-83.8669395012, 37.3666067151]}, "type": "Feature", "properties": {"collection_times": [{"days": "Mon-Fri", "time": "3:15pm"}, {"days": "Sat", "time": "12:00pm"}, {"days": "Sun", "time": "Closed"}], "id": "4048600000", "name": "USPS COLLECTION BOX - BLUE BOX", "address": {"city": "TYNER", "state": "KY", "street": "11535 US HIGHWAY 421 S", "postcode": "40486"}}},
{"geometry": {"type": "Point", "coordinates": [-83.8669395012, 37.3666067151]}, "type": "Feature", "properties": {"collection_times": [{"days": "Mon-Fri", "time": "3:15pm"}, {"days": "Sat", "time": "12:00pm"}, {"days": "Sun", "time": "Closed"}], "id": "4048600001", "name": "USPS COLLECTION BOX - PO LOBBY", "address": {"city": "TYNER", "state": "KY", "street": "11535 US HIGHWAY 421 S", "postcode": "40486"}}},
{"geometry": {"type": "Point", "coordinates": [-84.6487406622, 37.3630092874]}, "type": "Feature", "properties": {"collection_times": [{"days": "Mon-Fri", "time": "3:45pm"}, {"days": "Sat", "time": "11:00am"}, {"days": "Sun", "time": "Closed"}], "id": "4048900000", "name": "USPS COLLECTION BOX - BLUE BOX", "address": {"city": "WAYNESBURG", "state": "KY", "street": "10 MAIN ST", "postcode": "40489"}}},
{"geometry": {"type": "Point", "coordinates": [-84.6487406622, 37.3630092874]}, "type": "Feature", "properties": {"collection_times": [{"days": "Mon-Fri", "time": "3:00pm"}, {"days": "Sat", "time": "11:00am"}, {"days": "Sun", "time": "Closed"}], "id": "4048900001", "name": "USPS COLLECTION BOX - PO LOBBY", "address": {"city": "WAYNESBURG", "state": "KY", "street": "10 MAIN ST", "postcode": "40489"}}},
{"geometry": {"type": "Point", "coordinates": [-84.302392734, 37.4224114013]}, "type": "Feature", "properties": {"collection_times": [{"days": "Mon-Fri", "time": "2:00pm"}, {"days": "Sat", "time": "11:15am"}, {"days": "Sun", "time": "Closed"}], "id": "4049200000", "name": "USPS COLLECTION BOX - BLUE BOX", "address": {"city": "WILDIE", "state": "KY", "street": "1419 WILDIE RD", "postcode": "40492"}}},
{"geometry": {"type": "Point", "coordinates": [-84.3005787157, 37.4188589255]}, "type": "Feature", "properties": {"collection_times": [{"days": "Mon-Fri", "time": "2:00pm"}, {"days": "Sat", "time": "11:15am"}, {"days": "Sun", "time": "Closed"}], "id": "4049200001", "name": "USPS COLLECTION BOX - PO LOBBY", "address": {"city": "WILDIE", "state": "KY", "street": "1419 WILDIE RD", "postcode": "40492"}}}
]}
