{"type": "FeatureCollection", "features": [
{"geometry": {"type": "Point", "coordinates": [-84.4806918607, 37.9977372978]}, "type": "Feature", "properties": {"collection_times": [{"days": "Mon-Fri", "time": "11:15am"}, {"days": "Sat-Sun", "time": "Closed"}], "id": "4050200005", "name": "USPS COLLECTION BOX - BLUE BOX", "address": {"city": "LEXINGTON", "state": "KY", "street": "1050A CHINOE RD", "postcode": "40502"}}},
{"geometry": {"type": "Point", "coordinates": [-84.4911485369, 38.0301578158]}, "type": "Feature", "properties": {"collection_times": [{"days": "Mon-Fri", "time": "4:45pm"}, {"days": "Sat-Sun", "time": "Closed"}], "id": "4050200009", "name": "USPS COLLECTION BOX - BLUE BOX", "address": {"city": "LEXINGTON", "state": "KY", "street": "801 E EUCLID AVE", "postcode": "40502"}}},
{"geometry": {"type": "Point", "coordinates": [-84.4937806206, 37.9963038961]}, "type": "Feature", "properties": {"collection_times": [{"days": "Mon-Fri", "time": "11:30am"}, {"days": "Sat-Sun", "time": "Closed"}], "id": "4050200011", "name": "USPS COLLECTION BOX - BLUE BOX", "address": {"city": "LEXINGTON", "state": "KY", "street": "1055 DOVE RUN RD", "postcode": "40502"}}},
{"geometry": {"type": "Point", "coordinates": [-84.489155251, 38.0379322221]}, "type": "Feature", "properties": {"collection_times": [{"days": "Mon-Fri", "time": "3:45pm"}, {"days": "Sat-Sun", "time": "Closed"}], "id": "4050200033", "name": "USPS COLLECTION BOX - BLUE BOX", "address": {"city": "LEXINGTON", "state": "KY", "street": "120 KENTUCKY AVE", "postcode": "40502"}}},
{"geometry": {"type": "Point", "coordinates": [-84.4670280036, 38.0202469856]}, "type": "Feature", "properties": {"collection_times": [{"days": "Mon-Fri", "time": "11:00am"}, {"days": "Sat-Sun", "time": "Closed"}], "id": "4050200035", "name": "USPS COLLECTION BOX - BLUE BOX", "address": {"city": "LEXINGTON", "state": "KY", "street": "2051 RICHMOND RD", "postcode": "40502"}}},
{"geometry": {"type": "Point", "coordinates": [-84.4955317855, 37.9946091345]}, "type": "Feature", "properties": {"collection_times": [{"days": "Mon-Fri", "time": "2:30pm"}, {"days": "Sat", "time": "1:30pm"}, {"days": "Sun", "time": "Closed"}], "id": "4050200038", "name": "USPS COLLECTION BOX - BLUE BOX", "address": {"city": "LEXINGTON", "state": "KY", "street": "3347 TATES CREEK RD", "postcode": "40502"}}},
{"geometry": {"type": "Point", "coordinates": [-84.4880941368, 38.0193443879]}, "type": "Feature", "properties": {"collection_times": [{"days": "Mon-Fri", "time": "6:00pm"}, {"days": "Sat", "time": "5:30pm"}, {"days": "Sun", "time": "Closed"}], "id": "4050200040", "name": "USPS COLLECTION BOX - BLUE BOX", "address": {"city": "LEXINGTON", "state": "KY", "street": "365 DUKE RD", "postcode": "40502"}}},
{"geometry": {"type": "Point", "coordinates": [-84.4853768801, 38.0360383048]}, "type": "Feature", "properties": {"collection_times": [{"days": "Mon-Fri", "time": "4:00pm"}, {"days": "Sat-Sun", "time": "Closed"}], "id": "4050200052", "name": "USPS COLLECTION BOX - BLUE BOX", "address": {"city": "LEXINGTON", "state": "KY", "street": "701 E MAIN ST", "postcode": "40502"}}},
{"geometry": {"type": "Point", "coordinates": [-84.5187849068, 38.0032533756]}, "type": "Feature", "properties": {"collection_times": [{"days": "Mon-Fri", "time": "12:15pm"}, {"days": "Sat-Sun", "time": "Closed"}], "id": "4050300014", "name": "USPS COLLECTION BOX - BLUE BOX", "address": {"city": "LEXINGTON", "state": "KY", "street": "121 MALABU DR", "postcode": "40503"}}},
{"geometry": {"type": "Point", "coordinates": [-84.5558875359, 38.0126087994]}, "type": "Feature", "properties": {"collection_times": [{"days": "Mon-Fri", "time": "2:15pm"}, {"days": "Sat", "time": "12:30pm"}, {"days": "Sun", "time": "Closed"}], "id": "4050300016", "name": "USPS COLLECTION BOX - BLUE BOX", "address": {"city": "LEXINGTON", "state": "KY", "street": "3070 HARRODSBURG RD", "postcode": "40503"}}},
{"geometry": {"type": "Point", "coordinates": [-84.524556481, 38.0074958709]}, "type": "Feature", "properties": {"collection_times": [{"days": "Mon-Fri", "time": "12:30pm"}, {"days": "Sat-Sun", "time": "Closed"}], "id": "4050300023", "name": "USPS COLLECTION BOX - BLUE BOX", "address": {"city": "LEXINGTON", "state": "KY", "street": "2250 REGENCY RD", "postcode": "40503"}}},
{"geometry": {"type": "Point", "coordinates": [-84.5249504064, 38.0050211207]}, "type": "Feature", "properties": {"collection_times": [{"days": "Mon-Fri", "time": "12:00pm"}, {"days": "Sat-Sun", "time": "Closed"}], "id": "4050300024", "name": "USPS COLLECTION BOX - BLUE BOX", "address": {"city": "LEXINGTON", "state": "KY", "street": "2401 REGENCY RD", "postcode": "40503"}}},
{"geometry": {"type": "Point", "coordinates": [-84.5259795807, 37.9956307925]}, "type": "Feature", "properties": {"collection_times": [{"days": "Mon-Fri", "time": "1:45pm"}, {"days": "Sat-Sun", "time": "Closed"}], "id": "4050300034", "name": "USPS COLLECTION BOX - BLUE BOX", "address": {"city": "LEXINGTON", "state": "KY", "street": "220 LEXINGTON GREEN CIR", "postcode": "40503"}}},
{"geometry": {"type": "Point", "coordinates": [-84.5240416404, 37.9906321065]}, "type": "Feature", "properties": {"collection_times": [{"days": "Mon-Fri", "time": "12:00pm"}, {"days": "Sat-Sun", "time": "Closed"}], "id": "4050300035", "name": "USPS COLLECTION BOX - BLUE BOX", "address": {"city": "LEXINGTON", "state": "KY", "street": "3395 NICHOLASVILLE RD", "postcode": "40503"}}},
{"geometry": {"type": "Point", "coordinates": [-84.517686494, 38.0080609952]}, "type": "Feature", "properties": {"collection_times": [{"days": "Mon-Fri", "time": "2:00pm"}, {"days": "Sat-Sun", "time": "Closed"}], "id": "4050300043", "name": "USPS COLLECTION BOX - BLUE BOX", "address": {"city": "LEXINGTON", "state": "KY", "street": "2220 NICHOLASVILLE RD", "postcode": "40503"}}},
{"geometry": {"type": "Point", "coordinates": [-84.516711409, 38.0112707292]}, "type": "Feature", "properties": {"collection_times": [{"days": "Mon-Fri", "time": "1:45pm"}, {"days": "Sat-Sun", "time": "Closed"}], "id": "4050300047", "name": "USPS COLLECTION BOX - BLUE BOX", "address": {"city": "LEXINGTON", "state": "KY", "street": "2101 NICHOLASVILLE RD", "postcode": "40503"}}},
{"geometry": {"type": "Point", "coordinates": [-84.5166405737, 37.9997712137]}, "type": "Feature", "properties": {"collection_times": [{"days": "Mon-Fri", "time": "12:00pm"}, {"days": "Sat-Sun", "time": "Closed"}], "id": "4050300060", "name": "USPS COLLECTION BOX - BLUE BOX", "address": {"city": "LEXINGTON", "state": "KY", "street": "2537 LARKIN RD", "postcode": "40503"}}},
{"geometry": {"type": "Point", "coordinates": [-84.5228187143, 38.0002466984]}, "type": "Feature", "properties": {"collection_times": [{"days": "Mon-Fri", "time": "12:00pm"}, {"days": "Sat-Sun", "time": "Closed"}], "id": "4050300063", "name": "USPS COLLECTION BOX - BLUE BOX", "address": {"city": "LEXINGTON", "state": "KY", "street": "160 MOORE DR", "postcode": "40503"}}},
{"geometry": {"type": "Point", "coordinates": [-84.5171013634, 38.003135223]}, "type": "Feature", "properties": {"collection_times": [{"days": "Mon-Fri", "time": "12:15pm"}, {"days": "Sat-Sun", "time": "Closed"}], "id": "4050300069", "name": "USPS COLLECTION BOX - BLUE BOX", "address": {"city": "LEXINGTON", "state": "KY", "street": "2387 PROFESSIONAL HEIGHTS DR", "postcode": "40503"}}},
{"geometry": {"type": "Point", "coordinates": [-84.5243624758, 38.0163242937]}, "type": "Feature", "properties": {"collection_times": [{"days": "Mon-Fri", "time": "1:45pm"}, {"days": "Sat", "time": "1:15pm"}, {"days": "Sun", "time": "Closed"}], "id": "4050300078", "name": "USPS COLLECTION BOX - BLUE BOX", "address": {"city": "LEXINGTON", "state": "KY", "street": "306 SOUTHLAND DR", "postcode": "40503"}}},
{"geometry": {"type": "Point", "coordinates": [-84.5243624758, 38.0163242937]}, "type": "Feature", "properties": {"collection_times": [{"days": "Mon-Fri", "time": "1:45pm"}, {"days": "Sat", "time": "1:15pm"}, {"days": "Sun", "time": "Closed"}], "id": "4050300079", "name": "USPS COLLECTION BOX - BLUE BOX", "address": {"city": "LEXINGTON", "state": "KY", "street": "306 SOUTHLAND DR", "postcode": "40503"}}},
{"geometry": {"type": "Point", "coordinates": [-84.528848872, 37.9795318336]}, "type": "Feature", "properties": {"collection_times": [{"days": "Mon-Fri", "time": "11:45am"}, {"days": "Sat-Sun", "time": "Closed"}], "id": "4050300082", "name": "USPS COLLECTION BOX - BLUE BOX", "address": {"city": "LEXINGTON", "state": "KY", "street": "4051 NICHOLASVILLE RD", "postcode": "40503"}}},
{"geometry": {"type": "Point", "coordinates": [-84.5139863399, 38.0185132597]}, "type": "Feature", "properties": {"collection_times": [{"days": "Mon-Fri", "time": "12:30pm"}, {"days": "Sat-Sun", "time": "Closed"}], "id": "4050300091", "name": "USPS COLLECTION BOX - BLUE BOX", "address": {"city": "LEXINGTON", "state": "KY", "street": "1760 NICHOLASVILLE RD", "postcode": "40503"}}},
{"geometry": {"type": "Point", "coordinates": [-84.522136147, 38.0033152939]}, "type": "Feature", "properties": {"collection_times": [{"days": "Mon-Fri", "time": "12:00pm"}, {"days": "Sat-Sun", "time": "Closed"}], "id": "4050300105", "name": "USPS COLLECTION BOX - BLUE BOX", "address": {"city": "LEXINGTON", "state": "KY", "street": "112 DENNIS DR", "postcode": "40503"}}},
{"geometry": {"type": "Point", "coordinates": [-84.5183771652, 38.0069864532]}, "type": "Feature", "properties": {"collection_times": [{"days": "Mon-Fri", "time": "1:45pm"}, {"days": "Sat-Sun", "time": "Closed"}], "id": "4050300106", "name": "USPS COLLECTION BOX - BLUE BOX", "address": {"city": "LEXINGTON", "state": "KY", "street": "138 BURT RD", "postcode": "40503"}}},
{"geometry": {"type": "Point", "coordinates": [-84.5558875359, 38.0126087994]}, "type": "Feature", "properties": {"collection_times": [{"days": "Mon-Fri", "time": "2:15pm"}, {"days": "Sat", "time": "12:30pm"}, {"days": "Sun", "time": "Closed"}], "id": "4050300107", "name": "USPS COLLECTION BOX - BLUE BOX", "address": {"city": "LEXINGTON", "state": "KY", "street": "3070 HARRODSBURG RD", "postcode": "40503"}}},
{"geometry": {"type": "Point", "coordinates": [-84.5452258078, 38.0023347432]}, "type": "Feature", "properties": {"collection_times": [{"days": "Mon-Fri", "time": "11:45am"}, {"days": "Sat-Sun", "time": "Closed"}], "id": "4050300108", "name": "USPS COLLECTION BOX - BLUE BOX", "address": {"city": "LEXINGTON", "state": "KY", "street": "3101 CLAYS MILL RD", "postcode": "40503"}}},
{"geometry": {"type": "Point", "coordinates": [-84.5339146022, 37.9959879011]}, "type": "Feature", "properties": {"collection_times": [{"days": "Mon-Fri", "time": "2:00pm"}, {"days": "Sat-Sun", "time": "Closed"}], "id": "4050300111", "name": "USPS COLLECTION BOX - BLUE BOX", "address": {"city": "LEXINGTON", "state": "KY", "street": "425 LEWIS HARGETT CIR", "postcode": "40503"}}},
{"geometry": {"type": "Point", "coordinates": [-84.5513352843, 38.0133037008]}, "type": "Feature", "properties": {"collection_times": [{"days": "Mon-Fri", "time": "2:45pm"}, {"days": "Sat-Sun", "time": "Closed"}], "id": "4050300116", "name": "USPS COLLECTION BOX - BLUE BOX", "address": {"city": "LEXINGTON", "state": "KY", "street": "761 CORPORATE DR", "postcode": "40503"}}},
{"geometry": {"type": "Point", "coordinates": [-84.5515968576, 38.0204800591]}, "type": "Feature", "properties": {"collection_times": [{"days": "Mon-Fri", "time": "11:15am"}, {"days": "Sat-Sun", "time": "Closed"}], "id": "4050400000", "name": "USPS COLLECTION BOX - BLUE BOX", "address": {"city": "LEXINGTON", "state": "KY", "street": "2312 ALEXANDRIA DR", "postcode": "40504"}}},
{"geometry": {"type": "Point", "coordinates": [-84.5210968356, 38.0352853525]}, "type": "Feature", "properties": {"collection_times": [{"days": "Mon-Fri", "time": "1:00pm"}, {"days": "Sat-Sun", "time": "Closed"}], "id": "4050400012", "name": "USPS COLLECTION BOX - BLUE BOX", "address": {"city": "LEXINGTON", "state": "KY", "street": "1221 S BROADWAY", "postcode": "40504"}}},
{"geometry": {"type": "Point", "coordinates": [-84.5204527964, 38.0310568646]}, "type": "Feature", "properties": {"collection_times": [{"days": "Mon-Fri", "time": "1:00pm"}, {"days": "Sat-Sun", "time": "Closed"}], "id": "4050400016", "name": "USPS COLLECTION BOX - BLUE BOX", "address": {"city": "LEXINGTON", "state": "KY", "street": "393 WALLER AVE", "postcode": "40504"}}},
{"geometry": {"type": "Point", "coordinates": [-84.5281348686, 38.0311172715]}, "type": "Feature", "properties": {"collection_times": [{"days": "Mon-Fri", "time": "1:15pm"}, {"days": "Sat-Sun", "time": "Closed"}], "id": "4050400029", "name": "USPS COLLECTION BOX - BLUE BOX", "address": {"city": "LEXINGTON", "state": "KY", "street": "1725 HARRODSBURG RD", "postcode": "40504"}}},
{"geometry": {"type": "Point", "coordinates": [-84.5191135478, 38.040016246]}, "type": "Feature", "properties": {"collection_times": [{"days": "Mon-Fri", "time": "1:00pm"}, {"days": "Sat-Sun", "time": "Closed"}], "id": "4050400036", "name": "USPS COLLECTION BOX - BLUE BOX", "address": {"city": "LEXINGTON", "state": "KY", "street": "1125 RED MILE RD", "postcode": "40504"}}},
{"geometry": {"type": "Point", "coordinates": [-84.5398465642, 38.0294812902]}, "type": "Feature", "properties": {"collection_times": [{"days": "Mon-Fri", "time": "1:30pm"}, {"days": "Sat-Sun", "time": "Closed"}], "id": "4050400043", "name": "USPS COLLECTION BOX - BLUE BOX", "address": {"city": "LEXINGTON", "state": "KY", "street": "843 LANE ALLEN RD", "postcode": "40504"}}},
{"geometry": {"type": "Point", "coordinates": [-84.5272480286, 38.0329959197]}, "type": "Feature", "properties": {"collection_times": [{"days": "Mon-Fri", "time": "1:15pm"}, {"days": "Sat-Sun", "time": "Closed"}], "id": "4050400046", "name": "USPS COLLECTION BOX - BLUE BOX", "address": {"city": "LEXINGTON", "state": "KY", "street": "701 BOB O LINK DR", "postcode": "40504"}}},
{"geometry": {"type": "Point", "coordinates": [-84.5525567648, 38.0396025952]}, "type": "Feature", "properties": {"collection_times": [{"days": "Mon-Fri", "time": "6:00pm"}, {"days": "Sat", "time": "5:30pm"}, {"days": "Sun", "time": "Closed"}], "id": "4050400047", "name": "USPS COLLECTION BOX - BLUE BOX", "address": {"city": "LEXINGTON", "state": "KY", "street": "1729 ALEXANDRIA DR", "postcode": "40504"}}},
{"geometry": {"type": "Point", "coordinates": [-84.5281348686, 38.0311172715]}, "type": "Feature", "properties": {"collection_times": [{"days": "Mon-Fri", "time": "1:15pm"}, {"days": "Sat-Sun", "time": "Closed"}], "id": "4050400053", "name": "USPS COLLECTION BOX - BLUE BOX", "address": {"city": "LEXINGTON", "state": "KY", "street": "1725 HARRODSBURG RD", "postcode": "40504"}}},
{"geometry": {"type": "Point", "coordinates": [-84.5442108023, 38.0207329463]}, "type": "Feature", "properties": {"collection_times": [{"days": "Mon-Fri", "time": "11:15am"}, {"days": "Sat-Sun", "time": "Closed"}], "id": "4050400054", "name": "USPS COLLECTION BOX - BLUE BOX", "address": {"city": "LEXINGTON", "state": "KY", "street": "2365 HARRODSBURG RD", "postcode": "40504"}}},
{"geometry": {"type": "Point", "coordinates": [-84.5477937935, 38.0472256297]}, "type": "Feature", "properties": {"collection_times": [{"days": "Mon-Fri", "time": "10:45am"}, {"days": "Sat-Sun", "time": "Closed"}], "id": "4050400064", "name": "USPS COLLECTION BOX - BLUE BOX", "address": {"city": "LEXINGTON", "state": "KY", "street": "2189 VERSAILLES RD", "postcode": "40504"}}},
{"geometry": {"type": "Point", "coordinates": [-84.5166625959, 38.0294385767]}, "type": "Feature", "properties": {"collection_times": [{"days": "Mon-Fri", "time": "12:45pm"}, {"days": "Sat-Sun", "time": "Closed"}], "id": "4050400067", "name": "USPS COLLECTION BOX - BLUE BOX", "address": {"city": "LEXINGTON", "state": "KY", "street": "333 WALLER AVE", "postcode": "40504"}}},
{"geometry": {"type": "Point", "coordinates": [-84.5525567648, 38.0396025952]}, "type": "Feature", "properties": {"collection_times": [{"days": "Mon-Fri", "time": "5:00pm"}, {"days": "Sat", "time": "3:30pm"}, {"days": "Sun", "time": "Closed"}], "id": "4050400074", "name": "USPS COLLECTION BOX - PO LOBBY", "address": {"city": "LEXINGTON", "state": "KY", "street": "1729 ALEXANDRIA DR", "postcode": "40504"}}},
{"geometry": {"type": "Point", "coordinates": [-84.5438351633, 38.0209484803]}, "type": "Feature", "properties": {"collection_times": [{"days": "Mon-Fri", "time": "11:15am"}, {"days": "Sat-Sun", "time": "Closed"}], "id": "4050400081", "name": "USPS COLLECTION BOX - BLUE BOX", "address": {"city": "LEXINGTON", "state": "KY", "street": "2355 HARRODSBURG RD", "postcode": "40504"}}},
{"geometry": {"type": "Point", "coordinates": [-84.462921953, 38.0606982674]}, "type": "Feature", "properties": {"collection_times": [{"days": "Mon-Fri", "time": "10:00am"}, {"days": "Sat-Sun", "time": "Closed"}], "id": "4050500008", "name": "USPS COLLECTION BOX - BLUE BOX", "address": {"city": "LEXINGTON", "state": "KY", "street": "1650 BRYAN STATION RD", "postcode": "40505"}}},
{"geometry": {"type": "Point", "coordinates": [-84.454649521, 38.0282366904]}, "type": "Feature", "properties": {"collection_times": [{"days": "Mon-Fri", "time": "6:00pm"}, {"days": "Sat", "time": "5:30pm"}, {"days": "Sun", "time": "Closed"}], "id": "4050500038", "name": "USPS COLLECTION BOX - BLUE BOX", "address": {"city": "LEXINGTON", "state": "KY", "street": "2041 CREATIVE DR", "postcode": "40505"}}},
{"geometry": {"type": "Point", "coordinates": [-84.428328684, 38.0441865262]}, "type": "Feature", "properties": {"collection_times": [{"days": "Mon-Fri", "time": "4:45pm"}, {"days": "Sat-Sun", "time": "Closed"}], "id": "4050500040", "name": "USPS COLLECTION BOX - BLUE BOX", "address": {"city": "LEXINGTON", "state": "KY", "street": "2260 EXECUTIVE DR", "postcode": "40505"}}},
{"geometry": {"type": "Point", "coordinates": [-84.428328684, 38.0441865262]}, "type": "Feature", "properties": {"collection_times": [{"days": "Mon-Fri", "time": "4:45pm"}, {"days": "Sat-Sun", "time": "Closed"}], "id": "4050500041", "name": "USPS COLLECTION BOX - BLUE BOX", "address": {"city": "LEXINGTON", "state": "KY", "street": "2260 EXECUTIVE DR", "postcode": "40505"}}},
{"geometry": {"type": "Point", "coordinates": [-84.428328684, 38.0441865262]}, "type": "Feature", "properties": {"collection_times": [{"days": "Mon-Fri", "time": "4:45pm"}, {"days": "Sat-Sun", "time": "Closed"}], "id": "4050500042", "name": "USPS COLLECTION BOX - BLUE BOX", "address": {"city": "LEXINGTON", "state": "KY", "street": "2260 EXECUTIVE DR", "postcode": "40505"}}},
{"geometry": {"type": "Point", "coordinates": [-84.454649521, 38.0282366904]}, "type": "Feature", "properties": {"collection_times": [{"days": "Mon-Fri", "time": "6:00pm"}, {"days": "Sat", "time": "5:30pm"}, {"days": "Sun", "time": "Closed"}], "id": "4050500043", "name": "USPS COLLECTION BOX - BLUE BOX", "address": {"city": "LEXINGTON", "state": "KY", "street": "2041 CREATIVE DR", "postcode": "40505"}}},
{"geometry": {"type": "Point", "coordinates": [-84.4584126128, 38.0428541123]}, "type": "Feature", "properties": {"collection_times": [{"days": "Mon-Fri", "time": "11:30am"}, {"days": "Sat-Sun", "time": "Closed"}], "id": "4050500050", "name": "USPS COLLECTION BOX - BLUE BOX", "address": {"city": "LEXINGTON", "state": "KY", "street": "1301 WINCHESTER RD", "postcode": "40505"}}},
{"geometry": {"type": "Point", "coordinates": [-84.4554988855, 38.0251373379]}, "type": "Feature", "properties": {"collection_times": [{"days": "Mon-Fri", "time": "11:00am"}, {"days": "Sat-Sun", "time": "Closed"}], "id": "4050500053", "name": "USPS COLLECTION BOX - BLUE BOX", "address": {"city": "LEXINGTON", "state": "KY", "street": "2224 YOUNG DR", "postcode": "40505"}}},
{"geometry": {"type": "Point", "coordinates": [-84.454649521, 38.0282366904]}, "type": "Feature", "properties": {"collection_times": [{"days": "Mon-Fri", "time": "5:00pm"}, {"days": "Sat", "time": "3:30pm"}, {"days": "Sun", "time": "Closed"}], "id": "4050500057", "name": "USPS COLLECTION BOX - APC", "address": {"city": "LEXINGTON", "state": "KY", "street": "2041 CREATIVE DR", "postcode": "40505"}}},
{"geometry": {"type": "Point", "coordinates": [-84.454649521, 38.0282366904]}, "type": "Feature", "properties": {"collection_times": [{"days": "Mon-Fri", "time": "5:00pm"}, {"days": "Sat", "time": "3:30pm"}, {"days": "Sun", "time": "Closed"}], "id": "4050500058", "name": "USPS COLLECTION BOX - PO LOBBY", "address": {"city": "LEXINGTON", "state": "KY", "street": "2041 CREATIVE DR", "postcode": "40505"}}},
{"geometry": {"type": "Point", "coordinates": [-84.4540579592, 38.0634819041]}, "type": "Feature", "properties": {"collection_times": [{"days": "Mon-Fri", "time": "10:00am"}, {"days": "Sat-Sun", "time": "Closed"}], "id": "4050500060", "name": "USPS COLLECTION BOX - BLUE BOX", "address": {"city": "LEXINGTON", "state": "KY", "street": "1816 BRYAN STATION RD", "postcode": "40505"}}},
{"geometry": {"type": "Point", "coordinates": [-84.4755590351, 38.0657526959]}, "type": "Feature", "properties": {"collection_times": [{"days": "Mon-Fri", "time": "11:45am"}, {"days": "Sat-Sun", "time": "Closed"}], "id": "4050500063", "name": "USPS COLLECTION BOX - BLUE BOX", "address": {"city": "LEXINGTON", "state": "KY", "street": "118 E NEW CIRCLE RD", "postcode": "40505"}}},
{"geometry": {"type": "Point", "coordinates": [-84.4582999433, 38.0428607399]}, "type": "Feature", "properties": {"collection_times": [{"days": "Mon-Fri", "time": "11:30am"}, {"days": "Sat", "time": "3:00pm"}, {"days": "Sun", "time": "Closed"}], "id": "4050500071", "name": "USPS COLLECTION BOX - BLUE BOX", "address": {"city": "LEXINGTON", "state": "KY", "street": "1315 WINCHESTER RD STE 331", "postcode": "40505"}}},
{"geometry": {"type": "Point", "coordinates": [-84.4987313039, 38.0478962855]}, "type": "Feature", "properties": {"collection_times": [{"days": "Mon-Fri", "time": "4:30pm"}, {"days": "Sat-Sun", "time": "Closed"}], "id": "4050700003", "name": "USPS COLLECTION BOX - BLUE BOX", "address": {"city": "LEXINGTON", "state": "KY", "street": "269 W MAIN ST", "postcode": "40507"}}},
{"geometry": {"type": "Point", "coordinates": [-84.4961687338, 38.0455372495]}, "type": "Feature", "properties": {"collection_times": [{"days": "Mon-Fri", "time": "4:15pm"}, {"days": "Sat-Sun", "time": "Closed"}], "id": "4050700009", "name": "USPS COLLECTION BOX - BLUE BOX", "address": {"city": "LEXINGTON", "state": "KY", "street": "162 E MAIN ST", "postcode": "40507"}}},
{"geometry": {"type": "Point", "coordinates": [-84.5004217522, 38.0494116559]}, "type": "Feature", "properties": {"collection_times": [{"days": "Mon-Fri", "time": "4:45pm"}, {"days": "Sat-Sun", "time": "Closed"}], "id": "4050700021", "name": "USPS COLLECTION BOX - BLUE BOX", "address": {"city": "LEXINGTON", "state": "KY", "street": "401 W MAIN ST", "postcode": "40507"}}},
{"geometry": {"type": "Point", "coordinates": [-84.4977447161, 38.0452559211]}, "type": "Feature", "properties": {"collection_times": [{"days": "Mon-Fri", "time": "3:30pm"}, {"days": "Sat-Sun", "time": "Closed"}], "id": "4050700026", "name": "USPS COLLECTION BOX - BLUE BOX", "address": {"city": "LEXINGTON", "state": "KY", "street": "100 E VINE ST", "postcode": "40507"}}},
{"geometry": {"type": "Point", "coordinates": [-84.4913581196, 38.0394381196]}, "type": "Feature", "properties": {"collection_times": [{"days": "Mon-Fri", "time": "3:45pm"}, {"days": "Sat-Sun", "time": "Closed"}], "id": "4050700029", "name": "USPS COLLECTION BOX - BLUE BOX", "address": {"city": "LEXINGTON", "state": "KY", "street": "400 OLD VINE ST", "postcode": "40507"}}},
{"geometry": {"type": "Point", "coordinates": [-84.4951557483, 38.047733428]}, "type": "Feature", "properties": {"collection_times": [{"days": "Mon-Sat", "time": "6:00pm"}, {"days": "Sun", "time": "Closed"}], "id": "4050700040", "name": "USPS COLLECTION BOX - BLUE BOX", "address": {"city": "LEXINGTON", "state": "KY", "street": "175 N LIMESTONE", "postcode": "40507"}}},
{"geometry": {"type": "Point", "coordinates": [-84.4987313039, 38.0478962855]}, "type": "Feature", "properties": {"collection_times": [{"days": "Mon-Fri", "time": "4:30pm"}, {"days": "Sat-Sun", "time": "Closed"}], "id": "4050700045", "name": "USPS COLLECTION BOX - BLUE BOX", "address": {"city": "LEXINGTON", "state": "KY", "street": "269 W MAIN ST", "postcode": "40507"}}},
{"geometry": {"type": "Point", "coordinates": [-84.4977447161, 38.0470090663]}, "type": "Feature", "properties": {"collection_times": [{"days": "Mon-Fri", "time": "4:30pm"}, {"days": "Sat-Sun", "time": "Closed"}], "id": "4050700048", "name": "USPS COLLECTION BOX - BLUE BOX", "address": {"city": "LEXINGTON", "state": "KY", "street": "167 W MAIN ST", "postcode": "40507"}}},
{"geometry": {"type": "Point", "coordinates": [-84.4961687338, 38.0455372495]}, "type": "Feature", "properties": {"collection_times": [{"days": "Mon-Fri", "time": "4:15pm"}, {"days": "Sat-Sun", "time": "Closed"}], "id": "4050700051", "name": "USPS COLLECTION BOX - BLUE BOX", "address": {"city": "LEXINGTON", "state": "KY", "street": "162 E MAIN ST", "postcode": "40507"}}},
{"geometry": {"type": "Point", "coordinates": [-84.4941315093, 38.0437139563]}, "type": "Feature", "properties": {"collection_times": [{"days": "Mon-Fri", "time": "4:00pm"}, {"days": "Sat-Sun", "time": "Closed"}], "id": "4050700052", "name": "USPS COLLECTION BOX - BLUE BOX", "address": {"city": "LEXINGTON", "state": "KY", "street": "300 E MAIN ST", "postcode": "40507"}}},
{"geometry": {"type": "Point", "coordinates": [-84.4941315093, 38.0437139563]}, "type": "Feature", "properties": {"collection_times": [{"days": "Mon-Fri", "time": "4:00pm"}, {"days": "Sat-Sun", "time": "Closed"}], "id": "4050700053", "name": "USPS COLLECTION BOX - BLUE BOX", "address": {"city": "LEXINGTON", "state": "KY", "street": "300 E MAIN ST", "postcode": "40507"}}},
{"geometry": {"type": "Point", "coordinates": [-84.4935261682, 38.0433246578]}, "type": "Feature", "properties": {"collection_times": [{"days": "Mon-Fri", "time": "4:15pm"}, {"days": "Sat-Sun", "time": "Closed"}], "id": "4050700054", "name": "USPS COLLECTION BOX - BLUE BOX", "address": {"city": "LEXINGTON", "state": "KY", "street": "301 E MAIN ST", "postcode": "40507"}}},
{"geometry": {"type": "Point", "coordinates": [-84.4973815477, 38.047909298]}, "type": "Feature", "properties": {"collection_times": [{"days": "Mon-Fri", "time": "4:45pm"}, {"days": "Sat-Sun", "time": "Closed"}], "id": "4050700055", "name": "USPS COLLECTION BOX - BLUE BOX", "address": {"city": "LEXINGTON", "state": "KY", "street": "215 W SHORT ST", "postcode": "40507"}}},
{"geometry": {"type": "Point", "coordinates": [-84.4973815477, 38.047909298]}, "type": "Feature", "properties": {"collection_times": [{"days": "Mon-Fri", "time": "4:45pm"}, {"days": "Sat-Sun", "time": "Closed"}], "id": "4050700057", "name": "USPS COLLECTION BOX - BLUE BOX", "address": {"city": "LEXINGTON", "state": "KY", "street": "215 W SHORT ST", "postcode": "40507"}}},
{"geometry": {"type": "Point", "coordinates": [-84.495648135, 38.0488367395]}, "type": "Feature", "properties": {"collection_times": [{"days": "Mon-Fri", "time": "5:00pm"}, {"days": "Sat-Sun", "time": "Closed"}], "id": "4050700058", "name": "USPS COLLECTION BOX - BLUE BOX", "address": {"city": "LEXINGTON", "state": "KY", "street": "189 N UPPER ST", "postcode": "40507"}}},
{"geometry": {"type": "Point", "coordinates": [-84.4964976147, 38.0466228735]}, "type": "Feature", "properties": {"collection_times": [{"days": "Mon-Fri", "time": "3:30pm"}, {"days": "Sat-Sun", "time": "Closed"}], "id": "4050700060", "name": "USPS COLLECTION BOX - BLUE BOX", "address": {"city": "LEXINGTON", "state": "KY", "street": "110 W VINE ST", "postcode": "40507"}}},
{"geometry": {"type": "Point", "coordinates": [-84.4964976147, 38.0466228735]}, "type": "Feature", "properties": {"collection_times": [{"days": "Mon-Fri", "time": "3:30pm"}, {"days": "Sat-Sun", "time": "Closed"}], "id": "4050700061", "name": "USPS COLLECTION BOX - BLUE BOX", "address": {"city": "LEXINGTON", "state": "KY", "street": "110 W VINE ST", "postcode": "40507"}}},
{"geometry": {"type": "Point", "coordinates": [-84.5000604627, 38.047818807]}, "type": "Feature", "properties": {"collection_times": [{"days": "Mon-Fri", "time": "3:15pm"}, {"days": "Sat-Sun", "time": "Closed"}], "id": "4050700064", "name": "USPS COLLECTION BOX - BLUE BOX", "address": {"city": "LEXINGTON", "state": "KY", "street": "333 W VINE ST", "postcode": "40507"}}},
{"geometry": {"type": "Point", "coordinates": [-84.4922757881, 38.0410138848]}, "type": "Feature", "properties": {"collection_times": [{"days": "Mon-Fri", "time": "3:45pm"}, {"days": "Sat-Sun", "time": "Closed"}], "id": "4050700065", "name": "USPS COLLECTION BOX - BLUE BOX", "address": {"city": "LEXINGTON", "state": "KY", "street": "400 E VINE ST", "postcode": "40507"}}},
{"geometry": {"type": "Point", "coordinates": [-84.4922757881, 38.0410138848]}, "type": "Feature", "properties": {"collection_times": [{"days": "Mon-Fri", "time": "3:45pm"}, {"days": "Sat-Sun", "time": "Closed"}], "id": "4050700066", "name": "USPS COLLECTION BOX - BLUE BOX", "address": {"city": "LEXINGTON", "state": "KY", "street": "400 E VINE ST", "postcode": "40507"}}},
{"geometry": {"type": "Point", "coordinates": [-84.4977447161, 38.0452559211]}, "type": "Feature", "properties": {"collection_times": [{"days": "Mon-Fri", "time": "3:30pm"}, {"days": "Sat-Sun", "time": "Closed"}], "id": "4050700068", "name": "USPS COLLECTION BOX - BLUE BOX", "address": {"city": "LEXINGTON", "state": "KY", "street": "100 E VINE ST", "postcode": "40507"}}},
{"geometry": {"type": "Point", "coordinates": [-84.4932873267, 38.0378825378]}, "type": "Feature", "properties": {"collection_times": [{"days": "Mon-Fri", "time": "5:00pm"}, {"days": "Sat-Sun", "time": "Closed"}], "id": "4050700074", "name": "USPS COLLECTION BOX - BLUE BOX", "address": {"city": "LEXINGTON", "state": "KY", "street": "465 E HIGH ST", "postcode": "40507"}}},
{"geometry": {"type": "Point", "coordinates": [-84.496370501, 38.0429201349]}, "type": "Feature", "properties": {"collection_times": [{"days": "Mon-Fri", "time": "6:00pm"}, {"days": "Sat", "time": "5:00pm"}, {"days": "Sun", "time": "Closed"}], "id": "4050700098", "name": "USPS COLLECTION BOX - BLUE BOX", "address": {"city": "LEXINGTON", "state": "KY", "street": "210 E HIGH ST", "postcode": "40507"}}},
{"geometry": {"type": "Point", "coordinates": [-84.4994126882, 38.0457255558]}, "type": "Feature", "properties": {"collection_times": [{"days": "Mon-Fri", "time": "5:00pm"}, {"days": "Sat-Sun", "time": "Closed"}], "id": "4050700102", "name": "USPS COLLECTION BOX - BLUE BOX", "address": {"city": "LEXINGTON", "state": "KY", "street": "120 W HIGH ST", "postcode": "40507"}}},
{"geometry": {"type": "Point", "coordinates": [-84.4994126882, 38.0457255558]}, "type": "Feature", "properties": {"collection_times": [{"days": "Mon-Fri", "time": "5:00pm"}, {"days": "Sat-Sun", "time": "Closed"}], "id": "4050700103", "name": "USPS COLLECTION BOX - BLUE BOX", "address": {"city": "LEXINGTON", "state": "KY", "street": "120 W HIGH ST", "postcode": "40507"}}},
{"geometry": {"type": "Point", "coordinates": [-84.496370501, 38.0429201349]}, "type": "Feature", "properties": {"collection_times": [{"days": "Mon-Fri", "time": "5:00pm"}, {"days": "Sat", "time": "3:00pm"}, {"days": "Sun", "time": "Closed"}], "id": "4050700105", "name": "USPS COLLECTION BOX - PO LOBBY", "address": {"city": "LEXINGTON", "state": "KY", "street": "210 E HIGH ST", "postcode": "40507"}}},
{"geometry": {"type": "Point", "coordinates": [-84.4963216164, 38.045748032]}, "type": "Feature", "properties": {"collection_times": [{"days": "Mon-Fri", "time": "4:30pm"}, {"days": "Sat-Sun", "time": "Closed"}], "id": "4050700108", "name": "USPS COLLECTION BOX - BLUE BOX", "address": {"city": "LEXINGTON", "state": "KY", "street": "137 E MAIN ST", "postcode": "40507"}}},
{"geometry": {"type": "Point", "coordinates": [-84.4962495494, 38.0468103601]}, "type": "Feature", "properties": {"collection_times": [{"days": "Mon-Fri", "time": "5:00pm"}, {"days": "Sat-Sun", "time": "Closed"}], "id": "4050700113", "name": "USPS COLLECTION BOX - BLUE BOX", "address": {"city": "LEXINGTON", "state": "KY", "street": "101 E SHORT ST", "postcode": "40507"}}},
{"geometry": {"type": "Point", "coordinates": [-84.4998618742, 38.0474851282]}, "type": "Feature", "properties": {"collection_times": [{"days": "Mon-Fri", "time": "3:00pm"}, {"days": "Sat", "time": "4:00pm"}, {"days": "Sun", "time": "Closed"}], "id": "4050700121", "name": "USPS COLLECTION BOX - BLUE BOX", "address": {"city": "LEXINGTON", "state": "KY", "street": "300 W VINE ST", "postcode": "40507"}}},
{"geometry": {"type": "Point", "coordinates": [-84.496370501, 38.0429201349]}, "type": "Feature", "properties": {"collection_times": [{"days": "Mon-Fri", "time": "5:00pm"}, {"days": "Sat", "time": "3:00pm"}, {"days": "Sun", "time": "Closed"}], "id": "4050700124", "name": "USPS COLLECTION BOX - APC", "address": {"city": "LEXINGTON", "state": "KY", "street": "210 E HIGH ST", "postcode": "40507"}}},
{"geometry": {"type": "Point", "coordinates": [-84.500301684, 38.0479091514]}, "type": "Feature", "properties": {"collection_times": [{"days": "Mon-Fri", "time": "3:00pm"}, {"days": "Sat", "time": "4:00pm"}, {"days": "Sun", "time": "Closed"}], "id": "4050700135", "name": "USPS COLLECTION BOX - BLUE BOX", "address": {"city": "LEXINGTON", "state": "KY", "street": "300 W VINE ST", "postcode": "40507"}}},
{"geometry": {"type": "Point", "coordinates": [-84.4881296256, 38.0571813304]}, "type": "Feature", "properties": {"collection_times": [{"days": "Mon-Fri", "time": "3:45pm"}, {"days": "Sat-Sun", "time": "Closed"}], "id": "4050800003", "name": "USPS COLLECTION BOX - BLUE BOX", "address": {"city": "LEXINGTON", "state": "KY", "street": "635 N BROADWAY", "postcode": "40508"}}},
{"geometry": {"type": "Point", "coordinates": [-84.4945475095, 38.052684288]}, "type": "Feature", "properties": {"collection_times": [{"days": "Mon-Fri", "time": "4:45pm"}, {"days": "Sat-Sun", "time": "Closed"}], "id": "4050800007", "name": "USPS COLLECTION BOX - BLUE BOX", "address": {"city": "LEXINGTON", "state": "KY", "street": "331 N BROADWAY", "postcode": "40508"}}},
{"geometry": {"type": "Point", "coordinates": [-84.5027718671, 38.035633365]}, "type": "Feature", "properties": {"collection_times": [{"days": "Mon-Fri", "time": "4:45pm"}, {"days": "Sat-Sun", "time": "Closed"}], "id": "4050800008", "name": "USPS COLLECTION BOX - BLUE BOX", "address": {"city": "LEXINGTON", "state": "KY", "street": "476 ROSE ST", "postcode": "40508"}}},
{"geometry": {"type": "Point", "coordinates": [-84.499247074, 38.0369207922]}, "type": "Feature", "properties": {"collection_times": [{"days": "Mon-Fri", "time": "4:45pm"}, {"days": "Sat-Sun", "time": "Closed"}], "id": "4050800013", "name": "USPS COLLECTION BOX - BLUE BOX", "address": {"city": "LEXINGTON", "state": "KY", "street": "403 LINDEN WALK", "postcode": "40508"}}},
{"geometry": {"type": "Point", "coordinates": [-84.5002608698, 38.0424984437]}, "type": "Feature", "properties": {"collection_times": [{"days": "Mon-Fri", "time": "3:00pm"}, {"days": "Sat-Sun", "time": "Closed"}], "id": "4050800043", "name": "USPS COLLECTION BOX - BLUE BOX", "address": {"city": "LEXINGTON", "state": "KY", "street": "135 E MAXWELL ST", "postcode": "40508"}}},
{"geometry": {"type": "Point", "coordinates": [-84.4977802049, 38.0542357626]}, "type": "Feature", "properties": {"collection_times": [{"days": "Mon-Fri", "time": "5:00pm"}, {"days": "Sat-Sun", "time": "Closed"}], "id": "4050800045", "name": "USPS COLLECTION BOX - BLUE BOX", "address": {"city": "LEXINGTON", "state": "KY", "street": "465 W THIRD ST", "postcode": "40508"}}},
{"geometry": {"type": "Point", "coordinates": [-84.500946986, 38.0540831609]}, "type": "Feature", "properties": {"collection_times": [{"days": "Mon-Fri", "time": "5:00pm"}, {"days": "Sat-Sun", "time": "Closed"}], "id": "4050800056", "name": "USPS COLLECTION BOX - BLUE BOX", "address": {"city": "LEXINGTON", "state": "KY", "street": "535 W SECOND ST", "postcode": "40508"}}},
{"geometry": {"type": "Point", "coordinates": [-84.4945270677, 38.0497937517]}, "type": "Feature", "properties": {"collection_times": [{"days": "Mon-Fri", "time": "5:00pm"}, {"days": "Sat-Sun", "time": "Closed"}], "id": "4050800067", "name": "USPS COLLECTION BOX - BLUE BOX", "address": {"city": "LEXINGTON", "state": "KY", "street": "201 MECHANIC ST", "postcode": "40508"}}},
{"geometry": {"type": "Point", "coordinates": [-84.4892956187, 38.0379063135]}, "type": "Feature", "properties": {"collection_times": [{"days": "Mon-Fri", "time": "4:30pm"}, {"days": "Sat-Sun", "time": "Closed"}], "id": "4050800074", "name": "USPS COLLECTION BOX - BLUE BOX", "address": {"city": "LEXINGTON", "state": "KY", "street": "125 KENTUCKY CLINIC DR", "postcode": "40508"}}},
{"geometry": {"type": "Point", "coordinates": [-84.4830795738, 38.0562243166]}, "type": "Feature", "properties": {"collection_times": [{"days": "Mon-Fri", "time": "12:45pm"}, {"days": "Sat-Sun", "time": "Closed"}], "id": "4050800079", "name": "USPS COLLECTION BOX - BLUE BOX", "address": {"city": "LEXINGTON", "state": "KY", "street": "740 S LIMESTONE", "postcode": "40508"}}},
{"geometry": {"type": "Point", "coordinates": [-84.43126952, 38.0075408233]}, "type": "Feature", "properties": {"collection_times": [{"days": "Mon-Fri", "time": "3:45pm"}, {"days": "Sat-Sun", "time": "Closed"}], "id": "4050900005", "name": "USPS COLLECTION BOX - BLUE BOX", "address": {"city": "LEXINGTON", "state": "KY", "street": "501 DARBY CREEK RD", "postcode": "40509"}}},
{"geometry": {"type": "Point", "coordinates": [-84.455027518, 38.0213109069]}, "type": "Feature", "properties": {"collection_times": [{"days": "Mon-Fri", "time": "3:00pm"}, {"days": "Sat-Sun", "time": "Closed"}], "id": "4050900006", "name": "USPS COLLECTION BOX - BLUE BOX", "address": {"city": "LEXINGTON", "state": "KY", "street": "1555 E NEW CIRCLE RD", "postcode": "40509"}}},
{"geometry": {"type": "Point", "coordinates": [-84.4524652821, 38.0395764643]}, "type": "Feature", "properties": {"collection_times": [{"days": "Mon-Fri", "time": "5:00pm"}, {"days": "Sat-Sun", "time": "Closed"}], "id": "4050900008", "name": "USPS COLLECTION BOX - BLUE BOX", "address": {"city": "LEXINGTON", "state": "KY", "street": "962 BEASLEY ST", "postcode": "40509"}}},
{"geometry": {"type": "Point", "coordinates": [-84.4431689042, 38.0014757927]}, "type": "Feature", "properties": {"collection_times": [{"days": "Mon-Fri", "time": "4:00pm"}, {"days": "Sat", "time": "2:15pm"}, {"days": "Sun", "time": "Closed"}], "id": "4050900013", "name": "USPS COLLECTION BOX - BLUE BOX", "address": {"city": "LEXINGTON", "state": "KY", "street": "121 PROSPEROUS PL", "postcode": "40509"}}},
{"geometry": {"type": "Point", "coordinates": [-84.4477581133, 38.0031806555]}, "type": "Feature", "properties": {"collection_times": [{"days": "Mon-Fri", "time": "3:15pm"}, {"days": "Sat-Sun", "time": "Closed"}], "id": "4050900015", "name": "USPS COLLECTION BOX - BLUE BOX", "address": {"city": "LEXINGTON", "state": "KY", "street": "3101 RICHMOND RD", "postcode": "40509"}}},
{"geometry": {"type": "Point", "coordinates": [-84.4431689042, 38.0014757927]}, "type": "Feature", "properties": {"collection_times": [{"days": "Mon-Fri", "time": "4:00pm"}, {"days": "Sat", "time": "2:15pm"}, {"days": "Sun", "time": "Closed"}], "id": "4050900027", "name": "USPS COLLECTION BOX - BLUE BOX", "address": {"city": "LEXINGTON", "state": "KY", "street": "121 PROSPEROUS PL", "postcode": "40509"}}},
{"geometry": {"type": "Point", "coordinates": [-84.4524652821, 38.0395764643]}, "type": "Feature", "properties": {"collection_times": [{"days": "Mon-Fri", "time": "5:00pm"}, {"days": "Sat-Sun", "time": "Closed"}], "id": "4050900031", "name": "USPS COLLECTION BOX - BLUE BOX", "address": {"city": "LEXINGTON", "state": "KY", "street": "962 BEASLEY ST", "postcode": "40509"}}},
{"geometry": {"type": "Point", "coordinates": [-84.4417823869, 38.002504745]}, "type": "Feature", "properties": {"collection_times": [{"days": "Mon-Fri", "time": "4:00pm"}, {"days": "Sat-Sun", "time": "Closed"}], "id": "4050900032", "name": "USPS COLLECTION BOX - BLUE BOX", "address": {"city": "LEXINGTON", "state": "KY", "street": "161 PROSPEROUS PL", "postcode": "40509"}}},
{"geometry": {"type": "Point", "coordinates": [-84.4519093562, 38.0071387938]}, "type": "Feature", "properties": {"collection_times": [{"days": "Mon-Fri", "time": "10:45am"}, {"days": "Sat-Sun", "time": "Closed"}], "id": "4050900038", "name": "USPS COLLECTION BOX - BLUE BOX", "address": {"city": "LEXINGTON", "state": "KY", "street": "2907 RICHMOND RD", "postcode": "40509"}}},
{"geometry": {"type": "Point", "coordinates": [-84.43126952, 38.0075408233]}, "type": "Feature", "properties": {"collection_times": [{"days": "Mon-Fri", "time": "3:45pm"}, {"days": "Sat-Sun", "time": "Closed"}], "id": "4050900045", "name": "USPS COLLECTION BOX - BLUE BOX", "address": {"city": "LEXINGTON", "state": "KY", "street": "501 DARBY CREEK RD", "postcode": "40509"}}},
{"geometry": {"type": "Point", "coordinates": [-84.4186625731, 38.0208803158]}, "type": "Feature", "properties": {"collection_times": [{"days": "Mon-Fri", "time": "4:45pm"}, {"days": "Sat-Sun", "time": "Closed"}], "id": "4050900048", "name": "USPS COLLECTION BOX - BLUE BOX", "address": {"city": "LEXINGTON", "state": "KY", "street": "2150 SIR BARTON WAY", "postcode": "40509"}}},
{"geometry": {"type": "Point", "coordinates": [-84.4417823869, 38.002504745]}, "type": "Feature", "properties": {"collection_times": [{"days": "Mon-Fri", "time": "4:00pm"}, {"days": "Sat-Sun", "time": "Closed"}], "id": "4050900052", "name": "USPS COLLECTION BOX - BLUE BOX", "address": {"city": "LEXINGTON", "state": "KY", "street": "161 PROSPEROUS PL", "postcode": "40509"}}},
{"geometry": {"type": "Point", "coordinates": [-84.4359232806, 38.0062301048]}, "type": "Feature", "properties": {"collection_times": [{"days": "Mon-Fri", "time": "11:15am"}, {"days": "Sat-Sun", "time": "Closed"}], "id": "4050900056", "name": "USPS COLLECTION BOX - BLUE BOX", "address": {"city": "LEXINGTON", "state": "KY", "street": "2800 PALUMBO DR", "postcode": "40509"}}},
{"geometry": {"type": "Point", "coordinates": [-84.3830651251, 37.9602082692]}, "type": "Feature", "properties": {"collection_times": [{"days": "Mon-Fri", "time": "10:30am"}, {"days": "Sat-Sun", "time": "Closed"}], "id": "4050900057", "name": "USPS COLLECTION BOX - BLUE BOX", "address": {"city": "LEXINGTON", "state": "KY", "street": "101 BLUE SKY PKWY", "postcode": "40509"}}},
{"geometry": {"type": "Point", "coordinates": [-84.4402385466, 38.0003751045]}, "type": "Feature", "properties": {"collection_times": [{"days": "Mon-Fri", "time": "4:00pm"}, {"days": "Sat-Sun", "time": "Closed"}], "id": "4050900060", "name": "USPS COLLECTION BOX - BLUE BOX", "address": {"city": "LEXINGTON", "state": "KY", "street": "151 N EAGLE CREEK DR", "postcode": "40509"}}},
{"geometry": {"type": "Point", "coordinates": [-84.4402385466, 38.0003751045]}, "type": "Feature", "properties": {"collection_times": [{"days": "Mon-Fri", "time": "4:00pm"}, {"days": "Sat-Sun", "time": "Closed"}], "id": "4050900061", "name": "USPS COLLECTION BOX - BLUE BOX", "address": {"city": "LEXINGTON", "state": "KY", "street": "151 N EAGLE CREEK DR", "postcode": "40509"}}},
{"geometry": {"type": "Point", "coordinates": [-84.4220909414, 38.0159859674]}, "type": "Feature", "properties": {"collection_times": [{"days": "Mon-Fri", "time": "4:15pm"}, {"days": "Sat", "time": "2:30pm"}, {"days": "Sun", "time": "Closed"}], "id": "4050900066", "name": "USPS COLLECTION BOX - BLUE BOX", "address": {"city": "LEXINGTON", "state": "KY", "street": "1792 ALYSHEBA WAY", "postcode": "40509"}}},
{"geometry": {"type": "Point", "coordinates": [-84.4220909414, 38.0159859674]}, "type": "Feature", "properties": {"collection_times": [{"days": "Mon-Fri", "time": "4:15pm"}, {"days": "Sat", "time": "2:30pm"}, {"days": "Sun", "time": "Closed"}], "id": "4050900067", "name": "USPS COLLECTION BOX - BLUE BOX", "address": {"city": "LEXINGTON", "state": "KY", "street": "1792 ALYSHEBA WAY", "postcode": "40509"}}},
{"geometry": {"type": "Point", "coordinates": [-84.4172325289, 38.0176515736]}, "type": "Feature", "properties": {"collection_times": [{"days": "Mon-Fri", "time": "4:15pm"}, {"days": "Sat-Sun", "time": "Closed"}], "id": "4050900069", "name": "USPS COLLECTION BOX - BLUE BOX", "address": {"city": "LEXINGTON", "state": "KY", "street": "1880 PLAUDIT PL", "postcode": "40509"}}},
{"geometry": {"type": "Point", "coordinates": [-84.4206757571, 38.0283727652]}, "type": "Feature", "properties": {"collection_times": [{"days": "Mon-Fri", "time": "4:45pm"}, {"days": "Sat-Sun", "time": "Closed"}], "id": "4050900071", "name": "USPS COLLECTION BOX - BLUE BOX", "address": {"city": "LEXINGTON", "state": "KY", "street": "2709 OLD ROSEBUD RD", "postcode": "40509"}}},
{"geometry": {"type": "Point", "coordinates": [-84.5502300782, 38.0618119774]}, "type": "Feature", "properties": {"collection_times": [{"days": "Mon-Fri", "time": "10:30am"}, {"days": "Sat-Sun", "time": "Closed"}], "id": "4051000004", "name": "USPS COLLECTION BOX - BLUE BOX", "address": {"city": "LEXINGTON", "state": "KY", "street": "740 ENTERPRISE DR", "postcode": "40510"}}},
{"geometry": {"type": "Point", "coordinates": [-84.5935492171, 38.0440462288]}, "type": "Feature", "properties": {"collection_times": [{"days": "Mon-Fri", "time": "11:00am"}, {"days": "Sat-Sun", "time": "Closed"}], "id": "4051000008", "name": "USPS COLLECTION BOX - BLUE BOX", "address": {"city": "LEXINGTON", "state": "KY", "street": "4000 VERSAILLES RD", "postcode": "40510"}}},
{"geometry": {"type": "Point", "coordinates": [-84.5394250923, 38.0856563356]}, "type": "Feature", "properties": {"collection_times": [{"days": "Mon-Fri", "time": "12:45pm"}, {"days": "Sat-Sun", "time": "Closed"}], "id": "4051100001", "name": "USPS COLLECTION BOX - BLUE BOX", "address": {"city": "LEXINGTON", "state": "KY", "street": "501 HORTON CT", "postcode": "40511"}}},
{"geometry": {"type": "Point", "coordinates": [-84.5195858563, 38.0651646474]}, "type": "Feature", "properties": {"collection_times": [{"days": "Mon-Fri", "time": "10:15am"}, {"days": "Sat-Sun", "time": "Closed"}], "id": "4051100005", "name": "USPS COLLECTION BOX - BLUE BOX", "address": {"city": "LEXINGTON", "state": "KY", "street": "1416 N FORBES RD", "postcode": "40511"}}},
{"geometry": {"type": "Point", "coordinates": [-84.5391496653, 38.0810902474]}, "type": "Feature", "properties": {"collection_times": [{"days": "Mon-Fri", "time": "12:45pm"}, {"days": "Sat-Sun", "time": "Closed"}], "id": "4051100007", "name": "USPS COLLECTION BOX - BLUE BOX", "address": {"city": "LEXINGTON", "state": "KY", "street": "2035 MERCER RD", "postcode": "40511"}}},
{"geometry": {"type": "Point", "coordinates": [-84.5266146562, 38.0676601757]}, "type": "Feature", "properties": {"collection_times": [{"days": "Mon-Fri", "time": "10:00am"}, {"days": "Sat-Sun", "time": "Closed"}], "id": "4051100014", "name": "USPS COLLECTION BOX - BLUE BOX", "address": {"city": "LEXINGTON", "state": "KY", "street": "1600 LEESTOWN RD", "postcode": "40511"}}},
{"geometry": {"type": "Point", "coordinates": [-84.5219658009, 38.0649072354]}, "type": "Feature", "properties": {"collection_times": [{"days": "Mon-Fri", "time": "10:15am"}, {"days": "Sat-Sun", "time": "Closed"}], "id": "4051100015", "name": "USPS COLLECTION BOX - BLUE BOX", "address": {"city": "LEXINGTON", "state": "KY", "street": "1451 LEESTOWN RD", "postcode": "40511"}}},
{"geometry": {"type": "Point", "coordinates": [-84.523567145, 38.0656829331]}, "type": "Feature", "properties": {"collection_times": [{"days": "Mon-Fri", "time": "2:45pm"}, {"days": "Sat", "time": "4:30pm"}, {"days": "Sun", "time": "Closed"}], "id": "4051100016", "name": "USPS COLLECTION BOX - BLUE BOX", "address": {"city": "LEXINGTON", "state": "KY", "street": "1500 LEESTOWN RD", "postcode": "40511"}}},
{"geometry": {"type": "Point", "coordinates": [-84.4834769085, 38.0694013957]}, "type": "Feature", "properties": {"collection_times": [{"days": "Mon-Fri", "time": "9:45am"}, {"days": "Sat-Sun", "time": "Closed"}], "id": "4051100046", "name": "USPS COLLECTION BOX - BLUE BOX", "address": {"city": "LEXINGTON", "state": "KY", "street": "455 PARK PL", "postcode": "40511"}}},
{"geometry": {"type": "Point", "coordinates": [-84.5432555308, 38.0768673201]}, "type": "Feature", "properties": {"collection_times": [{"days": "Mon-Fri", "time": "12:45pm"}, {"days": "Sat-Sun", "time": "Closed"}], "id": "4051100057", "name": "USPS COLLECTION BOX - BLUE BOX", "address": {"city": "LEXINGTON", "state": "KY", "street": "110 TRADE ST", "postcode": "40511"}}},
{"geometry": {"type": "Point", "coordinates": [-84.4894545397, 38.0876141327]}, "type": "Feature", "properties": {"collection_times": [{"days": "Mon-Fri", "time": "11:45am"}, {"days": "Sat-Sun", "time": "Closed"}], "id": "4051100061", "name": "USPS COLLECTION BOX - BLUE BOX", "address": {"city": "LEXINGTON", "state": "KY", "street": "1510 NEWTOWN PIKE", "postcode": "40511"}}},
{"geometry": {"type": "Point", "coordinates": [-84.5486699166, 38.0815349066]}, "type": "Feature", "properties": {"collection_times": [{"days": "Mon-Fri", "time": "12:45pm"}, {"days": "Sat-Sun", "time": "Closed"}], "id": "4051100063", "name": "USPS COLLECTION BOX - BLUE BOX", "address": {"city": "LEXINGTON", "state": "KY", "street": "100 VENTURE CT", "postcode": "40511"}}},
{"geometry": {"type": "Point", "coordinates": [-84.5035993809, 38.078521307]}, "type": "Feature", "properties": {"collection_times": [{"days": "Mon-Sat", "time": "8:00pm"}, {"days": "Sun", "time": "Closed"}], "id": "4051100075", "name": "USPS COLLECTION BOX - BLUE BOX", "address": {"city": "LEXINGTON", "state": "KY", "street": "1088 NANDINO BLVD", "postcode": "40511"}}},
{"geometry": {"type": "Point", "coordinates": [-84.5035993809, 38.078521307]}, "type": "Feature", "properties": {"collection_times": [{"days": "Mon-Sat", "time": "8:00pm"}, {"days": "Sun", "time": "Closed"}], "id": "4051100079", "name": "USPS COLLECTION BOX - BLUE BOX", "address": {"city": "LEXINGTON", "state": "KY", "street": "1088 NANDINO BLVD", "postcode": "40511"}}},
{"geometry": {"type": "Point", "coordinates": [-84.5035993809, 38.078521307]}, "type": "Feature", "properties": {"collection_times": [{"days": "Mon-Sat", "time": "8:00pm"}, {"days": "Sun", "time": "Closed"}], "id": "4051100082", "name": "USPS COLLECTION BOX - PO LOBBY", "address": {"city": "LEXINGTON", "state": "KY", "street": "1088 NANDINO BLVD", "postcode": "40511"}}},
{"geometry": {"type": "Point", "coordinates": [-84.5035993809, 38.078521307]}, "type": "Feature", "properties": {"collection_times": [{"days": "Mon-Sat", "time": "8:00pm"}, {"days": "Sun", "time": "Closed"}], "id": "4051100083", "name": "USPS COLLECTION BOX - PO LOBBY", "address": {"city": "LEXINGTON", "state": "KY", "street": "1088 NANDINO BLVD", "postcode": "40511"}}},
{"geometry": {"type": "Point", "coordinates": [-84.5035993809, 38.078521307]}, "type": "Feature", "properties": {"collection_times": [{"days": "Mon-Sat", "time": "8:00pm"}, {"days": "Sun", "time": "Closed"}], "id": "4051100086", "name": "USPS COLLECTION BOX - APC", "address": {"city": "LEXINGTON", "state": "KY", "street": "1088 NANDINO BLVD", "postcode": "40511"}}},
{"geometry": {"type": "Point", "coordinates": [-84.4783648731, 38.0714684848]}, "type": "Feature", "properties": {"collection_times": [{"days": "Mon-Fri", "time": "9:45am"}, {"days": "Sat-Sun", "time": "Closed"}], "id": "4051100087", "name": "USPS COLLECTION BOX - BLUE BOX", "address": {"city": "LEXINGTON", "state": "KY", "street": "500 W NEW CIRCLE RD", "postcode": "40511"}}},
{"geometry": {"type": "Point", "coordinates": [-84.5286504556, 38.0676055584]}, "type": "Feature", "properties": {"collection_times": [{"days": "Mon-Fri", "time": "10:00am"}, {"days": "Sat-Sun", "time": "Closed"}], "id": "4051100089", "name": "USPS COLLECTION BOX - BLUE BOX", "address": {"city": "LEXINGTON", "state": "KY", "street": "1720 SHARKEY WAY", "postcode": "40511"}}},
{"geometry": {"type": "Point", "coordinates": [-84.5152361362, 38.1489765444]}, "type": "Feature", "properties": {"collection_times": [{"days": "Mon-Fri", "time": "4:15pm"}, {"days": "Sat-Sun", "time": "Closed"}], "id": "4051100094", "name": "USPS COLLECTION BOX - BLUE BOX", "address": {"city": "LEXINGTON", "state": "KY", "street": "4089 IRON WORKS PKWY", "postcode": "40511"}}},
{"geometry": {"type": "Point", "coordinates": [-84.4939935532, 38.0884966201]}, "type": "Feature", "properties": {"collection_times": [{"days": "Mon-Fri", "time": "5:00pm"}, {"days": "Sat-Sun", "time": "Closed"}], "id": "4051100097", "name": "USPS COLLECTION BOX - BLUE BOX", "address": {"city": "LEXINGTON", "state": "KY", "street": "1500 BULL LEA RD", "postcode": "40511"}}},
{"geometry": {"type": "Point", "coordinates": [-84.5710682768, 38.0034303063]}, "type": "Feature", "properties": {"collection_times": [{"days": "Mon-Fri", "time": "2:00pm"}, {"days": "Sat", "time": "1:00pm"}, {"days": "Sun", "time": "Closed"}], "id": "4051300001", "name": "USPS COLLECTION BOX - BLUE BOX", "address": {"city": "LEXINGTON", "state": "KY", "street": "3735 PALOMAR CENTRE DR", "postcode": "40513"}}},
{"geometry": {"type": "Point", "coordinates": [-84.5710682768, 38.0034303063]}, "type": "Feature", "properties": {"collection_times": [{"days": "Mon-Fri", "time": "2:00pm"}, {"days": "Sat", "time": "1:00pm"}, {"days": "Sun", "time": "Closed"}], "id": "4051300003", "name": "USPS COLLECTION BOX - BLUE BOX", "address": {"city": "LEXINGTON", "state": "KY", "street": "3735 PALOMAR CENTRE DR", "postcode": "40513"}}},
{"geometry": {"type": "Point", "coordinates": [-84.571807411, 38.0066843611]}, "type": "Feature", "properties": {"collection_times": [{"days": "Mon-Fri", "time": "2:15pm"}, {"days": "Sat-Sun", "time": "Closed"}], "id": "4051300011", "name": "USPS COLLECTION BOX - BLUE BOX", "address": {"city": "LEXINGTON", "state": "KY", "street": "1088 WELLINGTON WAY", "postcode": "40513"}}},
{"geometry": {"type": "Point", "coordinates": [-84.5573421887, 38.0228530442]}, "type": "Feature", "properties": {"collection_times": [{"days": "Mon-Sat", "time": "5:00pm"}, {"days": "Sun", "time": "Closed"}], "id": "4051300014", "name": "USPS COLLECTION BOX - PO LOBBY", "address": {"city": "LEXINGTON", "state": "KY", "street": "1025 MAJESTIC DR", "postcode": "40513"}}},
{"geometry": {"type": "Point", "coordinates": [-84.55641299, 38.0210687599]}, "type": "Feature", "properties": {"collection_times": [{"days": "Mon-Fri", "time": "6:00pm"}, {"days": "Sat", "time": "5:00pm"}, {"days": "Sun", "time": "Closed"}], "id": "4051300015", "name": "USPS COLLECTION BOX - BLUE BOX", "address": {"city": "LEXINGTON", "state": "KY", "street": "1025 MAJESTIC DR", "postcode": "40513"}}},
{"geometry": {"type": "Point", "coordinates": [-84.5573421887, 38.0228530442]}, "type": "Feature", "properties": {"collection_times": [{"days": "Mon-Sat", "time": "5:00pm"}, {"days": "Sun", "time": "Closed"}], "id": "4051300021", "name": "USPS COLLECTION BOX - APC", "address": {"city": "LEXINGTON", "state": "KY", "street": "1025 MAJESTIC DR", "postcode": "40513"}}},
{"geometry": {"type": "Point", "coordinates": [-84.5514082521, 37.9800374849]}, "type": "Feature", "properties": {"collection_times": [{"days": "Mon-Fri", "time": "10:00am"}, {"days": "Sat-Sun", "time": "Closed"}], "id": "4051400000", "name": "USPS COLLECTION BOX - BLUE BOX", "address": {"city": "LEXINGTON", "state": "KY", "street": "3650 BOSTON RD", "postcode": "40514"}}},
{"geometry": {"type": "Point", "coordinates": [-84.4806790156, 37.9609769215]}, "type": "Feature", "properties": {"collection_times": [{"days": "Mon-Fri", "time": "10:30am"}, {"days": "Sat-Sun", "time": "Closed"}], "id": "4051500004", "name": "USPS COLLECTION BOX - BLUE BOX", "address": {"city": "LEXINGTON", "state": "KY", "street": "4750 HARTLAND PKWY", "postcode": "40515"}}},
{"geometry": {"type": "Point", "coordinates": [-84.5021358598, 37.9662839465]}, "type": "Feature", "properties": {"collection_times": [{"days": "Mon-Fri", "time": "10:15am"}, {"days": "Sat-Sun", "time": "Closed"}], "id": "4051500007", "name": "USPS COLLECTION BOX - BLUE BOX", "address": {"city": "LEXINGTON", "state": "KY", "street": "4230 SARON DR", "postcode": "40515"}}},
{"geometry": {"type": "Point", "coordinates": [-84.4579594402, 37.9761226162]}, "type": "Feature", "properties": {"collection_times": [{"days": "Mon-Fri", "time": "10:30am"}, {"days": "Sat-Sun", "time": "Closed"}], "id": "4051500009", "name": "USPS COLLECTION BOX - BLUE BOX", "address": {"city": "LEXINGTON", "state": "KY", "street": "3429 BUCKHORN DR", "postcode": "40515"}}},
{"geometry": {"type": "Point", "coordinates": [-84.5160864642, 37.9870298919]}, "type": "Feature", "properties": {"collection_times": [{"days": "Mon-Fri", "time": "6:00pm"}, {"days": "Sat", "time": "5:00pm"}, {"days": "Sun", "time": "Closed"}], "id": "4051700002", "name": "USPS COLLECTION BOX - BLUE BOX", "address": {"city": "LEXINGTON", "state": "KY", "street": "3525 LANSDOWNE DR", "postcode": "40517"}}},
{"geometry": {"type": "Point", "coordinates": [-84.5160864642, 37.9870298919]}, "type": "Feature", "properties": {"collection_times": [{"days": "Mon-Sat", "time": "5:00pm"}, {"days": "Sun", "time": "Closed"}], "id": "4051700003", "name": "USPS COLLECTION BOX - APC", "address": {"city": "LEXINGTON", "state": "KY", "street": "3525 LANSDOWNE DR", "postcode": "40517"}}},
{"geometry": {"type": "Point", "coordinates": [-84.4591293866, 37.9890925783]}, "type": "Feature", "properties": {"collection_times": [{"days": "Mon-Fri", "time": "10:45am"}, {"days": "Sat", "time": "2:00pm"}, {"days": "Sun", "time": "Closed"}], "id": "4051700009", "name": "USPS COLLECTION BOX - BLUE BOX", "address": {"city": "LEXINGTON", "state": "KY", "street": "3131 CUSTER DR", "postcode": "40517"}}},
{"geometry": {"type": "Point", "coordinates": [-84.4974685158, 37.9719161777]}, "type": "Feature", "properties": {"collection_times": [{"days": "Mon-Fri", "time": "2:00pm"}, {"days": "Sat-Sun", "time": "Closed"}], "id": "4051700019", "name": "USPS COLLECTION BOX - BLUE BOX", "address": {"city": "LEXINGTON", "state": "KY", "street": "4071 TATES CREEK RD", "postcode": "40517"}}},
{"geometry": {"type": "Point", "coordinates": [-84.498328686, 37.972984925]}, "type": "Feature", "properties": {"collection_times": [{"days": "Mon-Fri", "time": "2:00pm"}, {"days": "Sat", "time": "1:30pm"}, {"days": "Sun", "time": "Closed"}], "id": "4051700023", "name": "USPS COLLECTION BOX - BLUE BOX", "address": {"city": "LEXINGTON", "state": "KY", "street": "4053 TATES CREEK CENTRE DR", "postcode": "40517"}}},
{"geometry": {"type": "Point", "coordinates": [-84.455686976, 38.0083724435]}, "type": "Feature", "properties": {"collection_times": [{"days": "Mon-Fri", "time": "11:00am"}, {"days": "Sat-Sun", "time": "Closed"}], "id": "4051700028", "name": "USPS COLLECTION BOX - BLUE BOX", "address": {"city": "LEXINGTON", "state": "KY", "street": "153 PATCHEN DR", "postcode": "40517"}}},
{"geometry": {"type": "Point", "coordinates": [-84.4604708621, 37.9860630204]}, "type": "Feature", "properties": {"collection_times": [{"days": "Mon-Fri", "time": "10:45am"}, {"days": "Sat-Sun", "time": "Closed"}], "id": "4051700030", "name": "USPS COLLECTION BOX - BLUE BOX", "address": {"city": "LEXINGTON", "state": "KY", "street": "3120 PIMLICO PKWY", "postcode": "40517"}}},
{"geometry": {"type": "Point", "coordinates": [-84.5160864642, 37.9870298919]}, "type": "Feature", "properties": {"collection_times": [{"days": "Mon-Fri", "time": "6:00pm"}, {"days": "Sat", "time": "5:00pm"}, {"days": "Sun", "time": "Closed"}], "id": "4051700033", "name": "USPS COLLECTION BOX - BLUE BOX", "address": {"city": "LEXINGTON", "state": "KY", "street": "3525 LANSDOWNE DR", "postcode": "40517"}}},
{"geometry": {"type": "Point", "coordinates": [-84.516086464, 37.9870298917]}, "type": "Feature", "properties": {"collection_times": [{"days": "Mon-Sat", "time": "5:00pm"}, {"days": "Sun", "time": "Closed"}], "id": "4051700034", "name": "USPS COLLECTION BOX - PO LOBBY", "address": {"city": "LEXINGTON", "state": "KY", "street": "3525 LANSDOWNE DR", "postcode": "40517"}}},
{"geometry": {"type": "Point", "coordinates": [-84.4603987016, 37.9867112819]}, "type": "Feature", "properties": {"collection_times": [{"days": "Mon-Fri", "time": "10:45am"}, {"days": "Sat-Sun", "time": "Closed"}], "id": "4051700035", "name": "USPS COLLECTION BOX - BLUE BOX", "address": {"city": "LEXINGTON", "state": "KY", "street": "3199 CUSTER DR", "postcode": "40517"}}},
{"geometry": {"type": "Point", "coordinates": [-84.4604708621, 37.9860630204]}, "type": "Feature", "properties": {"collection_times": [{"days": "Mon-Fri", "time": "10:45am"}, {"days": "Sat-Sun", "time": "Closed"}], "id": "4051700036", "name": "USPS COLLECTION BOX - BLUE BOX", "address": {"city": "LEXINGTON", "state": "KY", "street": "3120 PIMLICO PKWY", "postcode": "40517"}}},
{"geometry": {"type": "Point", "coordinates": [-84.4626983738, 37.9950061902]}, "type": "Feature", "properties": {"collection_times": [{"days": "Mon-Fri", "time": "2:45pm"}, {"days": "Sat", "time": "1:45pm"}, {"days": "Sun", "time": "Closed"}], "id": "4051700037", "name": "USPS COLLECTION BOX - BLUE BOX", "address": {"city": "LEXINGTON", "state": "KY", "street": "699 PERIMETER DR", "postcode": "40517"}}},
{"geometry": {"type": "Point", "coordinates": [-84.4626983738, 37.9950061902]}, "type": "Feature", "properties": {"collection_times": [{"days": "Mon-Fri", "time": "2:45pm"}, {"days": "Sat", "time": "1:45pm"}, {"days": "Sun", "time": "Closed"}], "id": "4051700038", "name": "USPS COLLECTION BOX - BLUE BOX", "address": {"city": "LEXINGTON", "state": "KY", "street": "699 PERIMETER DR", "postcode": "40517"}}},
{"geometry": {"type": "Point", "coordinates": [-84.4637628681, 37.9936594414]}, "type": "Feature", "properties": {"collection_times": [{"days": "Mon-Fri", "time": "2:30pm"}, {"days": "Sat", "time": "2:00pm"}, {"days": "Sun", "time": "Closed"}], "id": "4051700053", "name": "USPS COLLECTION BOX - BLUE BOX", "address": {"city": "LEXINGTON", "state": "KY", "street": "2333 STERLINGTON RD", "postcode": "40517"}}},
{"geometry": {"type": "Point", "coordinates": [-84.4988105621, 37.9802665214]}, "type": "Feature", "properties": {"collection_times": [{"days": "Mon-Fri", "time": "2:00pm"}, {"days": "Sat-Sun", "time": "Closed"}], "id": "4051700058", "name": "USPS COLLECTION BOX - BLUE BOX", "address": {"city": "LEXINGTON", "state": "KY", "street": "3620 WALDEN DR", "postcode": "40517"}}}
]}
