{"type": "FeatureCollection", "features": [
{"geometry": {"type": "Point", "coordinates": [-84.8778908006, 38.1985725875]}, "type": "Feature", "properties": {"collection_times": [{"days": "Mon-Fri", "time": "4:30pm"}, {"days": "Sat", "time": "4:15pm"}, {"days": "Sun", "time": "Closed"}], "id": "4060100009", "name": "USPS COLLECTION BOX - BLUE BOX", "address": {"city": "FRANKFORT", "state": "KY", "street": "300 MAIN ST", "postcode": "40601"}}},
{"geometry": {"type": "Point", "coordinates": [-84.8790219481, 38.1995023608]}, "type": "Feature", "properties": {"collection_times": [{"days": "Mon-Fri", "time": "4:30pm"}, {"days": "Sat", "time": "4:15pm"}, {"days": "Sun", "time": "Closed"}], "id": "4060100010", "name": "USPS COLLECTION BOX - BLUE BOX", "address": {"city": "FRANKFORT", "state": "KY", "street": "321 WASHINGTON ST", "postcode": "40601"}}},
{"geometry": {"type": "Point", "coordinates": [-84.8617691969, 38.1981918619]}, "type": "Feature", "properties": {"collection_times": [{"days": "Mon-Fri", "time": "1:45pm"}, {"days": "Sat", "time": "1:30pm"}, {"days": "Sun", "time": "Closed"}], "id": "4060100013", "name": "USPS COLLECTION BOX - BLUE BOX", "address": {"city": "FRANKFORT", "state": "KY", "street": "275 E MAIN ST", "postcode": "40601"}}},
{"geometry": {"type": "Point", "coordinates": [-84.8742199771, 38.1947452657]}, "type": "Feature", "properties": {"collection_times": [{"days": "Mon-Fri", "time": "4:00pm"}, {"days": "Sat", "time": "1:15pm"}, {"days": "Sun", "time": "Closed"}], "id": "4060100029", "name": "USPS COLLECTION BOX - BLUE BOX", "address": {"city": "FRANKFORT", "state": "KY", "street": "201 CAPITOL AVE", "postcode": "40601"}}},
{"geometry": {"type": "Point", "coordinates": [-84.8262609514, 38.197716331]}, "type": "Feature", "properties": {"collection_times": [{"days": "Mon-Fri", "time": "2:45pm"}, {"days": "Sat", "time": "2:15pm"}, {"days": "Sun", "time": "Closed"}], "id": "4060100036", "name": "USPS COLLECTION BOX - BLUE BOX", "address": {"city": "FRANKFORT", "state": "KY", "street": "302 BRIGHTON PARK BLVD", "postcode": "40601"}}},
{"geometry": {"type": "Point", "coordinates": [-84.8203045922, 38.1966646429]}, "type": "Feature", "properties": {"collection_times": [{"days": "Mon-Fri", "time": "12:45pm"}, {"days": "Sat", "time": "2:15pm"}, {"days": "Sun", "time": "Closed"}], "id": "4060100037", "name": "USPS COLLECTION BOX - BLUE BOX", "address": {"city": "FRANKFORT", "state": "KY", "street": "400 COUNTRY LN", "postcode": "40601"}}},
{"geometry": {"type": "Point", "coordinates": [-84.8789272613, 38.1950190835]}, "type": "Feature", "properties": {"collection_times": [{"days": "Mon-Fri", "time": "4:30pm"}, {"days": "Sat", "time": "1:15pm"}, {"days": "Sun", "time": "Closed"}], "id": "4060100038", "name": "USPS COLLECTION BOX - BLUE BOX", "address": {"city": "FRANKFORT", "state": "KY", "street": "315 W 2ND ST", "postcode": "40601"}}},
{"geometry": {"type": "Point", "coordinates": [-84.8843959283, 38.1813403475]}, "type": "Feature", "properties": {"collection_times": [{"days": "Mon-Sat", "time": "3:30pm"}, {"days": "Sun", "time": "Closed"}], "id": "4060100041", "name": "USPS COLLECTION BOX - BLUE BOX", "address": {"city": "FRANKFORT", "state": "KY", "street": "900 LEAWOOD DR", "postcode": "40601"}}},
{"geometry": {"type": "Point", "coordinates": [-84.8750956122, 38.1881770294]}, "type": "Feature", "properties": {"collection_times": [{"days": "Mon-Fri", "time": "4:00pm"}, {"days": "Sat", "time": "1:00pm"}, {"days": "Sun", "time": "Closed"}], "id": "4060100047", "name": "USPS COLLECTION BOX - BLUE BOX", "address": {"city": "FRANKFORT", "state": "KY", "street": "700 CAPITOL AVE", "postcode": "40601"}}},
{"geometry": {"type": "Point", "coordinates": [-84.8263176426, 38.1933083273]}, "type": "Feature", "properties": {"collection_times": [{"days": "Mon-Fri", "time": "12:15pm"}, {"days": "Sat", "time": "2:00pm"}, {"days": "Sun", "time": "Closed"}], "id": "4060100054", "name": "USPS COLLECTION BOX - BLUE BOX", "address": {"city": "FRANKFORT", "state": "KY", "street": "601 VERSAILLES RD", "postcode": "40601"}}},
{"geometry": {"type": "Point", "coordinates": [-84.8100186397, 38.1746521572]}, "type": "Feature", "properties": {"collection_times": [{"days": "Mon-Fri", "time": "12:45pm"}, {"days": "Sat", "time": "2:00pm"}, {"days": "Sun", "time": "Closed"}], "id": "4060100056", "name": "USPS COLLECTION BOX - BLUE BOX", "address": {"city": "FRANKFORT", "state": "KY", "street": "290 CHENAULT RD", "postcode": "40601"}}},
{"geometry": {"type": "Point", "coordinates": [-84.8311958455, 38.2006512515]}, "type": "Feature", "properties": {"collection_times": [{"days": "Mon-Fri", "time": "1:00pm"}, {"days": "Sat", "time": "2:45pm"}, {"days": "Sun", "time": "Closed"}], "id": "4060100060", "name": "USPS COLLECTION BOX - BLUE BOX", "address": {"city": "FRANKFORT", "state": "KY", "street": "205 EASTWOOD SHOPPING CTR", "postcode": "40601"}}},
{"geometry": {"type": "Point", "coordinates": [-84.8383952636, 38.2148224659]}, "type": "Feature", "properties": {"collection_times": [{"days": "Mon-Fri", "time": "1:30pm"}, {"days": "Sat", "time": "3:00pm"}, {"days": "Sun", "time": "Closed"}], "id": "4060100062", "name": "USPS COLLECTION BOX - BLUE BOX", "address": {"city": "FRANKFORT", "state": "KY", "street": "577 COMANCHE TRL", "postcode": "40601"}}},
{"geometry": {"type": "Point", "coordinates": [-84.8348432552, 38.2043149867]}, "type": "Feature", "properties": {"collection_times": [{"days": "Mon-Fri", "time": "1:00pm"}, {"days": "Sat", "time": "2:45pm"}, {"days": "Sun", "time": "Closed"}], "id": "4060100063", "name": "USPS COLLECTION BOX - BLUE BOX", "address": {"city": "FRANKFORT", "state": "KY", "street": "154 VERSAILLES RD", "postcode": "40601"}}},
{"geometry": {"type": "Point", "coordinates": [-84.8383952636, 38.2148224659]}, "type": "Feature", "properties": {"collection_times": [{"days": "Mon-Fri", "time": "1:30pm"}, {"days": "Sat", "time": "3:00pm"}, {"days": "Sun", "time": "Closed"}], "id": "4060100064", "name": "USPS COLLECTION BOX - BLUE BOX", "address": {"city": "FRANKFORT", "state": "KY", "street": "577 COMANCHE TRL", "postcode": "40601"}}},
{"geometry": {"type": "Point", "coordinates": [-84.8826061376, 38.2332443699]}, "type": "Feature", "properties": {"collection_times": [{"days": "Mon-Fri", "time": "2:00pm"}, {"days": "Sat", "time": "12:00pm"}, {"days": "Sun", "time": "Closed"}], "id": "4060100068", "name": "USPS COLLECTION BOX - BLUE BOX", "address": {"city": "FRANKFORT", "state": "KY", "street": "15 FOUNTAIN PL", "postcode": "40601"}}},
{"geometry": {"type": "Point", "coordinates": [-84.8826061376, 38.2332443699]}, "type": "Feature", "properties": {"collection_times": [{"days": "Mon-Fri", "time": "2:00pm"}, {"days": "Sat", "time": "12:00pm"}, {"days": "Sun", "time": "Closed"}], "id": "4060100069", "name": "USPS COLLECTION BOX - BLUE BOX", "address": {"city": "FRANKFORT", "state": "KY", "street": "400 CLINTON ST", "postcode": "40601"}}},
{"geometry": {"type": "Point", "coordinates": [-84.878601379, 38.1974360606]}, "type": "Feature", "properties": {"collection_times": [{"days": "Mon-Fri", "time": "4:30pm"}, {"days": "Sat", "time": "4:15pm"}, {"days": "Sun", "time": "Closed"}], "id": "4060100071", "name": "USPS COLLECTION BOX - BLUE BOX", "address": {"city": "FRANKFORT", "state": "KY", "street": "201 SAINT CLAIR ST", "postcode": "40601"}}},
{"geometry": {"type": "Point", "coordinates": [-84.8777343505, 38.1999518947]}, "type": "Feature", "properties": {"collection_times": [{"days": "Mon-Fri", "time": "4:45pm"}, {"days": "Sat", "time": "4:20pm"}, {"days": "Sun", "time": "Closed"}], "id": "4060100072", "name": "USPS COLLECTION BOX - BLUE BOX", "address": {"city": "FRANKFORT", "state": "KY", "street": "321 W BROADWAY ST", "postcode": "40601"}}},
{"geometry": {"type": "Point", "coordinates": [-84.8790871668, 38.2019644028]}, "type": "Feature", "properties": {"collection_times": [{"days": "Mon-Fri", "time": "5:15pm"}, {"days": "Sat", "time": "4:20pm"}, {"days": "Sun", "time": "Closed"}], "id": "4060100075", "name": "USPS COLLECTION BOX - BLUE BOX", "address": {"city": "FRANKFORT", "state": "KY", "street": "1210 WILKINSON BLVD", "postcode": "40601"}}},
{"geometry": {"type": "Point", "coordinates": [-84.8790871668, 38.2019644028]}, "type": "Feature", "properties": {"collection_times": [{"days": "Mon-Fri", "time": "5:15pm"}, {"days": "Sat", "time": "4:20pm"}, {"days": "Sun", "time": "Closed"}], "id": "4060100076", "name": "USPS COLLECTION BOX - BLUE BOX", "address": {"city": "FRANKFORT", "state": "KY", "street": "1210 WILKINSON BLVD", "postcode": "40601"}}},
{"geometry": {"type": "Point", "coordinates": [-84.8992675478, 38.1681514243]}, "type": "Feature", "properties": {"collection_times": [{"days": "Mon-Fri", "time": "2:15pm"}, {"days": "Sat", "time": "4:00pm"}, {"days": "Sun", "time": "Closed"}], "id": "4060100081", "name": "USPS COLLECTION BOX - BLUE BOX", "address": {"city": "FRANKFORT", "state": "KY", "street": "1303 US HIGHWAY 127 S STE 111", "postcode": "40601"}}},
{"geometry": {"type": "Point", "coordinates": [-84.8282843911, 38.1962624627]}, "type": "Feature", "properties": {"collection_times": [{"days": "Mon-Fri", "time": "2:45pm"}, {"days": "Sat", "time": "2:15pm"}, {"days": "Sun", "time": "Closed"}], "id": "4060100084", "name": "USPS COLLECTION BOX - BLUE BOX", "address": {"city": "FRANKFORT", "state": "KY", "street": "118 BRIGHTON PARK BLVD", "postcode": "40601"}}},
{"geometry": {"type": "Point", "coordinates": [-84.8152671626, 38.1717425874]}, "type": "Feature", "properties": {"collection_times": [{"days": "Mon-Fri", "time": "12:30pm"}, {"days": "Sat", "time": "2:00pm"}, {"days": "Sun", "time": "Closed"}], "id": "4060100096", "name": "USPS COLLECTION BOX - BLUE BOX", "address": {"city": "FRANKFORT", "state": "KY", "street": "260 DEMOCRAT DR", "postcode": "40601"}}},
{"geometry": {"type": "Point", "coordinates": [-84.8790871668, 38.2019644028]}, "type": "Feature", "properties": {"collection_times": [{"days": "Mon-Fri", "time": "5:45pm"}, {"days": "Sat", "time": "4:20pm"}, {"days": "Sun", "time": "Closed"}], "id": "4060100099", "name": "USPS COLLECTION BOX - PO LOBBY", "address": {"city": "FRANKFORT", "state": "KY", "street": "1210 WILKINSON BLVD", "postcode": "40601"}}},
{"geometry": {"type": "Point", "coordinates": [-84.8992588096, 38.1681364445]}, "type": "Feature", "properties": {"collection_times": [{"days": "Mon-Fri", "time": "2:15pm"}, {"days": "Sat", "time": "3:45pm"}, {"days": "Sun", "time": "Closed"}], "id": "4060100101", "name": "USPS COLLECTION BOX - BLUE BOX", "address": {"city": "FRANKFORT", "state": "KY", "street": "1305 US HIGHWAY 127 S", "postcode": "40601"}}},
{"geometry": {"type": "Point", "coordinates": [-84.8921938291, 38.150868963]}, "type": "Feature", "properties": {"collection_times": [{"days": "Mon-Sat", "time": "3:30pm"}, {"days": "Sun", "time": "Closed"}], "id": "4060100105", "name": "USPS COLLECTION BOX - BLUE BOX", "address": {"city": "FRANKFORT", "state": "KY", "street": "1030 BURLINGTON LN", "postcode": "40601"}}},
{"geometry": {"type": "Point", "coordinates": [-84.899526562, 38.159193754]}, "type": "Feature", "properties": {"collection_times": [{"days": "Mon-Fri", "time": "2:15pm"}, {"days": "Sat", "time": "3:30pm"}, {"days": "Sun", "time": "Closed"}], "id": "4060100107", "name": "USPS COLLECTION BOX - BLUE BOX", "address": {"city": "FRANKFORT", "state": "KY", "street": "320 LEONARDWOOD RD", "postcode": "40601"}}},
{"geometry": {"type": "Point", "coordinates": [-84.8790219481, 38.1995023608]}, "type": "Feature", "properties": {"collection_times": [{"days": "Mon-Fri", "time": "11:00am"}, {"days": "Sat", "time": "10:00am"}, {"days": "Sun", "time": "Closed"}], "id": "4060100108", "name": "USPS COLLECTION BOX - BLUE BOX", "address": {"city": "FRANKFORT", "state": "KY", "street": "321 WASHINGTON ST", "postcode": "40601"}}},
{"geometry": {"type": "Point", "coordinates": [-84.878601379, 38.1974360606]}, "type": "Feature", "properties": {"collection_times": [{"days": "Mon-Sat", "time": "8:30am"}, {"days": "Sun", "time": "Closed"}], "id": "4060100109", "name": "USPS COLLECTION BOX - BLUE BOX", "address": {"city": "FRANKFORT", "state": "KY", "street": "201 SAINT CLAIR ST", "postcode": "40601"}}},
{"geometry": {"type": "Point", "coordinates": [-84.8778908006, 38.1985725875]}, "type": "Feature", "properties": {"collection_times": [{"days": "Mon-Fri", "time": "4:30pm"}, {"days": "Sat", "time": "4:15pm"}, {"days": "Sun", "time": "Closed"}], "id": "4060100110", "name": "USPS COLLECTION BOX - BLUE BOX", "address": {"city": "FRANKFORT", "state": "KY", "street": "300 MAIN ST", "postcode": "40601"}}},
{"geometry": {"type": "Point", "coordinates": [-84.8157745661, 38.1816664075]}, "type": "Feature", "properties": {"collection_times": [{"days": "Mon-Fri", "time": "12:45pm"}, {"days": "Sat-Sun", "time": "Closed"}], "id": "4060100113", "name": "USPS COLLECTION BOX - BLUE BOX", "address": {"city": "FRANKFORT", "state": "KY", "street": "1024 CAPITAL CENTER DR", "postcode": "40601"}}},
{"geometry": {"type": "Point", "coordinates": [-84.8739993488, 38.2013559305]}, "type": "Feature", "properties": {"collection_times": [{"days": "Mon-Fri", "time": "4:30pm"}, {"days": "Sat", "time": "3:00pm"}, {"days": "Sun", "time": "Closed"}], "id": "4060100118", "name": "USPS COLLECTION BOX - BLUE BOX", "address": {"city": "FRANKFORT", "state": "KY", "street": "200 MERO ST", "postcode": "40601"}}},
{"geometry": {"type": "Point", "coordinates": [-84.8467775985, 38.1903491397]}, "type": "Feature", "properties": {"collection_times": [{"days": "Mon-Fri", "time": "1:45pm"}, {"days": "Sat-Sun", "time": "Closed"}], "id": "4060100119", "name": "USPS COLLECTION BOX - BLUE BOX", "address": {"city": "FRANKFORT", "state": "KY", "street": "100 SOWER BLVD", "postcode": "40601"}}},
{"geometry": {"type": "Point", "coordinates": [-84.8767166554, 38.1974677955]}, "type": "Feature", "properties": {"collection_times": [{"days": "Mon-Fri", "time": "4:30pm"}, {"days": "Sat", "time": "4:15pm"}, {"days": "Sun", "time": "Closed"}], "id": "4060100125", "name": "USPS COLLECTION BOX - BLUE BOX", "address": {"city": "FRANKFORT", "state": "KY", "street": "200 ANN ST", "postcode": "40601"}}},
{"geometry": {"type": "Point", "coordinates": [-84.8992762861, 38.1681664042]}, "type": "Feature", "properties": {"collection_times": [{"days": "Mon-Fri", "time": "4:00pm"}, {"days": "Sat-Sun", "time": "Closed"}], "id": "4060100126", "name": "USPS COLLECTION BOX - PO LOBBY", "address": {"city": "FRANKFORT", "state": "KY", "street": "1301 US 127 SUITE 100 HWY", "postcode": "40601"}}}
]}
