{"type": "FeatureCollection", "features": [
{"geometry": {"type": "Point", "coordinates": [-84.0945305508, 36.9497913661]}, "type": "Feature", "properties": {"collection_times": [{"days": "Mon-Fri", "time": "4:00pm"}, {"days": "Sat", "time": "11:00am"}, {"days": "Sun", "time": "Closed"}], "id": "4070100000", "name": "USPS COLLECTION BOX - BLUE BOX", "address": {"city": "CORBIN", "state": "KY", "street": "301 ROY KIDD AVE", "postcode": "40701"}}},
{"geometry": {"type": "Point", "coordinates": [-84.0945305508, 36.9497913661]}, "type": "Feature", "properties": {"collection_times": [{"days": "Mon-Fri", "time": "4:00pm"}, {"days": "Sat", "time": "11:00am"}, {"days": "Sun", "time": "Closed"}], "id": "4070100001", "name": "USPS COLLECTION BOX - BLUE BOX", "address": {"city": "CORBIN", "state": "KY", "street": "301 ROY KIDD AVE", "postcode": "40701"}}},
{"geometry": {"type": "Point", "coordinates": [-84.120237188, 36.9223610199]}, "type": "Feature", "properties": {"collection_times": [{"days": "Mon-Sat", "time": "11:00am"}, {"days": "Sun", "time": "Closed"}], "id": "4070100012", "name": "USPS COLLECTION BOX - BLUE BOX", "address": {"city": "CORBIN", "state": "KY", "street": "1 TRILLIUM WAY", "postcode": "40701"}}},
{"geometry": {"type": "Point", "coordinates": [-84.0987664227, 36.9738445015]}, "type": "Feature", "properties": {"collection_times": [{"days": "Mon-Sat", "time": "11:00am"}, {"days": "Sun", "time": "Closed"}], "id": "4070100016", "name": "USPS COLLECTION BOX - BLUE BOX", "address": {"city": "CORBIN", "state": "KY", "street": "1000 W CUMBERLAND GAP PKWY", "postcode": "40701"}}},
{"geometry": {"type": "Point", "coordinates": [-84.0703698087, 36.9580431266]}, "type": "Feature", "properties": {"collection_times": [{"days": "Mon-Sat", "time": "11:00am"}, {"days": "Sun", "time": "Closed"}], "id": "4070100017", "name": "USPS COLLECTION BOX - BLUE BOX", "address": {"city": "CORBIN", "state": "KY", "street": "14892 N US HIGHWAY 25 E", "postcode": "40701"}}},
{"geometry": {"type": "Point", "coordinates": [-84.1126150017, 36.9246827069]}, "type": "Feature", "properties": {"collection_times": [{"days": "Mon-Sat", "time": "11:00am"}, {"days": "Sun", "time": "Closed"}], "id": "4070100023", "name": "USPS COLLECTION BOX - BLUE BOX", "address": {"city": "CORBIN", "state": "KY", "street": "1600 CUMBERLAND FALLS HWY", "postcode": "40701"}}},
{"geometry": {"type": "Point", "coordinates": [-84.1059065969, 36.9292444215]}, "type": "Feature", "properties": {"collection_times": [{"days": "Mon-Sat", "time": "11:00am"}, {"days": "Sun", "time": "Closed"}], "id": "4070100025", "name": "USPS COLLECTION BOX - BLUE BOX", "address": {"city": "CORBIN", "state": "KY", "street": "1019 CUMBERLAND FALLS HWY", "postcode": "40701"}}},
{"geometry": {"type": "Point", "coordinates": [-84.1086650153, 36.9280385509]}, "type": "Feature", "properties": {"collection_times": [{"days": "Mon-Sat", "time": "11:00am"}, {"days": "Sun", "time": "Closed"}], "id": "4070100029", "name": "USPS COLLECTION BOX - BLUE BOX", "address": {"city": "CORBIN", "state": "KY", "street": "1319 CUMBERLAND FALLS HWY", "postcode": "40701"}}},
{"geometry": {"type": "Point", "coordinates": [-84.0912896966, 36.9518240899]}, "type": "Feature", "properties": {"collection_times": [{"days": "Mon-Sat", "time": "11:00am"}, {"days": "Sun", "time": "Closed"}], "id": "4070100031", "name": "USPS COLLECTION BOX - BLUE BOX", "address": {"city": "CORBIN", "state": "KY", "street": "501 MASTER ST", "postcode": "40701"}}},
{"geometry": {"type": "Point", "coordinates": [-84.0945305508, 36.9497913661]}, "type": "Feature", "properties": {"collection_times": [{"days": "Mon-Fri", "time": "4:00pm"}, {"days": "Sat", "time": "11:00am"}, {"days": "Sun", "time": "Closed"}], "id": "4070100033", "name": "USPS COLLECTION BOX - PO LOBBY", "address": {"city": "CORBIN", "state": "KY", "street": "301 ROY KIDD AVE", "postcode": "40701"}}},
{"geometry": {"type": "Point", "coordinates": [-84.1051146879, 36.9731647028]}, "type": "Feature", "properties": {"collection_times": [{"days": "Mon-Sat", "time": "9:15am"}, {"days": "Sun", "time": "Closed"}], "id": "4070100038", "name": "USPS COLLECTION BOX - BLUE BOX", "address": {"city": "CORBIN", "state": "KY", "street": "100 STEWART RD", "postcode": "40701"}}},
{"geometry": {"type": "Point", "coordinates": [-84.1060804297, 36.9293085715]}, "type": "Feature", "properties": {"collection_times": [{"days": "Mon-Sat", "time": "11:00am"}, {"days": "Sun", "time": "Closed"}], "id": "4070100043", "name": "USPS COLLECTION BOX - BLUE BOX", "address": {"city": "CORBIN", "state": "KY", "street": "1030 CUMBERLAND FALLS HWY", "postcode": "40701"}}},
{"geometry": {"type": "Point", "coordinates": [-84.1061642276, 36.9760159285]}, "type": "Feature", "properties": {"collection_times": [{"days": "Mon-Sat", "time": "11:00am"}, {"days": "Sun", "time": "Closed"}], "id": "4070100049", "name": "USPS COLLECTION BOX - BLUE BOX", "address": {"city": "CORBIN", "state": "KY", "street": "1498 W CUMBERLAND GAP PKWY", "postcode": "40701"}}},
{"geometry": {"type": "Point", "coordinates": [-84.1441957509, 36.9166426808]}, "type": "Feature", "properties": {"collection_times": [{"days": "Mon-Sat", "time": "11:00am"}, {"days": "Sun", "time": "Closed"}], "id": "4070100052", "name": "USPS COLLECTION BOX - BLUE BOX", "address": {"city": "CORBIN", "state": "KY", "street": "14889 N US HIGHWAY 25 E", "postcode": "40701"}}},
{"geometry": {"type": "Point", "coordinates": [-84.1336675264, 36.9174343219]}, "type": "Feature", "properties": {"collection_times": [{"days": "Mon-Sat", "time": "11:00am"}, {"days": "Sun", "time": "Closed"}], "id": "4070100054", "name": "USPS COLLECTION BOX - BLUE BOX", "address": {"city": "CORBIN", "state": "KY", "street": "3779 CUMBERLAND FALLS HWY", "postcode": "40701"}}},
{"geometry": {"type": "Point", "coordinates": [-84.208163707, 36.954416812]}, "type": "Feature", "properties": {"collection_times": [{"days": "Mon-Sat", "time": "9:00am"}, {"days": "Sun", "time": "Closed"}], "id": "4070100056", "name": "USPS COLLECTION BOX - BLUE BOX", "address": {"city": "CORBIN", "state": "KY", "street": "675 FLATWOODS RD", "postcode": "40701"}}},
{"geometry": {"type": "Point", "coordinates": [-84.1069054506, 36.9764496972]}, "type": "Feature", "properties": {"collection_times": [{"days": "Mon-Sat", "time": "9:00am"}, {"days": "Sun", "time": "Closed"}], "id": "4070100057", "name": "USPS COLLECTION BOX - BLUE BOX", "address": {"city": "CORBIN", "state": "KY", "street": "8376 S US HIGHWAY 25", "postcode": "40701"}}},
{"geometry": {"type": "Point", "coordinates": [-84.1186827996, 37.1877873204]}, "type": "Feature", "properties": {"collection_times": [{"days": "Mon-Fri", "time": "3:30pm"}, {"days": "Sat", "time": "10:00am"}, {"days": "Sun", "time": "Closed"}], "id": "4072900001", "name": "USPS COLLECTION BOX - BLUE BOX", "address": {"city": "EAST BERNSTADT", "state": "KY", "street": "1066 HIGHWAY 490", "postcode": "40729"}}},
{"geometry": {"type": "Point", "coordinates": [-84.1186827996, 37.1877873204]}, "type": "Feature", "properties": {"collection_times": [{"days": "Mon-Fri", "time": "4:00pm"}, {"days": "Sat", "time": "10:00am"}, {"days": "Sun", "time": "Closed"}], "id": "4072900002", "name": "USPS COLLECTION BOX - PO LOBBY", "address": {"city": "EAST BERNSTADT", "state": "KY", "street": "1066 HIGHWAY 490", "postcode": "40729"}}},
{"geometry": {"type": "Point", "coordinates": [-84.1186827996, 37.1877873204]}, "type": "Feature", "properties": {"collection_times": [{"days": "Mon-Fri", "time": "4:00pm"}, {"days": "Sat", "time": "10:00am"}, {"days": "Sun", "time": "Closed"}], "id": "4072900003", "name": "USPS COLLECTION BOX - PO LOBBY", "address": {"city": "EAST BERNSTADT", "state": "KY", "street": "1066 HIGHWAY 490", "postcode": "40729"}}},
{"geometry": {"type": "Point", "coordinates": [-84.1452172953, 36.7028401106]}, "type": "Feature", "properties": {"collection_times": [{"days": "Mon-Fri", "time": "1:30pm"}, {"days": "Sat", "time": "11:30am"}, {"days": "Sun", "time": "Closed"}], "id": "4073000000", "name": "USPS COLLECTION BOX - BLUE BOX", "address": {"city": "EMLYN", "state": "KY", "street": "3052 US HIGHWAY 25 W", "postcode": "40730"}}},
{"geometry": {"type": "Point", "coordinates": [-84.1452172953, 36.7028401106]}, "type": "Feature", "properties": {"collection_times": [{"days": "Mon-Fri", "time": "1:30pm"}, {"days": "Sat", "time": "11:30am"}, {"days": "Sun", "time": "Closed"}], "id": "4073000001", "name": "USPS COLLECTION BOX - PO LOBBY", "address": {"city": "EMLYN", "state": "KY", "street": "3052 US HIGHWAY 25 W", "postcode": "40730"}}},
{"geometry": {"type": "Point", "coordinates": [-83.9539625832, 36.9486970115]}, "type": "Feature", "properties": {"collection_times": [{"days": "Mon-Fri", "time": "4:00pm"}, {"days": "Sat", "time": "11:00am"}, {"days": "Sun", "time": "Closed"}], "id": "4073400002", "name": "USPS COLLECTION BOX - BLUE BOX", "address": {"city": "GRAY", "state": "KY", "street": "280 S KY 233", "postcode": "40734"}}},
{"geometry": {"type": "Point", "coordinates": [-83.9539625832, 36.9486970115]}, "type": "Feature", "properties": {"collection_times": [{"days": "Mon-Fri", "time": "4:00pm"}, {"days": "Sat", "time": "11:00am"}, {"days": "Sun", "time": "Closed"}], "id": "4073400003", "name": "USPS COLLECTION BOX - PO LOBBY", "address": {"city": "GRAY", "state": "KY", "street": "280 S KY 233", "postcode": "40734"}}},
{"geometry": {"type": "Point", "coordinates": [-84.140910896, 37.0065471149]}, "type": "Feature", "properties": {"collection_times": [{"days": "Mon-Fri", "time": "1:00pm"}, {"days": "Sat", "time": "10:30am"}, {"days": "Sun", "time": "Closed"}], "id": "4073700000", "name": "USPS COLLECTION BOX - BLUE BOX", "address": {"city": "KEAVY", "state": "KY", "street": "356 W HIGHWAY 312", "postcode": "40737"}}},
{"geometry": {"type": "Point", "coordinates": [-84.140910896, 37.0065471149]}, "type": "Feature", "properties": {"collection_times": [{"days": "Mon-Fri", "time": "1:00pm"}, {"days": "Sat", "time": "10:30am"}, {"days": "Sun", "time": "Closed"}], "id": "4073700001", "name": "USPS COLLECTION BOX - PO LOBBY", "address": {"city": "KEAVY", "state": "KY", "street": "356 W HIGHWAY 312", "postcode": "40737"}}},
{"geometry": {"type": "Point", "coordinates": [-84.0391741643, 37.0314946789]}, "type": "Feature", "properties": {"collection_times": [{"days": "Mon-Fri", "time": "3:30pm"}, {"days": "Sat", "time": "11:30am"}, {"days": "Sun", "time": "Closed"}], "id": "4074000000", "name": "USPS COLLECTION BOX - BLUE BOX", "address": {"city": "LILY", "state": "KY", "street": "4048 E HIGHWAY 552", "postcode": "40740"}}},
{"geometry": {"type": "Point", "coordinates": [-84.0391741643, 37.0314946789]}, "type": "Feature", "properties": {"collection_times": [{"days": "Mon-Fri", "time": "3:30pm"}, {"days": "Sat", "time": "11:30am"}, {"days": "Sun", "time": "Closed"}], "id": "4074000001", "name": "USPS COLLECTION BOX - PO LOBBY", "address": {"city": "LILY", "state": "KY", "street": "4048 E HIGHWAY 552", "postcode": "40740"}}},
{"geometry": {"type": "Point", "coordinates": [-84.1117341241, 37.1007929182]}, "type": "Feature", "properties": {"collection_times": [{"days": "Mon-Sat", "time": "11:00am"}, {"days": "Sun", "time": "Closed"}], "id": "4074100000", "name": "USPS COLLECTION BOX - BLUE BOX", "address": {"city": "LONDON", "state": "KY", "street": "1730 HIGHWAY 192 W", "postcode": "40741"}}},
{"geometry": {"type": "Point", "coordinates": [-84.0843500029, 37.1284630929]}, "type": "Feature", "properties": {"collection_times": [{"days": "Mon-Sat", "time": "11:00am"}, {"days": "Sun", "time": "Closed"}], "id": "4074100003", "name": "USPS COLLECTION BOX - BLUE BOX", "address": {"city": "LONDON", "state": "KY", "street": "101 S BROAD ST", "postcode": "40741"}}},
{"geometry": {"type": "Point", "coordinates": [-84.1149430129, 37.0983478582]}, "type": "Feature", "properties": {"collection_times": [{"days": "Mon-Sat", "time": "11:00am"}, {"days": "Sun", "time": "Closed"}], "id": "4074100007", "name": "USPS COLLECTION BOX - BLUE BOX", "address": {"city": "LONDON", "state": "KY", "street": "1851 HIGHWAY 192 W", "postcode": "40741"}}},
{"geometry": {"type": "Point", "coordinates": [-84.07376748, 37.1104108658]}, "type": "Feature", "properties": {"collection_times": [{"days": "Mon-Sat", "time": "11:00am"}, {"days": "Sun", "time": "Closed"}], "id": "4074100009", "name": "USPS COLLECTION BOX - BLUE BOX", "address": {"city": "LONDON", "state": "KY", "street": "1541 S MAIN ST", "postcode": "40741"}}},
{"geometry": {"type": "Point", "coordinates": [-84.0832661689, 37.1283004893]}, "type": "Feature", "properties": {"collection_times": [{"days": "Mon-Fri", "time": "11:00am"}, {"days": "Sat-Sun", "time": "Closed"}], "id": "4074100011", "name": "USPS COLLECTION BOX - BLUE BOX", "address": {"city": "LONDON", "state": "KY", "street": "200 S MAIN ST", "postcode": "40741"}}},
{"geometry": {"type": "Point", "coordinates": [-84.207836974, 37.1287317844]}, "type": "Feature", "properties": {"collection_times": [{"days": "Mon-Sat", "time": "11:00am"}, {"days": "Sun", "time": "Closed"}], "id": "4074100014", "name": "USPS COLLECTION BOX - BLUE BOX", "address": {"city": "LONDON", "state": "KY", "street": "100 STATE POLICE RD", "postcode": "40741"}}},
{"geometry": {"type": "Point", "coordinates": [-84.0980863063, 37.1387229719]}, "type": "Feature", "properties": {"collection_times": [{"days": "Mon-Sat", "time": "11:00am"}, {"days": "Sun", "time": "Closed"}], "id": "4074100015", "name": "USPS COLLECTION BOX - BLUE BOX", "address": {"city": "LONDON", "state": "KY", "street": "1805 N MAIN ST", "postcode": "40741"}}},
{"geometry": {"type": "Point", "coordinates": [-84.0853956617, 37.1294405776]}, "type": "Feature", "properties": {"collection_times": [{"days": "Mon-Fri", "time": "11:00am"}, {"days": "Sat-Sun", "time": "Closed"}], "id": "4074100018", "name": "USPS COLLECTION BOX - BLUE BOX", "address": {"city": "LONDON", "state": "KY", "street": "202 W 7TH ST", "postcode": "40741"}}},
{"geometry": {"type": "Point", "coordinates": [-84.1124249809, 37.1001613421]}, "type": "Feature", "properties": {"collection_times": [{"days": "Mon-Fri", "time": "5:00pm"}, {"days": "Sat", "time": "12:00pm"}, {"days": "Sun", "time": "Closed"}], "id": "4074100022", "name": "USPS COLLECTION BOX - BLUE BOX", "address": {"city": "LONDON", "state": "KY", "street": "1760 HIGHWAY 192 W", "postcode": "40741"}}},
{"geometry": {"type": "Point", "coordinates": [-84.1124249809, 37.1001613421]}, "type": "Feature", "properties": {"collection_times": [{"days": "Mon-Fri", "time": "5:00pm"}, {"days": "Sat", "time": "12:00pm"}, {"days": "Sun", "time": "Closed"}], "id": "4074100026", "name": "USPS COLLECTION BOX - PO LOBBY", "address": {"city": "LONDON", "state": "KY", "street": "1760 HIGHWAY 192 W", "postcode": "40741"}}},
{"geometry": {"type": "Point", "coordinates": [-84.0826920419, 37.1277323807]}, "type": "Feature", "properties": {"collection_times": [{"days": "Mon-Fri", "time": "11:00am"}, {"days": "Sat-Sun", "time": "Closed"}], "id": "4074100030", "name": "USPS COLLECTION BOX - BLUE BOX", "address": {"city": "LONDON", "state": "KY", "street": "310 S MAIN ST", "postcode": "40741"}}},
{"geometry": {"type": "Point", "coordinates": [-84.0815830599, 37.1267739512]}, "type": "Feature", "properties": {"collection_times": [{"days": "Mon-Sat", "time": "11:00am"}, {"days": "Sun", "time": "Closed"}], "id": "4074100032", "name": "USPS COLLECTION BOX - BLUE BOX", "address": {"city": "LONDON", "state": "KY", "street": "503 S MAIN ST", "postcode": "40741"}}},
{"geometry": {"type": "Point", "coordinates": [-84.207836974, 37.1287317844]}, "type": "Feature", "properties": {"collection_times": [{"days": "Mon-Sat", "time": "10:15am"}, {"days": "Sun", "time": "Closed"}], "id": "4074100036", "name": "USPS COLLECTION BOX - BLUE BOX", "address": {"city": "LONDON", "state": "KY", "street": "100 NAMI PLZ", "postcode": "40741"}}},
{"geometry": {"type": "Point", "coordinates": [-84.0826126858, 37.1278281192]}, "type": "Feature", "properties": {"collection_times": [{"days": "Mon-Fri", "time": "11:00am"}, {"days": "Sat-Sun", "time": "Closed"}], "id": "4074100038", "name": "USPS COLLECTION BOX - BLUE BOX", "address": {"city": "LONDON", "state": "KY", "street": "305 S MAIN ST", "postcode": "40741"}}},
{"geometry": {"type": "Point", "coordinates": [-83.9979598504, 37.0368885719]}, "type": "Feature", "properties": {"collection_times": [{"days": "Mon-Fri", "time": "12:00pm"}, {"days": "Sat", "time": "11:00am"}, {"days": "Sun", "time": "Closed"}], "id": "4074400001", "name": "USPS COLLECTION BOX - BLUE BOX", "address": {"city": "LONDON", "state": "KY", "street": "326 BARBOURVILLE RD", "postcode": "40744"}}},
{"geometry": {"type": "Point", "coordinates": [-84.1069924953, 37.1544494139]}, "type": "Feature", "properties": {"collection_times": [{"days": "Mon-Fri", "time": "3:00pm"}, {"days": "Sat", "time": "10:30am"}, {"days": "Sun", "time": "Closed"}], "id": "4075500000", "name": "USPS COLLECTION BOX - BLUE BOX", "address": {"city": "PITTSBURG", "state": "KY", "street": "741 N LAUREL RD", "postcode": "40755"}}},
{"geometry": {"type": "Point", "coordinates": [-84.1069924953, 37.1544494139]}, "type": "Feature", "properties": {"collection_times": [{"days": "Mon-Fri", "time": "3:00pm"}, {"days": "Sat", "time": "10:30am"}, {"days": "Sun", "time": "Closed"}], "id": "4075500001", "name": "USPS COLLECTION BOX - PO LOBBY", "address": {"city": "PITTSBURG", "state": "KY", "street": "741 N LAUREL RD", "postcode": "40755"}}},
{"geometry": {"type": "Point", "coordinates": [-84.116752414, 36.8284285861]}, "type": "Feature", "properties": {"collection_times": [{"days": "Mon-Fri", "time": "3:15pm"}, {"days": "Sat", "time": "10:45am"}, {"days": "Sun", "time": "Closed"}], "id": "4075900000", "name": "USPS COLLECTION BOX - BLUE BOX", "address": {"city": "ROCKHOLDS", "state": "KY", "street": "31 TYES FERRY RD", "postcode": "40759"}}},
{"geometry": {"type": "Point", "coordinates": [-84.116752414, 36.8284285861]}, "type": "Feature", "properties": {"collection_times": [{"days": "Mon-Fri", "time": "3:15pm"}, {"days": "Sat", "time": "10:45am"}, {"days": "Sun", "time": "Closed"}], "id": "4075900001", "name": "USPS COLLECTION BOX - PO LOBBY", "address": {"city": "ROCKHOLDS", "state": "KY", "street": "31 TYES FERRY RD", "postcode": "40759"}}},
{"geometry": {"type": "Point", "coordinates": [-83.975090228, 36.7243556553]}, "type": "Feature", "properties": {"collection_times": [{"days": "Mon-Sat", "time": "12:00pm"}, {"days": "Sun", "time": "Closed"}], "id": "4076300000", "name": "USPS COLLECTION BOX - BLUE BOX", "address": {"city": "SILER", "state": "KY", "street": "15654 E HIGHWAY 92", "postcode": "40763"}}},
{"geometry": {"type": "Point", "coordinates": [-83.975090228, 36.7243556553]}, "type": "Feature", "properties": {"collection_times": [{"days": "Mon-Sat", "time": "12:00pm"}, {"days": "Sun", "time": "Closed"}], "id": "4076300001", "name": "USPS COLLECTION BOX - PO LOBBY", "address": {"city": "SILER", "state": "KY", "street": "15654 E HIGHWAY 92", "postcode": "40763"}}},
{"geometry": {"type": "Point", "coordinates": [-84.159110474, 36.7434471234]}, "type": "Feature", "properties": {"collection_times": [{"days": "Mon-Sat", "time": "11:00am"}, {"days": "Sun", "time": "Closed"}], "id": "4076900003", "name": "USPS COLLECTION BOX - BLUE BOX", "address": {"city": "WILLIAMSBURG", "state": "KY", "street": "322 MAIN ST", "postcode": "40769"}}},
{"geometry": {"type": "Point", "coordinates": [-84.1798073234, 36.7325043404]}, "type": "Feature", "properties": {"collection_times": [{"days": "Mon-Sat", "time": "9:45am"}, {"days": "Sun", "time": "Closed"}], "id": "4076900010", "name": "USPS COLLECTION BOX - BLUE BOX", "address": {"city": "WILLIAMSBURG", "state": "KY", "street": "600 BRUSH ARBOR APARTMENTS", "postcode": "40769"}}},
{"geometry": {"type": "Point", "coordinates": [-84.1585353494, 36.7500200584]}, "type": "Feature", "properties": {"collection_times": [{"days": "Mon-Fri", "time": "4:00pm"}, {"days": "Sat", "time": "11:30am"}, {"days": "Sun", "time": "Closed"}], "id": "4076900020", "name": "USPS COLLECTION BOX - PO LOBBY", "address": {"city": "WILLIAMSBURG", "state": "KY", "street": "1000 N HIGHWAY 25 W", "postcode": "40769"}}},
{"geometry": {"type": "Point", "coordinates": [-84.1585353494, 36.7500200584]}, "type": "Feature", "properties": {"collection_times": [{"days": "Mon-Fri", "time": "4:00pm"}, {"days": "Sat", "time": "11:30am"}, {"days": "Sun", "time": "Closed"}], "id": "4076900021", "name": "USPS COLLECTION BOX - PO LOBBY", "address": {"city": "WILLIAMSBURG", "state": "KY", "street": "1000 N HIGHWAY 25 W", "postcode": "40769"}}},
{"geometry": {"type": "Point", "coordinates": [-84.1580967797, 36.7439809692]}, "type": "Feature", "properties": {"collection_times": [{"days": "Mon-Sat", "time": "10:30am"}, {"days": "Sun", "time": "Closed"}], "id": "4076900023", "name": "USPS COLLECTION BOX - BLUE BOX", "address": {"city": "WILLIAMSBURG", "state": "KY", "street": "589 W HIGHWAY 92", "postcode": "40769"}}},
{"geometry": {"type": "Point", "coordinates": [-84.1585353494, 36.7500200584]}, "type": "Feature", "properties": {"collection_times": [{"days": "Mon-Fri", "time": "4:00pm"}, {"days": "Sat", "time": "11:30am"}, {"days": "Sun", "time": "Closed"}], "id": "4076900026", "name": "USPS COLLECTION BOX - BLUE BOX", "address": {"city": "WILLIAMSBURG", "state": "KY", "street": "1000 N HIGHWAY 25 W", "postcode": "40769"}}},
{"geometry": {"type": "Point", "coordinates": [-84.1576139222, 36.744444904]}, "type": "Feature", "properties": {"collection_times": [{"days": "Mon-Fri", "time": "11:00am"}, {"days": "Sat-Sun", "time": "Closed"}], "id": "4076900029", "name": "USPS COLLECTION BOX - BLUE BOX", "address": {"city": "WILLIAMSBURG", "state": "KY", "street": "200 MAIN ST", "postcode": "40769"}}},
{"geometry": {"type": "Point", "coordinates": [-84.1576139222, 36.744444904]}, "type": "Feature", "properties": {"collection_times": [{"days": "Mon-Fri", "time": "11:00am"}, {"days": "Sat-Sun", "time": "Closed"}], "id": "4076900030", "name": "USPS COLLECTION BOX - BLUE BOX", "address": {"city": "WILLIAMSBURG", "state": "KY", "street": "200 MAIN ST", "postcode": "40769"}}},
{"geometry": {"type": "Point", "coordinates": [-84.0881587658, 36.9044820701]}, "type": "Feature", "properties": {"collection_times": [{"days": "Mon-Fri", "time": "3:15pm"}, {"days": "Sat", "time": "11:30am"}, {"days": "Sun", "time": "Closed"}], "id": "4077100000", "name": "USPS COLLECTION BOX - BLUE BOX", "address": {"city": "WOODBINE", "state": "KY", "street": "34 N ARCHER ST", "postcode": "40771"}}},
{"geometry": {"type": "Point", "coordinates": [-84.0881587658, 36.9044820701]}, "type": "Feature", "properties": {"collection_times": [{"days": "Mon-Fri", "time": "3:15pm"}, {"days": "Sat", "time": "11:30am"}, {"days": "Sun", "time": "Closed"}], "id": "4077100001", "name": "USPS COLLECTION BOX - PO LOBBY", "address": {"city": "WOODBINE", "state": "KY", "street": "34 N ARCHER ST", "postcode": "40771"}}}
]}
