{"type": "FeatureCollection", "features": [
{"geometry": {"type": "Point", "coordinates": [-83.2476865488, 36.8577059482]}, "type": "Feature", "properties": {"collection_times": [{"days": "Mon-Sat", "time": "12:00pm"}, {"days": "Sun", "time": "Closed"}], "id": "4080100003", "name": "USPS COLLECTION BOX - BLUE BOX", "address": {"city": "AGES BROOKSIDE", "state": "KY", "street": "4327 HIGHWAY 38", "postcode": "40801"}}},
{"geometry": {"type": "Point", "coordinates": [-83.3981443824, 37.0358437018]}, "type": "Feature", "properties": {"collection_times": [{"days": "Mon-Fri", "time": "2:30pm"}, {"days": "Sat", "time": "11:30am"}, {"days": "Sun", "time": "Closed"}], "id": "4080300000", "name": "USPS COLLECTION BOX - PO LOBBY", "address": {"city": "ASHER", "state": "KY", "street": "25 MIDDLEFORK RD", "postcode": "40803"}}},
{"geometry": {"type": "Point", "coordinates": [-83.3300170538, 36.8588983465]}, "type": "Feature", "properties": {"collection_times": [{"days": "Mon-Fri", "time": "3:00pm"}, {"days": "Sat", "time": "10:30am"}, {"days": "Sun", "time": "Closed"}], "id": "4080600000", "name": "USPS COLLECTION BOX - BLUE BOX", "address": {"city": "BAXTER", "state": "KY", "street": "295 S HIGHWAY 413", "postcode": "40806"}}},
{"geometry": {"type": "Point", "coordinates": [-83.3300170538, 36.8588983465]}, "type": "Feature", "properties": {"collection_times": [{"days": "Mon-Fri", "time": "3:00pm"}, {"days": "Sat", "time": "10:30am"}, {"days": "Sun", "time": "Closed"}], "id": "4080600001", "name": "USPS COLLECTION BOX - PO LOBBY", "address": {"city": "BAXTER", "state": "KY", "street": "295 S HIGHWAY 413", "postcode": "40806"}}},
{"geometry": {"type": "Point", "coordinates": [-82.8951523891, 36.9362608803]}, "type": "Feature", "properties": {"collection_times": [{"days": "Mon-Fri", "time": "3:15pm"}, {"days": "Sat", "time": "11:15am"}, {"days": "Sun", "time": "Closed"}], "id": "4080700000", "name": "USPS COLLECTION BOX - BLUE BOX", "address": {"city": "BENHAM", "state": "KY", "street": "229 MAIN ST STE 1", "postcode": "40807"}}},
{"geometry": {"type": "Point", "coordinates": [-82.8951523891, 36.9362608803]}, "type": "Feature", "properties": {"collection_times": [{"days": "Mon-Fri", "time": "3:15pm"}, {"days": "Sat", "time": "11:15am"}, {"days": "Sun", "time": "Closed"}], "id": "4080700001", "name": "USPS COLLECTION BOX - PO LOBBY", "address": {"city": "BENHAM", "state": "KY", "street": "229 MAIN ST STE 1", "postcode": "40807"}}},
{"geometry": {"type": "Point", "coordinates": [-83.2248228187, 36.9825685262]}, "type": "Feature", "properties": {"collection_times": [{"days": "Mon-Sat", "time": "10:45am"}, {"days": "Sun", "time": "Closed"}], "id": "4080800000", "name": "USPS COLLECTION BOX - BLUE BOX", "address": {"city": "BIG LAUREL", "state": "KY", "street": "12564 E HIGHWAY 221", "postcode": "40808"}}},
{"geometry": {"type": "Point", "coordinates": [-83.2248228187, 36.9825685262]}, "type": "Feature", "properties": {"collection_times": [{"days": "Mon-Sat", "time": "10:45am"}, {"days": "Sun", "time": "Closed"}], "id": "4080800001", "name": "USPS COLLECTION BOX - PO LOBBY", "address": {"city": "BIG LAUREL", "state": "KY", "street": "12564 E HIGHWAY 221", "postcode": "40808"}}},
{"geometry": {"type": "Point", "coordinates": [-83.3372369675, 36.9100250515]}, "type": "Feature", "properties": {"collection_times": [{"days": "Mon-Fri", "time": "3:00pm"}, {"days": "Sat", "time": "11:00am"}, {"days": "Sun", "time": "Closed"}], "id": "4081000000", "name": "USPS COLLECTION BOX - BLUE BOX", "address": {"city": "BLEDSOE", "state": "KY", "street": "33 W HIGHWAY 221", "postcode": "40810"}}},
{"geometry": {"type": "Point", "coordinates": [-83.3372369675, 36.9100250515]}, "type": "Feature", "properties": {"collection_times": [{"days": "Mon-Fri", "time": "3:00pm"}, {"days": "Sat", "time": "11:00am"}, {"days": "Sun", "time": "Closed"}], "id": "4081000001", "name": "USPS COLLECTION BOX - PO LOBBY", "address": {"city": "BLEDSOE", "state": "KY", "street": "33 W HIGHWAY 221", "postcode": "40810"}}},
{"geometry": {"type": "Point", "coordinates": [-83.7776744204, 36.6907591756]}, "type": "Feature", "properties": {"collection_times": [{"days": "Mon-Fri", "time": "1:45pm"}, {"days": "Sat", "time": "10:30am"}, {"days": "Sun", "time": "Closed"}], "id": "4081300000", "name": "USPS COLLECTION BOX - BLUE BOX", "address": {"city": "CALVIN", "state": "KY", "street": "5501 US HIGHWAY 119", "postcode": "40813"}}},
{"geometry": {"type": "Point", "coordinates": [-83.7776744204, 36.6907591756]}, "type": "Feature", "properties": {"collection_times": [{"days": "Mon-Fri", "time": "1:45pm"}, {"days": "Sat", "time": "10:30am"}, {"days": "Sun", "time": "Closed"}], "id": "4081300001", "name": "USPS COLLECTION BOX - PO LOBBY", "address": {"city": "CALVIN", "state": "KY", "street": "5501 US HIGHWAY 119", "postcode": "40813"}}},
{"geometry": {"type": "Point", "coordinates": [-83.226144891, 36.7803758433]}, "type": "Feature", "properties": {"collection_times": [{"days": "Mon-Fri", "time": "12:15pm"}, {"days": "Sat", "time": "11:00am"}, {"days": "Sun", "time": "Closed"}], "id": "4081500000", "name": "USPS COLLECTION BOX - BLUE BOX", "address": {"city": "CAWOOD", "state": "KY", "street": "3679 S HIGHWAY 3001", "postcode": "40815"}}},
{"geometry": {"type": "Point", "coordinates": [-83.226144891, 36.7803758433]}, "type": "Feature", "properties": {"collection_times": [{"days": "Mon-Fri", "time": "12:15pm"}, {"days": "Sat", "time": "11:00am"}, {"days": "Sun", "time": "Closed"}], "id": "4081500001", "name": "USPS COLLECTION BOX - PO LOBBY", "address": {"city": "CAWOOD", "state": "KY", "street": "3679 S HIGHWAY 3001", "postcode": "40815"}}},
{"geometry": {"type": "Point", "coordinates": [-83.4520544755, 36.8252958279]}, "type": "Feature", "properties": {"collection_times": [{"days": "Mon-Fri", "time": "3:00pm"}, {"days": "Sat", "time": "12:00pm"}, {"days": "Sun", "time": "Closed"}], "id": "4081900000", "name": "USPS COLLECTION BOX - BLUE BOX", "address": {"city": "COLDIRON", "state": "KY", "street": "329 HIGHWAY 2007", "postcode": "40819"}}},
{"geometry": {"type": "Point", "coordinates": [-83.4520544755, 36.8252958279]}, "type": "Feature", "properties": {"collection_times": [{"days": "Mon-Fri", "time": "3:00pm"}, {"days": "Sat", "time": "12:00pm"}, {"days": "Sun", "time": "Closed"}], "id": "4081900001", "name": "USPS COLLECTION BOX - PO LOBBY", "address": {"city": "COLDIRON", "state": "KY", "street": "329 HIGHWAY 2007", "postcode": "40819"}}},
{"geometry": {"type": "Point", "coordinates": [-83.488669244, 36.8167908375]}, "type": "Feature", "properties": {"collection_times": [{"days": "Mon-Sat", "time": "2:00pm"}, {"days": "Sun", "time": "Closed"}], "id": "4081900002", "name": "USPS COLLECTION BOX - BLUE BOX", "address": {"city": "COLDIRON", "state": "KY", "street": "9207 S US HIGHWAY 119", "postcode": "40819"}}},
{"geometry": {"type": "Point", "coordinates": [-83.1717939193, 36.7647114192]}, "type": "Feature", "properties": {"collection_times": [{"days": "Mon-Sat", "time": "10:00am"}, {"days": "Sun", "time": "Closed"}], "id": "4082000000", "name": "USPS COLLECTION BOX - BLUE BOX", "address": {"city": "CRANKS", "state": "KY", "street": "14869 S US HIGHWAY 421", "postcode": "40820"}}},
{"geometry": {"type": "Point", "coordinates": [-83.1717939193, 36.7647114192]}, "type": "Feature", "properties": {"collection_times": [{"days": "Mon-Sat", "time": "10:00am"}, {"days": "Sun", "time": "Closed"}], "id": "4082000001", "name": "USPS COLLECTION BOX - PO LOBBY", "address": {"city": "CRANKS", "state": "KY", "street": "14869 S US HIGHWAY 421", "postcode": "40820"}}},
{"geometry": {"type": "Point", "coordinates": [-82.9839366265, 36.9756659002]}, "type": "Feature", "properties": {"collection_times": [{"days": "Mon-Sat", "time": "4:00pm"}, {"days": "Sun", "time": "Closed"}], "id": "4082300000", "name": "USPS COLLECTION BOX - BLUE BOX", "address": {"city": "CUMBERLAND", "state": "KY", "street": "1312 E MAIN ST", "postcode": "40823"}}},
{"geometry": {"type": "Point", "coordinates": [-82.9839366265, 36.9756659002]}, "type": "Feature", "properties": {"collection_times": [{"days": "Mon-Sat", "time": "4:00pm"}, {"days": "Sun", "time": "Closed"}], "id": "4082300011", "name": "USPS COLLECTION BOX - PO LOBBY", "address": {"city": "CUMBERLAND", "state": "KY", "street": "1312 E MAIN ST", "postcode": "40823"}}},
{"geometry": {"type": "Point", "coordinates": [-82.7682977471, 37.069031396]}, "type": "Feature", "properties": {"collection_times": [{"days": "Mon-Fri", "time": "10:30am"}, {"days": "Sat", "time": "11:30am"}, {"days": "Sun", "time": "Closed"}], "id": "4082600000", "name": "USPS COLLECTION BOX - BLUE BOX", "address": {"city": "EOLIA", "state": "KY", "street": "1364 HIGHWAY 806", "postcode": "40826"}}},
{"geometry": {"type": "Point", "coordinates": [-82.8039523602, 37.0500871779]}, "type": "Feature", "properties": {"collection_times": [{"days": "Mon-Fri", "time": "10:30am"}, {"days": "Sat", "time": "11:30am"}, {"days": "Sun", "time": "Closed"}], "id": "4082600001", "name": "USPS COLLECTION BOX - PO LOBBY", "address": {"city": "EOLIA", "state": "KY", "street": "1364 HIGHWAY 806", "postcode": "40826"}}},
{"geometry": {"type": "Point", "coordinates": [-83.4515573742, 37.0542002442]}, "type": "Feature", "properties": {"collection_times": [{"days": "Mon-Fri", "time": "12:30pm"}, {"days": "Sat", "time": "10:00am"}, {"days": "Sun", "time": "Closed"}], "id": "4082700000", "name": "USPS COLLECTION BOX - BLUE BOX", "address": {"city": "ESSIE", "state": "KY", "street": "5425 HIGHWAY 406", "postcode": "40827"}}},
{"geometry": {"type": "Point", "coordinates": [-83.18428196, 36.8626398612]}, "type": "Feature", "properties": {"collection_times": [{"days": "Mon-Fri", "time": "4:00pm"}, {"days": "Sat", "time": "2:00pm"}, {"days": "Sun", "time": "Closed"}], "id": "4082800000", "name": "USPS COLLECTION BOX - BLUE BOX", "address": {"city": "EVARTS", "state": "KY", "street": "138 S MAIN ST", "postcode": "40828"}}},
{"geometry": {"type": "Point", "coordinates": [-83.18428196, 36.8626398612]}, "type": "Feature", "properties": {"collection_times": [{"days": "Mon-Fri", "time": "4:00pm"}, {"days": "Sat", "time": "2:00pm"}, {"days": "Sun", "time": "Closed"}], "id": "4082800001", "name": "USPS COLLECTION BOX - PO LOBBY", "address": {"city": "EVARTS", "state": "KY", "street": "138 S MAIN ST", "postcode": "40828"}}},
{"geometry": {"type": "Point", "coordinates": [-83.2698844362, 36.7869932069]}, "type": "Feature", "properties": {"collection_times": [{"days": "Mon-Fri", "time": "12:30pm"}, {"days": "Sat", "time": "11:30am"}, {"days": "Sun", "time": "Closed"}], "id": "4082900000", "name": "USPS COLLECTION BOX - BLUE BOX", "address": {"city": "GRAYS KNOB", "state": "KY", "street": "63 JUDY DR", "postcode": "40829"}}},
{"geometry": {"type": "Point", "coordinates": [-83.2698844362, 36.7869932069]}, "type": "Feature", "properties": {"collection_times": [{"days": "Mon-Fri", "time": "12:30pm"}, {"days": "Sat", "time": "11:30am"}, {"days": "Sun", "time": "Closed"}], "id": "4082900001", "name": "USPS COLLECTION BOX - PO LOBBY", "address": {"city": "GRAYS KNOB", "state": "KY", "street": "63 JUDY DR", "postcode": "40829"}}},
{"geometry": {"type": "Point", "coordinates": [-83.3217743297, 36.8470969313]}, "type": "Feature", "properties": {"collection_times": [{"days": "Mon-Fri", "time": "4:00pm"}, {"days": "Sat", "time": "11:00am"}, {"days": "Sun", "time": "Closed"}], "id": "4083100000", "name": "USPS COLLECTION BOX - BLUE BOX", "address": {"city": "HARLAN", "state": "KY", "street": "111 N 1ST ST", "postcode": "40831"}}},
{"geometry": {"type": "Point", "coordinates": [-83.3237852361, 36.8468006971]}, "type": "Feature", "properties": {"collection_times": [{"days": "Mon-Sat", "time": "9:30am"}, {"days": "Sun", "time": "Closed"}], "id": "4083100004", "name": "USPS COLLECTION BOX - BLUE BOX", "address": {"city": "HARLAN", "state": "KY", "street": "115 S CUMBERLAND AVE", "postcode": "40831"}}},
{"geometry": {"type": "Point", "coordinates": [-83.32288228, 36.8470258234]}, "type": "Feature", "properties": {"collection_times": [{"days": "Mon-Sat", "time": "9:30am"}, {"days": "Sun", "time": "Closed"}], "id": "4083100010", "name": "USPS COLLECTION BOX - BLUE BOX", "address": {"city": "HARLAN", "state": "KY", "street": "101 N MAIN ST", "postcode": "40831"}}},
{"geometry": {"type": "Point", "coordinates": [-83.3175181205, 36.8157527756]}, "type": "Feature", "properties": {"collection_times": [{"days": "Mon-Sat", "time": "9:15am"}, {"days": "Sun", "time": "Closed"}], "id": "4083100017", "name": "USPS COLLECTION BOX - BLUE BOX", "address": {"city": "HARLAN", "state": "KY", "street": "168 VILLAGE CENTER RD", "postcode": "40831"}}},
{"geometry": {"type": "Point", "coordinates": [-83.3180758848, 36.8222169052]}, "type": "Feature", "properties": {"collection_times": [{"days": "Mon-Sat", "time": "9:00am"}, {"days": "Sun", "time": "Closed"}], "id": "4083100019", "name": "USPS COLLECTION BOX - BLUE BOX", "address": {"city": "HARLAN", "state": "KY", "street": "2478 S US HIGHWAY 421", "postcode": "40831"}}},
{"geometry": {"type": "Point", "coordinates": [-83.3217743297, 36.8470969313]}, "type": "Feature", "properties": {"collection_times": [{"days": "Mon-Fri", "time": "4:00pm"}, {"days": "Sat", "time": "11:00am"}, {"days": "Sun", "time": "Closed"}], "id": "4083100020", "name": "USPS COLLECTION BOX - PO LOBBY", "address": {"city": "HARLAN", "state": "KY", "street": "111 N 1ST ST", "postcode": "40831"}}},
{"geometry": {"type": "Point", "coordinates": [-83.3217743297, 36.8470969313]}, "type": "Feature", "properties": {"collection_times": [{"days": "Mon-Fri", "time": "4:00pm"}, {"days": "Sat", "time": "11:00am"}, {"days": "Sun", "time": "Closed"}], "id": "4083100021", "name": "USPS COLLECTION BOX - BLUE BOX", "address": {"city": "HARLAN", "state": "KY", "street": "111 N 1ST ST", "postcode": "40831"}}},
{"geometry": {"type": "Point", "coordinates": [-83.3183475701, 36.8193497745]}, "type": "Feature", "properties": {"collection_times": [{"days": "Mon-Sat", "time": "9:00am"}, {"days": "Sun", "time": "Closed"}], "id": "4083100022", "name": "USPS COLLECTION BOX - BLUE BOX", "address": {"city": "HARLAN", "state": "KY", "street": "200 WALDON DR", "postcode": "40831"}}},
{"geometry": {"type": "Point", "coordinates": [-83.3936362316, 37.0783109658]}, "type": "Feature", "properties": {"collection_times": [{"days": "Mon-Fri", "time": "1:00pm"}, {"days": "Sat", "time": "10:15am"}, {"days": "Sun", "time": "Closed"}], "id": "4084400000", "name": "USPS COLLECTION BOX - BLUE BOX", "address": {"city": "HOSKINSTON", "state": "KY", "street": "13464 HIGHWAY 421", "postcode": "40844"}}},
{"geometry": {"type": "Point", "coordinates": [-83.3936362316, 37.0783109658]}, "type": "Feature", "properties": {"collection_times": [{"days": "Mon-Fri", "time": "1:00pm"}, {"days": "Sat", "time": "10:15am"}, {"days": "Sun", "time": "Closed"}], "id": "4084400001", "name": "USPS COLLECTION BOX - PO LOBBY", "address": {"city": "HOSKINSTON", "state": "KY", "street": "13464 HIGHWAY 421", "postcode": "40844"}}},
{"geometry": {"type": "Point", "coordinates": [-83.4032290558, 37.0712603838]}, "type": "Feature", "properties": {"collection_times": [{"days": "Mon-Sat", "time": "8:00am"}, {"days": "Sun", "time": "Closed"}], "id": "4084400002", "name": "USPS COLLECTION BOX - BLUE BOX", "address": {"city": "HOSKINSTON", "state": "KY", "street": "14304 HIGHWAY 421", "postcode": "40844"}}},
{"geometry": {"type": "Point", "coordinates": [-83.1742073527, 36.7922202749]}, "type": "Feature", "properties": {"collection_times": [{"days": "Mon-Fri", "time": "3:30pm"}, {"days": "Sat", "time": "10:30am"}, {"days": "Sun", "time": "Closed"}], "id": "4084700000", "name": "USPS COLLECTION BOX - BLUE BOX", "address": {"city": "KENVIR", "state": "KY", "street": "139 POST OFFICE DR", "postcode": "40847"}}},
{"geometry": {"type": "Point", "coordinates": [-83.1742073527, 36.7922202749]}, "type": "Feature", "properties": {"collection_times": [{"days": "Mon-Fri", "time": "3:30pm"}, {"days": "Sat", "time": "10:30am"}, {"days": "Sun", "time": "Closed"}], "id": "4084700001", "name": "USPS COLLECTION BOX - PO LOBBY", "address": {"city": "KENVIR", "state": "KY", "street": "139 POST OFFICE DR", "postcode": "40847"}}},
{"geometry": {"type": "Point", "coordinates": [-83.1340531266, 36.9013351431]}, "type": "Feature", "properties": {"collection_times": [{"days": "Mon-Sat", "time": "11:30am"}, {"days": "Sun", "time": "Closed"}], "id": "4084900000", "name": "USPS COLLECTION BOX - BLUE BOX", "address": {"city": "LEJUNIOR", "state": "KY", "street": "13161 HIGHWAY 38", "postcode": "40849"}}},
{"geometry": {"type": "Point", "coordinates": [-83.1340531266, 36.9013351431]}, "type": "Feature", "properties": {"collection_times": [{"days": "Mon-Sat", "time": "11:30am"}, {"days": "Sun", "time": "Closed"}], "id": "4084900001", "name": "USPS COLLECTION BOX - PO LOBBY", "address": {"city": "LEJUNIOR", "state": "KY", "street": "13161 HIGHWAY 38", "postcode": "40849"}}},
{"geometry": {"type": "Point", "coordinates": [-83.3541440914, 36.8525141285]}, "type": "Feature", "properties": {"collection_times": [{"days": "Mon-Fri", "time": "3:30pm"}, {"days": "Sat", "time": "11:15am"}, {"days": "Sun", "time": "Closed"}], "id": "4085400000", "name": "USPS COLLECTION BOX - BLUE BOX", "address": {"city": "LOYALL", "state": "KY", "street": "106 BAILEY ST", "postcode": "40854"}}},
{"geometry": {"type": "Point", "coordinates": [-83.3541440914, 36.8525141285]}, "type": "Feature", "properties": {"collection_times": [{"days": "Mon-Fri", "time": "3:30pm"}, {"days": "Sat", "time": "11:15am"}, {"days": "Sun", "time": "Closed"}], "id": "4085400001", "name": "USPS COLLECTION BOX - PO LOBBY", "address": {"city": "LOYALL", "state": "KY", "street": "106 BAILEY ST", "postcode": "40854"}}},
{"geometry": {"type": "Point", "coordinates": [-83.3541440914, 36.8525141285]}, "type": "Feature", "properties": {"collection_times": [{"days": "Mon-Fri", "time": "3:30pm"}, {"days": "Sat", "time": "11:15am"}, {"days": "Sun", "time": "Closed"}], "id": "4085400002", "name": "USPS COLLECTION BOX - PO LOBBY", "address": {"city": "LOYALL", "state": "KY", "street": "106 BAILEY ST", "postcode": "40854"}}},
{"geometry": {"type": "Point", "coordinates": [-82.8948469204, 36.9808550595]}, "type": "Feature", "properties": {"collection_times": [{"days": "Mon-Fri", "time": "1:00pm"}, {"days": "Sat", "time": "11:00am"}, {"days": "Sun", "time": "Closed"}], "id": "4085500000", "name": "USPS COLLECTION BOX - BLUE BOX", "address": {"city": "LYNCH", "state": "KY", "street": "10 E MAIN ST", "postcode": "40855"}}},
{"geometry": {"type": "Point", "coordinates": [-82.8948469204, 36.9808550595]}, "type": "Feature", "properties": {"collection_times": [{"days": "Mon-Fri", "time": "1:00pm"}, {"days": "Sat", "time": "11:00am"}, {"days": "Sun", "time": "Closed"}], "id": "4085500001", "name": "USPS COLLECTION BOX - PO LOBBY", "address": {"city": "LYNCH", "state": "KY", "street": "10 E MAIN ST", "postcode": "40855"}}},
{"geometry": {"type": "Point", "coordinates": [-83.5271118796, 36.7196792545]}, "type": "Feature", "properties": {"collection_times": [{"days": "Mon-Sat", "time": "11:00am"}, {"days": "Sun", "time": "Closed"}], "id": "4085600000", "name": "USPS COLLECTION BOX - BLUE BOX", "address": {"city": "MIRACLE", "state": "KY", "street": "10845 HIGHWAY 987 BROWNIES CRK", "postcode": "40856"}}},
{"geometry": {"type": "Point", "coordinates": [-83.5271118796, 36.7196792545]}, "type": "Feature", "properties": {"collection_times": [{"days": "Mon-Sat", "time": "11:00am"}, {"days": "Sun", "time": "Closed"}], "id": "4085600001", "name": "USPS COLLECTION BOX - PO LOBBY", "address": {"city": "MIRACLE", "state": "KY", "street": "10845 HIGHWAY 987 BROWNIES CRK", "postcode": "40856"}}},
{"geometry": {"type": "Point", "coordinates": [-82.8998137033, 37.0065496702]}, "type": "Feature", "properties": {"collection_times": [{"days": "Mon-Fri", "time": "11:15am"}, {"days": "Sat", "time": "10:00am"}, {"days": "Sun", "time": "Closed"}], "id": "4086200000", "name": "USPS COLLECTION BOX - BLUE BOX", "address": {"city": "PARTRIDGE", "state": "KY", "street": "469 HIGHWAY 3073", "postcode": "40862"}}},
{"geometry": {"type": "Point", "coordinates": [-82.8998137033, 37.0065496702]}, "type": "Feature", "properties": {"collection_times": [{"days": "Mon-Fri", "time": "11:15am"}, {"days": "Sat", "time": "10:00am"}, {"days": "Sun", "time": "Closed"}], "id": "4086200001", "name": "USPS COLLECTION BOX - PO LOBBY", "address": {"city": "PARTRIDGE", "state": "KY", "street": "469 HIGHWAY 3073", "postcode": "40862"}}},
{"geometry": {"type": "Point", "coordinates": [-83.4649157325, 36.7553533129]}, "type": "Feature", "properties": {"collection_times": [{"days": "Mon-Sat", "time": "11:30am"}, {"days": "Sun", "time": "Closed"}], "id": "4086300001", "name": "USPS COLLECTION BOX - PO LOBBY", "address": {"city": "PATHFORK", "state": "KY", "street": "63 BUNCH ST", "postcode": "40863"}}},
{"geometry": {"type": "Point", "coordinates": [-83.2353430167, 36.9048231491]}, "type": "Feature", "properties": {"collection_times": [{"days": "Mon-Sat", "time": "11:00am"}, {"days": "Sun", "time": "Closed"}], "id": "4086500000", "name": "USPS COLLECTION BOX - BLUE BOX", "address": {"city": "PUTNEY", "state": "KY", "street": "4416 HIGHWAY 522", "postcode": "40865"}}},
{"geometry": {"type": "Point", "coordinates": [-83.2353430167, 36.9048231491]}, "type": "Feature", "properties": {"collection_times": [{"days": "Mon-Sat", "time": "11:00am"}, {"days": "Sun", "time": "Closed"}], "id": "4086500001", "name": "USPS COLLECTION BOX - PO LOBBY", "address": {"city": "PUTNEY", "state": "KY", "street": "4416 HIGHWAY 522", "postcode": "40865"}}},
{"geometry": {"type": "Point", "coordinates": [-83.3959634596, 37.0905431348]}, "type": "Feature", "properties": {"collection_times": [{"days": "Mon-Fri", "time": "1:30pm"}, {"days": "Sat", "time": "11:30am"}, {"days": "Sun", "time": "Closed"}], "id": "4086800000", "name": "USPS COLLECTION BOX - BLUE BOX", "address": {"city": "STINNETT", "state": "KY", "street": "25 HIGHWAY 406", "postcode": "40868"}}},
{"geometry": {"type": "Point", "coordinates": [-83.3959634596, 37.0905431348]}, "type": "Feature", "properties": {"collection_times": [{"days": "Mon-Fri", "time": "1:30pm"}, {"days": "Sat", "time": "11:30am"}, {"days": "Sun", "time": "Closed"}], "id": "4086800001", "name": "USPS COLLECTION BOX - PO LOBBY", "address": {"city": "STINNETT", "state": "KY", "street": "25 HIGHWAY 406", "postcode": "40868"}}},
{"geometry": {"type": "Point", "coordinates": [-83.4265095953, 37.0838131047]}, "type": "Feature", "properties": {"collection_times": [{"days": "Mon-Sat", "time": "8:45am"}, {"days": "Sun", "time": "Closed"}], "id": "4086800002", "name": "USPS COLLECTION BOX - BLUE BOX", "address": {"city": "STINNETT", "state": "KY", "street": "2645 HIGHWAY 406", "postcode": "40868"}}},
{"geometry": {"type": "Point", "coordinates": [-83.093523838, 36.9493466143]}, "type": "Feature", "properties": {"collection_times": [{"days": "Mon-Sat", "time": "11:00am"}, {"days": "Sun", "time": "Closed"}], "id": "4087000000", "name": "USPS COLLECTION BOX - BLUE BOX", "address": {"city": "TOTZ", "state": "KY", "street": "11036 HIGHWAY 522", "postcode": "40870"}}},
{"geometry": {"type": "Point", "coordinates": [-83.413292081, 36.8257391031]}, "type": "Feature", "properties": {"collection_times": [{"days": "Mon-Fri", "time": "3:15pm"}, {"days": "Sat", "time": "11:15am"}, {"days": "Sun", "time": "Closed"}], "id": "4087300000", "name": "USPS COLLECTION BOX - BLUE BOX", "address": {"city": "WALLINS CREEK", "state": "KY", "street": "854 HIGHWAY 219", "postcode": "40873"}}},
{"geometry": {"type": "Point", "coordinates": [-83.413292081, 36.8257391031]}, "type": "Feature", "properties": {"collection_times": [{"days": "Mon-Fri", "time": "3:15pm"}, {"days": "Sat", "time": "11:15am"}, {"days": "Sun", "time": "Closed"}], "id": "4087300001", "name": "USPS COLLECTION BOX - PO LOBBY", "address": {"city": "WALLINS CREEK", "state": "KY", "street": "854 HIGHWAY 219", "postcode": "40873"}}},
{"geometry": {"type": "Point", "coordinates": [-83.4417258046, 36.9994330979]}, "type": "Feature", "properties": {"collection_times": [{"days": "Mon-Sat", "time": "8:15am"}, {"days": "Sun", "time": "Closed"}], "id": "4087400002", "name": "USPS COLLECTION BOX - BLUE BOX", "address": {"city": "WARBRANCH", "state": "KY", "street": "420 MIDDLE FORK RD", "postcode": "40874"}}}
]}
