{"type": "FeatureCollection", "features": [
{"geometry": {"type": "Point", "coordinates": [-83.6263309801, 36.846377758]}, "type": "Feature", "properties": {"collection_times": [{"days": "Mon-Fri", "time": "3:00pm"}, {"days": "Sat", "time": "12:00pm"}, {"days": "Sun", "time": "Closed"}], "id": "4090200000", "name": "USPS COLLECTION BOX - BLUE BOX", "address": {"city": "ARJAY", "state": "KY", "street": "4658 HIGHWAY 66", "postcode": "40902"}}},
{"geometry": {"type": "Point", "coordinates": [-83.6263309801, 36.846377758]}, "type": "Feature", "properties": {"collection_times": [{"days": "Mon-Fri", "time": "3:00pm"}, {"days": "Sat", "time": "12:00pm"}, {"days": "Sun", "time": "Closed"}], "id": "4090200001", "name": "USPS COLLECTION BOX - PO LOBBY", "address": {"city": "ARJAY", "state": "KY", "street": "4658 HIGHWAY 66", "postcode": "40902"}}},
{"geometry": {"type": "Point", "coordinates": [-83.8217031272, 36.8432534518]}, "type": "Feature", "properties": {"collection_times": [{"days": "Mon-Fri", "time": "11:00am"}, {"days": "Sat", "time": "9:00am"}, {"days": "Sun", "time": "Closed"}], "id": "4090300000", "name": "USPS COLLECTION BOX - BLUE BOX", "address": {"city": "ARTEMUS", "state": "KY", "street": "3214 KY 225", "postcode": "40903"}}},
{"geometry": {"type": "Point", "coordinates": [-83.8217031272, 36.8432534518]}, "type": "Feature", "properties": {"collection_times": [{"days": "Mon-Fri", "time": "11:00am"}, {"days": "Sat", "time": "9:00am"}, {"days": "Sun", "time": "Closed"}], "id": "4090300001", "name": "USPS COLLECTION BOX - PO LOBBY", "address": {"city": "ARTEMUS", "state": "KY", "street": "3214 KY 225", "postcode": "40903"}}},
{"geometry": {"type": "Point", "coordinates": [-83.8832732425, 36.8697654021]}, "type": "Feature", "properties": {"collection_times": [{"days": "Mon-Fri", "time": "4:00pm"}, {"days": "Sat", "time": "11:00am"}, {"days": "Sun", "time": "Closed"}], "id": "4090600000", "name": "USPS COLLECTION BOX - BLUE BOX", "address": {"city": "BARBOURVILLE", "state": "KY", "street": "122 N ALLISON AVE", "postcode": "40906"}}},
{"geometry": {"type": "Point", "coordinates": [-83.8832732425, 36.8697654021]}, "type": "Feature", "properties": {"collection_times": [{"days": "Mon-Fri", "time": "4:00pm"}, {"days": "Sat", "time": "11:00am"}, {"days": "Sun", "time": "Closed"}], "id": "4090600001", "name": "USPS COLLECTION BOX - BLUE BOX", "address": {"city": "BARBOURVILLE", "state": "KY", "street": "122 N ALLISON AVE", "postcode": "40906"}}},
{"geometry": {"type": "Point", "coordinates": [-83.9392588791, 36.7550695884]}, "type": "Feature", "properties": {"collection_times": [{"days": "Mon-Sat", "time": "11:00am"}, {"days": "Sun", "time": "Closed"}], "id": "4090600002", "name": "USPS COLLECTION BOX - BLUE BOX", "address": {"city": "BARBOURVILLE", "state": "KY", "street": "1 PARKWAY PLZ", "postcode": "40906"}}},
{"geometry": {"type": "Point", "coordinates": [-83.887721655, 36.866733963]}, "type": "Feature", "properties": {"collection_times": [{"days": "Mon-Sat", "time": "11:00am"}, {"days": "Sun", "time": "Closed"}], "id": "4090600004", "name": "USPS COLLECTION BOX - BLUE BOX", "address": {"city": "BARBOURVILLE", "state": "KY", "street": "200 KNOX ST", "postcode": "40906"}}},
{"geometry": {"type": "Point", "coordinates": [-83.88852789, 36.866750618]}, "type": "Feature", "properties": {"collection_times": [{"days": "Mon-Sat", "time": "11:00am"}, {"days": "Sun", "time": "Closed"}], "id": "4090600005", "name": "USPS COLLECTION BOX - BLUE BOX", "address": {"city": "BARBOURVILLE", "state": "KY", "street": "401 COURT SQ", "postcode": "40906"}}},
{"geometry": {"type": "Point", "coordinates": [-83.8832732425, 36.8697654021]}, "type": "Feature", "properties": {"collection_times": [{"days": "Mon-Fri", "time": "4:00pm"}, {"days": "Sat", "time": "11:00am"}, {"days": "Sun", "time": "Closed"}], "id": "4090600012", "name": "USPS COLLECTION BOX - PO LOBBY", "address": {"city": "BARBOURVILLE", "state": "KY", "street": "122 N ALLISON AVE", "postcode": "40906"}}},
{"geometry": {"type": "Point", "coordinates": [-83.88852789, 36.866750618]}, "type": "Feature", "properties": {"collection_times": [{"days": "Mon-Sat", "time": "11:00am"}, {"days": "Sun", "time": "Closed"}], "id": "4090600014", "name": "USPS COLLECTION BOX - BLUE BOX", "address": {"city": "BARBOURVILLE", "state": "KY", "street": "401 COURT SQ", "postcode": "40906"}}},
{"geometry": {"type": "Point", "coordinates": [-83.8889789457, 36.8623003793]}, "type": "Feature", "properties": {"collection_times": [{"days": "Mon-Sat", "time": "8:45am"}, {"days": "Sun", "time": "Closed"}], "id": "4090600016", "name": "USPS COLLECTION BOX - BLUE BOX", "address": {"city": "BARBOURVILLE", "state": "KY", "street": "2748 KY 225", "postcode": "40906"}}},
{"geometry": {"type": "Point", "coordinates": [-83.5933019909, 36.9224735825]}, "type": "Feature", "properties": {"collection_times": [{"days": "Mon-Fri", "time": "1:00pm"}, {"days": "Sat", "time": "12:30pm"}, {"days": "Sun", "time": "Closed"}], "id": "4091300000", "name": "USPS COLLECTION BOX - BLUE BOX", "address": {"city": "BEVERLY", "state": "KY", "street": "70 QUEENDALE CTR", "postcode": "40913"}}},
{"geometry": {"type": "Point", "coordinates": [-83.5933019909, 36.9224735825]}, "type": "Feature", "properties": {"collection_times": [{"days": "Mon-Fri", "time": "2:45pm"}, {"days": "Sat", "time": "2:00pm"}, {"days": "Sun", "time": "Closed"}], "id": "4091300001", "name": "USPS COLLECTION BOX - BLUE BOX", "address": {"city": "BEVERLY", "state": "KY", "street": "16464 HIGHWAY 66", "postcode": "40913"}}},
{"geometry": {"type": "Point", "coordinates": [-83.5933019909, 36.9224735825]}, "type": "Feature", "properties": {"collection_times": [{"days": "Mon-Fri", "time": "2:45pm"}, {"days": "Sat", "time": "2:00pm"}, {"days": "Sun", "time": "Closed"}], "id": "4091300002", "name": "USPS COLLECTION BOX - PO LOBBY", "address": {"city": "BEVERLY", "state": "KY", "street": "16464 HIGHWAY 66", "postcode": "40913"}}},
{"geometry": {"type": "Point", "coordinates": [-83.6129244527, 37.1631147817]}, "type": "Feature", "properties": {"collection_times": [{"days": "Mon-Fri", "time": "12:00pm"}, {"days": "Sat", "time": "11:45am"}, {"days": "Sun", "time": "Closed"}], "id": "4091400000", "name": "USPS COLLECTION BOX - BLUE BOX", "address": {"city": "BIG CREEK", "state": "KY", "street": "17231 S HIGHWAY 421", "postcode": "40914"}}},
{"geometry": {"type": "Point", "coordinates": [-83.6129244527, 37.1631147817]}, "type": "Feature", "properties": {"collection_times": [{"days": "Mon-Fri", "time": "12:00pm"}, {"days": "Sat", "time": "11:45am"}, {"days": "Sun", "time": "Closed"}], "id": "4091400001", "name": "USPS COLLECTION BOX - PO LOBBY", "address": {"city": "BIG CREEK", "state": "KY", "street": "17231 S HIGHWAY 421", "postcode": "40914"}}},
{"geometry": {"type": "Point", "coordinates": [-83.8315045616, 36.8756814881]}, "type": "Feature", "properties": {"collection_times": [{"days": "Mon-Fri", "time": "4:30pm"}, {"days": "Sat", "time": "12:00pm"}, {"days": "Sun", "time": "Closed"}], "id": "4091500000", "name": "USPS COLLECTION BOX - BLUE BOX", "address": {"city": "BIMBLE", "state": "KY", "street": "187 KY 1304", "postcode": "40915"}}},
{"geometry": {"type": "Point", "coordinates": [-83.8315045616, 36.8756814881]}, "type": "Feature", "properties": {"collection_times": [{"days": "Mon-Fri", "time": "4:30pm"}, {"days": "Sat", "time": "12:00pm"}, {"days": "Sun", "time": "Closed"}], "id": "4091500001", "name": "USPS COLLECTION BOX - PO LOBBY", "address": {"city": "BIMBLE", "state": "KY", "street": "187 KY 1304", "postcode": "40915"}}},
{"geometry": {"type": "Point", "coordinates": [-83.9063563398, 36.7996353519]}, "type": "Feature", "properties": {"collection_times": [{"days": "Mon-Sat", "time": "11:30am"}, {"days": "Sun", "time": "Closed"}], "id": "4092100001", "name": "USPS COLLECTION BOX - PO LOBBY", "address": {"city": "BRYANTS STORE", "state": "KY", "street": "2001 KY 1809", "postcode": "40921"}}},
{"geometry": {"type": "Point", "coordinates": [-83.9063563398, 36.7996353519]}, "type": "Feature", "properties": {"collection_times": [{"days": "Mon-Sat", "time": "11:30am"}, {"days": "Sun", "time": "Closed"}], "id": "4092100002", "name": "USPS COLLECTION BOX - BLUE BOX", "address": {"city": "BRYANTS STORE", "state": "KY", "street": "2001 KY 1809", "postcode": "40921"}}},
{"geometry": {"type": "Point", "coordinates": [-83.8365020239, 36.9326961307]}, "type": "Feature", "properties": {"collection_times": [{"days": "Mon-Fri", "time": "1:00pm"}, {"days": "Sat", "time": "10:00am"}, {"days": "Sun", "time": "Closed"}], "id": "4092300000", "name": "USPS COLLECTION BOX - BLUE BOX", "address": {"city": "CANNON", "state": "KY", "street": "3387 N KY 11", "postcode": "40923"}}},
{"geometry": {"type": "Point", "coordinates": [-83.8365020239, 36.9326961307]}, "type": "Feature", "properties": {"collection_times": [{"days": "Mon-Fri", "time": "1:00pm"}, {"days": "Sat", "time": "10:00am"}, {"days": "Sun", "time": "Closed"}], "id": "4092300001", "name": "USPS COLLECTION BOX - PO LOBBY", "address": {"city": "CANNON", "state": "KY", "street": "3387 N KY 11", "postcode": "40923"}}},
{"geometry": {"type": "Point", "coordinates": [-83.0234435926, 36.8986939038]}, "type": "Feature", "properties": {"collection_times": [{"days": "Mon-Sat", "time": "2:00pm"}, {"days": "Sun", "time": "Closed"}], "id": "4092700000", "name": "USPS COLLECTION BOX - BLUE BOX", "address": {"city": "CLOSPLINT", "state": "KY", "street": "17857 HIGHWAY 38", "postcode": "40927"}}},
{"geometry": {"type": "Point", "coordinates": [-83.0234435926, 36.8986939038]}, "type": "Feature", "properties": {"collection_times": [{"days": "Mon-Sat", "time": "2:00pm"}, {"days": "Sun", "time": "Closed"}], "id": "4092700001", "name": "USPS COLLECTION BOX - PO LOBBY", "address": {"city": "CLOSPLINT", "state": "KY", "street": "17857 HIGHWAY 38", "postcode": "40927"}}},
{"geometry": {"type": "Point", "coordinates": [-83.7068212927, 36.8197295143]}, "type": "Feature", "properties": {"collection_times": [{"days": "Mon-Fri", "time": "12:00pm"}, {"days": "Sat", "time": "11:00am"}, {"days": "Sun", "time": "Closed"}], "id": "4093000000", "name": "USPS COLLECTION BOX - BLUE BOX", "address": {"city": "DEWITT", "state": "KY", "street": "2956 KY 223", "postcode": "40930"}}},
{"geometry": {"type": "Point", "coordinates": [-83.7068212927, 36.8197295143]}, "type": "Feature", "properties": {"collection_times": [{"days": "Mon-Fri", "time": "12:00pm"}, {"days": "Sat", "time": "11:00am"}, {"days": "Sun", "time": "Closed"}], "id": "4093000001", "name": "USPS COLLECTION BOX - PO LOBBY", "address": {"city": "DEWITT", "state": "KY", "street": "2956 KY 223", "postcode": "40930"}}},
{"geometry": {"type": "Point", "coordinates": [-83.7832112196, 37.2305594462]}, "type": "Feature", "properties": {"collection_times": [{"days": "Mon-Fri", "time": "12:30pm"}, {"days": "Sat", "time": "10:15am"}, {"days": "Sun", "time": "Closed"}], "id": "4093200000", "name": "USPS COLLECTION BOX - BLUE BOX", "address": {"city": "FALL ROCK", "state": "KY", "street": "4833 N HIGHWAY 421 UNIT 2", "postcode": "40932"}}},
{"geometry": {"type": "Point", "coordinates": [-83.7832112196, 37.2305594462]}, "type": "Feature", "properties": {"collection_times": [{"days": "Mon-Fri", "time": "12:30pm"}, {"days": "Sat", "time": "10:15am"}, {"days": "Sun", "time": "Closed"}], "id": "4093200001", "name": "USPS COLLECTION BOX - PO LOBBY", "address": {"city": "FALL ROCK", "state": "KY", "street": "4833 N HIGHWAY 421 UNIT 2", "postcode": "40932"}}},
{"geometry": {"type": "Point", "coordinates": [-83.6430720899, 36.9421869746]}, "type": "Feature", "properties": {"collection_times": [{"days": "Mon-Fri", "time": "3:45pm"}, {"days": "Sat", "time": "2:00pm"}, {"days": "Sun", "time": "Closed"}], "id": "4093500000", "name": "USPS COLLECTION BOX - BLUE BOX", "address": {"city": "FLAT LICK", "state": "KY", "street": "1131 KY 3085", "postcode": "40935"}}},
{"geometry": {"type": "Point", "coordinates": [-83.6430720899, 36.9421869746]}, "type": "Feature", "properties": {"collection_times": [{"days": "Mon-Fri", "time": "3:45pm"}, {"days": "Sat", "time": "2:00pm"}, {"days": "Sun", "time": "Closed"}], "id": "4093500001", "name": "USPS COLLECTION BOX - PO LOBBY", "address": {"city": "FLAT LICK", "state": "KY", "street": "1131 KY 3085", "postcode": "40935"}}},
{"geometry": {"type": "Point", "coordinates": [-83.7438313214, 36.7810074396]}, "type": "Feature", "properties": {"collection_times": [{"days": "Mon-Fri", "time": "3:30pm"}, {"days": "Sat", "time": "10:45am"}, {"days": "Sun", "time": "Closed"}], "id": "4093900000", "name": "USPS COLLECTION BOX - BLUE BOX", "address": {"city": "FOURMILE", "state": "KY", "street": "16073 US HIGHWAY 25 E", "postcode": "40939"}}},
{"geometry": {"type": "Point", "coordinates": [-83.7438313214, 36.7810074396]}, "type": "Feature", "properties": {"collection_times": [{"days": "Mon-Fri", "time": "3:30pm"}, {"days": "Sat", "time": "10:45am"}, {"days": "Sun", "time": "Closed"}], "id": "4093900001", "name": "USPS COLLECTION BOX - PO LOBBY", "address": {"city": "FOURMILE", "state": "KY", "street": "16073 US HIGHWAY 25 E", "postcode": "40939"}}},
{"geometry": {"type": "Point", "coordinates": [-83.9045533636, 36.625410169]}, "type": "Feature", "properties": {"collection_times": [{"days": "Mon-Sat", "time": "11:00am"}, {"days": "Sun", "time": "Closed"}], "id": "4094000000", "name": "USPS COLLECTION BOX - BLUE BOX", "address": {"city": "FRAKES", "state": "KY", "street": "17170 HIGHWAY 190", "postcode": "40940"}}},
{"geometry": {"type": "Point", "coordinates": [-83.9045533636, 36.625410169]}, "type": "Feature", "properties": {"collection_times": [{"days": "Mon-Sat", "time": "11:00am"}, {"days": "Sun", "time": "Closed"}], "id": "4094000001", "name": "USPS COLLECTION BOX - PO LOBBY", "address": {"city": "FRAKES", "state": "KY", "street": "17170 HIGHWAY 190", "postcode": "40940"}}},
{"geometry": {"type": "Point", "coordinates": [-83.7466373718, 37.1241184954]}, "type": "Feature", "properties": {"collection_times": [{"days": "Mon-Fri", "time": "12:00pm"}, {"days": "Sat", "time": "11:45am"}, {"days": "Sun", "time": "Closed"}], "id": "4094100000", "name": "USPS COLLECTION BOX - BLUE BOX", "address": {"city": "GARRARD", "state": "KY", "street": "2816 S HIGHWAY 421", "postcode": "40941"}}},
{"geometry": {"type": "Point", "coordinates": [-83.7466373718, 37.1241184954]}, "type": "Feature", "properties": {"collection_times": [{"days": "Mon-Fri", "time": "12:00pm"}, {"days": "Sat", "time": "11:45am"}, {"days": "Sun", "time": "Closed"}], "id": "4094100001", "name": "USPS COLLECTION BOX - PO LOBBY", "address": {"city": "GARRARD", "state": "KY", "street": "2816 S HIGHWAY 421", "postcode": "40941"}}},
{"geometry": {"type": "Point", "coordinates": [-83.8528623633, 36.9654239135]}, "type": "Feature", "properties": {"collection_times": [{"days": "Mon-Fri", "time": "1:00pm"}, {"days": "Sat", "time": "11:45am"}, {"days": "Sun", "time": "Closed"}], "id": "4094300000", "name": "USPS COLLECTION BOX - BLUE BOX", "address": {"city": "GIRDLER", "state": "KY", "street": "5792 N KY 11", "postcode": "40943"}}},
{"geometry": {"type": "Point", "coordinates": [-83.8528623633, 36.9654239135]}, "type": "Feature", "properties": {"collection_times": [{"days": "Mon-Fri", "time": "1:00pm"}, {"days": "Sat", "time": "11:45am"}, {"days": "Sun", "time": "Closed"}], "id": "4094300001", "name": "USPS COLLECTION BOX - PO LOBBY", "address": {"city": "GIRDLER", "state": "KY", "street": "5792 N KY 11", "postcode": "40943"}}},
{"geometry": {"type": "Point", "coordinates": [-83.6906783333, 37.0858652797]}, "type": "Feature", "properties": {"collection_times": [{"days": "Mon-Fri", "time": "12:00pm"}, {"days": "Sat", "time": "10:00am"}, {"days": "Sun", "time": "Closed"}], "id": "4094400000", "name": "USPS COLLECTION BOX - BLUE BOX", "address": {"city": "GOOSE ROCK", "state": "KY", "street": "73 HIGHWAY 1524", "postcode": "40944"}}},
{"geometry": {"type": "Point", "coordinates": [-83.6906783333, 37.0858652797]}, "type": "Feature", "properties": {"collection_times": [{"days": "Mon-Fri", "time": "12:00pm"}, {"days": "Sat", "time": "10:00am"}, {"days": "Sun", "time": "Closed"}], "id": "4094400001", "name": "USPS COLLECTION BOX - PO LOBBY", "address": {"city": "GOOSE ROCK", "state": "KY", "street": "73 HIGHWAY 1524", "postcode": "40944"}}},
{"geometry": {"type": "Point", "coordinates": [-83.8714007661, 36.8999782934]}, "type": "Feature", "properties": {"collection_times": [{"days": "Mon-Fri", "time": "2:00pm"}, {"days": "Sat", "time": "10:30am"}, {"days": "Sun", "time": "Closed"}], "id": "4094900000", "name": "USPS COLLECTION BOX - BLUE BOX", "address": {"city": "HEIDRICK", "state": "KY", "street": "215 N KY 11 STE A", "postcode": "40949"}}},
{"geometry": {"type": "Point", "coordinates": [-83.8714007661, 36.8999782934]}, "type": "Feature", "properties": {"collection_times": [{"days": "Mon-Fri", "time": "2:00pm"}, {"days": "Sat", "time": "10:30am"}, {"days": "Sun", "time": "Closed"}], "id": "4094900001", "name": "USPS COLLECTION BOX - PO LOBBY", "address": {"city": "HEIDRICK", "state": "KY", "street": "215 N KY 11 STE A", "postcode": "40949"}}},
{"geometry": {"type": "Point", "coordinates": [-83.7980072748, 36.7302328456]}, "type": "Feature", "properties": {"collection_times": [{"days": "Mon-Fri", "time": "1:30pm"}, {"days": "Sat", "time": "11:30am"}, {"days": "Sun", "time": "Closed"}], "id": "4095500000", "name": "USPS COLLECTION BOX - BLUE BOX", "address": {"city": "INGRAM", "state": "KY", "street": "3449 HIGHWAY 92", "postcode": "40955"}}},
{"geometry": {"type": "Point", "coordinates": [-83.7980072748, 36.7302328456]}, "type": "Feature", "properties": {"collection_times": [{"days": "Mon-Fri", "time": "1:30pm"}, {"days": "Sat", "time": "11:30am"}, {"days": "Sun", "time": "Closed"}], "id": "4095500001", "name": "USPS COLLECTION BOX - PO LOBBY", "address": {"city": "INGRAM", "state": "KY", "street": "3449 HIGHWAY 92", "postcode": "40955"}}},
{"geometry": {"type": "Point", "coordinates": [-83.7471474337, 37.1085211176]}, "type": "Feature", "properties": {"collection_times": [{"days": "Mon-Fri", "time": "4:00pm"}, {"days": "Sat", "time": "12:00pm"}, {"days": "Sun", "time": "Closed"}], "id": "4096200000", "name": "USPS COLLECTION BOX - BLUE BOX", "address": {"city": "MANCHESTER", "state": "KY", "street": "309 CLAY COUNTY SHOPPING CTR", "postcode": "40962"}}},
{"geometry": {"type": "Point", "coordinates": [-83.7604951759, 37.1536045546]}, "type": "Feature", "properties": {"collection_times": [{"days": "Mon-Sat", "time": "11:00am"}, {"days": "Sun", "time": "Closed"}], "id": "4096200002", "name": "USPS COLLECTION BOX - BLUE BOX", "address": {"city": "MANCHESTER", "state": "KY", "street": "214 BRIDGE ST", "postcode": "40962"}}},
{"geometry": {"type": "Point", "coordinates": [-83.7608162337, 37.1524847732]}, "type": "Feature", "properties": {"collection_times": [{"days": "Mon-Sat", "time": "11:00am"}, {"days": "Sun", "time": "Closed"}], "id": "4096200003", "name": "USPS COLLECTION BOX - BLUE BOX", "address": {"city": "MANCHESTER", "state": "KY", "street": "102 RICHMOND RD", "postcode": "40962"}}},
{"geometry": {"type": "Point", "coordinates": [-83.8075106983, 37.1442172878]}, "type": "Feature", "properties": {"collection_times": [{"days": "Mon-Sat", "time": "11:00am"}, {"days": "Sun", "time": "Closed"}], "id": "4096200004", "name": "USPS COLLECTION BOX - BLUE BOX", "address": {"city": "MANCHESTER", "state": "KY", "street": "11 MANCHESTER SQUARE SHPG CTR", "postcode": "40962"}}},
{"geometry": {"type": "Point", "coordinates": [-83.7611365239, 37.153030378]}, "type": "Feature", "properties": {"collection_times": [{"days": "Mon-Fri", "time": "10:00am"}, {"days": "Sat", "time": "9:00am"}, {"days": "Sun", "time": "Closed"}], "id": "4096200005", "name": "USPS COLLECTION BOX - BLUE BOX", "address": {"city": "MANCHESTER", "state": "KY", "street": "128 RICHMOND RD", "postcode": "40962"}}},
{"geometry": {"type": "Point", "coordinates": [-83.7607646994, 37.1565124941]}, "type": "Feature", "properties": {"collection_times": [{"days": "Mon-Sat", "time": "11:00am"}, {"days": "Sun", "time": "Closed"}], "id": "4096200006", "name": "USPS COLLECTION BOX - BLUE BOX", "address": {"city": "MANCHESTER", "state": "KY", "street": "316 MAIN ST", "postcode": "40962"}}},
{"geometry": {"type": "Point", "coordinates": [-83.7682879007, 37.1514975516]}, "type": "Feature", "properties": {"collection_times": [{"days": "Mon-Fri", "time": "10:30am"}, {"days": "Sat", "time": "10:00am"}, {"days": "Sun", "time": "Closed"}], "id": "4096200016", "name": "USPS COLLECTION BOX - BLUE BOX", "address": {"city": "MANCHESTER", "state": "KY", "street": "306 TOWN BRANCH RD", "postcode": "40962"}}},
{"geometry": {"type": "Point", "coordinates": [-83.7471474337, 37.1085211176]}, "type": "Feature", "properties": {"collection_times": [{"days": "Mon-Fri", "time": "4:00pm"}, {"days": "Sat", "time": "12:00pm"}, {"days": "Sun", "time": "Closed"}], "id": "4096200018", "name": "USPS COLLECTION BOX - PO LOBBY", "address": {"city": "MANCHESTER", "state": "KY", "street": "309 CLAY COUNTY SHOPPING CTR", "postcode": "40962"}}},
{"geometry": {"type": "Point", "coordinates": [-83.7612705893, 37.1621697671]}, "type": "Feature", "properties": {"collection_times": [{"days": "Mon-Fri", "time": "11:00am"}, {"days": "Sat", "time": "10:30am"}, {"days": "Sun", "time": "Closed"}], "id": "4096200019", "name": "USPS COLLECTION BOX - BLUE BOX", "address": {"city": "MANCHESTER", "state": "KY", "street": "210 MARIE LANGDON DR", "postcode": "40962"}}},
{"geometry": {"type": "Point", "coordinates": [-83.7662276933, 37.1606416648]}, "type": "Feature", "properties": {"collection_times": [{"days": "Mon-Sat", "time": "10:30am"}, {"days": "Sun", "time": "Closed"}], "id": "4096200021", "name": "USPS COLLECTION BOX - BLUE BOX", "address": {"city": "MANCHESTER", "state": "KY", "street": "15850 S HIGHWAY 421", "postcode": "40962"}}},
{"geometry": {"type": "Point", "coordinates": [-83.7142655423, 36.6086079875]}, "type": "Feature", "properties": {"collection_times": [{"days": "Mon-Sat", "time": "3:00pm"}, {"days": "Sun", "time": "Closed"}], "id": "4096500000", "name": "USPS COLLECTION BOX - BLUE BOX", "address": {"city": "MIDDLESBORO", "state": "KY", "street": "112 LOTHBURY AVE", "postcode": "40965"}}},
{"geometry": {"type": "Point", "coordinates": [-83.7204838653, 36.6185230167]}, "type": "Feature", "properties": {"collection_times": [{"days": "Mon-Sat", "time": "11:00am"}, {"days": "Sun", "time": "Closed"}], "id": "4096500014", "name": "USPS COLLECTION BOX - BLUE BOX", "address": {"city": "MIDDLESBORO", "state": "KY", "street": "1311 N 25TH ST", "postcode": "40965"}}},
{"geometry": {"type": "Point", "coordinates": [-83.702489231, 36.6110655973]}, "type": "Feature", "properties": {"collection_times": [{"days": "Mon-Sat", "time": "9:00am"}, {"days": "Sun", "time": "Closed"}], "id": "4096500017", "name": "USPS COLLECTION BOX - BLUE BOX", "address": {"city": "MIDDLESBORO", "state": "KY", "street": "311 N 12TH ST", "postcode": "40965"}}},
{"geometry": {"type": "Point", "coordinates": [-83.7095010974, 36.6076875361]}, "type": "Feature", "properties": {"collection_times": [{"days": "Mon-Sat", "time": "11:00am"}, {"days": "Sun", "time": "Closed"}], "id": "4096500018", "name": "USPS COLLECTION BOX - BLUE BOX", "address": {"city": "MIDDLESBORO", "state": "KY", "street": "1632 CUMBERLAND AVE", "postcode": "40965"}}},
{"geometry": {"type": "Point", "coordinates": [-83.7144889127, 36.6085354604]}, "type": "Feature", "properties": {"collection_times": [{"days": "Mon-Fri", "time": "3:00pm"}, {"days": "Sat", "time": "11:00am"}, {"days": "Sun", "time": "Closed"}], "id": "4096500021", "name": "USPS COLLECTION BOX - PO LOBBY", "address": {"city": "MIDDLESBORO", "state": "KY", "street": "201 N 20TH ST", "postcode": "40965"}}},
{"geometry": {"type": "Point", "coordinates": [-83.7036202161, 36.6315581462]}, "type": "Feature", "properties": {"collection_times": [{"days": "Mon-Sat", "time": "9:00am"}, {"days": "Sun", "time": "Closed"}], "id": "4096500023", "name": "USPS COLLECTION BOX - BLUE BOX", "address": {"city": "MIDDLESBORO", "state": "KY", "street": "1255 N 12TH ST", "postcode": "40965"}}},
{"geometry": {"type": "Point", "coordinates": [-83.6549413279, 37.2752928623]}, "type": "Feature", "properties": {"collection_times": [{"days": "Mon-Fri", "time": "3:30pm"}, {"days": "Sat", "time": "10:15am"}, {"days": "Sun", "time": "Closed"}], "id": "4097200000", "name": "USPS COLLECTION BOX - BLUE BOX", "address": {"city": "ONEIDA", "state": "KY", "street": "14963 N HIGHWAY 66", "postcode": "40972"}}},
{"geometry": {"type": "Point", "coordinates": [-83.6549413279, 37.2752928623]}, "type": "Feature", "properties": {"collection_times": [{"days": "Mon-Fri", "time": "2:45pm"}, {"days": "Sat", "time": "10:15am"}, {"days": "Sun", "time": "Closed"}], "id": "4097200001", "name": "USPS COLLECTION BOX - PO LOBBY", "address": {"city": "ONEIDA", "state": "KY", "street": "14963 N HIGHWAY 66", "postcode": "40972"}}},
{"geometry": {"type": "Point", "coordinates": [-83.6992020998, 36.7636069268]}, "type": "Feature", "properties": {"collection_times": [{"days": "Mon-Sat", "time": "11:00am"}, {"days": "Sun", "time": "Closed"}], "id": "4097700001", "name": "USPS COLLECTION BOX - BLUE BOX", "address": {"city": "PINEVILLE", "state": "KY", "street": "500 W VIRGINIA AVE", "postcode": "40977"}}},
{"geometry": {"type": "Point", "coordinates": [-83.6944701818, 36.7606884743]}, "type": "Feature", "properties": {"collection_times": [{"days": "Mon-Sat", "time": "11:00am"}, {"days": "Sun", "time": "Closed"}], "id": "4097700002", "name": "USPS COLLECTION BOX - BLUE BOX", "address": {"city": "PINEVILLE", "state": "KY", "street": "203 S CHERRY ST", "postcode": "40977"}}},
{"geometry": {"type": "Point", "coordinates": [-83.6970238858, 36.7602257875]}, "type": "Feature", "properties": {"collection_times": [{"days": "Mon-Fri", "time": "3:30pm"}, {"days": "Sat", "time": "11:00am"}, {"days": "Sun", "time": "Closed"}], "id": "4097700004", "name": "USPS COLLECTION BOX - PO LOBBY", "address": {"city": "PINEVILLE", "state": "KY", "street": "111 S WALNUT ST", "postcode": "40977"}}},
{"geometry": {"type": "Point", "coordinates": [-83.6946825875, 36.7620877935]}, "type": "Feature", "properties": {"collection_times": [{"days": "Mon-Sat", "time": "11:00am"}, {"days": "Sun", "time": "Closed"}], "id": "4097700005", "name": "USPS COLLECTION BOX - BLUE BOX", "address": {"city": "PINEVILLE", "state": "KY", "street": "134 N PINE ST", "postcode": "40977"}}},
{"geometry": {"type": "Point", "coordinates": [-83.6970238858, 36.7602257875]}, "type": "Feature", "properties": {"collection_times": [{"days": "Mon-Fri", "time": "3:30pm"}, {"days": "Sat", "time": "11:00am"}, {"days": "Sun", "time": "Closed"}], "id": "4097700006", "name": "USPS COLLECTION BOX - BLUE BOX", "address": {"city": "PINEVILLE", "state": "KY", "street": "111 S WALNUT ST", "postcode": "40977"}}},
{"geometry": {"type": "Point", "coordinates": [-83.6970238858, 36.7602257875]}, "type": "Feature", "properties": {"collection_times": [{"days": "Mon-Fri", "time": "3:30pm"}, {"days": "Sat", "time": "11:00am"}, {"days": "Sun", "time": "Closed"}], "id": "4097700007", "name": "USPS COLLECTION BOX - PO LOBBY", "address": {"city": "PINEVILLE", "state": "KY", "street": "111 S WALNUT ST", "postcode": "40977"}}},
{"geometry": {"type": "Point", "coordinates": [-83.511182038, 37.029207215]}, "type": "Feature", "properties": {"collection_times": [{"days": "Mon-Sat", "time": "2:15pm"}, {"days": "Sun", "time": "Closed"}], "id": "4097900000", "name": "USPS COLLECTION BOX - BLUE BOX", "address": {"city": "ROARK", "state": "KY", "street": "13060 HIGHWAY 406", "postcode": "40979"}}},
{"geometry": {"type": "Point", "coordinates": [-83.511182038, 37.029207215]}, "type": "Feature", "properties": {"collection_times": [{"days": "Mon-Sat", "time": "2:15pm"}, {"days": "Sun", "time": "Closed"}], "id": "4097900001", "name": "USPS COLLECTION BOX - PO LOBBY", "address": {"city": "ROARK", "state": "KY", "street": "13060 HIGHWAY 406", "postcode": "40979"}}},
{"geometry": {"type": "Point", "coordinates": [-83.7235552985, 36.9408713277]}, "type": "Feature", "properties": {"collection_times": [{"days": "Mon-Sat", "time": "10:00am"}, {"days": "Sun", "time": "Closed"}], "id": "4098200000", "name": "USPS COLLECTION BOX - BLUE BOX", "address": {"city": "SCALF", "state": "KY", "street": "15581 KY 223", "postcode": "40982"}}},
{"geometry": {"type": "Point", "coordinates": [-83.7235552985, 36.9408713277]}, "type": "Feature", "properties": {"collection_times": [{"days": "Mon-Sat", "time": "10:00am"}, {"days": "Sun", "time": "Closed"}], "id": "4098200001", "name": "USPS COLLECTION BOX - PO LOBBY", "address": {"city": "SCALF", "state": "KY", "street": "15581 KY 223", "postcode": "40982"}}},
{"geometry": {"type": "Point", "coordinates": [-83.7940844873, 37.2937374934]}, "type": "Feature", "properties": {"collection_times": [{"days": "Mon-Sat", "time": "12:00pm"}, {"days": "Sun", "time": "Closed"}], "id": "4098300000", "name": "USPS COLLECTION BOX - BLUE BOX", "address": {"city": "SEXTONS CREEK", "state": "KY", "street": "4067 HIGHWAY 1350", "postcode": "40983"}}},
{"geometry": {"type": "Point", "coordinates": [-83.7940844873, 37.2937374934]}, "type": "Feature", "properties": {"collection_times": [{"days": "Mon-Sat", "time": "12:00pm"}, {"days": "Sun", "time": "Closed"}], "id": "4098300001", "name": "USPS COLLECTION BOX - PO LOBBY", "address": {"city": "SEXTONS CREEK", "state": "KY", "street": "4067 HIGHWAY 1350", "postcode": "40983"}}},
{"geometry": {"type": "Point", "coordinates": [-83.7771697653, 37.3172428097]}, "type": "Feature", "properties": {"collection_times": [{"days": "Mon-Sat", "time": "12:00pm"}, {"days": "Sun", "time": "Closed"}], "id": "4098300002", "name": "USPS COLLECTION BOX - BLUE BOX", "address": {"city": "SEXTONS CREEK", "state": "KY", "street": "5312 HIGHWAY 1350", "postcode": "40983"}}},
{"geometry": {"type": "Point", "coordinates": [-83.5287884059, 36.869839181]}, "type": "Feature", "properties": {"collection_times": [{"days": "Mon-Sat", "time": "10:00am"}, {"days": "Sun", "time": "Closed"}], "id": "4098800000", "name": "USPS COLLECTION BOX - BLUE BOX", "address": {"city": "STONEY FORK", "state": "KY", "street": "100 STONEY FORK POST OFFICE LOOP", "postcode": "40988"}}},
{"geometry": {"type": "Point", "coordinates": [-83.5287884059, 36.869839181]}, "type": "Feature", "properties": {"collection_times": [{"days": "Mon-Sat", "time": "10:00am"}, {"days": "Sun", "time": "Closed"}], "id": "4098800001", "name": "USPS COLLECTION BOX - PO LOBBY", "address": {"city": "STONEY FORK", "state": "KY", "street": "100 STONEY FORK POST OFFICE LOOP", "postcode": "40988"}}},
{"geometry": {"type": "Point", "coordinates": [-83.8348595964, 36.7820872362]}, "type": "Feature", "properties": {"collection_times": [{"days": "Mon-Fri", "time": "11:00am"}, {"days": "Sat", "time": "10:00am"}, {"days": "Sun", "time": "Closed"}], "id": "4099500001", "name": "USPS COLLECTION BOX - PO LOBBY", "address": {"city": "TROSPER", "state": "KY", "street": "7814 KY 225", "postcode": "40995"}}}
]}
