{"type": "FeatureCollection", "features": [
{"geometry": {"type": "Point", "coordinates": [-84.4012345885, 38.9844639281]}, "type": "Feature", "properties": {"collection_times": [{"days": "Mon-Fri", "time": "5:00pm"}, {"days": "Sat", "time": "12:00pm"}, {"days": "Sun", "time": "Closed"}], "id": "4100100001", "name": "USPS COLLECTION BOX - BLUE BOX", "address": {"city": "ALEXANDRIA", "state": "KY", "street": "6933 ALEXANDRIA PIKE", "postcode": "41001"}}},
{"geometry": {"type": "Point", "coordinates": [-84.3939939094, 38.9087253469]}, "type": "Feature", "properties": {"collection_times": [{"days": "Mon-Sat", "time": "10:00am"}, {"days": "Sun", "time": "Closed"}], "id": "4100100007", "name": "USPS COLLECTION BOX - BLUE BOX", "address": {"city": "ALEXANDRIA", "state": "KY", "street": "8210 E MAIN ST", "postcode": "41001"}}},
{"geometry": {"type": "Point", "coordinates": [-84.3939939094, 38.9087253469]}, "type": "Feature", "properties": {"collection_times": [{"days": "Mon-Sat", "time": "10:00am"}, {"days": "Sun", "time": "Closed"}], "id": "4100100011", "name": "USPS COLLECTION BOX - BLUE BOX", "address": {"city": "ALEXANDRIA", "state": "KY", "street": "8352 E MAIN ST", "postcode": "41001"}}},
{"geometry": {"type": "Point", "coordinates": [-84.4012345885, 38.9844639281]}, "type": "Feature", "properties": {"collection_times": [{"days": "Mon-Fri", "time": "5:00pm"}, {"days": "Sat", "time": "12:00pm"}, {"days": "Sun", "time": "Closed"}], "id": "4100100015", "name": "USPS COLLECTION BOX - PO LOBBY", "address": {"city": "ALEXANDRIA", "state": "KY", "street": "6933 ALEXANDRIA PIKE", "postcode": "41001"}}},
{"geometry": {"type": "Point", "coordinates": [-84.4012345885, 38.9844639281]}, "type": "Feature", "properties": {"collection_times": [{"days": "Mon-Fri", "time": "5:00pm"}, {"days": "Sat", "time": "12:00pm"}, {"days": "Sun", "time": "Closed"}], "id": "4100100016", "name": "USPS COLLECTION BOX - PO LOBBY", "address": {"city": "ALEXANDRIA", "state": "KY", "street": "6933 ALEXANDRIA PIKE", "postcode": "41001"}}},
{"geometry": {"type": "Point", "coordinates": [-84.0069010138, 38.7711267635]}, "type": "Feature", "properties": {"collection_times": [{"days": "Mon-Fri", "time": "2:30pm"}, {"days": "Sat", "time": "12:00pm"}, {"days": "Sun", "time": "Closed"}], "id": "4100200000", "name": "USPS COLLECTION BOX - PO LOBBY", "address": {"city": "AUGUSTA", "state": "KY", "street": "103 W 4TH ST", "postcode": "41002"}}},
{"geometry": {"type": "Point", "coordinates": [-84.0069010138, 38.7711267635]}, "type": "Feature", "properties": {"collection_times": [{"days": "Mon-Fri", "time": "4:15pm"}, {"days": "Sat", "time": "12:00pm"}, {"days": "Sun", "time": "Closed"}], "id": "4100200001", "name": "USPS COLLECTION BOX - BLUE BOX", "address": {"city": "AUGUSTA", "state": "KY", "street": "103 W 4TH ST", "postcode": "41002"}}},
{"geometry": {"type": "Point", "coordinates": [-84.3844170173, 38.5209002339]}, "type": "Feature", "properties": {"collection_times": [{"days": "Mon-Fri", "time": "4:00pm"}, {"days": "Sat", "time": "11:00am"}, {"days": "Sun", "time": "Closed"}], "id": "4100300001", "name": "USPS COLLECTION BOX - BLUE BOX", "address": {"city": "BERRY", "state": "KY", "street": "202 E MAIN ST", "postcode": "41003"}}},
{"geometry": {"type": "Point", "coordinates": [-84.3844170173, 38.5209002339]}, "type": "Feature", "properties": {"collection_times": [{"days": "Mon-Fri", "time": "4:00pm"}, {"days": "Sat", "time": "11:00am"}, {"days": "Sun", "time": "Closed"}], "id": "4100300002", "name": "USPS COLLECTION BOX - PO LOBBY", "address": {"city": "BERRY", "state": "KY", "street": "202 E MAIN ST", "postcode": "41003"}}},
{"geometry": {"type": "Point", "coordinates": [-84.0671222495, 38.6826803147]}, "type": "Feature", "properties": {"collection_times": [{"days": "Mon-Fri", "time": "4:30pm"}, {"days": "Sat", "time": "12:00pm"}, {"days": "Sun", "time": "Closed"}], "id": "4100400000", "name": "USPS COLLECTION BOX - PO LOBBY", "address": {"city": "BROOKSVILLE", "state": "KY", "street": "208 MADISON ST", "postcode": "41004"}}},
{"geometry": {"type": "Point", "coordinates": [-84.7158504093, 39.026738047]}, "type": "Feature", "properties": {"collection_times": [{"days": "Mon-Fri", "time": "4:15pm"}, {"days": "Sat", "time": "12:00pm"}, {"days": "Sun", "time": "Closed"}], "id": "4100500000", "name": "USPS COLLECTION BOX - BLUE BOX", "address": {"city": "BURLINGTON", "state": "KY", "street": "2600 BURLINGTON PIKE", "postcode": "41005"}}},
{"geometry": {"type": "Point", "coordinates": [-84.7229895667, 39.027745928]}, "type": "Feature", "properties": {"collection_times": [{"days": "Mon-Fri", "time": "1:00pm"}, {"days": "Sat", "time": "11:00am"}, {"days": "Sun", "time": "Closed"}], "id": "4100500002", "name": "USPS COLLECTION BOX - BLUE BOX", "address": {"city": "BURLINGTON", "state": "KY", "street": "2950 WASHINGTON ST", "postcode": "41005"}}},
{"geometry": {"type": "Point", "coordinates": [-84.6881691696, 39.0164628654]}, "type": "Feature", "properties": {"collection_times": [{"days": "Mon-Sat", "time": "10:45am"}, {"days": "Sun", "time": "Closed"}], "id": "4100500003", "name": "USPS COLLECTION BOX - BLUE BOX", "address": {"city": "BURLINGTON", "state": "KY", "street": "6096 LIMABURG RD", "postcode": "41005"}}},
{"geometry": {"type": "Point", "coordinates": [-84.7158504093, 39.026738047]}, "type": "Feature", "properties": {"collection_times": [{"days": "Mon-Fri", "time": "4:15pm"}, {"days": "Sat", "time": "12:00pm"}, {"days": "Sun", "time": "Closed"}], "id": "4100500005", "name": "USPS COLLECTION BOX - PO LOBBY", "address": {"city": "BURLINGTON", "state": "KY", "street": "2600 BURLINGTON PIKE", "postcode": "41005"}}},
{"geometry": {"type": "Point", "coordinates": [-84.722518749, 39.0268291348]}, "type": "Feature", "properties": {"collection_times": [{"days": "Mon-Fri", "time": "1:00pm"}, {"days": "Sat-Sun", "time": "Closed"}], "id": "4100500006", "name": "USPS COLLECTION BOX - BLUE BOX", "address": {"city": "BURLINGTON", "state": "KY", "street": "6025 ROGERS LN", "postcode": "41005"}}},
{"geometry": {"type": "Point", "coordinates": [-84.7229895667, 39.027745928]}, "type": "Feature", "properties": {"collection_times": [{"days": "Mon-Fri", "time": "1:00pm"}, {"days": "Sat", "time": "11:00am"}, {"days": "Sun", "time": "Closed"}], "id": "4100500007", "name": "USPS COLLECTION BOX - BLUE BOX", "address": {"city": "BURLINGTON", "state": "KY", "street": "2950 WASHINGTON ST", "postcode": "41005"}}},
{"geometry": {"type": "Point", "coordinates": [-84.6920291647, 39.0190925832]}, "type": "Feature", "properties": {"collection_times": [{"days": "Mon-Sat", "time": "9:00am"}, {"days": "Sun", "time": "Closed"}], "id": "4100500008", "name": "USPS COLLECTION BOX - BLUE BOX", "address": {"city": "BURLINGTON", "state": "KY", "street": "1751 PATRICK DR", "postcode": "41005"}}},
{"geometry": {"type": "Point", "coordinates": [-84.711444241, 39.0259203062]}, "type": "Feature", "properties": {"collection_times": [{"days": "Mon-Sat", "time": "9:00am"}, {"days": "Sun", "time": "Closed"}], "id": "4100500009", "name": "USPS COLLECTION BOX - BLUE BOX", "address": {"city": "BURLINGTON", "state": "KY", "street": "2360 DOUBLEGATE LN", "postcode": "41005"}}},
{"geometry": {"type": "Point", "coordinates": [-84.3694736697, 38.7866512918]}, "type": "Feature", "properties": {"collection_times": [{"days": "Mon-Fri", "time": "3:45pm"}, {"days": "Sat", "time": "11:00am"}, {"days": "Sun", "time": "Closed"}], "id": "4100600001", "name": "USPS COLLECTION BOX - BLUE BOX", "address": {"city": "BUTLER", "state": "KY", "street": "104 FRONT ST", "postcode": "41006"}}},
{"geometry": {"type": "Point", "coordinates": [-84.3520615986, 38.7915051875]}, "type": "Feature", "properties": {"collection_times": [{"days": "Mon-Sat", "time": "11:00am"}, {"days": "Sun", "time": "Closed"}], "id": "4100600002", "name": "USPS COLLECTION BOX - BLUE BOX", "address": {"city": "BUTLER", "state": "KY", "street": "10166 US HIGHWAY 27 N", "postcode": "41006"}}},
{"geometry": {"type": "Point", "coordinates": [-84.3548316592, 38.7965562887]}, "type": "Feature", "properties": {"collection_times": [{"days": "Mon-Sat", "time": "12:00pm"}, {"days": "Sun", "time": "Closed"}], "id": "4100600003", "name": "USPS COLLECTION BOX - BLUE BOX", "address": {"city": "BUTLER", "state": "KY", "street": "10499 US HIGHWAY 27 N", "postcode": "41006"}}},
{"geometry": {"type": "Point", "coordinates": [-84.3694736697, 38.7866512918]}, "type": "Feature", "properties": {"collection_times": [{"days": "Mon-Fri", "time": "3:45pm"}, {"days": "Sat", "time": "11:00am"}, {"days": "Sun", "time": "Closed"}], "id": "4100600004", "name": "USPS COLLECTION BOX - PO LOBBY", "address": {"city": "BUTLER", "state": "KY", "street": "104 FRONT ST", "postcode": "41006"}}},
{"geometry": {"type": "Point", "coordinates": [-84.2659243484, 38.8870299597]}, "type": "Feature", "properties": {"collection_times": [{"days": "Mon-Fri", "time": "3:45pm"}, {"days": "Sat", "time": "10:45am"}, {"days": "Sun", "time": "Closed"}], "id": "4100700001", "name": "USPS COLLECTION BOX - BLUE BOX", "address": {"city": "CALIFORNIA", "state": "KY", "street": "4087 UNION ST", "postcode": "41007"}}},
{"geometry": {"type": "Point", "coordinates": [-84.2659243484, 38.8870299597]}, "type": "Feature", "properties": {"collection_times": [{"days": "Mon-Fri", "time": "3:45pm"}, {"days": "Sat", "time": "10:45am"}, {"days": "Sun", "time": "Closed"}], "id": "4100700002", "name": "USPS COLLECTION BOX - PO LOBBY", "address": {"city": "CALIFORNIA", "state": "KY", "street": "4087 UNION ST", "postcode": "41007"}}},
{"geometry": {"type": "Point", "coordinates": [-84.262155939, 38.8720263128]}, "type": "Feature", "properties": {"collection_times": [{"days": "Mon-Sat", "time": "9:30am"}, {"days": "Sun", "time": "Closed"}], "id": "4100700003", "name": "USPS COLLECTION BOX - BLUE BOX", "address": {"city": "CALIFORNIA", "state": "KY", "street": "3520 IVOR RD", "postcode": "41007"}}},
{"geometry": {"type": "Point", "coordinates": [-84.2624171958, 38.8721930608]}, "type": "Feature", "properties": {"collection_times": [{"days": "Mon-Sat", "time": "9:30am"}, {"days": "Sun", "time": "Closed"}], "id": "4100700006", "name": "USPS COLLECTION BOX - BLUE BOX", "address": {"city": "CALIFORNIA", "state": "KY", "street": "3501 SHORTCUT RD", "postcode": "41007"}}},
{"geometry": {"type": "Point", "coordinates": [-85.1772903014, 38.675113242]}, "type": "Feature", "properties": {"collection_times": [{"days": "Mon-Sat", "time": "11:00am"}, {"days": "Sun", "time": "Closed"}], "id": "4100800003", "name": "USPS COLLECTION BOX - BLUE BOX", "address": {"city": "CARROLLTON", "state": "KY", "street": "716 6TH ST", "postcode": "41008"}}},
{"geometry": {"type": "Point", "coordinates": [-85.1715715037, 38.6712225223]}, "type": "Feature", "properties": {"collection_times": [{"days": "Mon-Sat", "time": "9:30am"}, {"days": "Sun", "time": "Closed"}], "id": "4100800004", "name": "USPS COLLECTION BOX - BLUE BOX", "address": {"city": "CARROLLTON", "state": "KY", "street": "916 9TH ST", "postcode": "41008"}}},
{"geometry": {"type": "Point", "coordinates": [-85.1325444744, 38.6566694274]}, "type": "Feature", "properties": {"collection_times": [{"days": "Mon-Sat", "time": "11:30am"}, {"days": "Sun", "time": "Closed"}], "id": "4100800005", "name": "USPS COLLECTION BOX - BLUE BOX", "address": {"city": "CARROLLTON", "state": "KY", "street": "2549 HIGHWAY 227", "postcode": "41008"}}},
{"geometry": {"type": "Point", "coordinates": [-85.1660458258, 38.6825945104]}, "type": "Feature", "properties": {"collection_times": [{"days": "Mon-Sat", "time": "11:30am"}, {"days": "Sun", "time": "Closed"}], "id": "4100800006", "name": "USPS COLLECTION BOX - BLUE BOX", "address": {"city": "CARROLLTON", "state": "KY", "street": "1419 HIGHLAND AVE", "postcode": "41008"}}},
{"geometry": {"type": "Point", "coordinates": [-85.1724856944, 38.6799442245]}, "type": "Feature", "properties": {"collection_times": [{"days": "Mon-Sat", "time": "10:00am"}, {"days": "Sun", "time": "Closed"}], "id": "4100800008", "name": "USPS COLLECTION BOX - BLUE BOX", "address": {"city": "CARROLLTON", "state": "KY", "street": "316 9TH ST", "postcode": "41008"}}},
{"geometry": {"type": "Point", "coordinates": [-85.1852892487, 38.6806715664]}, "type": "Feature", "properties": {"collection_times": [{"days": "Mon-Fri", "time": "4:30pm"}, {"days": "Sat", "time": "2:45pm"}, {"days": "Sun", "time": "Closed"}], "id": "4100800011", "name": "USPS COLLECTION BOX - BLUE BOX", "address": {"city": "CARROLLTON", "state": "KY", "street": "520 HIGHLAND AVE", "postcode": "41008"}}},
{"geometry": {"type": "Point", "coordinates": [-85.1852892487, 38.6806715664]}, "type": "Feature", "properties": {"collection_times": [{"days": "Mon-Fri", "time": "4:30pm"}, {"days": "Sat", "time": "2:45pm"}, {"days": "Sun", "time": "Closed"}], "id": "4100800012", "name": "USPS COLLECTION BOX - PO LOBBY", "address": {"city": "CARROLLTON", "state": "KY", "street": "520 HIGHLAND AVE", "postcode": "41008"}}},
{"geometry": {"type": "Point", "coordinates": [-85.1812269776, 38.682285529]}, "type": "Feature", "properties": {"collection_times": [{"days": "Mon-Sat", "time": "9:00am"}, {"days": "Sun", "time": "Closed"}], "id": "4100800013", "name": "USPS COLLECTION BOX - BLUE BOX", "address": {"city": "CARROLLTON", "state": "KY", "street": "439 MAIN ST", "postcode": "41008"}}},
{"geometry": {"type": "Point", "coordinates": [-85.1248538435, 38.6656027605]}, "type": "Feature", "properties": {"collection_times": [{"days": "Mon-Sat", "time": "11:00am"}, {"days": "Sun", "time": "Closed"}], "id": "4100800014", "name": "USPS COLLECTION BOX - BLUE BOX", "address": {"city": "CARROLLTON", "state": "KY", "street": "221 FLOYD ST", "postcode": "41008"}}},
{"geometry": {"type": "Point", "coordinates": [-84.5813193363, 38.4907777578]}, "type": "Feature", "properties": {"collection_times": [{"days": "Mon-Sat", "time": "9:00am"}, {"days": "Sun", "time": "Closed"}], "id": "4101000003", "name": "USPS COLLECTION BOX - BLUE BOX", "address": {"city": "WILLIAMSTOWN", "state": "KY", "street": "1065 OWENTON RD", "postcode": "41010"}}},
{"geometry": {"type": "Point", "coordinates": [-84.565139583, 38.4972662099]}, "type": "Feature", "properties": {"collection_times": [{"days": "Mon-Sat", "time": "11:00am"}, {"days": "Sun", "time": "Closed"}], "id": "4101000009", "name": "USPS COLLECTION BOX - BLUE BOX", "address": {"city": "WILLIAMSTOWN", "state": "KY", "street": "215 THOMAS LN", "postcode": "41010"}}},
{"geometry": {"type": "Point", "coordinates": [-84.5190030989, 39.0853192021]}, "type": "Feature", "properties": {"collection_times": [{"days": "Mon-Sat", "time": "3:00pm"}, {"days": "Sun", "time": "Closed"}], "id": "4101100010", "name": "USPS COLLECTION BOX - BLUE BOX", "address": {"city": "FT WRIGHT", "state": "KY", "street": "525 W 5TH ST", "postcode": "41011"}}},
{"geometry": {"type": "Point", "coordinates": [-84.5402022963, 39.0685509146]}, "type": "Feature", "properties": {"collection_times": [{"days": "Mon-Sat", "time": "10:00am"}, {"days": "Sun", "time": "Closed"}], "id": "4101100012", "name": "USPS COLLECTION BOX - BLUE BOX", "address": {"city": "FT WRIGHT", "state": "KY", "street": "1502 AMSTERDAM RD", "postcode": "41011"}}},
{"geometry": {"type": "Point", "coordinates": [-84.519986714, 39.0751422064]}, "type": "Feature", "properties": {"collection_times": [{"days": "Mon-Sat", "time": "1:00pm"}, {"days": "Sun", "time": "Closed"}], "id": "4101100013", "name": "USPS COLLECTION BOX - BLUE BOX", "address": {"city": "FT WRIGHT", "state": "KY", "street": "15 GEORGE HUSER DR", "postcode": "41011"}}},
{"geometry": {"type": "Point", "coordinates": [-84.5130143504, 39.0861131234]}, "type": "Feature", "properties": {"collection_times": [{"days": "Mon-Sat", "time": "9:00am"}, {"days": "Sun", "time": "Closed"}], "id": "4101100014", "name": "USPS COLLECTION BOX - BLUE BOX", "address": {"city": "FT WRIGHT", "state": "KY", "street": "111 BRENT SPENCE SQ", "postcode": "41011"}}},
{"geometry": {"type": "Point", "coordinates": [-84.5089307346, 39.0886019747]}, "type": "Feature", "properties": {"collection_times": [{"days": "Mon-Sat", "time": "3:00pm"}, {"days": "Sun", "time": "Closed"}], "id": "4101100016", "name": "USPS COLLECTION BOX - BLUE BOX", "address": {"city": "FT WRIGHT", "state": "KY", "street": "301 COURT ST", "postcode": "41011"}}},
{"geometry": {"type": "Point", "coordinates": [-84.5089307346, 39.0886019747]}, "type": "Feature", "properties": {"collection_times": [{"days": "Mon-Sat", "time": "3:00pm"}, {"days": "Sun", "time": "Closed"}], "id": "4101100017", "name": "USPS COLLECTION BOX - BLUE BOX", "address": {"city": "FT WRIGHT", "state": "KY", "street": "301 COURT ST", "postcode": "41011"}}},
{"geometry": {"type": "Point", "coordinates": [-84.5298431246, 39.0671964265]}, "type": "Feature", "properties": {"collection_times": [{"days": "Mon-Sat", "time": "9:00am"}, {"days": "Sun", "time": "Closed"}], "id": "4101100020", "name": "USPS COLLECTION BOX - BLUE BOX", "address": {"city": "FT WRIGHT", "state": "KY", "street": "1520 DIXIE HWY", "postcode": "41011"}}},
{"geometry": {"type": "Point", "coordinates": [-84.538624229, 39.0629105662]}, "type": "Feature", "properties": {"collection_times": [{"days": "Mon-Fri", "time": "4:00pm"}, {"days": "Sat", "time": "2:00pm"}, {"days": "Sun", "time": "Closed"}], "id": "4101100023", "name": "USPS COLLECTION BOX - BLUE BOX", "address": {"city": "FT WRIGHT", "state": "KY", "street": "1717 DIXIE HWY", "postcode": "41011"}}},
{"geometry": {"type": "Point", "coordinates": [-84.538624229, 39.0629105662]}, "type": "Feature", "properties": {"collection_times": [{"days": "Mon-Fri", "time": "4:00pm"}, {"days": "Sat", "time": "2:00pm"}, {"days": "Sun", "time": "Closed"}], "id": "4101100024", "name": "USPS COLLECTION BOX - BLUE BOX", "address": {"city": "FT WRIGHT", "state": "KY", "street": "1717 DIXIE HWY", "postcode": "41011"}}},
{"geometry": {"type": "Point", "coordinates": [-84.538624229, 39.0629105662]}, "type": "Feature", "properties": {"collection_times": [{"days": "Mon-Fri", "time": "4:00pm"}, {"days": "Sat", "time": "2:00pm"}, {"days": "Sun", "time": "Closed"}], "id": "4101100025", "name": "USPS COLLECTION BOX - BLUE BOX", "address": {"city": "FT WRIGHT", "state": "KY", "street": "1717 DIXIE HWY", "postcode": "41011"}}},
{"geometry": {"type": "Point", "coordinates": [-84.538624229, 39.0629105662]}, "type": "Feature", "properties": {"collection_times": [{"days": "Mon-Fri", "time": "4:00pm"}, {"days": "Sat", "time": "2:00pm"}, {"days": "Sun", "time": "Closed"}], "id": "4101100026", "name": "USPS COLLECTION BOX - BLUE BOX", "address": {"city": "FT WRIGHT", "state": "KY", "street": "1717 DIXIE HWY", "postcode": "41011"}}},
{"geometry": {"type": "Point", "coordinates": [-84.5423375372, 39.0584094074]}, "type": "Feature", "properties": {"collection_times": [{"days": "Mon-Sat", "time": "11:00am"}, {"days": "Sun", "time": "Closed"}], "id": "4101100027", "name": "USPS COLLECTION BOX - BLUE BOX", "address": {"city": "FT WRIGHT", "state": "KY", "street": "1881 DIXIE HWY", "postcode": "41011"}}},
{"geometry": {"type": "Point", "coordinates": [-84.5249953588, 39.0485541762]}, "type": "Feature", "properties": {"collection_times": [{"days": "Mon-Sat", "time": "10:00am"}, {"days": "Sun", "time": "Closed"}], "id": "4101100032", "name": "USPS COLLECTION BOX - BLUE BOX", "address": {"city": "FT WRIGHT", "state": "KY", "street": "400 FARRELL DR", "postcode": "41011"}}},
{"geometry": {"type": "Point", "coordinates": [-84.5062584718, 39.0879549905]}, "type": "Feature", "properties": {"collection_times": [{"days": "Mon-Sat", "time": "1:00pm"}, {"days": "Sun", "time": "Closed"}], "id": "4101100034", "name": "USPS COLLECTION BOX - BLUE BOX", "address": {"city": "FT WRIGHT", "state": "KY", "street": "320 GARRARD ST", "postcode": "41011"}}},
{"geometry": {"type": "Point", "coordinates": [-84.5071681672, 39.0851194378]}, "type": "Feature", "properties": {"collection_times": [{"days": "Mon-Sat", "time": "3:00pm"}, {"days": "Sun", "time": "Closed"}], "id": "4101100039", "name": "USPS COLLECTION BOX - BLUE BOX", "address": {"city": "FT WRIGHT", "state": "KY", "street": "600 GREENUP ST", "postcode": "41011"}}},
{"geometry": {"type": "Point", "coordinates": [-84.5320848319, 39.0716041317]}, "type": "Feature", "properties": {"collection_times": [{"days": "Mon-Sat", "time": "10:00am"}, {"days": "Sun", "time": "Closed"}], "id": "4101100043", "name": "USPS COLLECTION BOX - BLUE BOX", "address": {"city": "FT WRIGHT", "state": "KY", "street": "1165 HAMILTON RD", "postcode": "41011"}}},
{"geometry": {"type": "Point", "coordinates": [-84.533956273, 39.0566456155]}, "type": "Feature", "properties": {"collection_times": [{"days": "Mon-Sat", "time": "11:00am"}, {"days": "Sun", "time": "Closed"}], "id": "4101100044", "name": "USPS COLLECTION BOX - BLUE BOX", "address": {"city": "FT WRIGHT", "state": "KY", "street": "1601 E HENRY CLAY AVE", "postcode": "41011"}}},
{"geometry": {"type": "Point", "coordinates": [-84.5158786135, 39.0876012495]}, "type": "Feature", "properties": {"collection_times": [{"days": "Mon-Fri", "time": "3:00pm"}, {"days": "Sat", "time": "2:00pm"}, {"days": "Sun", "time": "Closed"}], "id": "4101100051", "name": "USPS COLLECTION BOX - BLUE BOX", "address": {"city": "FT WRIGHT", "state": "KY", "street": "300 JOHNSON ST", "postcode": "41011"}}},
{"geometry": {"type": "Point", "coordinates": [-84.5354234385, 39.052198575]}, "type": "Feature", "properties": {"collection_times": [{"days": "Mon-Sat", "time": "11:00am"}, {"days": "Sun", "time": "Closed"}], "id": "4101100053", "name": "USPS COLLECTION BOX - BLUE BOX", "address": {"city": "FT WRIGHT", "state": "KY", "street": "409 KYLES LN", "postcode": "41011"}}},
{"geometry": {"type": "Point", "coordinates": [-84.5075514459, 39.0734720239]}, "type": "Feature", "properties": {"collection_times": [{"days": "Mon-Fri", "time": "12:00pm"}, {"days": "Sat", "time": "1:00pm"}, {"days": "Sun", "time": "Closed"}], "id": "4101100055", "name": "USPS COLLECTION BOX - BLUE BOX", "address": {"city": "FT WRIGHT", "state": "KY", "street": "1500 MADISON AVE", "postcode": "41011"}}},
{"geometry": {"type": "Point", "coordinates": [-84.5105909999, 39.0851592807]}, "type": "Feature", "properties": {"collection_times": [{"days": "Mon-Fri", "time": "3:00pm"}, {"days": "Sat", "time": "2:00pm"}, {"days": "Sun", "time": "Closed"}], "id": "4101100062", "name": "USPS COLLECTION BOX - BLUE BOX", "address": {"city": "FT WRIGHT", "state": "KY", "street": "535 MADISON AVE", "postcode": "41011"}}},
{"geometry": {"type": "Point", "coordinates": [-84.5101619932, 39.0839495613]}, "type": "Feature", "properties": {"collection_times": [{"days": "Mon-Fri", "time": "3:00pm"}, {"days": "Sat", "time": "2:00pm"}, {"days": "Sun", "time": "Closed"}], "id": "4101100064", "name": "USPS COLLECTION BOX - BLUE BOX", "address": {"city": "FT WRIGHT", "state": "KY", "street": "638 MADISON AVE", "postcode": "41011"}}},
{"geometry": {"type": "Point", "coordinates": [-84.5190030989, 39.0853192021]}, "type": "Feature", "properties": {"collection_times": [{"days": "Mon-Sat", "time": "3:00pm"}, {"days": "Sun", "time": "Closed"}], "id": "4101100067", "name": "USPS COLLECTION BOX - BLUE BOX", "address": {"city": "FT WRIGHT", "state": "KY", "street": "525 W 5TH ST", "postcode": "41011"}}},
{"geometry": {"type": "Point", "coordinates": [-84.5148976211, 39.0807424897]}, "type": "Feature", "properties": {"collection_times": [{"days": "Mon-Sat", "time": "9:00am"}, {"days": "Sun", "time": "Closed"}], "id": "4101100071", "name": "USPS COLLECTION BOX - BLUE BOX", "address": {"city": "FT WRIGHT", "state": "KY", "street": "272 PIKE ST", "postcode": "41011"}}},
{"geometry": {"type": "Point", "coordinates": [-84.5095210726, 39.087881647]}, "type": "Feature", "properties": {"collection_times": [{"days": "Mon-Sat", "time": "9:00am"}, {"days": "Sun", "time": "Closed"}], "id": "4101100079", "name": "USPS COLLECTION BOX - BLUE BOX", "address": {"city": "FT WRIGHT", "state": "KY", "street": "333 SCOTT ST", "postcode": "41011"}}},
{"geometry": {"type": "Point", "coordinates": [-84.5084096849, 39.0836884262]}, "type": "Feature", "properties": {"collection_times": [{"days": "Mon-Fri", "time": "5:00pm"}, {"days": "Sat", "time": "2:00pm"}, {"days": "Sun", "time": "Closed"}], "id": "4101100081", "name": "USPS COLLECTION BOX - PO LOBBY", "address": {"city": "FT WRIGHT", "state": "KY", "street": "700 SCOTT ST", "postcode": "41011"}}},
{"geometry": {"type": "Point", "coordinates": [-84.5084096849, 39.0836884262]}, "type": "Feature", "properties": {"collection_times": [{"days": "Mon-Fri", "time": "5:00pm"}, {"days": "Sat", "time": "2:00pm"}, {"days": "Sun", "time": "Closed"}], "id": "4101100083", "name": "USPS COLLECTION BOX - BLUE BOX", "address": {"city": "FT WRIGHT", "state": "KY", "street": "700 SCOTT ST", "postcode": "41011"}}},
{"geometry": {"type": "Point", "coordinates": [-84.5276854075, 39.0847740138]}, "type": "Feature", "properties": {"collection_times": [{"days": "Mon-Sat", "time": "10:00am"}, {"days": "Sun", "time": "Closed"}], "id": "4101100087", "name": "USPS COLLECTION BOX - BLUE BOX", "address": {"city": "FT WRIGHT", "state": "KY", "street": "100 WINDING WAY", "postcode": "41011"}}},
{"geometry": {"type": "Point", "coordinates": [-84.5084096849, 39.0836884262]}, "type": "Feature", "properties": {"collection_times": [{"days": "Mon-Fri", "time": "5:00pm"}, {"days": "Sat", "time": "2:00pm"}, {"days": "Sun", "time": "Closed"}], "id": "4101100088", "name": "USPS COLLECTION BOX - BLUE BOX", "address": {"city": "FT WRIGHT", "state": "KY", "street": "700 SCOTT ST", "postcode": "41011"}}},
{"geometry": {"type": "Point", "coordinates": [-84.5084096849, 39.0836884262]}, "type": "Feature", "properties": {"collection_times": [{"days": "Mon-Fri", "time": "5:00pm"}, {"days": "Sat", "time": "2:00pm"}, {"days": "Sun", "time": "Closed"}], "id": "4101100089", "name": "USPS COLLECTION BOX - PO LOBBY", "address": {"city": "FT WRIGHT", "state": "KY", "street": "700 SCOTT ST", "postcode": "41011"}}},
{"geometry": {"type": "Point", "coordinates": [-84.5084096849, 39.0836884262]}, "type": "Feature", "properties": {"collection_times": [{"days": "Mon-Fri", "time": "5:00pm"}, {"days": "Sat", "time": "2:00pm"}, {"days": "Sun", "time": "Closed"}], "id": "4101100090", "name": "USPS COLLECTION BOX - PO LOBBY", "address": {"city": "FT WRIGHT", "state": "KY", "street": "700 SCOTT ST", "postcode": "41011"}}},
{"geometry": {"type": "Point", "coordinates": [-84.5113754779, 39.0887167759]}, "type": "Feature", "properties": {"collection_times": [{"days": "Mon-Sat", "time": "3:00pm"}, {"days": "Sun", "time": "Closed"}], "id": "4101100091", "name": "USPS COLLECTION BOX - BLUE BOX", "address": {"city": "FT WRIGHT", "state": "KY", "street": "230 MADISON AVE", "postcode": "41011"}}},
{"geometry": {"type": "Point", "coordinates": [-84.5113754779, 39.0887167759]}, "type": "Feature", "properties": {"collection_times": [{"days": "Mon-Sat", "time": "3:00pm"}, {"days": "Sun", "time": "Closed"}], "id": "4101100092", "name": "USPS COLLECTION BOX - BLUE BOX", "address": {"city": "FT WRIGHT", "state": "KY", "street": "230 MADISON AVE", "postcode": "41011"}}},
{"geometry": {"type": "Point", "coordinates": [-84.5181330138, 39.0665860197]}, "type": "Feature", "properties": {"collection_times": [{"days": "Mon-Sat", "time": "1:00pm"}, {"days": "Sun", "time": "Closed"}], "id": "4101400001", "name": "USPS COLLECTION BOX - BLUE BOX", "address": {"city": "COVINGTON", "state": "KY", "street": "725 EDGECLIFF ST", "postcode": "41014"}}},
{"geometry": {"type": "Point", "coordinates": [-84.5096982776, 39.0631433492]}, "type": "Feature", "properties": {"collection_times": [{"days": "Mon-Sat", "time": "10:00am"}, {"days": "Sun", "time": "Closed"}], "id": "4101400004", "name": "USPS COLLECTION BOX - BLUE BOX", "address": {"city": "COVINGTON", "state": "KY", "street": "2232 HOWELL ST", "postcode": "41014"}}},
{"geometry": {"type": "Point", "coordinates": [-84.5157777425, 39.0703158893]}, "type": "Feature", "properties": {"collection_times": [{"days": "Mon-Sat", "time": "9:30am"}, {"days": "Sun", "time": "Closed"}], "id": "4101400008", "name": "USPS COLLECTION BOX - BLUE BOX", "address": {"city": "COVINGTON", "state": "KY", "street": "433 W 16TH ST", "postcode": "41014"}}},
{"geometry": {"type": "Point", "coordinates": [-84.5054848166, 39.0670450078]}, "type": "Feature", "properties": {"collection_times": [{"days": "Mon-Sat", "time": "10:00am"}, {"days": "Sun", "time": "Closed"}], "id": "4101400011", "name": "USPS COLLECTION BOX - BLUE BOX", "address": {"city": "COVINGTON", "state": "KY", "street": "8 E 20TH ST", "postcode": "41014"}}},
{"geometry": {"type": "Point", "coordinates": [-84.4985302153, 39.0654453365]}, "type": "Feature", "properties": {"collection_times": [{"days": "Mon-Sat", "time": "11:00am"}, {"days": "Sun", "time": "Closed"}], "id": "4101400014", "name": "USPS COLLECTION BOX - BLUE BOX", "address": {"city": "COVINGTON", "state": "KY", "street": "500 WALLACE AVE", "postcode": "41014"}}},
{"geometry": {"type": "Point", "coordinates": [-84.5021547871, 39.0428771561]}, "type": "Feature", "properties": {"collection_times": [{"days": "Mon-Sat", "time": "1:00pm"}, {"days": "Sun", "time": "Closed"}], "id": "4101500001", "name": "USPS COLLECTION BOX - BLUE BOX", "address": {"city": "TAYLOR MILL", "state": "KY", "street": "4011 CHURCH ST", "postcode": "41015"}}},
{"geometry": {"type": "Point", "coordinates": [-84.5008452515, 39.0474433777]}, "type": "Feature", "properties": {"collection_times": [{"days": "Mon-Fri", "time": "5:00pm"}, {"days": "Sat", "time": "12:00pm"}, {"days": "Sun", "time": "Closed"}], "id": "4101500012", "name": "USPS COLLECTION BOX - BLUE BOX", "address": {"city": "TAYLOR MILL", "state": "KY", "street": "111 E SOUTHERN AVE", "postcode": "41015"}}},
{"geometry": {"type": "Point", "coordinates": [-84.5008452515, 39.0474433777]}, "type": "Feature", "properties": {"collection_times": [{"days": "Mon-Fri", "time": "5:00pm"}, {"days": "Sat", "time": "12:00pm"}, {"days": "Sun", "time": "Closed"}], "id": "4101500014", "name": "USPS COLLECTION BOX - PO LOBBY", "address": {"city": "TAYLOR MILL", "state": "KY", "street": "111 E SOUTHERN AVE", "postcode": "41015"}}},
{"geometry": {"type": "Point", "coordinates": [-84.5050518536, 39.0441145312]}, "type": "Feature", "properties": {"collection_times": [{"days": "Mon-Sat", "time": "1:00pm"}, {"days": "Sun", "time": "Closed"}], "id": "4101500019", "name": "USPS COLLECTION BOX - BLUE BOX", "address": {"city": "TAYLOR MILL", "state": "KY", "street": "3937 WINSTON AVE", "postcode": "41015"}}},
{"geometry": {"type": "Point", "coordinates": [-84.5033176358, 39.045706794]}, "type": "Feature", "properties": {"collection_times": [{"days": "Mon-Sat", "time": "10:00am"}, {"days": "Sun", "time": "Closed"}], "id": "4101500023", "name": "USPS COLLECTION BOX - BLUE BOX", "address": {"city": "TAYLOR MILL", "state": "KY", "street": "3800 LOCKE ST", "postcode": "41015"}}},
{"geometry": {"type": "Point", "coordinates": [-84.5075197409, 39.0176087222]}, "type": "Feature", "properties": {"collection_times": [{"days": "Mon-Sat", "time": "12:00pm"}, {"days": "Sun", "time": "Closed"}], "id": "4101500024", "name": "USPS COLLECTION BOX - BLUE BOX", "address": {"city": "TAYLOR MILL", "state": "KY", "street": "5016 OLD TAYLOR MILL RD", "postcode": "41015"}}},
{"geometry": {"type": "Point", "coordinates": [-84.5008452515, 39.0474433777]}, "type": "Feature", "properties": {"collection_times": [{"days": "Mon-Fri", "time": "5:00pm"}, {"days": "Sat", "time": "12:00pm"}, {"days": "Sun", "time": "Closed"}], "id": "4101500025", "name": "USPS COLLECTION BOX - PO LOBBY", "address": {"city": "TAYLOR MILL", "state": "KY", "street": "111 E SOUTHERN AVE", "postcode": "41015"}}},
{"geometry": {"type": "Point", "coordinates": [-84.5595164673, 39.082867084]}, "type": "Feature", "properties": {"collection_times": [{"days": "Mon-Sat", "time": "10:00am"}, {"days": "Sun", "time": "Closed"}], "id": "4101600001", "name": "USPS COLLECTION BOX - BLUE BOX", "address": {"city": "LUDLOW", "state": "KY", "street": "16 BOONE ST", "postcode": "41016"}}},
{"geometry": {"type": "Point", "coordinates": [-84.548513766, 39.0936556697]}, "type": "Feature", "properties": {"collection_times": [{"days": "Mon-Sat", "time": "9:00am"}, {"days": "Sun", "time": "Closed"}], "id": "4101600002", "name": "USPS COLLECTION BOX - BLUE BOX", "address": {"city": "LUDLOW", "state": "KY", "street": "301 ELM ST", "postcode": "41016"}}},
{"geometry": {"type": "Point", "coordinates": [-84.5557913295, 39.089497569]}, "type": "Feature", "properties": {"collection_times": [{"days": "Mon-Fri", "time": "5:00pm"}, {"days": "Sat", "time": "12:00pm"}, {"days": "Sun", "time": "Closed"}], "id": "4101600005", "name": "USPS COLLECTION BOX - PO LOBBY", "address": {"city": "LUDLOW", "state": "KY", "street": "640 ELM ST", "postcode": "41016"}}},
{"geometry": {"type": "Point", "coordinates": [-84.5557913295, 39.089497569]}, "type": "Feature", "properties": {"collection_times": [{"days": "Mon-Fri", "time": "5:00pm"}, {"days": "Sat", "time": "12:00pm"}, {"days": "Sun", "time": "Closed"}], "id": "4101600006", "name": "USPS COLLECTION BOX - BLUE BOX", "address": {"city": "LUDLOW", "state": "KY", "street": "640 ELM ST", "postcode": "41016"}}},
{"geometry": {"type": "Point", "coordinates": [-84.5523867736, 39.0872286537]}, "type": "Feature", "properties": {"collection_times": [{"days": "Mon-Sat", "time": "11:00am"}, {"days": "Sun", "time": "Closed"}], "id": "4101600011", "name": "USPS COLLECTION BOX - BLUE BOX", "address": {"city": "LUDLOW", "state": "KY", "street": "272 LUDFORD ST", "postcode": "41016"}}},
{"geometry": {"type": "Point", "coordinates": [-84.6090524231, 39.0608486201]}, "type": "Feature", "properties": {"collection_times": [{"days": "Mon-Sat", "time": "2:00pm"}, {"days": "Sun", "time": "Closed"}], "id": "4101700000", "name": "USPS COLLECTION BOX - BLUE BOX", "address": {"city": "CRESCENT SPGS", "state": "KY", "street": "2803 AMSTERDAM RD", "postcode": "41017"}}},
{"geometry": {"type": "Point", "coordinates": [-84.575641381, 39.0188311493]}, "type": "Feature", "properties": {"collection_times": [{"days": "Mon-Fri", "time": "11:00am"}, {"days": "Sat", "time": "9:00am"}, {"days": "Sun", "time": "Closed"}], "id": "4101700001", "name": "USPS COLLECTION BOX - BLUE BOX", "address": {"city": "CRESCENT SPGS", "state": "KY", "street": "144 BARNWOOD DR", "postcode": "41017"}}},
{"geometry": {"type": "Point", "coordinates": [-84.5668910335, 39.0408412838]}, "type": "Feature", "properties": {"collection_times": [{"days": "Mon-Fri", "time": "5:15pm"}, {"days": "Sat", "time": "4:00pm"}, {"days": "Sun", "time": "Closed"}], "id": "4101700002", "name": "USPS COLLECTION BOX - BLUE BOX", "address": {"city": "CRESCENT SPGS", "state": "KY", "street": "123 BUTTERMILK PIKE", "postcode": "41017"}}},
{"geometry": {"type": "Point", "coordinates": [-84.5668910335, 39.0408412838]}, "type": "Feature", "properties": {"collection_times": [{"days": "Mon-Fri", "time": "5:15pm"}, {"days": "Sat", "time": "4:00pm"}, {"days": "Sun", "time": "Closed"}], "id": "4101700003", "name": "USPS COLLECTION BOX - BLUE BOX", "address": {"city": "CRESCENT SPGS", "state": "KY", "street": "123 BUTTERMILK PIKE", "postcode": "41017"}}},
{"geometry": {"type": "Point", "coordinates": [-84.5668910335, 39.0408412838]}, "type": "Feature", "properties": {"collection_times": [{"days": "Mon-Fri", "time": "5:15pm"}, {"days": "Sat", "time": "4:00pm"}, {"days": "Sun", "time": "Closed"}], "id": "4101700006", "name": "USPS COLLECTION BOX - PO LOBBY", "address": {"city": "CRESCENT SPGS", "state": "KY", "street": "123 BUTTERMILK PIKE", "postcode": "41017"}}},
{"geometry": {"type": "Point", "coordinates": [-84.5668910335, 39.0408412838]}, "type": "Feature", "properties": {"collection_times": [{"days": "Mon-Fri", "time": "5:15pm"}, {"days": "Sat", "time": "4:00pm"}, {"days": "Sun", "time": "Closed"}], "id": "4101700007", "name": "USPS COLLECTION BOX - BLUE BOX", "address": {"city": "CRESCENT SPGS", "state": "KY", "street": "123 BUTTERMILK PIKE", "postcode": "41017"}}},
{"geometry": {"type": "Point", "coordinates": [-84.5668910335, 39.0408412838]}, "type": "Feature", "properties": {"collection_times": [{"days": "Mon-Fri", "time": "5:15pm"}, {"days": "Sat", "time": "4:00pm"}, {"days": "Sun", "time": "Closed"}], "id": "4101700008", "name": "USPS COLLECTION BOX - BLUE BOX", "address": {"city": "CRESCENT SPGS", "state": "KY", "street": "123 BUTTERMILK PIKE", "postcode": "41017"}}},
{"geometry": {"type": "Point", "coordinates": [-84.577126, 39.05179]}, "type": "Feature", "properties": {"collection_times": [{"days": "Mon-Sat", "time": "1:00pm"}, {"days": "Sun", "time": "Closed"}], "id": "4101700010", "name": "USPS COLLECTION BOX - BLUE BOX", "address": {"city": "CRESCENT SPGS", "state": "KY", "street": "606 BUTTERMILK PIKE", "postcode": "41017"}}},
{"geometry": {"type": "Point", "coordinates": [-84.5606306796, 39.026835205]}, "type": "Feature", "properties": {"collection_times": [{"days": "Mon-Fri", "time": "3:30pm"}, {"days": "Sat", "time": "11:30am"}, {"days": "Sun", "time": "Closed"}], "id": "4101700011", "name": "USPS COLLECTION BOX - BLUE BOX", "address": {"city": "CRESCENT SPGS", "state": "KY", "street": "2805 CENTERVIEW DR", "postcode": "41017"}}},
{"geometry": {"type": "Point", "coordinates": [-84.5521915854, 39.0468377028]}, "type": "Feature", "properties": {"collection_times": [{"days": "Mon-Sat", "time": "2:00pm"}, {"days": "Sun", "time": "Closed"}], "id": "4101700013", "name": "USPS COLLECTION BOX - BLUE BOX", "address": {"city": "CRESCENT SPGS", "state": "KY", "street": "2216 DIXIE HWY", "postcode": "41017"}}},
{"geometry": {"type": "Point", "coordinates": [-84.5623000694, 39.0353483064]}, "type": "Feature", "properties": {"collection_times": [{"days": "Mon-Sat", "time": "12:30pm"}, {"days": "Sun", "time": "Closed"}], "id": "4101700016", "name": "USPS COLLECTION BOX - BLUE BOX", "address": {"city": "CRESCENT SPGS", "state": "KY", "street": "2335 DIXIE HWY", "postcode": "41017"}}},
{"geometry": {"type": "Point", "coordinates": [-84.5603823933, 39.0367174888]}, "type": "Feature", "properties": {"collection_times": [{"days": "Mon-Sat", "time": "2:00pm"}, {"days": "Sun", "time": "Closed"}], "id": "4101700018", "name": "USPS COLLECTION BOX - BLUE BOX", "address": {"city": "CRESCENT SPGS", "state": "KY", "street": "2498 DIXIE HWY", "postcode": "41017"}}},
{"geometry": {"type": "Point", "coordinates": [-84.5656570673, 39.0334040375]}, "type": "Feature", "properties": {"collection_times": [{"days": "Mon-Sat", "time": "10:00am"}, {"days": "Sun", "time": "Closed"}], "id": "4101700019", "name": "USPS COLLECTION BOX - BLUE BOX", "address": {"city": "CRESCENT SPGS", "state": "KY", "street": "2894 TOWN CENTER BLVD", "postcode": "41017"}}},
{"geometry": {"type": "Point", "coordinates": [-84.5861933556, 39.0221244136]}, "type": "Feature", "properties": {"collection_times": [{"days": "Mon-Sat", "time": "10:30am"}, {"days": "Sun", "time": "Closed"}], "id": "4101700021", "name": "USPS COLLECTION BOX - BLUE BOX", "address": {"city": "CRESCENT SPGS", "state": "KY", "street": "3031 DIXIE HWY", "postcode": "41017"}}},
{"geometry": {"type": "Point", "coordinates": [-84.5652308433, 39.0079949103]}, "type": "Feature", "properties": {"collection_times": [{"days": "Mon-Sat", "time": "12:00pm"}, {"days": "Sun", "time": "Closed"}], "id": "4101700022", "name": "USPS COLLECTION BOX - BLUE BOX", "address": {"city": "CRESCENT SPGS", "state": "KY", "street": "385 DUDLEY PIKE", "postcode": "41017"}}},
{"geometry": {"type": "Point", "coordinates": [-84.5629931837, 39.0522899606]}, "type": "Feature", "properties": {"collection_times": [{"days": "Mon-Fri", "time": "1:00pm"}, {"days": "Sat", "time": "9:00am"}, {"days": "Sun", "time": "Closed"}], "id": "4101700024", "name": "USPS COLLECTION BOX - BLUE BOX", "address": {"city": "CRESCENT SPGS", "state": "KY", "street": "250 GRANDVIEW DR", "postcode": "41017"}}},
{"geometry": {"type": "Point", "coordinates": [-84.560477147, 39.0148192138]}, "type": "Feature", "properties": {"collection_times": [{"days": "Mon-Sat", "time": "12:00pm"}, {"days": "Sun", "time": "Closed"}], "id": "4101700028", "name": "USPS COLLECTION BOX - BLUE BOX", "address": {"city": "CRESCENT SPGS", "state": "KY", "street": "20 MEDICAL VILLAGE DR", "postcode": "41017"}}},
{"geometry": {"type": "Point", "coordinates": [-84.6114299773, 39.0668159795]}, "type": "Feature", "properties": {"collection_times": [{"days": "Mon-Sat", "time": "12:00pm"}, {"days": "Sun", "time": "Closed"}], "id": "4101700029", "name": "USPS COLLECTION BOX - BLUE BOX", "address": {"city": "CRESCENT SPGS", "state": "KY", "street": "2904 RIVER CLIFF RD", "postcode": "41017"}}},
{"geometry": {"type": "Point", "coordinates": [-84.5606306796, 39.026835205]}, "type": "Feature", "properties": {"collection_times": [{"days": "Mon-Fri", "time": "3:30pm"}, {"days": "Sat", "time": "11:30am"}, {"days": "Sun", "time": "Closed"}], "id": "4101700031", "name": "USPS COLLECTION BOX - BLUE BOX", "address": {"city": "CRESCENT SPGS", "state": "KY", "street": "2805 CENTERVIEW DR", "postcode": "41017"}}},
{"geometry": {"type": "Point", "coordinates": [-84.5606306796, 39.026835205]}, "type": "Feature", "properties": {"collection_times": [{"days": "Mon-Fri", "time": "3:30pm"}, {"days": "Sat", "time": "11:30am"}, {"days": "Sun", "time": "Closed"}], "id": "4101700032", "name": "USPS COLLECTION BOX - BLUE BOX", "address": {"city": "CRESCENT SPGS", "state": "KY", "street": "2805 CENTERVIEW DR", "postcode": "41017"}}},
{"geometry": {"type": "Point", "coordinates": [-84.5313849294, 39.035961147]}, "type": "Feature", "properties": {"collection_times": [{"days": "Mon-Sat", "time": "1:00pm"}, {"days": "Sun", "time": "Closed"}], "id": "4101700036", "name": "USPS COLLECTION BOX - BLUE BOX", "address": {"city": "CRESCENT SPGS", "state": "KY", "street": "3395 MADISON PIKE", "postcode": "41017"}}},
{"geometry": {"type": "Point", "coordinates": [-84.5668910335, 39.0408412838]}, "type": "Feature", "properties": {"collection_times": [{"days": "Mon-Fri", "time": "5:15pm"}, {"days": "Sat", "time": "4:00pm"}, {"days": "Sun", "time": "Closed"}], "id": "4101700039", "name": "USPS COLLECTION BOX - PO LOBBY", "address": {"city": "CRESCENT SPGS", "state": "KY", "street": "123 BUTTERMILK PIKE", "postcode": "41017"}}},
{"geometry": {"type": "Point", "coordinates": [-84.5668910335, 39.0408412838]}, "type": "Feature", "properties": {"collection_times": [{"days": "Mon-Fri", "time": "5:15pm"}, {"days": "Sat", "time": "4:00pm"}, {"days": "Sun", "time": "Closed"}], "id": "4101700040", "name": "USPS COLLECTION BOX - PO LOBBY", "address": {"city": "CRESCENT SPGS", "state": "KY", "street": "123 BUTTERMILK PIKE", "postcode": "41017"}}},
{"geometry": {"type": "Point", "coordinates": [-84.5668910335, 39.0408412838]}, "type": "Feature", "properties": {"collection_times": [{"days": "Mon-Fri", "time": "5:15pm"}, {"days": "Sat", "time": "4:00pm"}, {"days": "Sun", "time": "Closed"}], "id": "4101700041", "name": "USPS COLLECTION BOX - PO LOBBY", "address": {"city": "CRESCENT SPGS", "state": "KY", "street": "123 BUTTERMILK PIKE", "postcode": "41017"}}},
{"geometry": {"type": "Point", "coordinates": [-84.57251, 39.05112]}, "type": "Feature", "properties": {"collection_times": [{"days": "Mon-Sat", "time": "2:00pm"}, {"days": "Sun", "time": "Closed"}], "id": "4101700042", "name": "USPS COLLECTION BOX - BLUE BOX", "address": {"city": "CRESCENT SPGS", "state": "KY", "street": "560 CLOCK TOWER WAY", "postcode": "41017"}}},
{"geometry": {"type": "Point", "coordinates": [-84.5672364575, 39.024286956]}, "type": "Feature", "properties": {"collection_times": [{"days": "Mon-Sat", "time": "10:00am"}, {"days": "Sun", "time": "Closed"}], "id": "4101700044", "name": "USPS COLLECTION BOX - BLUE BOX", "address": {"city": "CRESCENT SPGS", "state": "KY", "street": "328 THOMAS MORE PKWY", "postcode": "41017"}}},
{"geometry": {"type": "Point", "coordinates": [-84.5668910335, 39.0408412838]}, "type": "Feature", "properties": {"collection_times": [{"days": "Mon-Fri", "time": "5:15pm"}, {"days": "Sat", "time": "4:00pm"}, {"days": "Sun", "time": "Closed"}], "id": "4101700045", "name": "USPS COLLECTION BOX - APC", "address": {"city": "CRESCENT SPGS", "state": "KY", "street": "123 BUTTERMILK PIKE", "postcode": "41017"}}},
{"geometry": {"type": "Point", "coordinates": [-84.6079243503, 39.0197255968]}, "type": "Feature", "properties": {"collection_times": [{"days": "Mon-Fri", "time": "4:30pm"}, {"days": "Sat", "time": "10:00am"}, {"days": "Sun", "time": "Closed"}], "id": "4101800000", "name": "USPS COLLECTION BOX - BLUE BOX", "address": {"city": "COVINGTON", "state": "KY", "street": "1835 AIRPORT EXCHANGE BLVD", "postcode": "41018"}}},
{"geometry": {"type": "Point", "coordinates": [-84.6335330268, 39.0485943968]}, "type": "Feature", "properties": {"collection_times": [{"days": "Mon-Fri", "time": "3:30pm"}, {"days": "Sat", "time": "10:00am"}, {"days": "Sun", "time": "Closed"}], "id": "4101800005", "name": "USPS COLLECTION BOX - BLUE BOX", "address": {"city": "COVINGTON", "state": "KY", "street": "2691 CIRCLEPORT DR", "postcode": "41018"}}},
{"geometry": {"type": "Point", "coordinates": [-84.6012228686, 39.0174151474]}, "type": "Feature", "properties": {"collection_times": [{"days": "Mon-Sat", "time": "9:30am"}, {"days": "Sun", "time": "Closed"}], "id": "4101800008", "name": "USPS COLLECTION BOX - BLUE BOX", "address": {"city": "COVINGTON", "state": "KY", "street": "22 COMMONWEALTH AVE", "postcode": "41018"}}},
{"geometry": {"type": "Point", "coordinates": [-84.5919697636, 39.0203737278]}, "type": "Feature", "properties": {"collection_times": [{"days": "Mon-Fri", "time": "5:00pm"}, {"days": "Sat", "time": "4:00pm"}, {"days": "Sun", "time": "Closed"}], "id": "4101800010", "name": "USPS COLLECTION BOX - BLUE BOX", "address": {"city": "COVINGTON", "state": "KY", "street": "3135 DIXIE HWY", "postcode": "41018"}}},
{"geometry": {"type": "Point", "coordinates": [-84.5919697636, 39.0203737278]}, "type": "Feature", "properties": {"collection_times": [{"days": "Mon-Fri", "time": "5:00pm"}, {"days": "Sat", "time": "4:00pm"}, {"days": "Sun", "time": "Closed"}], "id": "4101800012", "name": "USPS COLLECTION BOX - BLUE BOX", "address": {"city": "COVINGTON", "state": "KY", "street": "3135 DIXIE HWY", "postcode": "41018"}}},
{"geometry": {"type": "Point", "coordinates": [-84.5919697636, 39.0203737278]}, "type": "Feature", "properties": {"collection_times": [{"days": "Mon-Fri", "time": "5:00pm"}, {"days": "Sat", "time": "4:00pm"}, {"days": "Sun", "time": "Closed"}], "id": "4101800014", "name": "USPS COLLECTION BOX - PO LOBBY", "address": {"city": "COVINGTON", "state": "KY", "street": "3135 DIXIE HWY", "postcode": "41018"}}},
{"geometry": {"type": "Point", "coordinates": [-84.5919697636, 39.0203737278]}, "type": "Feature", "properties": {"collection_times": [{"days": "Mon-Fri", "time": "5:00pm"}, {"days": "Sat", "time": "4:00pm"}, {"days": "Sun", "time": "Closed"}], "id": "4101800015", "name": "USPS COLLECTION BOX - PO LOBBY", "address": {"city": "COVINGTON", "state": "KY", "street": "3135 DIXIE HWY", "postcode": "41018"}}},
{"geometry": {"type": "Point", "coordinates": [-84.6212156453, 39.0556776762]}, "type": "Feature", "properties": {"collection_times": [{"days": "Mon-Fri", "time": "3:30pm"}, {"days": "Sat", "time": "10:00am"}, {"days": "Sun", "time": "Closed"}], "id": "4101800025", "name": "USPS COLLECTION BOX - BLUE BOX", "address": {"city": "COVINGTON", "state": "KY", "street": "1600 DOLWICK RD", "postcode": "41018"}}},
{"geometry": {"type": "Point", "coordinates": [-84.6261242348, 39.0504547332]}, "type": "Feature", "properties": {"collection_times": [{"days": "Mon-Fri", "time": "3:30pm"}, {"days": "Sat", "time": "9:30am"}, {"days": "Sun", "time": "Closed"}], "id": "4101800031", "name": "USPS COLLECTION BOX - BLUE BOX", "address": {"city": "COVINGTON", "state": "KY", "street": "4100 OLYMPIC BLVD", "postcode": "41018"}}},
{"geometry": {"type": "Point", "coordinates": [-84.6220772518, 39.0400132124]}, "type": "Feature", "properties": {"collection_times": [{"days": "Mon-Fri", "time": "3:30pm"}, {"days": "Sat", "time": "9:30am"}, {"days": "Sun", "time": "Closed"}], "id": "4101800035", "name": "USPS COLLECTION BOX - BLUE BOX", "address": {"city": "COVINGTON", "state": "KY", "street": "3368 TURFWAY RD", "postcode": "41018"}}},
{"geometry": {"type": "Point", "coordinates": [-84.6021594583, 39.0126132322]}, "type": "Feature", "properties": {"collection_times": [{"days": "Mon-Sat", "time": "9:00am"}, {"days": "Sun", "time": "Closed"}], "id": "4101800036", "name": "USPS COLLECTION BOX - BLUE BOX", "address": {"city": "COVINGTON", "state": "KY", "street": "3960 TURKEYFOOT RD", "postcode": "41018"}}},
{"geometry": {"type": "Point", "coordinates": [-84.6078627556, 39.0232466547]}, "type": "Feature", "properties": {"collection_times": [{"days": "Mon-Fri", "time": "11:00am"}, {"days": "Sat", "time": "10:00am"}, {"days": "Sun", "time": "Closed"}], "id": "4101800038", "name": "USPS COLLECTION BOX - BLUE BOX", "address": {"city": "COVINGTON", "state": "KY", "street": "505 COMMONWEALTH AVE", "postcode": "41018"}}},
{"geometry": {"type": "Point", "coordinates": [-84.6355244002, 39.0386124606]}, "type": "Feature", "properties": {"collection_times": [{"days": "Mon-Fri", "time": "3:30pm"}, {"days": "Sat", "time": "9:30am"}, {"days": "Sun", "time": "Closed"}], "id": "4101800040", "name": "USPS COLLECTION BOX - BLUE BOX", "address": {"city": "COVINGTON", "state": "KY", "street": "1360 DONALDSON RD", "postcode": "41018"}}},
{"geometry": {"type": "Point", "coordinates": [-84.5919697636, 39.0203737278]}, "type": "Feature", "properties": {"collection_times": [{"days": "Mon-Fri", "time": "5:00pm"}, {"days": "Sat", "time": "4:00pm"}, {"days": "Sun", "time": "Closed"}], "id": "4101800041", "name": "USPS COLLECTION BOX - APC", "address": {"city": "COVINGTON", "state": "KY", "street": "3135 DIXIE HWY", "postcode": "41018"}}},
{"geometry": {"type": "Point", "coordinates": [-84.6062362487, 38.7801845565]}, "type": "Feature", "properties": {"collection_times": [{"days": "Mon-Fri", "time": "4:15pm"}, {"days": "Sat", "time": "12:00pm"}, {"days": "Sun", "time": "Closed"}], "id": "4103000001", "name": "USPS COLLECTION BOX - BLUE BOX", "address": {"city": "CRITTENDEN", "state": "KY", "street": "101 S MAIN ST", "postcode": "41030"}}},
{"geometry": {"type": "Point", "coordinates": [-84.6046901213, 38.7858757721]}, "type": "Feature", "properties": {"collection_times": [{"days": "Mon-Fri", "time": "11:00am"}, {"days": "Sat", "time": "10:30am"}, {"days": "Sun", "time": "Closed"}], "id": "4103000002", "name": "USPS COLLECTION BOX - BLUE BOX", "address": {"city": "CRITTENDEN", "state": "KY", "street": "230 VIOLET RD", "postcode": "41030"}}},
{"geometry": {"type": "Point", "coordinates": [-84.6062362487, 38.7801845565]}, "type": "Feature", "properties": {"collection_times": [{"days": "Mon-Fri", "time": "4:15pm"}, {"days": "Sat", "time": "12:00pm"}, {"days": "Sun", "time": "Closed"}], "id": "4103000004", "name": "USPS COLLECTION BOX - PO LOBBY", "address": {"city": "CRITTENDEN", "state": "KY", "street": "101 S MAIN ST", "postcode": "41030"}}},
{"geometry": {"type": "Point", "coordinates": [-84.295283774, 38.384405398]}, "type": "Feature", "properties": {"collection_times": [{"days": "Mon-Sat", "time": "12:00pm"}, {"days": "Sun", "time": "Closed"}], "id": "4103100013", "name": "USPS COLLECTION BOX - BLUE BOX", "address": {"city": "CYNTHIANA", "state": "KY", "street": "304 S CHURCH ST", "postcode": "41031"}}},
{"geometry": {"type": "Point", "coordinates": [-84.2977419016, 38.3886371526]}, "type": "Feature", "properties": {"collection_times": [{"days": "Mon-Sat", "time": "11:00am"}, {"days": "Sun", "time": "Closed"}], "id": "4103100014", "name": "USPS COLLECTION BOX - BLUE BOX", "address": {"city": "CYNTHIANA", "state": "KY", "street": "140 S MAIN ST", "postcode": "41031"}}},
{"geometry": {"type": "Point", "coordinates": [-84.2958813905, 38.3903168388]}, "type": "Feature", "properties": {"collection_times": [{"days": "Mon-Sat", "time": "10:30am"}, {"days": "Sun", "time": "Closed"}], "id": "4103100017", "name": "USPS COLLECTION BOX - BLUE BOX", "address": {"city": "CYNTHIANA", "state": "KY", "street": "101 N WALNUT ST", "postcode": "41031"}}},
{"geometry": {"type": "Point", "coordinates": [-84.2924093799, 38.38745769]}, "type": "Feature", "properties": {"collection_times": [{"days": "Mon-Sat", "time": "12:00pm"}, {"days": "Sun", "time": "Closed"}], "id": "4103100018", "name": "USPS COLLECTION BOX - BLUE BOX", "address": {"city": "CYNTHIANA", "state": "KY", "street": "355 E BRIDGE ST", "postcode": "41031"}}},
{"geometry": {"type": "Point", "coordinates": [-84.3079952511, 38.380672795]}, "type": "Feature", "properties": {"collection_times": [{"days": "Mon-Fri", "time": "4:15pm"}, {"days": "Sat", "time": "3:15pm"}, {"days": "Sun", "time": "Closed"}], "id": "4103100020", "name": "USPS COLLECTION BOX - PO LOBBY", "address": {"city": "CYNTHIANA", "state": "KY", "street": "108 LADISH RD", "postcode": "41031"}}},
{"geometry": {"type": "Point", "coordinates": [-84.3079952511, 38.380672795]}, "type": "Feature", "properties": {"collection_times": [{"days": "Mon-Fri", "time": "4:15pm"}, {"days": "Sat", "time": "3:15pm"}, {"days": "Sun", "time": "Closed"}], "id": "4103100021", "name": "USPS COLLECTION BOX - PO LOBBY", "address": {"city": "CYNTHIANA", "state": "KY", "street": "108 LADISH RD", "postcode": "41031"}}},
{"geometry": {"type": "Point", "coordinates": [-84.3079952511, 38.380672795]}, "type": "Feature", "properties": {"collection_times": [{"days": "Mon-Fri", "time": "4:15pm"}, {"days": "Sat", "time": "3:15pm"}, {"days": "Sun", "time": "Closed"}], "id": "4103100025", "name": "USPS COLLECTION BOX - PO LOBBY", "address": {"city": "CYNTHIANA", "state": "KY", "street": "108 LADISH RD", "postcode": "41031"}}},
{"geometry": {"type": "Point", "coordinates": [-84.3079952511, 38.380672795]}, "type": "Feature", "properties": {"collection_times": [{"days": "Mon-Fri", "time": "4:15pm"}, {"days": "Sat", "time": "3:15pm"}, {"days": "Sun", "time": "Closed"}], "id": "4103100026", "name": "USPS COLLECTION BOX - PO LOBBY", "address": {"city": "CYNTHIANA", "state": "KY", "street": "108 LADISH RD", "postcode": "41031"}}},
{"geometry": {"type": "Point", "coordinates": [-84.3099158098, 38.3985702799]}, "type": "Feature", "properties": {"collection_times": [{"days": "Mon-Sat", "time": "12:30pm"}, {"days": "Sun", "time": "Closed"}], "id": "4103100027", "name": "USPS COLLECTION BOX - BLUE BOX", "address": {"city": "CYNTHIANA", "state": "KY", "street": "1210 KY HIGHWAY 36 E", "postcode": "41031"}}},
{"geometry": {"type": "Point", "coordinates": [-84.3079952511, 38.380672795]}, "type": "Feature", "properties": {"collection_times": [{"days": "Mon-Fri", "time": "4:15pm"}, {"days": "Sat", "time": "3:15pm"}, {"days": "Sun", "time": "Closed"}], "id": "4103100028", "name": "USPS COLLECTION BOX - BLUE BOX", "address": {"city": "CYNTHIANA", "state": "KY", "street": "108 LADISH RD", "postcode": "41031"}}},
{"geometry": {"type": "Point", "coordinates": [-84.3238270647, 38.3972588321]}, "type": "Feature", "properties": {"collection_times": [{"days": "Mon-Sat", "time": "11:30am"}, {"days": "Sun", "time": "Closed"}], "id": "4103100029", "name": "USPS COLLECTION BOX - BLUE BOX", "address": {"city": "CYNTHIANA", "state": "KY", "street": "209 PLUM CT", "postcode": "41031"}}},
{"geometry": {"type": "Point", "coordinates": [-84.3079952511, 38.380672795]}, "type": "Feature", "properties": {"collection_times": [{"days": "Mon-Fri", "time": "4:15pm"}, {"days": "Sat", "time": "3:15pm"}, {"days": "Sun", "time": "Closed"}], "id": "4103100031", "name": "USPS COLLECTION BOX - BLUE BOX", "address": {"city": "CYNTHIANA", "state": "KY", "street": "108 LADISH RD", "postcode": "41031"}}},
{"geometry": {"type": "Point", "coordinates": [-84.4354839042, 38.792497616]}, "type": "Feature", "properties": {"collection_times": [{"days": "Mon-Fri", "time": "3:30pm"}, {"days": "Sat", "time": "10:30am"}, {"days": "Sun", "time": "Closed"}], "id": "4103300000", "name": "USPS COLLECTION BOX - BLUE BOX", "address": {"city": "DEMOSSVILLE", "state": "KY", "street": "7451 KY HIGHWAY 17 N", "postcode": "41033"}}},
{"geometry": {"type": "Point", "coordinates": [-84.4354839042, 38.792497616]}, "type": "Feature", "properties": {"collection_times": [{"days": "Mon-Fri", "time": "3:30pm"}, {"days": "Sat", "time": "10:30am"}, {"days": "Sun", "time": "Closed"}], "id": "4103300001", "name": "USPS COLLECTION BOX - PO LOBBY", "address": {"city": "DEMOSSVILLE", "state": "KY", "street": "7451 KY HIGHWAY 17 N", "postcode": "41033"}}},
{"geometry": {"type": "Point", "coordinates": [-83.8841187678, 38.7561675576]}, "type": "Feature", "properties": {"collection_times": [{"days": "Mon-Fri", "time": "3:30pm"}, {"days": "Sat", "time": "11:30am"}, {"days": "Sun", "time": "Closed"}], "id": "4103400000", "name": "USPS COLLECTION BOX - BLUE BOX", "address": {"city": "DOVER", "state": "KY", "street": "2047 MARKET ST", "postcode": "41034"}}},
{"geometry": {"type": "Point", "coordinates": [-83.8841187678, 38.7561675576]}, "type": "Feature", "properties": {"collection_times": [{"days": "Mon-Fri", "time": "3:30pm"}, {"days": "Sat", "time": "11:30am"}, {"days": "Sun", "time": "Closed"}], "id": "4103400001", "name": "USPS COLLECTION BOX - PO LOBBY", "address": {"city": "DOVER", "state": "KY", "street": "2047 MARKET ST", "postcode": "41034"}}},
{"geometry": {"type": "Point", "coordinates": [-84.5846640197, 38.6782470887]}, "type": "Feature", "properties": {"collection_times": [{"days": "Mon-Fri", "time": "4:30pm"}, {"days": "Sat", "time": "12:00pm"}, {"days": "Sun", "time": "Closed"}], "id": "4103500001", "name": "USPS COLLECTION BOX - BLUE BOX", "address": {"city": "DRY RIDGE", "state": "KY", "street": "80 S MAIN ST", "postcode": "41035"}}},
{"geometry": {"type": "Point", "coordinates": [-84.5846640197, 38.6782470887]}, "type": "Feature", "properties": {"collection_times": [{"days": "Mon-Fri", "time": "4:30pm"}, {"days": "Sat", "time": "12:00pm"}, {"days": "Sun", "time": "Closed"}], "id": "4103500004", "name": "USPS COLLECTION BOX - PO LOBBY", "address": {"city": "DRY RIDGE", "state": "KY", "street": "80 S MAIN ST", "postcode": "41035"}}},
{"geometry": {"type": "Point", "coordinates": [-83.8622402374, 38.4268870535]}, "type": "Feature", "properties": {"collection_times": [{"days": "Mon-Fri", "time": "3:45pm"}, {"days": "Sat", "time": "11:00am"}, {"days": "Sun", "time": "Closed"}], "id": "4103900001", "name": "USPS COLLECTION BOX - BLUE BOX", "address": {"city": "EWING", "state": "KY", "street": "1533 EWING RD", "postcode": "41039"}}},
{"geometry": {"type": "Point", "coordinates": [-83.8622402374, 38.4268870535]}, "type": "Feature", "properties": {"collection_times": [{"days": "Mon-Fri", "time": "3:45pm"}, {"days": "Sat", "time": "11:00am"}, {"days": "Sun", "time": "Closed"}], "id": "4103900002", "name": "USPS COLLECTION BOX - PO LOBBY", "address": {"city": "EWING", "state": "KY", "street": "1533 EWING RD", "postcode": "41039"}}},
{"geometry": {"type": "Point", "coordinates": [-83.8622402374, 38.4268870535]}, "type": "Feature", "properties": {"collection_times": [{"days": "Mon-Fri", "time": "3:45pm"}, {"days": "Sat", "time": "11:00am"}, {"days": "Sun", "time": "Closed"}], "id": "4103900003", "name": "USPS COLLECTION BOX - PO LOBBY", "address": {"city": "EWING", "state": "KY", "street": "1533 EWING RD", "postcode": "41039"}}},
{"geometry": {"type": "Point", "coordinates": [-84.3347947283, 38.6699322146]}, "type": "Feature", "properties": {"collection_times": [{"days": "Mon-Sat", "time": "12:00pm"}, {"days": "Sun", "time": "Closed"}], "id": "4104000005", "name": "USPS COLLECTION BOX - BLUE BOX", "address": {"city": "FALMOUTH", "state": "KY", "street": "410 RIDGEWAY AVE", "postcode": "41040"}}},
{"geometry": {"type": "Point", "coordinates": [-84.3312789666, 38.6771575695]}, "type": "Feature", "properties": {"collection_times": [{"days": "Mon-Fri", "time": "4:30pm"}, {"days": "Sat", "time": "1:30pm"}, {"days": "Sun", "time": "Closed"}], "id": "4104000009", "name": "USPS COLLECTION BOX - BLUE BOX", "address": {"city": "FALMOUTH", "state": "KY", "street": "201 W SHELBY ST", "postcode": "41040"}}},
{"geometry": {"type": "Point", "coordinates": [-84.3434618935, 38.6791606293]}, "type": "Feature", "properties": {"collection_times": [{"days": "Mon-Sat", "time": "10:00am"}, {"days": "Sun", "time": "Closed"}], "id": "4104000010", "name": "USPS COLLECTION BOX - BLUE BOX", "address": {"city": "FALMOUTH", "state": "KY", "street": "1310 W SHELBY ST", "postcode": "41040"}}},
{"geometry": {"type": "Point", "coordinates": [-84.3312789666, 38.6771575695]}, "type": "Feature", "properties": {"collection_times": [{"days": "Mon-Fri", "time": "4:30pm"}, {"days": "Sat", "time": "1:30pm"}, {"days": "Sun", "time": "Closed"}], "id": "4104000011", "name": "USPS COLLECTION BOX - PO LOBBY", "address": {"city": "FALMOUTH", "state": "KY", "street": "201 W SHELBY ST", "postcode": "41040"}}},
{"geometry": {"type": "Point", "coordinates": [-83.7332190987, 38.4216874254]}, "type": "Feature", "properties": {"collection_times": [{"days": "Mon-Fri", "time": "5:00pm"}, {"days": "Sat", "time": "2:30pm"}, {"days": "Sun", "time": "Closed"}], "id": "4104100003", "name": "USPS COLLECTION BOX - BLUE BOX", "address": {"city": "FLEMINGSBURG", "state": "KY", "street": "131 E WATER ST", "postcode": "41041"}}},
{"geometry": {"type": "Point", "coordinates": [-83.7331053731, 38.4227415741]}, "type": "Feature", "properties": {"collection_times": [{"days": "Mon-Sat", "time": "1:30pm"}, {"days": "Sun", "time": "Closed"}], "id": "4104100004", "name": "USPS COLLECTION BOX - BLUE BOX", "address": {"city": "FLEMINGSBURG", "state": "KY", "street": "100 COURT SQ", "postcode": "41041"}}},
{"geometry": {"type": "Point", "coordinates": [-83.734250302, 38.421542395]}, "type": "Feature", "properties": {"collection_times": [{"days": "Mon-Fri", "time": "11:00am"}, {"days": "Sat", "time": "10:00am"}, {"days": "Sun", "time": "Closed"}], "id": "4104100007", "name": "USPS COLLECTION BOX - BLUE BOX", "address": {"city": "FLEMINGSBURG", "state": "KY", "street": "203 S MAIN CROSS ST", "postcode": "41041"}}},
{"geometry": {"type": "Point", "coordinates": [-83.7490186948, 38.4200419944]}, "type": "Feature", "properties": {"collection_times": [{"days": "Mon-Sat", "time": "12:00pm"}, {"days": "Sun", "time": "Closed"}], "id": "4104100008", "name": "USPS COLLECTION BOX - BLUE BOX", "address": {"city": "FLEMINGSBURG", "state": "KY", "street": "730 ELIZAVILLE AVE", "postcode": "41041"}}},
{"geometry": {"type": "Point", "coordinates": [-83.7364717554, 38.4184012574]}, "type": "Feature", "properties": {"collection_times": [{"days": "Mon-Sat", "time": "12:00pm"}, {"days": "Sun", "time": "Closed"}], "id": "4104100009", "name": "USPS COLLECTION BOX - BLUE BOX", "address": {"city": "FLEMINGSBURG", "state": "KY", "street": "114 CLARK ST", "postcode": "41041"}}},
{"geometry": {"type": "Point", "coordinates": [-83.7332190987, 38.4216874254]}, "type": "Feature", "properties": {"collection_times": [{"days": "Mon-Fri", "time": "5:00pm"}, {"days": "Sat", "time": "2:30pm"}, {"days": "Sun", "time": "Closed"}], "id": "4104100014", "name": "USPS COLLECTION BOX - PO LOBBY", "address": {"city": "FLEMINGSBURG", "state": "KY", "street": "131 E WATER ST", "postcode": "41041"}}},
{"geometry": {"type": "Point", "coordinates": [-83.7332190987, 38.4216874254]}, "type": "Feature", "properties": {"collection_times": [{"days": "Mon-Fri", "time": "5:00pm"}, {"days": "Sat", "time": "2:30pm"}, {"days": "Sun", "time": "Closed"}], "id": "4104100015", "name": "USPS COLLECTION BOX - PO LOBBY", "address": {"city": "FLEMINGSBURG", "state": "KY", "street": "131 E WATER ST", "postcode": "41041"}}},
{"geometry": {"type": "Point", "coordinates": [-83.7216397489, 38.4138540483]}, "type": "Feature", "properties": {"collection_times": [{"days": "Mon-Fri", "time": "3:30pm"}, {"days": "Sat", "time": "1:30pm"}, {"days": "Sun", "time": "Closed"}], "id": "4104100017", "name": "USPS COLLECTION BOX - BLUE BOX", "address": {"city": "FLEMINGSBURG", "state": "KY", "street": "101 N MAIN CROSS ST", "postcode": "41041"}}},
{"geometry": {"type": "Point", "coordinates": [-84.6218252819, 39.00479889]}, "type": "Feature", "properties": {"collection_times": [{"days": "Mon-Fri", "time": "5:30pm"}, {"days": "Sat", "time": "4:30pm"}, {"days": "Sun", "time": "Closed"}], "id": "4104200067", "name": "USPS COLLECTION BOX - BLUE BOX", "address": {"city": "FLORENCE", "state": "KY", "street": "7101 TURFWAY RD", "postcode": "41042"}}},
{"geometry": {"type": "Point", "coordinates": [-84.6218252819, 39.00479889]}, "type": "Feature", "properties": {"collection_times": [{"days": "Mon-Fri", "time": "5:30pm"}, {"days": "Sat", "time": "4:30pm"}, {"days": "Sun", "time": "Closed"}], "id": "4104200068", "name": "USPS COLLECTION BOX - BLUE BOX", "address": {"city": "FLORENCE", "state": "KY", "street": "7101 TURFWAY RD", "postcode": "41042"}}},
{"geometry": {"type": "Point", "coordinates": [-84.6217282793, 39.0255231481]}, "type": "Feature", "properties": {"collection_times": [{"days": "Mon-Sat", "time": "9:30am"}, {"days": "Sun", "time": "Closed"}], "id": "4104200069", "name": "USPS COLLECTION BOX - BLUE BOX", "address": {"city": "FLORENCE", "state": "KY", "street": "4600 HOUSTON RD", "postcode": "41042"}}},
{"geometry": {"type": "Point", "coordinates": [-84.6540159613, 38.988223269]}, "type": "Feature", "properties": {"collection_times": [{"days": "Mon-Sat", "time": "10:00am"}, {"days": "Sun", "time": "Closed"}], "id": "4104200070", "name": "USPS COLLECTION BOX - BLUE BOX", "address": {"city": "FLORENCE", "state": "KY", "street": "8000 PREAKNESS DR", "postcode": "41042"}}},
{"geometry": {"type": "Point", "coordinates": [-84.6349655901, 38.9864464646]}, "type": "Feature", "properties": {"collection_times": [{"days": "Mon-Sat", "time": "12:00pm"}, {"days": "Sun", "time": "Closed"}], "id": "4104200071", "name": "USPS COLLECTION BOX - BLUE BOX", "address": {"city": "FLORENCE", "state": "KY", "street": "7576 HILLCREST DR", "postcode": "41042"}}},
{"geometry": {"type": "Point", "coordinates": [-84.6476622887, 38.9831329966]}, "type": "Feature", "properties": {"collection_times": [{"days": "Mon-Sat", "time": "9:30am"}, {"days": "Sun", "time": "Closed"}], "id": "4104200072", "name": "USPS COLLECTION BOX - BLUE BOX", "address": {"city": "FLORENCE", "state": "KY", "street": "8134 DIANE DR", "postcode": "41042"}}},
{"geometry": {"type": "Point", "coordinates": [-84.6488585873, 38.9874396781]}, "type": "Feature", "properties": {"collection_times": [{"days": "Mon-Sat", "time": "10:00am"}, {"days": "Sun", "time": "Closed"}], "id": "4104200074", "name": "USPS COLLECTION BOX - BLUE BOX", "address": {"city": "FLORENCE", "state": "KY", "street": "8459 U S HIGHWAY 42", "postcode": "41042"}}},
{"geometry": {"type": "Point", "coordinates": [-84.640187171, 38.9933880678]}, "type": "Feature", "properties": {"collection_times": [{"days": "Mon-Fri", "time": "2:00pm"}, {"days": "Sat", "time": "10:00am"}, {"days": "Sun", "time": "Closed"}], "id": "4104200080", "name": "USPS COLLECTION BOX - BLUE BOX", "address": {"city": "FLORENCE", "state": "KY", "street": "7711 EWING BLVD", "postcode": "41042"}}},
{"geometry": {"type": "Point", "coordinates": [-84.6213953449, 38.9523706451]}, "type": "Feature", "properties": {"collection_times": [{"days": "Mon-Sat", "time": "10:00am"}, {"days": "Sun", "time": "Closed"}], "id": "4104200085", "name": "USPS COLLECTION BOX - BLUE BOX", "address": {"city": "FLORENCE", "state": "KY", "street": "100 WHITE PINE CIR", "postcode": "41042"}}},
{"geometry": {"type": "Point", "coordinates": [-84.6238256655, 38.945616636]}, "type": "Feature", "properties": {"collection_times": [{"days": "Mon-Sat", "time": "10:00am"}, {"days": "Sun", "time": "Closed"}], "id": "4104200086", "name": "USPS COLLECTION BOX - BLUE BOX", "address": {"city": "FLORENCE", "state": "KY", "street": "10367 GARDEN DR", "postcode": "41042"}}},
{"geometry": {"type": "Point", "coordinates": [-84.6240291345, 38.9550909543]}, "type": "Feature", "properties": {"collection_times": [{"days": "Mon-Sat", "time": "10:00am"}, {"days": "Sun", "time": "Closed"}], "id": "4104200087", "name": "USPS COLLECTION BOX - BLUE BOX", "address": {"city": "FLORENCE", "state": "KY", "street": "150 BEESON DR", "postcode": "41042"}}},
{"geometry": {"type": "Point", "coordinates": [-84.6533360274, 38.9985391194]}, "type": "Feature", "properties": {"collection_times": [{"days": "Mon-Sat", "time": "10:15am"}, {"days": "Sun", "time": "Closed"}], "id": "4104200090", "name": "USPS COLLECTION BOX - BLUE BOX", "address": {"city": "FLORENCE", "state": "KY", "street": "1110 FLORENCE MALL", "postcode": "41042"}}},
{"geometry": {"type": "Point", "coordinates": [-84.6500838057, 38.9832903301]}, "type": "Feature", "properties": {"collection_times": [{"days": "Mon-Fri", "time": "10:00am"}, {"days": "Sat", "time": "9:30am"}, {"days": "Sun", "time": "Closed"}], "id": "4104200091", "name": "USPS COLLECTION BOX - BLUE BOX", "address": {"city": "FLORENCE", "state": "KY", "street": "8172 MALL RD", "postcode": "41042"}}},
{"geometry": {"type": "Point", "coordinates": [-84.6497866835, 38.9986056052]}, "type": "Feature", "properties": {"collection_times": [{"days": "Mon-Sat", "time": "10:15am"}, {"days": "Sun", "time": "Closed"}], "id": "4104200092", "name": "USPS COLLECTION BOX - BLUE BOX", "address": {"city": "FLORENCE", "state": "KY", "street": "2164 FLORENCE MALL", "postcode": "41042"}}},
{"geometry": {"type": "Point", "coordinates": [-84.653649244, 38.995227569]}, "type": "Feature", "properties": {"collection_times": [{"days": "Mon-Fri", "time": "1:00pm"}, {"days": "Sat", "time": "11:00am"}, {"days": "Sun", "time": "Closed"}], "id": "4104200095", "name": "USPS COLLECTION BOX - BLUE BOX", "address": {"city": "FLORENCE", "state": "KY", "street": "7731 MALL RD", "postcode": "41042"}}},
{"geometry": {"type": "Point", "coordinates": [-84.6546736865, 39.0049680532]}, "type": "Feature", "properties": {"collection_times": [{"days": "Mon-Sat", "time": "10:00am"}, {"days": "Sun", "time": "Closed"}], "id": "4104200099", "name": "USPS COLLECTION BOX - BLUE BOX", "address": {"city": "FLORENCE", "state": "KY", "street": "8100 BURLINGTON PIKE", "postcode": "41042"}}},
{"geometry": {"type": "Point", "coordinates": [-84.658404739, 39.0154999368]}, "type": "Feature", "properties": {"collection_times": [{"days": "Mon-Sat", "time": "10:00am"}, {"days": "Sun", "time": "Closed"}], "id": "4104200101", "name": "USPS COLLECTION BOX - BLUE BOX", "address": {"city": "FLORENCE", "state": "KY", "street": "870 SHARON DR", "postcode": "41042"}}},
{"geometry": {"type": "Point", "coordinates": [-84.6332347927, 39.0172289248]}, "type": "Feature", "properties": {"collection_times": [{"days": "Mon-Sat", "time": "9:30am"}, {"days": "Sun", "time": "Closed"}], "id": "4104200104", "name": "USPS COLLECTION BOX - BLUE BOX", "address": {"city": "FLORENCE", "state": "KY", "street": "4900 HOUSTON RD", "postcode": "41042"}}},
{"geometry": {"type": "Point", "coordinates": [-84.630683017, 39.0133785879]}, "type": "Feature", "properties": {"collection_times": [{"days": "Mon-Fri", "time": "1:30pm"}, {"days": "Sat", "time": "9:30am"}, {"days": "Sun", "time": "Closed"}], "id": "4104200105", "name": "USPS COLLECTION BOX - BLUE BOX", "address": {"city": "FLORENCE", "state": "KY", "street": "7300 TURFWAY RD", "postcode": "41042"}}},
{"geometry": {"type": "Point", "coordinates": [-84.6376307967, 38.959857096]}, "type": "Feature", "properties": {"collection_times": [{"days": "Mon-Sat", "time": "10:00am"}, {"days": "Sun", "time": "Closed"}], "id": "4104200108", "name": "USPS COLLECTION BOX - BLUE BOX", "address": {"city": "FLORENCE", "state": "KY", "street": "550 MOUNT ZION RD", "postcode": "41042"}}},
{"geometry": {"type": "Point", "coordinates": [-84.6407656379, 39.0176434585]}, "type": "Feature", "properties": {"collection_times": [{"days": "Mon-Sat", "time": "10:00am"}, {"days": "Sun", "time": "Closed"}], "id": "4104200110", "name": "USPS COLLECTION BOX - BLUE BOX", "address": {"city": "FLORENCE", "state": "KY", "street": "11 SPIRAL DR", "postcode": "41042"}}},
{"geometry": {"type": "Point", "coordinates": [-84.6384245621, 39.0006904735]}, "type": "Feature", "properties": {"collection_times": [{"days": "Mon-Sat", "time": "10:00am"}, {"days": "Sun", "time": "Closed"}], "id": "4104200111", "name": "USPS COLLECTION BOX - BLUE BOX", "address": {"city": "FLORENCE", "state": "KY", "street": "7500 BURLINGTON PIKE", "postcode": "41042"}}},
{"geometry": {"type": "Point", "coordinates": [-84.6597568611, 38.9971936468]}, "type": "Feature", "properties": {"collection_times": [{"days": "Mon-Sat", "time": "9:30am"}, {"days": "Sun", "time": "Closed"}], "id": "4104200120", "name": "USPS COLLECTION BOX - BLUE BOX", "address": {"city": "FLORENCE", "state": "KY", "street": "100 WINDRIDGE LN", "postcode": "41042"}}},
{"geometry": {"type": "Point", "coordinates": [-84.6237795301, 39.0104096644]}, "type": "Feature", "properties": {"collection_times": [{"days": "Mon-Sat", "time": "10:00am"}, {"days": "Sun", "time": "Closed"}], "id": "4104200124", "name": "USPS COLLECTION BOX - BLUE BOX", "address": {"city": "FLORENCE", "state": "KY", "street": "6928 OAKWOOD DR", "postcode": "41042"}}},
{"geometry": {"type": "Point", "coordinates": [-84.6218252819, 39.00479889]}, "type": "Feature", "properties": {"collection_times": [{"days": "Mon-Fri", "time": "5:30pm"}, {"days": "Sat", "time": "4:30pm"}, {"days": "Sun", "time": "Closed"}], "id": "4104200125", "name": "USPS COLLECTION BOX - PO LOBBY", "address": {"city": "FLORENCE", "state": "KY", "street": "7101 TURFWAY RD", "postcode": "41042"}}},
{"geometry": {"type": "Point", "coordinates": [-84.63542931, 39.0077917762]}, "type": "Feature", "properties": {"collection_times": [{"days": "Mon-Fri", "time": "3:00pm"}, {"days": "Sat", "time": "9:30am"}, {"days": "Sun", "time": "Closed"}], "id": "4104200126", "name": "USPS COLLECTION BOX - BLUE BOX", "address": {"city": "FLORENCE", "state": "KY", "street": "71 CAVALIER BLVD", "postcode": "41042"}}},
{"geometry": {"type": "Point", "coordinates": [-84.6427565578, 38.997995693]}, "type": "Feature", "properties": {"collection_times": [{"days": "Mon-Fri", "time": "2:00pm"}, {"days": "Sat", "time": "9:30am"}, {"days": "Sun", "time": "Closed"}], "id": "4104200127", "name": "USPS COLLECTION BOX - BLUE BOX", "address": {"city": "FLORENCE", "state": "KY", "street": "8100 EWING BLVD", "postcode": "41042"}}},
{"geometry": {"type": "Point", "coordinates": [-84.6308723311, 39.0135508106]}, "type": "Feature", "properties": {"collection_times": [{"days": "Mon-Fri", "time": "1:30pm"}, {"days": "Sat", "time": "9:30am"}, {"days": "Sun", "time": "Closed"}], "id": "4104200131", "name": "USPS COLLECTION BOX - BLUE BOX", "address": {"city": "FLORENCE", "state": "KY", "street": "7310 TURFWAY RD", "postcode": "41042"}}},
{"geometry": {"type": "Point", "coordinates": [-84.6488452476, 39.0087925595]}, "type": "Feature", "properties": {"collection_times": [{"days": "Mon-Sat", "time": "10:00am"}, {"days": "Sun", "time": "Closed"}], "id": "4104200135", "name": "USPS COLLECTION BOX - BLUE BOX", "address": {"city": "FLORENCE", "state": "KY", "street": "7000 HOUSTON RD", "postcode": "41042"}}},
{"geometry": {"type": "Point", "coordinates": [-84.6218252819, 39.00479889]}, "type": "Feature", "properties": {"collection_times": [{"days": "Mon-Fri", "time": "5:30pm"}, {"days": "Sat", "time": "4:30pm"}, {"days": "Sun", "time": "Closed"}], "id": "4104200137", "name": "USPS COLLECTION BOX - APC", "address": {"city": "FLORENCE", "state": "KY", "street": "7101 TURFWAY RD", "postcode": "41042"}}},
{"geometry": {"type": "Point", "coordinates": [-84.6488585873, 38.9874396781]}, "type": "Feature", "properties": {"collection_times": [{"days": "Mon-Sat", "time": "10:00am"}, {"days": "Sun", "time": "Closed"}], "id": "4104200138", "name": "USPS COLLECTION BOX - BLUE BOX", "address": {"city": "FLORENCE", "state": "KY", "street": "6900 HOUSTON RD", "postcode": "41042"}}},
{"geometry": {"type": "Point", "coordinates": [-84.2135419718, 38.8001104806]}, "type": "Feature", "properties": {"collection_times": [{"days": "Mon-Fri", "time": "4:00pm"}, {"days": "Sat", "time": "10:00am"}, {"days": "Sun", "time": "Closed"}], "id": "4104300000", "name": "USPS COLLECTION BOX - PO LOBBY", "address": {"city": "FOSTER", "state": "KY", "street": "138 3RD ST", "postcode": "41043"}}},
{"geometry": {"type": "Point", "coordinates": [-84.2135419718, 38.8001104806]}, "type": "Feature", "properties": {"collection_times": [{"days": "Mon-Fri", "time": "4:00pm"}, {"days": "Sat", "time": "10:00am"}, {"days": "Sun", "time": "Closed"}], "id": "4104300001", "name": "USPS COLLECTION BOX - BLUE BOX", "address": {"city": "FOSTER", "state": "KY", "street": "138 3RD ST", "postcode": "41043"}}},
{"geometry": {"type": "Point", "coordinates": [-83.9612753637, 38.6210916834]}, "type": "Feature", "properties": {"collection_times": [{"days": "Mon-Fri", "time": "3:30pm"}, {"days": "Sat", "time": "11:00am"}, {"days": "Sun", "time": "Closed"}], "id": "4104400000", "name": "USPS COLLECTION BOX - BLUE BOX", "address": {"city": "GERMANTOWN", "state": "KY", "street": "6362 BROOKSVILLE GERMANTOWN RD", "postcode": "41044"}}},
{"geometry": {"type": "Point", "coordinates": [-83.9612753637, 38.6210916834]}, "type": "Feature", "properties": {"collection_times": [{"days": "Mon-Fri", "time": "3:30pm"}, {"days": "Sat", "time": "11:00am"}, {"days": "Sun", "time": "Closed"}], "id": "4104400002", "name": "USPS COLLECTION BOX - PO LOBBY", "address": {"city": "GERMANTOWN", "state": "KY", "street": "6362 BROOKSVILLE GERMANTOWN RD", "postcode": "41044"}}},
{"geometry": {"type": "Point", "coordinates": [-85.0552761571, 38.7333855394]}, "type": "Feature", "properties": {"collection_times": [{"days": "Mon-Fri", "time": "12:00pm"}, {"days": "Sat", "time": "11:45am"}, {"days": "Sun", "time": "Closed"}], "id": "4104500000", "name": "USPS COLLECTION BOX - BLUE BOX", "address": {"city": "GHENT", "state": "KY", "street": "510 MAIN ST", "postcode": "41045"}}},
{"geometry": {"type": "Point", "coordinates": [-84.8231884051, 38.7147672205]}, "type": "Feature", "properties": {"collection_times": [{"days": "Mon-Fri", "time": "3:45pm"}, {"days": "Sat", "time": "11:00am"}, {"days": "Sun", "time": "Closed"}], "id": "4104600001", "name": "USPS COLLECTION BOX - BLUE BOX", "address": {"city": "GLENCOE", "state": "KY", "street": "103 N MAIN ST", "postcode": "41046"}}},
{"geometry": {"type": "Point", "coordinates": [-84.8004208286, 38.6953873733]}, "type": "Feature", "properties": {"collection_times": [{"days": "Mon-Sat", "time": "1:15pm"}, {"days": "Sun", "time": "Closed"}], "id": "4104600002", "name": "USPS COLLECTION BOX - BLUE BOX", "address": {"city": "GLENCOE", "state": "KY", "street": "3040 US HIGHWAY 127 N", "postcode": "41046"}}},
{"geometry": {"type": "Point", "coordinates": [-84.8004208286, 38.6953873733]}, "type": "Feature", "properties": {"collection_times": [{"days": "Mon-Sat", "time": "1:15pm"}, {"days": "Sun", "time": "Closed"}], "id": "4104600003", "name": "USPS COLLECTION BOX - BLUE BOX", "address": {"city": "GLENCOE", "state": "KY", "street": "3345 US HIGHWAY 127 N", "postcode": "41046"}}},
{"geometry": {"type": "Point", "coordinates": [-84.8231884051, 38.7147672205]}, "type": "Feature", "properties": {"collection_times": [{"days": "Mon-Fri", "time": "2:00pm"}, {"days": "Sat", "time": "11:00am"}, {"days": "Sun", "time": "Closed"}], "id": "4104600004", "name": "USPS COLLECTION BOX - PO LOBBY", "address": {"city": "GLENCOE", "state": "KY", "street": "103 N MAIN ST", "postcode": "41046"}}},
{"geometry": {"type": "Point", "coordinates": [-84.6916801918, 39.0668722958]}, "type": "Feature", "properties": {"collection_times": [{"days": "Mon-Fri", "time": "4:00pm"}, {"days": "Sat", "time": "12:30pm"}, {"days": "Sun", "time": "Closed"}], "id": "4104800001", "name": "USPS COLLECTION BOX - BLUE BOX", "address": {"city": "HEBRON", "state": "KY", "street": "1684 PETERSBURG RD", "postcode": "41048"}}},
{"geometry": {"type": "Point", "coordinates": [-84.6916801918, 39.0668722958]}, "type": "Feature", "properties": {"collection_times": [{"days": "Mon-Fri", "time": "4:00pm"}, {"days": "Sat", "time": "12:30pm"}, {"days": "Sun", "time": "Closed"}], "id": "4104800002", "name": "USPS COLLECTION BOX - BLUE BOX", "address": {"city": "HEBRON", "state": "KY", "street": "1684 PETERSBURG RD", "postcode": "41048"}}},
{"geometry": {"type": "Point", "coordinates": [-84.7238389312, 39.1038137384]}, "type": "Feature", "properties": {"collection_times": [{"days": "Mon-Sat", "time": "10:00am"}, {"days": "Sun", "time": "Closed"}], "id": "4104800005", "name": "USPS COLLECTION BOX - BLUE BOX", "address": {"city": "HEBRON", "state": "KY", "street": "2032 TREETOP LN", "postcode": "41048"}}},
{"geometry": {"type": "Point", "coordinates": [-84.6916801918, 39.0668722958]}, "type": "Feature", "properties": {"collection_times": [{"days": "Mon-Fri", "time": "4:15pm"}, {"days": "Sat", "time": "12:30pm"}, {"days": "Sun", "time": "Closed"}], "id": "4104800011", "name": "USPS COLLECTION BOX - PO LOBBY", "address": {"city": "HEBRON", "state": "KY", "street": "1684 PETERSBURG RD", "postcode": "41048"}}},
{"geometry": {"type": "Point", "coordinates": [-84.7041320178, 39.0748087675]}, "type": "Feature", "properties": {"collection_times": [{"days": "Mon-Sat", "time": "10:00am"}, {"days": "Sun", "time": "Closed"}], "id": "4104800013", "name": "USPS COLLECTION BOX - BLUE BOX", "address": {"city": "HEBRON", "state": "KY", "street": "2652 N BEND RD", "postcode": "41048"}}},
{"geometry": {"type": "Point", "coordinates": [-83.6762388953, 38.2839124051]}, "type": "Feature", "properties": {"collection_times": [{"days": "Mon-Fri", "time": "4:00pm"}, {"days": "Sat", "time": "11:15am"}, {"days": "Sun", "time": "Closed"}], "id": "4104900000", "name": "USPS COLLECTION BOX - BLUE BOX", "address": {"city": "HILLSBORO", "state": "KY", "street": "5 SOUDER DR", "postcode": "41049"}}},
{"geometry": {"type": "Point", "coordinates": [-84.5414100974, 38.9533614683]}, "type": "Feature", "properties": {"collection_times": [{"days": "Mon-Fri", "time": "4:30pm"}, {"days": "Sat", "time": "12:00pm"}, {"days": "Sun", "time": "Closed"}], "id": "4105100001", "name": "USPS COLLECTION BOX - BLUE BOX", "address": {"city": "INDEPENDENCE", "state": "KY", "street": "5106 MADISON PIKE", "postcode": "41051"}}},
{"geometry": {"type": "Point", "coordinates": [-84.5089745125, 38.9444117021]}, "type": "Feature", "properties": {"collection_times": [{"days": "Mon-Sat", "time": "11:00am"}, {"days": "Sun", "time": "Closed"}], "id": "4105100003", "name": "USPS COLLECTION BOX - BLUE BOX", "address": {"city": "INDEPENDENCE", "state": "KY", "street": "6435 TAYLOR MILL RD", "postcode": "41051"}}},
{"geometry": {"type": "Point", "coordinates": [-84.6159637202, 38.9556836168]}, "type": "Feature", "properties": {"collection_times": [{"days": "Mon-Sat", "time": "11:00am"}, {"days": "Sun", "time": "Closed"}], "id": "4105100014", "name": "USPS COLLECTION BOX - BLUE BOX", "address": {"city": "INDEPENDENCE", "state": "KY", "street": "10060 TOEBBEN DR", "postcode": "41051"}}},
{"geometry": {"type": "Point", "coordinates": [-84.5414100974, 38.9533614683]}, "type": "Feature", "properties": {"collection_times": [{"days": "Mon-Fri", "time": "4:30pm"}, {"days": "Sat", "time": "12:00pm"}, {"days": "Sun", "time": "Closed"}], "id": "4105100016", "name": "USPS COLLECTION BOX - PO LOBBY", "address": {"city": "INDEPENDENCE", "state": "KY", "street": "5106 MADISON PIKE", "postcode": "41051"}}},
{"geometry": {"type": "Point", "coordinates": [-84.5461866872, 38.932153556]}, "type": "Feature", "properties": {"collection_times": [{"days": "Mon-Sat", "time": "10:00am"}, {"days": "Sun", "time": "Closed"}], "id": "4105100018", "name": "USPS COLLECTION BOX - BLUE BOX", "address": {"city": "INDEPENDENCE", "state": "KY", "street": "1812 DECLARATION DR", "postcode": "41051"}}},
{"geometry": {"type": "Point", "coordinates": [-84.7744871043, 38.6398397321]}, "type": "Feature", "properties": {"collection_times": [{"days": "Mon-Sat", "time": "10:00am"}, {"days": "Sun", "time": "Closed"}], "id": "4105200000", "name": "USPS COLLECTION BOX - BLUE BOX", "address": {"city": "JONESVILLE", "state": "KY", "street": "14780 JONESVILLE RD", "postcode": "41052"}}},
{"geometry": {"type": "Point", "coordinates": [-84.7744871043, 38.6398397321]}, "type": "Feature", "properties": {"collection_times": [{"days": "Mon-Sat", "time": "10:00am"}, {"days": "Sun", "time": "Closed"}], "id": "4105200001", "name": "USPS COLLECTION BOX - PO LOBBY", "address": {"city": "JONESVILLE", "state": "KY", "street": "14780 JONESVILLE RD", "postcode": "41052"}}},
{"geometry": {"type": "Point", "coordinates": [-83.8475311388, 38.5090068844]}, "type": "Feature", "properties": {"collection_times": [{"days": "Mon-Fri", "time": "3:45pm"}, {"days": "Sat", "time": "10:45am"}, {"days": "Sun", "time": "Closed"}], "id": "4105500001", "name": "USPS COLLECTION BOX - BLUE BOX", "address": {"city": "MAYS LICK", "state": "KY", "street": "5014 MAIN ST", "postcode": "41055"}}},
{"geometry": {"type": "Point", "coordinates": [-83.8475311388, 38.5090068844]}, "type": "Feature", "properties": {"collection_times": [{"days": "Mon-Fri", "time": "3:45pm"}, {"days": "Sat", "time": "10:45am"}, {"days": "Sun", "time": "Closed"}], "id": "4105500002", "name": "USPS COLLECTION BOX - PO LOBBY", "address": {"city": "MAYS LICK", "state": "KY", "street": "5014 MAIN ST", "postcode": "41055"}}},
{"geometry": {"type": "Point", "coordinates": [-83.7620105749, 38.6453185881]}, "type": "Feature", "properties": {"collection_times": [{"days": "Mon-Fri", "time": "5:00pm"}, {"days": "Sat", "time": "3:00pm"}, {"days": "Sun", "time": "Closed"}], "id": "4105600000", "name": "USPS COLLECTION BOX - BLUE BOX", "address": {"city": "MAYSVILLE", "state": "KY", "street": "131 E 3RD ST", "postcode": "41056"}}},
{"geometry": {"type": "Point", "coordinates": [-83.7612744605, 38.6451685415]}, "type": "Feature", "properties": {"collection_times": [{"days": "Mon-Fri", "time": "5:00pm"}, {"days": "Sat", "time": "3:00pm"}, {"days": "Sun", "time": "Closed"}], "id": "4105600002", "name": "USPS COLLECTION BOX - BLUE BOX", "address": {"city": "MAYSVILLE", "state": "KY", "street": "210 GOVERNMENT ST", "postcode": "41056"}}},
{"geometry": {"type": "Point", "coordinates": [-83.7612744605, 38.6451685415]}, "type": "Feature", "properties": {"collection_times": [{"days": "Mon-Fri", "time": "5:00pm"}, {"days": "Sat", "time": "3:00pm"}, {"days": "Sun", "time": "Closed"}], "id": "4105600003", "name": "USPS COLLECTION BOX - BLUE BOX", "address": {"city": "MAYSVILLE", "state": "KY", "street": "210 GOVERNMENT ST", "postcode": "41056"}}},
{"geometry": {"type": "Point", "coordinates": [-83.7512757015, 38.642200093]}, "type": "Feature", "properties": {"collection_times": [{"days": "Mon-Sat", "time": "9:30am"}, {"days": "Sun", "time": "Closed"}], "id": "4105600005", "name": "USPS COLLECTION BOX - BLUE BOX", "address": {"city": "MAYSVILLE", "state": "KY", "street": "625 FOREST AVE", "postcode": "41056"}}},
{"geometry": {"type": "Point", "coordinates": [-83.7437882166, 38.637628408]}, "type": "Feature", "properties": {"collection_times": [{"days": "Mon-Sat", "time": "9:00am"}, {"days": "Sun", "time": "Closed"}], "id": "4105600008", "name": "USPS COLLECTION BOX - BLUE BOX", "address": {"city": "MAYSVILLE", "state": "KY", "street": "600 CENTRAL AVE", "postcode": "41056"}}},
{"geometry": {"type": "Point", "coordinates": [-83.7424979541, 38.6408686019]}, "type": "Feature", "properties": {"collection_times": [{"days": "Mon-Sat", "time": "10:00am"}, {"days": "Sun", "time": "Closed"}], "id": "4105600009", "name": "USPS COLLECTION BOX - BLUE BOX", "address": {"city": "MAYSVILLE", "state": "KY", "street": "1200 FOREST AVE", "postcode": "41056"}}},
{"geometry": {"type": "Point", "coordinates": [-83.7508151938, 38.6444226242]}, "type": "Feature", "properties": {"collection_times": [{"days": "Mon-Sat", "time": "12:00pm"}, {"days": "Sun", "time": "Closed"}], "id": "4105600012", "name": "USPS COLLECTION BOX - BLUE BOX", "address": {"city": "MAYSVILLE", "state": "KY", "street": "721 E 2ND ST", "postcode": "41056"}}},
{"geometry": {"type": "Point", "coordinates": [-83.7644796123, 38.6478940544]}, "type": "Feature", "properties": {"collection_times": [{"days": "Mon-Sat", "time": "9:00am"}, {"days": "Sun", "time": "Closed"}], "id": "4105600014", "name": "USPS COLLECTION BOX - BLUE BOX", "address": {"city": "MAYSVILLE", "state": "KY", "street": "1 W MC DONALD PKWY", "postcode": "41056"}}},
{"geometry": {"type": "Point", "coordinates": [-83.7645656818, 38.6477292004]}, "type": "Feature", "properties": {"collection_times": [{"days": "Mon-Fri", "time": "4:00pm"}, {"days": "Sat", "time": "12:00pm"}, {"days": "Sun", "time": "Closed"}], "id": "4105600015", "name": "USPS COLLECTION BOX - BLUE BOX", "address": {"city": "MAYSVILLE", "state": "KY", "street": "1 W 2ND ST", "postcode": "41056"}}},
{"geometry": {"type": "Point", "coordinates": [-83.7645656818, 38.6477292004]}, "type": "Feature", "properties": {"collection_times": [{"days": "Mon-Fri", "time": "4:00pm"}, {"days": "Sat", "time": "12:00pm"}, {"days": "Sun", "time": "Closed"}], "id": "4105600016", "name": "USPS COLLECTION BOX - BLUE BOX", "address": {"city": "MAYSVILLE", "state": "KY", "street": "1 W 2ND ST", "postcode": "41056"}}},
{"geometry": {"type": "Point", "coordinates": [-83.7653322054, 38.6480706849]}, "type": "Feature", "properties": {"collection_times": [{"days": "Mon-Fri", "time": "4:00pm"}, {"days": "Sat", "time": "12:00pm"}, {"days": "Sun", "time": "Closed"}], "id": "4105600017", "name": "USPS COLLECTION BOX - BLUE BOX", "address": {"city": "MAYSVILLE", "state": "KY", "street": "53 W 2ND ST", "postcode": "41056"}}},
{"geometry": {"type": "Point", "coordinates": [-83.7653322054, 38.6480706849]}, "type": "Feature", "properties": {"collection_times": [{"days": "Mon-Fri", "time": "4:00pm"}, {"days": "Sat", "time": "12:00pm"}, {"days": "Sun", "time": "Closed"}], "id": "4105600018", "name": "USPS COLLECTION BOX - BLUE BOX", "address": {"city": "MAYSVILLE", "state": "KY", "street": "53 W 2ND ST", "postcode": "41056"}}},
{"geometry": {"type": "Point", "coordinates": [-83.7696890676, 38.6501925114]}, "type": "Feature", "properties": {"collection_times": [{"days": "Mon-Sat", "time": "12:00pm"}, {"days": "Sun", "time": "Closed"}], "id": "4105600020", "name": "USPS COLLECTION BOX - BLUE BOX", "address": {"city": "MAYSVILLE", "state": "KY", "street": "347 W 2ND ST", "postcode": "41056"}}},
{"geometry": {"type": "Point", "coordinates": [-83.7665363532, 38.6474969038]}, "type": "Feature", "properties": {"collection_times": [{"days": "Mon-Fri", "time": "4:00pm"}, {"days": "Sat", "time": "12:00pm"}, {"days": "Sun", "time": "Closed"}], "id": "4105600022", "name": "USPS COLLECTION BOX - BLUE BOX", "address": {"city": "MAYSVILLE", "state": "KY", "street": "100 W 3RD ST", "postcode": "41056"}}},
{"geometry": {"type": "Point", "coordinates": [-83.7665363532, 38.6474969038]}, "type": "Feature", "properties": {"collection_times": [{"days": "Mon-Fri", "time": "4:00pm"}, {"days": "Sat", "time": "12:00pm"}, {"days": "Sun", "time": "Closed"}], "id": "4105600023", "name": "USPS COLLECTION BOX - BLUE BOX", "address": {"city": "MAYSVILLE", "state": "KY", "street": "100 W 3RD ST", "postcode": "41056"}}},
{"geometry": {"type": "Point", "coordinates": [-83.7651707767, 38.6467903343]}, "type": "Feature", "properties": {"collection_times": [{"days": "Mon-Sat", "time": "9:00am"}, {"days": "Sun", "time": "Closed"}], "id": "4105600025", "name": "USPS COLLECTION BOX - BLUE BOX", "address": {"city": "MAYSVILLE", "state": "KY", "street": "1 E 3RD ST", "postcode": "41056"}}},
{"geometry": {"type": "Point", "coordinates": [-83.8067879278, 38.6393114774]}, "type": "Feature", "properties": {"collection_times": [{"days": "Mon-Fri", "time": "3:30pm"}, {"days": "Sat", "time": "12:00pm"}, {"days": "Sun", "time": "Closed"}], "id": "4105600030", "name": "USPS COLLECTION BOX - BLUE BOX", "address": {"city": "MAYSVILLE", "state": "KY", "street": "989 MEDICAL PARK DR", "postcode": "41056"}}},
{"geometry": {"type": "Point", "coordinates": [-83.7978368472, 38.6300988494]}, "type": "Feature", "properties": {"collection_times": [{"days": "Mon-Fri", "time": "3:30pm"}, {"days": "Sat", "time": "12:00pm"}, {"days": "Sun", "time": "Closed"}], "id": "4105600032", "name": "USPS COLLECTION BOX - BLUE BOX", "address": {"city": "MAYSVILLE", "state": "KY", "street": "1567 US 68", "postcode": "41056"}}},
{"geometry": {"type": "Point", "coordinates": [-83.7923599206, 38.627419074]}, "type": "Feature", "properties": {"collection_times": [{"days": "Mon-Fri", "time": "3:30pm"}, {"days": "Sat", "time": "12:00pm"}, {"days": "Sun", "time": "Closed"}], "id": "4105600033", "name": "USPS COLLECTION BOX - BLUE BOX", "address": {"city": "MAYSVILLE", "state": "KY", "street": "413 MARKET SQUARE DR", "postcode": "41056"}}},
{"geometry": {"type": "Point", "coordinates": [-83.7860442789, 38.6385674431]}, "type": "Feature", "properties": {"collection_times": [{"days": "Mon-Fri", "time": "3:30pm"}, {"days": "Sat", "time": "12:00pm"}, {"days": "Sun", "time": "Closed"}], "id": "4105600034", "name": "USPS COLLECTION BOX - BLUE BOX", "address": {"city": "MAYSVILLE", "state": "KY", "street": "1134 US 68", "postcode": "41056"}}},
{"geometry": {"type": "Point", "coordinates": [-83.7858608999, 38.6217388795]}, "type": "Feature", "properties": {"collection_times": [{"days": "Mon-Fri", "time": "3:30pm"}, {"days": "Sat", "time": "12:00pm"}, {"days": "Sun", "time": "Closed"}], "id": "4105600036", "name": "USPS COLLECTION BOX - BLUE BOX", "address": {"city": "MAYSVILLE", "state": "KY", "street": "240 WAL MART WAY", "postcode": "41056"}}},
{"geometry": {"type": "Point", "coordinates": [-83.7620105749, 38.6453185881]}, "type": "Feature", "properties": {"collection_times": [{"days": "Mon-Fri", "time": "5:00pm"}, {"days": "Sat", "time": "3:00pm"}, {"days": "Sun", "time": "Closed"}], "id": "4105600037", "name": "USPS COLLECTION BOX - PO LOBBY", "address": {"city": "MAYSVILLE", "state": "KY", "street": "131 E 3RD ST", "postcode": "41056"}}},
{"geometry": {"type": "Point", "coordinates": [-83.8076344165, 38.6415915432]}, "type": "Feature", "properties": {"collection_times": [{"days": "Mon-Fri", "time": "3:30pm"}, {"days": "Sat", "time": "12:00pm"}, {"days": "Sun", "time": "Closed"}], "id": "4105600038", "name": "USPS COLLECTION BOX - BLUE BOX", "address": {"city": "MAYSVILLE", "state": "KY", "street": "989 MEDICAL PARK DR", "postcode": "41056"}}},
{"geometry": {"type": "Point", "coordinates": [-83.7620105749, 38.6453185881]}, "type": "Feature", "properties": {"collection_times": [{"days": "Mon-Fri", "time": "5:00pm"}, {"days": "Sat", "time": "3:00pm"}, {"days": "Sun", "time": "Closed"}], "id": "4105600039", "name": "USPS COLLECTION BOX - PO LOBBY", "address": {"city": "MAYSVILLE", "state": "KY", "street": "131 E 3RD ST", "postcode": "41056"}}},
{"geometry": {"type": "Point", "coordinates": [-83.781702346, 38.600045595]}, "type": "Feature", "properties": {"collection_times": [{"days": "Mon-Sat", "time": "12:00pm"}, {"days": "Sun", "time": "Closed"}], "id": "4105600040", "name": "USPS COLLECTION BOX - BLUE BOX", "address": {"city": "MAYSVILLE", "state": "KY", "street": "4248 AA HWY", "postcode": "41056"}}},
{"geometry": {"type": "Point", "coordinates": [-84.3672116957, 39.0298975782]}, "type": "Feature", "properties": {"collection_times": [{"days": "Mon-Fri", "time": "4:15pm"}, {"days": "Sat", "time": "10:45am"}, {"days": "Sun", "time": "Closed"}], "id": "4105900000", "name": "USPS COLLECTION BOX - BLUE BOX", "address": {"city": "MELBOURNE", "state": "KY", "street": "910 MARY INGLES HWY", "postcode": "41059"}}},
{"geometry": {"type": "Point", "coordinates": [-84.3672116957, 39.0298975782]}, "type": "Feature", "properties": {"collection_times": [{"days": "Mon-Fri", "time": "4:15pm"}, {"days": "Sat", "time": "10:45am"}, {"days": "Sun", "time": "Closed"}], "id": "4105900001", "name": "USPS COLLECTION BOX - PO LOBBY", "address": {"city": "MELBOURNE", "state": "KY", "street": "910 MARY INGLES HWY", "postcode": "41059"}}},
{"geometry": {"type": "Point", "coordinates": [-84.4579038411, 38.8307785285]}, "type": "Feature", "properties": {"collection_times": [{"days": "Mon-Fri", "time": "3:30pm"}, {"days": "Sat", "time": "10:30am"}, {"days": "Sun", "time": "Closed"}], "id": "4106300000", "name": "USPS COLLECTION BOX - BLUE BOX", "address": {"city": "MORNING VIEW", "state": "KY", "street": "15000 DECOURSEY PIKE", "postcode": "41063"}}},
{"geometry": {"type": "Point", "coordinates": [-84.5360643852, 38.8314156205]}, "type": "Feature", "properties": {"collection_times": [{"days": "Mon-Fri", "time": "12:00pm"}, {"days": "Sat", "time": "11:00am"}, {"days": "Sun", "time": "Closed"}], "id": "4106300001", "name": "USPS COLLECTION BOX - BLUE BOX", "address": {"city": "MORNING VIEW", "state": "KY", "street": "15000 MADISON PIKE", "postcode": "41063"}}},
{"geometry": {"type": "Point", "coordinates": [-84.4579038411, 38.8307785285]}, "type": "Feature", "properties": {"collection_times": [{"days": "Mon-Fri", "time": "2:30pm"}, {"days": "Sat", "time": "10:30am"}, {"days": "Sun", "time": "Closed"}], "id": "4106300002", "name": "USPS COLLECTION BOX - PO LOBBY", "address": {"city": "MORNING VIEW", "state": "KY", "street": "15000 DECOURSEY PIKE", "postcode": "41063"}}},
{"geometry": {"type": "Point", "coordinates": [-84.0371447562, 38.5318701167]}, "type": "Feature", "properties": {"collection_times": [{"days": "Mon-Fri", "time": "4:00pm"}, {"days": "Sat", "time": "11:30am"}, {"days": "Sun", "time": "Closed"}], "id": "4106400003", "name": "USPS COLLECTION BOX - BLUE BOX", "address": {"city": "MOUNT OLIVET", "state": "KY", "street": "7 N MAIN ST", "postcode": "41064"}}},
{"geometry": {"type": "Point", "coordinates": [-84.0371447562, 38.5318701167]}, "type": "Feature", "properties": {"collection_times": [{"days": "Mon-Fri", "time": "4:00pm"}, {"days": "Sat", "time": "11:30am"}, {"days": "Sun", "time": "Closed"}], "id": "4106400004", "name": "USPS COLLECTION BOX - PO LOBBY", "address": {"city": "MOUNT OLIVET", "state": "KY", "street": "7 N MAIN ST", "postcode": "41064"}}},
{"geometry": {"type": "Point", "coordinates": [-84.0371447562, 38.5318701167]}, "type": "Feature", "properties": {"collection_times": [{"days": "Mon-Fri", "time": "4:00pm"}, {"days": "Sat", "time": "11:30am"}, {"days": "Sun", "time": "Closed"}], "id": "4106400005", "name": "USPS COLLECTION BOX - PO LOBBY", "address": {"city": "MOUNT OLIVET", "state": "KY", "street": "7 N MAIN ST", "postcode": "41064"}}},
{"geometry": {"type": "Point", "coordinates": [-84.0408378195, 38.5324381915]}, "type": "Feature", "properties": {"collection_times": [{"days": "Mon-Sat", "time": "1:00pm"}, {"days": "Sun", "time": "Closed"}], "id": "4106400010", "name": "USPS COLLECTION BOX - BLUE BOX", "address": {"city": "MOUNT OLIVET", "state": "KY", "street": "196 W WALNUT ST", "postcode": "41064"}}},
{"geometry": {"type": "Point", "coordinates": [-84.4888825059, 39.0872778426]}, "type": "Feature", "properties": {"collection_times": [{"days": "Mon-Fri", "time": "4:00pm"}, {"days": "Sat", "time": "2:00pm"}, {"days": "Sun", "time": "Closed"}], "id": "4107100004", "name": "USPS COLLECTION BOX - BLUE BOX", "address": {"city": "SOUTHGATE", "state": "KY", "street": "99 E 10TH ST", "postcode": "41071"}}},
{"geometry": {"type": "Point", "coordinates": [-84.4967254455, 39.0927659089]}, "type": "Feature", "properties": {"collection_times": [{"days": "Mon-Sat", "time": "1:00pm"}, {"days": "Sun", "time": "Closed"}], "id": "4107100011", "name": "USPS COLLECTION BOX - BLUE BOX", "address": {"city": "SOUTHGATE", "state": "KY", "street": "330 YORK ST", "postcode": "41071"}}},
{"geometry": {"type": "Point", "coordinates": [-84.490919215, 39.093012268]}, "type": "Feature", "properties": {"collection_times": [{"days": "Mon-Sat", "time": "1:00pm"}, {"days": "Sun", "time": "Closed"}], "id": "4107100015", "name": "USPS COLLECTION BOX - BLUE BOX", "address": {"city": "SOUTHGATE", "state": "KY", "street": "598 WASHINGTON AVE", "postcode": "41071"}}},
{"geometry": {"type": "Point", "coordinates": [-84.4729004286, 39.07117609]}, "type": "Feature", "properties": {"collection_times": [{"days": "Mon-Sat", "time": "2:30pm"}, {"days": "Sun", "time": "Closed"}], "id": "4107100034", "name": "USPS COLLECTION BOX - BLUE BOX", "address": {"city": "SOUTHGATE", "state": "KY", "street": "122 ELECTRIC AVE", "postcode": "41071"}}},
{"geometry": {"type": "Point", "coordinates": [-84.488616858, 39.0871503146]}, "type": "Feature", "properties": {"collection_times": [{"days": "Mon-Fri", "time": "4:00pm"}, {"days": "Sat", "time": "1:00pm"}, {"days": "Sun", "time": "Closed"}], "id": "4107100043", "name": "USPS COLLECTION BOX - BLUE BOX", "address": {"city": "SOUTHGATE", "state": "KY", "street": "1015 MONMOUTH ST", "postcode": "41071"}}},
{"geometry": {"type": "Point", "coordinates": [-84.481967058, 39.0818710029]}, "type": "Feature", "properties": {"collection_times": [{"days": "Mon-Sat", "time": "1:00pm"}, {"days": "Sun", "time": "Closed"}], "id": "4107100048", "name": "USPS COLLECTION BOX - BLUE BOX", "address": {"city": "SOUTHGATE", "state": "KY", "street": "1757 MONMOUTH ST", "postcode": "41071"}}},
{"geometry": {"type": "Point", "coordinates": [-84.497525782, 39.0913683847]}, "type": "Feature", "properties": {"collection_times": [{"days": "Mon-Fri", "time": "5:30pm"}, {"days": "Sat", "time": "4:30pm"}, {"days": "Sun", "time": "Closed"}], "id": "4107100055", "name": "USPS COLLECTION BOX - BLUE BOX", "address": {"city": "SOUTHGATE", "state": "KY", "street": "420 COLUMBIA ST", "postcode": "41071"}}},
{"geometry": {"type": "Point", "coordinates": [-84.4670154016, 39.0682360697]}, "type": "Feature", "properties": {"collection_times": [{"days": "Mon-Sat", "time": "2:00pm"}, {"days": "Sun", "time": "Closed"}], "id": "4107100132", "name": "USPS COLLECTION BOX - BLUE BOX", "address": {"city": "SOUTHGATE", "state": "KY", "street": "1 MOOCK RD", "postcode": "41071"}}},
{"geometry": {"type": "Point", "coordinates": [-84.497525782, 39.0913683847]}, "type": "Feature", "properties": {"collection_times": [{"days": "Mon-Fri", "time": "5:30pm"}, {"days": "Sat", "time": "4:30pm"}, {"days": "Sun", "time": "Closed"}], "id": "4107100136", "name": "USPS COLLECTION BOX - BLUE BOX", "address": {"city": "SOUTHGATE", "state": "KY", "street": "420 COLUMBIA ST", "postcode": "41071"}}},
{"geometry": {"type": "Point", "coordinates": [-84.497525782, 39.0913683847]}, "type": "Feature", "properties": {"collection_times": [{"days": "Mon-Fri", "time": "5:30pm"}, {"days": "Sat", "time": "4:30pm"}, {"days": "Sun", "time": "Closed"}], "id": "4107100139", "name": "USPS COLLECTION BOX - BLUE BOX", "address": {"city": "SOUTHGATE", "state": "KY", "street": "420 COLUMBIA ST", "postcode": "41071"}}},
{"geometry": {"type": "Point", "coordinates": [-84.497525782, 39.0913683847]}, "type": "Feature", "properties": {"collection_times": [{"days": "Mon-Fri", "time": "5:30pm"}, {"days": "Sat", "time": "4:30pm"}, {"days": "Sun", "time": "Closed"}], "id": "4107100140", "name": "USPS COLLECTION BOX - BLUE BOX", "address": {"city": "SOUTHGATE", "state": "KY", "street": "420 COLUMBIA ST", "postcode": "41071"}}},
{"geometry": {"type": "Point", "coordinates": [-84.497525782, 39.0913683847]}, "type": "Feature", "properties": {"collection_times": [{"days": "Mon-Fri", "time": "5:30pm"}, {"days": "Sat", "time": "4:30pm"}, {"days": "Sun", "time": "Closed"}], "id": "4107100141", "name": "USPS COLLECTION BOX - PO LOBBY", "address": {"city": "SOUTHGATE", "state": "KY", "street": "420 COLUMBIA ST", "postcode": "41071"}}},
{"geometry": {"type": "Point", "coordinates": [-84.4747504475, 39.0959329895]}, "type": "Feature", "properties": {"collection_times": [{"days": "Mon-Sat", "time": "1:00pm"}, {"days": "Sun", "time": "Closed"}], "id": "4107300001", "name": "USPS COLLECTION BOX - BLUE BOX", "address": {"city": "NEWPORT", "state": "KY", "street": "217 BONNIE LESLIE AVE", "postcode": "41073"}}},
{"geometry": {"type": "Point", "coordinates": [-84.4807387238, 39.1028477146]}, "type": "Feature", "properties": {"collection_times": [{"days": "Mon-Fri", "time": "4:30pm"}, {"days": "Sat", "time": "1:00pm"}, {"days": "Sun", "time": "Closed"}], "id": "4107300002", "name": "USPS COLLECTION BOX - BLUE BOX", "address": {"city": "NEWPORT", "state": "KY", "street": "301 CENTER ST", "postcode": "41073"}}},
{"geometry": {"type": "Point", "coordinates": [-84.4838687938, 39.1057432026]}, "type": "Feature", "properties": {"collection_times": [{"days": "Mon-Sat", "time": "1:00pm"}, {"days": "Sun", "time": "Closed"}], "id": "4107300011", "name": "USPS COLLECTION BOX - BLUE BOX", "address": {"city": "NEWPORT", "state": "KY", "street": "298 FAIRFIELD AVE", "postcode": "41073"}}},
{"geometry": {"type": "Point", "coordinates": [-84.4807387238, 39.1028477146]}, "type": "Feature", "properties": {"collection_times": [{"days": "Mon-Fri", "time": "1:00pm"}, {"days": "Sat-Sun", "time": "Closed"}], "id": "4107300012", "name": "USPS COLLECTION BOX - PO LOBBY", "address": {"city": "NEWPORT", "state": "KY", "street": "301 CENTER ST", "postcode": "41073"}}},
{"geometry": {"type": "Point", "coordinates": [-84.4704275817, 39.1115924115]}, "type": "Feature", "properties": {"collection_times": [{"days": "Mon-Fri", "time": "3:00pm"}, {"days": "Sat", "time": "2:00pm"}, {"days": "Sun", "time": "Closed"}], "id": "4107400000", "name": "USPS COLLECTION BOX - BLUE BOX", "address": {"city": "NEWPORT", "state": "KY", "street": "633 6TH AVE", "postcode": "41074"}}},
{"geometry": {"type": "Point", "coordinates": [-84.4493044875, 39.054194812]}, "type": "Feature", "properties": {"collection_times": [{"days": "Mon-Sat", "time": "12:00pm"}, {"days": "Sun", "time": "Closed"}], "id": "4107500000", "name": "USPS COLLECTION BOX - BLUE BOX", "address": {"city": "FORT THOMAS", "state": "KY", "street": "1 CROWELL AVE", "postcode": "41075"}}},
{"geometry": {"type": "Point", "coordinates": [-84.4558820836, 39.0966305003]}, "type": "Feature", "properties": {"collection_times": [{"days": "Mon-Sat", "time": "12:00pm"}, {"days": "Sun", "time": "Closed"}], "id": "4107500001", "name": "USPS COLLECTION BOX - BLUE BOX", "address": {"city": "FORT THOMAS", "state": "KY", "street": "1 CAPRI DR", "postcode": "41075"}}},
{"geometry": {"type": "Point", "coordinates": [-84.4556429905, 39.0758421008]}, "type": "Feature", "properties": {"collection_times": [{"days": "Mon-Sat", "time": "11:00am"}, {"days": "Sun", "time": "Closed"}], "id": "4107500005", "name": "USPS COLLECTION BOX - BLUE BOX", "address": {"city": "FORT THOMAS", "state": "KY", "street": "401 HIGHLAND AVE", "postcode": "41075"}}},
{"geometry": {"type": "Point", "coordinates": [-84.4571623519, 39.0695884165]}, "type": "Feature", "properties": {"collection_times": [{"days": "Mon-Sat", "time": "12:00pm"}, {"days": "Sun", "time": "Closed"}], "id": "4107500006", "name": "USPS COLLECTION BOX - BLUE BOX", "address": {"city": "FORT THOMAS", "state": "KY", "street": "101 SUMMIT AVE", "postcode": "41075"}}},
{"geometry": {"type": "Point", "coordinates": [-84.450036625, 39.0976760801]}, "type": "Feature", "properties": {"collection_times": [{"days": "Mon-Sat", "time": "11:00am"}, {"days": "Sun", "time": "Closed"}], "id": "4107500009", "name": "USPS COLLECTION BOX - BLUE BOX", "address": {"city": "FORT THOMAS", "state": "KY", "street": "2 ROSSFORD AVE", "postcode": "41075"}}},
{"geometry": {"type": "Point", "coordinates": [-84.4487205543, 39.0870265082]}, "type": "Feature", "properties": {"collection_times": [{"days": "Mon-Sat", "time": "11:00am"}, {"days": "Sun", "time": "Closed"}], "id": "4107500013", "name": "USPS COLLECTION BOX - BLUE BOX", "address": {"city": "FORT THOMAS", "state": "KY", "street": "900 N FORT THOMAS AVE", "postcode": "41075"}}},
{"geometry": {"type": "Point", "coordinates": [-84.4628396642, 39.0761510447]}, "type": "Feature", "properties": {"collection_times": [{"days": "Mon-Sat", "time": "3:00pm"}, {"days": "Sun", "time": "Closed"}], "id": "4107500014", "name": "USPS COLLECTION BOX - BLUE BOX", "address": {"city": "FORT THOMAS", "state": "KY", "street": "20 N GRAND AVE", "postcode": "41075"}}},
{"geometry": {"type": "Point", "coordinates": [-84.4632691908, 39.0766206941]}, "type": "Feature", "properties": {"collection_times": [{"days": "Mon-Sat", "time": "3:00pm"}, {"days": "Sun", "time": "Closed"}], "id": "4107500015", "name": "USPS COLLECTION BOX - BLUE BOX", "address": {"city": "FORT THOMAS", "state": "KY", "street": "40 N GRAND AVE", "postcode": "41075"}}},
{"geometry": {"type": "Point", "coordinates": [-84.4606295523, 39.0760891327]}, "type": "Feature", "properties": {"collection_times": [{"days": "Mon-Sat", "time": "12:00pm"}, {"days": "Sun", "time": "Closed"}], "id": "4107500016", "name": "USPS COLLECTION BOX - BLUE BOX", "address": {"city": "FORT THOMAS", "state": "KY", "street": "630 HIGHLAND AVE", "postcode": "41075"}}},
{"geometry": {"type": "Point", "coordinates": [-84.4481630035, 39.063071687]}, "type": "Feature", "properties": {"collection_times": [{"days": "Mon-Sat", "time": "12:00pm"}, {"days": "Sun", "time": "Closed"}], "id": "4107500018", "name": "USPS COLLECTION BOX - BLUE BOX", "address": {"city": "FORT THOMAS", "state": "KY", "street": "1220 S FORT THOMAS AVE", "postcode": "41075"}}},
{"geometry": {"type": "Point", "coordinates": [-84.4496886819, 39.079175504]}, "type": "Feature", "properties": {"collection_times": [{"days": "Mon-Sat", "time": "12:00pm"}, {"days": "Sun", "time": "Closed"}], "id": "4107500021", "name": "USPS COLLECTION BOX - BLUE BOX", "address": {"city": "FORT THOMAS", "state": "KY", "street": "500 S FT THOMAS AVE", "postcode": "41075"}}},
{"geometry": {"type": "Point", "coordinates": [-84.4678871326, 39.0720652319]}, "type": "Feature", "properties": {"collection_times": [{"days": "Mon-Sat", "time": "11:00am"}, {"days": "Sun", "time": "Closed"}], "id": "4107500023", "name": "USPS COLLECTION BOX - BLUE BOX", "address": {"city": "FORT THOMAS", "state": "KY", "street": "1099 HIGHLAND AVE", "postcode": "41075"}}},
{"geometry": {"type": "Point", "coordinates": [-84.4481416545, 39.0783242718]}, "type": "Feature", "properties": {"collection_times": [{"days": "Mon-Fri", "time": "4:45pm"}, {"days": "Sat", "time": "1:45pm"}, {"days": "Sun", "time": "Closed"}], "id": "4107500028", "name": "USPS COLLECTION BOX - BLUE BOX", "address": {"city": "FORT THOMAS", "state": "KY", "street": "24 S FORT THOMAS AVE", "postcode": "41075"}}},
{"geometry": {"type": "Point", "coordinates": [-84.4481416545, 39.0783242718]}, "type": "Feature", "properties": {"collection_times": [{"days": "Mon-Fri", "time": "4:45pm"}, {"days": "Sat", "time": "1:45pm"}, {"days": "Sun", "time": "Closed"}], "id": "4107500029", "name": "USPS COLLECTION BOX - PO LOBBY", "address": {"city": "FORT THOMAS", "state": "KY", "street": "24 S FORT THOMAS AVE", "postcode": "41075"}}},
{"geometry": {"type": "Point", "coordinates": [-84.4478454484, 39.0798951296]}, "type": "Feature", "properties": {"collection_times": [{"days": "Mon-Sat", "time": "3:00pm"}, {"days": "Sun", "time": "Closed"}], "id": "4107500033", "name": "USPS COLLECTION BOX - BLUE BOX", "address": {"city": "FORT THOMAS", "state": "KY", "street": "21 MILLER LN", "postcode": "41075"}}},
{"geometry": {"type": "Point", "coordinates": [-84.4641499626, 39.0776412986]}, "type": "Feature", "properties": {"collection_times": [{"days": "Mon-Sat", "time": "2:30pm"}, {"days": "Sun", "time": "Closed"}], "id": "4107500034", "name": "USPS COLLECTION BOX - BLUE BOX", "address": {"city": "FORT THOMAS", "state": "KY", "street": "85 N GRAND AVE", "postcode": "41075"}}},
{"geometry": {"type": "Point", "coordinates": [-84.4531928005, 39.0337435779]}, "type": "Feature", "properties": {"collection_times": [{"days": "Mon-Fri", "time": "4:15pm"}, {"days": "Sat", "time": "1:00pm"}, {"days": "Sun", "time": "Closed"}], "id": "4107600002", "name": "USPS COLLECTION BOX - BLUE BOX", "address": {"city": "HIGHLAND HGTS", "state": "KY", "street": "2701 ALEXANDRIA WAY", "postcode": "41076"}}},
{"geometry": {"type": "Point", "coordinates": [-84.4493196665, 39.02775611]}, "type": "Feature", "properties": {"collection_times": [{"days": "Mon-Sat", "time": "11:00am"}, {"days": "Sun", "time": "Closed"}], "id": "4107600003", "name": "USPS COLLECTION BOX - BLUE BOX", "address": {"city": "HIGHLAND HGTS", "state": "KY", "street": "2 HENRY CT", "postcode": "41076"}}},
{"geometry": {"type": "Point", "coordinates": [-84.4552483624, 39.0284308009]}, "type": "Feature", "properties": {"collection_times": [{"days": "Mon-Sat", "time": "11:00am"}, {"days": "Sun", "time": "Closed"}], "id": "4107600014", "name": "USPS COLLECTION BOX - BLUE BOX", "address": {"city": "HIGHLAND HGTS", "state": "KY", "street": "1528 GREY STABLE LN", "postcode": "41076"}}},
{"geometry": {"type": "Point", "coordinates": [-84.4414268171, 39.0181570501]}, "type": "Feature", "properties": {"collection_times": [{"days": "Mon-Sat", "time": "11:00am"}, {"days": "Sun", "time": "Closed"}], "id": "4107600015", "name": "USPS COLLECTION BOX - BLUE BOX", "address": {"city": "HIGHLAND HGTS", "state": "KY", "street": "10 FIRE TRAINING DR", "postcode": "41076"}}},
{"geometry": {"type": "Point", "coordinates": [-84.4712695109, 39.0096961076]}, "type": "Feature", "properties": {"collection_times": [{"days": "Mon-Sat", "time": "10:00am"}, {"days": "Sun", "time": "Closed"}], "id": "4107600016", "name": "USPS COLLECTION BOX - BLUE BOX", "address": {"city": "HIGHLAND HGTS", "state": "KY", "street": "2 PLUM ST", "postcode": "41076"}}},
{"geometry": {"type": "Point", "coordinates": [-84.4758560653, 39.0367970757]}, "type": "Feature", "properties": {"collection_times": [{"days": "Mon-Sat", "time": "11:00am"}, {"days": "Sun", "time": "Closed"}], "id": "4107600017", "name": "USPS COLLECTION BOX - BLUE BOX", "address": {"city": "HIGHLAND HGTS", "state": "KY", "street": "600 SIGNAL HILL DR", "postcode": "41076"}}},
{"geometry": {"type": "Point", "coordinates": [-84.4531928005, 39.0337435779]}, "type": "Feature", "properties": {"collection_times": [{"days": "Mon-Fri", "time": "4:15pm"}, {"days": "Sat", "time": "1:00pm"}, {"days": "Sun", "time": "Closed"}], "id": "4107600018", "name": "USPS COLLECTION BOX - PO LOBBY", "address": {"city": "HIGHLAND HGTS", "state": "KY", "street": "2701 ALEXANDRIA WAY", "postcode": "41076"}}},
{"geometry": {"type": "Point", "coordinates": [-84.416105209, 39.0037481336]}, "type": "Feature", "properties": {"collection_times": [{"days": "Mon-Sat", "time": "11:00am"}, {"days": "Sun", "time": "Closed"}], "id": "4107600019", "name": "USPS COLLECTION BOX - BLUE BOX", "address": {"city": "HIGHLAND HGTS", "state": "KY", "street": "395 CROSS ROADS BLVD", "postcode": "41076"}}},
{"geometry": {"type": "Point", "coordinates": [-84.4500527515, 39.0284160026]}, "type": "Feature", "properties": {"collection_times": [{"days": "Mon-Sat", "time": "11:00am"}, {"days": "Sun", "time": "Closed"}], "id": "4107600021", "name": "USPS COLLECTION BOX - BLUE BOX", "address": {"city": "HIGHLAND HGTS", "state": "KY", "street": "3600 ALEXANDRIA PIKE", "postcode": "41076"}}},
{"geometry": {"type": "Point", "coordinates": [-84.8668634019, 39.0697042996]}, "type": "Feature", "properties": {"collection_times": [{"days": "Mon-Fri", "time": "3:45pm"}, {"days": "Sat", "time": "11:45am"}, {"days": "Sun", "time": "Closed"}], "id": "4108000001", "name": "USPS COLLECTION BOX - BLUE BOX", "address": {"city": "PETERSBURG", "state": "KY", "street": "2978 1ST ST", "postcode": "41080"}}},
{"geometry": {"type": "Point", "coordinates": [-84.8668634019, 39.0697042996]}, "type": "Feature", "properties": {"collection_times": [{"days": "Mon-Fri", "time": "3:45pm"}, {"days": "Sat", "time": "11:45am"}, {"days": "Sun", "time": "Closed"}], "id": "4108000002", "name": "USPS COLLECTION BOX - PO LOBBY", "address": {"city": "PETERSBURG", "state": "KY", "street": "2978 1ST ST", "postcode": "41080"}}},
{"geometry": {"type": "Point", "coordinates": [-83.5609484105, 38.3189634732]}, "type": "Feature", "properties": {"collection_times": [{"days": "Mon-Sat", "time": "10:30am"}, {"days": "Sun", "time": "Closed"}], "id": "4108100002", "name": "USPS COLLECTION BOX - BLUE BOX", "address": {"city": "PLUMMERS LNDG", "state": "KY", "street": "591 PLUMMERS LANDING RD", "postcode": "41081"}}},
{"geometry": {"type": "Point", "coordinates": [-84.9461329919, 38.6558354744]}, "type": "Feature", "properties": {"collection_times": [{"days": "Mon-Fri", "time": "3:45pm"}, {"days": "Sat", "time": "11:00am"}, {"days": "Sun", "time": "Closed"}], "id": "4108300000", "name": "USPS COLLECTION BOX - BLUE BOX", "address": {"city": "SANDERS", "state": "KY", "street": "14150 KY HIGHWAY 36 E", "postcode": "41083"}}},
{"geometry": {"type": "Point", "coordinates": [-84.9461329919, 38.6558354744]}, "type": "Feature", "properties": {"collection_times": [{"days": "Mon-Fri", "time": "3:45pm"}, {"days": "Sat", "time": "11:00am"}, {"days": "Sun", "time": "Closed"}], "id": "4108300001", "name": "USPS COLLECTION BOX - PO LOBBY", "address": {"city": "SANDERS", "state": "KY", "street": "14150 KY HIGHWAY 36 E", "postcode": "41083"}}},
{"geometry": {"type": "Point", "coordinates": [-84.396686297, 39.0409862237]}, "type": "Feature", "properties": {"collection_times": [{"days": "Mon-Fri", "time": "3:00pm"}, {"days": "Sat", "time": "10:00am"}, {"days": "Sun", "time": "Closed"}], "id": "4108500002", "name": "USPS COLLECTION BOX - BLUE BOX", "address": {"city": "SILVER GROVE", "state": "KY", "street": "5081 FOUR MILE RD", "postcode": "41085"}}},
{"geometry": {"type": "Point", "coordinates": [-84.396686297, 39.0409862237]}, "type": "Feature", "properties": {"collection_times": [{"days": "Mon-Fri", "time": "3:00pm"}, {"days": "Sat", "time": "10:00am"}, {"days": "Sun", "time": "Closed"}], "id": "4108500003", "name": "USPS COLLECTION BOX - PO LOBBY", "address": {"city": "SILVER GROVE", "state": "KY", "street": "5081 FOUR MILE RD", "postcode": "41085"}}},
{"geometry": {"type": "Point", "coordinates": [-84.8870091504, 38.7157159653]}, "type": "Feature", "properties": {"collection_times": [{"days": "Mon-Fri", "time": "3:30pm"}, {"days": "Sat", "time": "10:30am"}, {"days": "Sun", "time": "Closed"}], "id": "4108600000", "name": "USPS COLLECTION BOX - BLUE BOX", "address": {"city": "SPARTA", "state": "KY", "street": "101 KY HIGHWAY 467 W", "postcode": "41086"}}},
{"geometry": {"type": "Point", "coordinates": [-84.8870091504, 38.7157159653]}, "type": "Feature", "properties": {"collection_times": [{"days": "Mon-Fri", "time": "3:30pm"}, {"days": "Sat", "time": "10:30am"}, {"days": "Sun", "time": "Closed"}], "id": "4108600001", "name": "USPS COLLECTION BOX - PO LOBBY", "address": {"city": "SPARTA", "state": "KY", "street": "101 KY HIGHWAY 467 W", "postcode": "41086"}}},
{"geometry": {"type": "Point", "coordinates": [-84.9060008929, 38.676831742]}, "type": "Feature", "properties": {"collection_times": [{"days": "Mon-Sat", "time": "12:00pm"}, {"days": "Sun", "time": "Closed"}], "id": "4108600002", "name": "USPS COLLECTION BOX - BLUE BOX", "address": {"city": "SPARTA", "state": "KY", "street": "103 MAIN ST", "postcode": "41086"}}},
{"geometry": {"type": "Point", "coordinates": [-84.6661259122, 38.9349711882]}, "type": "Feature", "properties": {"collection_times": [{"days": "Mon-Fri", "time": "5:00pm"}, {"days": "Sat", "time": "12:00pm"}, {"days": "Sun", "time": "Closed"}], "id": "4109100001", "name": "USPS COLLECTION BOX - BLUE BOX", "address": {"city": "UNION", "state": "KY", "street": "1664 FROGTOWN RD", "postcode": "41091"}}},
{"geometry": {"type": "Point", "coordinates": [-84.6464619541, 38.9197891334]}, "type": "Feature", "properties": {"collection_times": [{"days": "Mon-Sat", "time": "11:00am"}, {"days": "Sun", "time": "Closed"}], "id": "4109100002", "name": "USPS COLLECTION BOX - BLUE BOX", "address": {"city": "UNION", "state": "KY", "street": "11100 TRIPLE CROWN BLVD", "postcode": "41091"}}},
{"geometry": {"type": "Point", "coordinates": [-84.6742110597, 38.9665626232]}, "type": "Feature", "properties": {"collection_times": [{"days": "Mon-Sat", "time": "10:00am"}, {"days": "Sun", "time": "Closed"}], "id": "4109100004", "name": "USPS COLLECTION BOX - BLUE BOX", "address": {"city": "UNION", "state": "KY", "street": "8825 US HIGHWAY 42", "postcode": "41091"}}},
{"geometry": {"type": "Point", "coordinates": [-84.6661259122, 38.9349711882]}, "type": "Feature", "properties": {"collection_times": [{"days": "Mon-Fri", "time": "5:00pm"}, {"days": "Sat", "time": "12:00pm"}, {"days": "Sun", "time": "Closed"}], "id": "4109100005", "name": "USPS COLLECTION BOX - BLUE BOX", "address": {"city": "UNION", "state": "KY", "street": "1664 FROGTOWN RD", "postcode": "41091"}}},
{"geometry": {"type": "Point", "coordinates": [-84.6661259122, 38.9349711882]}, "type": "Feature", "properties": {"collection_times": [{"days": "Mon-Fri", "time": "5:00pm"}, {"days": "Sat", "time": "12:00pm"}, {"days": "Sun", "time": "Closed"}], "id": "4109100007", "name": "USPS COLLECTION BOX - PO LOBBY", "address": {"city": "UNION", "state": "KY", "street": "1664 FROGTOWN RD", "postcode": "41091"}}},
{"geometry": {"type": "Point", "coordinates": [-84.6661259122, 38.9349711882]}, "type": "Feature", "properties": {"collection_times": [{"days": "Mon-Fri", "time": "5:00pm"}, {"days": "Sat", "time": "12:00pm"}, {"days": "Sun", "time": "Closed"}], "id": "4109100009", "name": "USPS COLLECTION BOX - PO LOBBY", "address": {"city": "UNION", "state": "KY", "street": "1664 FROGTOWN RD", "postcode": "41091"}}},
{"geometry": {"type": "Point", "coordinates": [-84.6661259122, 38.9349711882]}, "type": "Feature", "properties": {"collection_times": [{"days": "Mon-Fri", "time": "5:00pm"}, {"days": "Sat", "time": "12:00pm"}, {"days": "Sun", "time": "Closed"}], "id": "4109100010", "name": "USPS COLLECTION BOX - PO LOBBY", "address": {"city": "UNION", "state": "KY", "street": "1664 FROGTOWN RD", "postcode": "41091"}}},
{"geometry": {"type": "Point", "coordinates": [-84.6576760363, 38.8186839561]}, "type": "Feature", "properties": {"collection_times": [{"days": "Mon-Fri", "time": "3:45pm"}, {"days": "Sat", "time": "11:00am"}, {"days": "Sun", "time": "Closed"}], "id": "4109200001", "name": "USPS COLLECTION BOX - BLUE BOX", "address": {"city": "VERONA", "state": "KY", "street": "14928 WALTON VERONA RD", "postcode": "41092"}}},
{"geometry": {"type": "Point", "coordinates": [-84.6576760363, 38.8186839561]}, "type": "Feature", "properties": {"collection_times": [{"days": "Mon-Fri", "time": "3:45pm"}, {"days": "Sat", "time": "11:00am"}, {"days": "Sun", "time": "Closed"}], "id": "4109200002", "name": "USPS COLLECTION BOX - PO LOBBY", "address": {"city": "VERONA", "state": "KY", "street": "14928 WALTON VERONA RD", "postcode": "41092"}}},
{"geometry": {"type": "Point", "coordinates": [-83.557614713, 38.3511169569]}, "type": "Feature", "properties": {"collection_times": [{"days": "Mon-Fri", "time": "4:00pm"}, {"days": "Sat", "time": "11:15am"}, {"days": "Sun", "time": "Closed"}], "id": "4109300001", "name": "USPS COLLECTION BOX - BLUE BOX", "address": {"city": "WALLINGFORD", "state": "KY", "street": "7408 WALLINGFORD RD", "postcode": "41093"}}},
{"geometry": {"type": "Point", "coordinates": [-83.557614713, 38.3511169569]}, "type": "Feature", "properties": {"collection_times": [{"days": "Mon-Fri", "time": "4:00pm"}, {"days": "Sat", "time": "11:15am"}, {"days": "Sun", "time": "Closed"}], "id": "4109300002", "name": "USPS COLLECTION BOX - PO LOBBY", "address": {"city": "WALLINGFORD", "state": "KY", "street": "7408 WALLINGFORD RD", "postcode": "41093"}}},
{"geometry": {"type": "Point", "coordinates": [-84.6101589406, 38.8625835632]}, "type": "Feature", "properties": {"collection_times": [{"days": "Mon-Fri", "time": "4:45pm"}, {"days": "Sat", "time": "12:00pm"}, {"days": "Sun", "time": "Closed"}], "id": "4109400001", "name": "USPS COLLECTION BOX - BLUE BOX", "address": {"city": "WALTON", "state": "KY", "street": "52 S MAIN ST", "postcode": "41094"}}},
{"geometry": {"type": "Point", "coordinates": [-84.6102133567, 38.848119524]}, "type": "Feature", "properties": {"collection_times": [{"days": "Mon-Sat", "time": "9:00am"}, {"days": "Sun", "time": "Closed"}], "id": "4109400005", "name": "USPS COLLECTION BOX - BLUE BOX", "address": {"city": "WALTON", "state": "KY", "street": "23 BOONE LAKE CIR", "postcode": "41094"}}},
{"geometry": {"type": "Point", "coordinates": [-84.6101589406, 38.8625835632]}, "type": "Feature", "properties": {"collection_times": [{"days": "Mon-Fri", "time": "4:45pm"}, {"days": "Sat", "time": "12:00pm"}, {"days": "Sun", "time": "Closed"}], "id": "4109400010", "name": "USPS COLLECTION BOX - PO LOBBY", "address": {"city": "WALTON", "state": "KY", "street": "52 S MAIN ST", "postcode": "41094"}}},
{"geometry": {"type": "Point", "coordinates": [-84.6101731361, 38.8624629014]}, "type": "Feature", "properties": {"collection_times": [{"days": "Mon-Sat", "time": "12:00pm"}, {"days": "Sun", "time": "Closed"}], "id": "4109400016", "name": "USPS COLLECTION BOX - BLUE BOX", "address": {"city": "WALTON", "state": "KY", "street": "49 N MAIN ST", "postcode": "41094"}}},
{"geometry": {"type": "Point", "coordinates": [-84.6270314843, 38.8586821646]}, "type": "Feature", "properties": {"collection_times": [{"days": "Mon-Sat", "time": "11:00am"}, {"days": "Sun", "time": "Closed"}], "id": "4109400017", "name": "USPS COLLECTION BOX - BLUE BOX", "address": {"city": "WALTON", "state": "KY", "street": "13019 WALTON VERONA RD", "postcode": "41094"}}},
{"geometry": {"type": "Point", "coordinates": [-84.6108947411, 38.865588279]}, "type": "Feature", "properties": {"collection_times": [{"days": "Mon-Sat", "time": "12:00pm"}, {"days": "Sun", "time": "Closed"}], "id": "4109400019", "name": "USPS COLLECTION BOX - BLUE BOX", "address": {"city": "WALTON", "state": "KY", "street": "19 N MAIN ST", "postcode": "41094"}}},
{"geometry": {"type": "Point", "coordinates": [-84.6332672705, 38.9156733736]}, "type": "Feature", "properties": {"collection_times": [{"days": "Mon-Sat", "time": "12:00pm"}, {"days": "Sun", "time": "Closed"}], "id": "4109400021", "name": "USPS COLLECTION BOX - BLUE BOX", "address": {"city": "WALTON", "state": "KY", "street": "311 RICHWOOD RD", "postcode": "41094"}}},
{"geometry": {"type": "Point", "coordinates": [-84.6169658187, 38.8588940801]}, "type": "Feature", "properties": {"collection_times": [{"days": "Mon-Sat", "time": "9:00am"}, {"days": "Sun", "time": "Closed"}], "id": "4109400023", "name": "USPS COLLECTION BOX - BLUE BOX", "address": {"city": "WALTON", "state": "KY", "street": "305 MARY GRUBBS HWY", "postcode": "41094"}}},
{"geometry": {"type": "Point", "coordinates": [-84.619704285, 38.8581253401]}, "type": "Feature", "properties": {"collection_times": [{"days": "Mon-Sat", "time": "10:00am"}, {"days": "Sun", "time": "Closed"}], "id": "4109400027", "name": "USPS COLLECTION BOX - BLUE BOX", "address": {"city": "WALTON", "state": "KY", "street": "635 CHESTNUT DR", "postcode": "41094"}}},
{"geometry": {"type": "Point", "coordinates": [-84.6268635039, 38.9179614215]}, "type": "Feature", "properties": {"collection_times": [{"days": "Mon-Sat", "time": "12:00pm"}, {"days": "Sun", "time": "Closed"}], "id": "4109400028", "name": "USPS COLLECTION BOX - BLUE BOX", "address": {"city": "WALTON", "state": "KY", "street": "145 RICHWOOD RD", "postcode": "41094"}}},
{"geometry": {"type": "Point", "coordinates": [-84.8995289816, 38.7847601221]}, "type": "Feature", "properties": {"collection_times": [{"days": "Mon-Fri", "time": "4:00pm"}, {"days": "Sat", "time": "12:00pm"}, {"days": "Sun", "time": "Closed"}], "id": "4109500001", "name": "USPS COLLECTION BOX - BLUE BOX", "address": {"city": "WARSAW", "state": "KY", "street": "301 E MAIN ST", "postcode": "41095"}}},
{"geometry": {"type": "Point", "coordinates": [-84.8905614554, 38.7872703276]}, "type": "Feature", "properties": {"collection_times": [{"days": "Mon-Sat", "time": "9:00am"}, {"days": "Sun", "time": "Closed"}], "id": "4109500002", "name": "USPS COLLECTION BOX - BLUE BOX", "address": {"city": "WARSAW", "state": "KY", "street": "201 ROBERTA DR", "postcode": "41095"}}},
{"geometry": {"type": "Point", "coordinates": [-84.8995289816, 38.7847601221]}, "type": "Feature", "properties": {"collection_times": [{"days": "Mon-Fri", "time": "4:00pm"}, {"days": "Sat", "time": "12:00pm"}, {"days": "Sun", "time": "Closed"}], "id": "4109500003", "name": "USPS COLLECTION BOX - PO LOBBY", "address": {"city": "WARSAW", "state": "KY", "street": "301 E MAIN ST", "postcode": "41095"}}},
{"geometry": {"type": "Point", "coordinates": [-84.8860879119, 38.7830646424]}, "type": "Feature", "properties": {"collection_times": [{"days": "Mon-Fri", "time": "9:00am"}, {"days": "Sat", "time": "9:30am"}, {"days": "Sun", "time": "Closed"}], "id": "4109500004", "name": "USPS COLLECTION BOX - BLUE BOX", "address": {"city": "WARSAW", "state": "KY", "street": "101 SYCAMORE CIR", "postcode": "41095"}}},
{"geometry": {"type": "Point", "coordinates": [-84.8943122383, 38.7819656601]}, "type": "Feature", "properties": {"collection_times": [{"days": "Mon-Sat", "time": "9:00am"}, {"days": "Sun", "time": "Closed"}], "id": "4109500005", "name": "USPS COLLECTION BOX - BLUE BOX", "address": {"city": "WARSAW", "state": "KY", "street": "399 CENTER AVE", "postcode": "41095"}}},
{"geometry": {"type": "Point", "coordinates": [-83.8104661385, 38.6116392007]}, "type": "Feature", "properties": {"collection_times": [{"days": "Mon-Fri", "time": "4:30pm"}, {"days": "Sat", "time": "12:00pm"}, {"days": "Sun", "time": "Closed"}], "id": "4109600002", "name": "USPS COLLECTION BOX - PO LOBBY", "address": {"city": "WASHINGTON", "state": "KY", "street": "2200 OLD MAIN ST", "postcode": "41096"}}},
{"geometry": {"type": "Point", "coordinates": [-83.8104661385, 38.6116392007]}, "type": "Feature", "properties": {"collection_times": [{"days": "Mon-Fri", "time": "4:15pm"}, {"days": "Sat", "time": "11:45am"}, {"days": "Sun", "time": "Closed"}], "id": "4109600003", "name": "USPS COLLECTION BOX - BLUE BOX", "address": {"city": "WASHINGTON", "state": "KY", "street": "2200 OLD MAIN ST", "postcode": "41096"}}},
{"geometry": {"type": "Point", "coordinates": [-84.5603693807, 38.6385997469]}, "type": "Feature", "properties": {"collection_times": [{"days": "Mon-Fri", "time": "4:30pm"}, {"days": "Sat", "time": "12:30pm"}, {"days": "Sun", "time": "Closed"}], "id": "4109700000", "name": "USPS COLLECTION BOX - BLUE BOX", "address": {"city": "WILLIAMSTOWN", "state": "KY", "street": "205 N MAIN ST", "postcode": "41097"}}},
{"geometry": {"type": "Point", "coordinates": [-84.5603587341, 38.6386778222]}, "type": "Feature", "properties": {"collection_times": [{"days": "Mon-Fri", "time": "4:00pm"}, {"days": "Sat", "time": "12:00pm"}, {"days": "Sun", "time": "Closed"}], "id": "4109700001", "name": "USPS COLLECTION BOX - BLUE BOX", "address": {"city": "WILLIAMSTOWN", "state": "KY", "street": "212 N MAIN ST", "postcode": "41097"}}},
{"geometry": {"type": "Point", "coordinates": [-84.5645357622, 38.6527290088]}, "type": "Feature", "properties": {"collection_times": [{"days": "Mon-Sat", "time": "11:00am"}, {"days": "Sun", "time": "Closed"}], "id": "4109700004", "name": "USPS COLLECTION BOX - BLUE BOX", "address": {"city": "WILLIAMSTOWN", "state": "KY", "street": "206 HUMES RIDGE RD", "postcode": "41097"}}},
{"geometry": {"type": "Point", "coordinates": [-84.5766910903, 38.6579146535]}, "type": "Feature", "properties": {"collection_times": [{"days": "Mon-Sat", "time": "11:00am"}, {"days": "Sun", "time": "Closed"}], "id": "4109700006", "name": "USPS COLLECTION BOX - BLUE BOX", "address": {"city": "WILLIAMSTOWN", "state": "KY", "street": "1300 N MAIN ST", "postcode": "41097"}}},
{"geometry": {"type": "Point", "coordinates": [-84.5606722182, 38.6367472332]}, "type": "Feature", "properties": {"collection_times": [{"days": "Mon-Fri", "time": "12:00pm"}, {"days": "Sat", "time": "9:00am"}, {"days": "Sun", "time": "Closed"}], "id": "4109700007", "name": "USPS COLLECTION BOX - BLUE BOX", "address": {"city": "WILLIAMSTOWN", "state": "KY", "street": "101 N MAIN ST", "postcode": "41097"}}},
{"geometry": {"type": "Point", "coordinates": [-84.5603693807, 38.6385997469]}, "type": "Feature", "properties": {"collection_times": [{"days": "Mon-Fri", "time": "4:00pm"}, {"days": "Sat", "time": "12:00pm"}, {"days": "Sun", "time": "Closed"}], "id": "4109700010", "name": "USPS COLLECTION BOX - PO LOBBY", "address": {"city": "WILLIAMSTOWN", "state": "KY", "street": "205 N MAIN ST", "postcode": "41097"}}},
{"geometry": {"type": "Point", "coordinates": [-84.5603693807, 38.6385997469]}, "type": "Feature", "properties": {"collection_times": [{"days": "Mon-Fri", "time": "4:00pm"}, {"days": "Sat", "time": "12:00pm"}, {"days": "Sun", "time": "Closed"}], "id": "4109700011", "name": "USPS COLLECTION BOX - PO LOBBY", "address": {"city": "WILLIAMSTOWN", "state": "KY", "street": "205 N MAIN ST", "postcode": "41097"}}},
{"geometry": {"type": "Point", "coordinates": [-84.5600594455, 38.6406036794]}, "type": "Feature", "properties": {"collection_times": [{"days": "Mon-Sat", "time": "12:00pm"}, {"days": "Sun", "time": "Closed"}], "id": "4109700013", "name": "USPS COLLECTION BOX - BLUE BOX", "address": {"city": "WILLIAMSTOWN", "state": "KY", "street": "400 N MAIN ST", "postcode": "41097"}}},
{"geometry": {"type": "Point", "coordinates": [-84.5768233664, 38.6218162838]}, "type": "Feature", "properties": {"collection_times": [{"days": "Mon-Sat", "time": "8:30am"}, {"days": "Sun", "time": "Closed"}], "id": "4109700015", "name": "USPS COLLECTION BOX - BLUE BOX", "address": {"city": "WILLIAMSTOWN", "state": "KY", "street": "101 WILLIAMSBURG SQUARE DR", "postcode": "41097"}}},
{"geometry": {"type": "Point", "coordinates": [-85.0699965689, 38.6094490151]}, "type": "Feature", "properties": {"collection_times": [{"days": "Mon-Fri", "time": "3:30pm"}, {"days": "Sat", "time": "12:00pm"}, {"days": "Sun", "time": "Closed"}], "id": "4109800000", "name": "USPS COLLECTION BOX - BLUE BOX", "address": {"city": "WORTHVILLE", "state": "KY", "street": "481 US HIGHWAY 467", "postcode": "41098"}}},
{"geometry": {"type": "Point", "coordinates": [-85.0699965689, 38.6094490151]}, "type": "Feature", "properties": {"collection_times": [{"days": "Mon-Fri", "time": "3:30pm"}, {"days": "Sat", "time": "12:00pm"}, {"days": "Sun", "time": "Closed"}], "id": "4109800002", "name": "USPS COLLECTION BOX - PO LOBBY", "address": {"city": "WORTHVILLE", "state": "KY", "street": "481 US HIGHWAY 467", "postcode": "41098"}}}
]}
