{"type": "FeatureCollection", "features": [
{"geometry": {"type": "Point", "coordinates": [-82.6412597836, 38.4782354637]}, "type": "Feature", "properties": {"collection_times": [{"days": "Mon-Fri", "time": "12:30pm"}, {"days": "Sat-Sun", "time": "Closed"}], "id": "4110100009", "name": "USPS COLLECTION BOX - BLUE BOX", "address": {"city": "ASHLAND", "state": "KY", "street": "1500 CARTER AVE", "postcode": "41101"}}},
{"geometry": {"type": "Point", "coordinates": [-82.64617971, 38.4562750135]}, "type": "Feature", "properties": {"collection_times": [{"days": "Mon-Sat", "time": "9:30am"}, {"days": "Sun", "time": "Closed"}], "id": "4110100035", "name": "USPS COLLECTION BOX - BLUE BOX", "address": {"city": "ASHLAND", "state": "KY", "street": "2912 BLACKBURN AVE", "postcode": "41101"}}},
{"geometry": {"type": "Point", "coordinates": [-82.6342277242, 38.4694823354]}, "type": "Feature", "properties": {"collection_times": [{"days": "Mon-Sat", "time": "9:00am"}, {"days": "Sun", "time": "Closed"}], "id": "4110100045", "name": "USPS COLLECTION BOX - BLUE BOX", "address": {"city": "ASHLAND", "state": "KY", "street": "2301 LEXINGTON AVE", "postcode": "41101"}}},
{"geometry": {"type": "Point", "coordinates": [-82.6354230641, 38.4752922618]}, "type": "Feature", "properties": {"collection_times": [{"days": "Mon-Fri", "time": "11:30am"}, {"days": "Sat-Sun", "time": "Closed"}], "id": "4110100047", "name": "USPS COLLECTION BOX - BLUE BOX", "address": {"city": "ASHLAND", "state": "KY", "street": "2000 CARTER AVE", "postcode": "41101"}}},
{"geometry": {"type": "Point", "coordinates": [-82.6927871771, 38.5094402758]}, "type": "Feature", "properties": {"collection_times": [{"days": "Mon-Sat", "time": "9:30am"}, {"days": "Sun", "time": "Closed"}], "id": "4110100048", "name": "USPS COLLECTION BOX - BLUE BOX", "address": {"city": "ASHLAND", "state": "KY", "street": "700 SAINT CHRISTOPHER DR", "postcode": "41101"}}},
{"geometry": {"type": "Point", "coordinates": [-82.6455397292, 38.4803955468]}, "type": "Feature", "properties": {"collection_times": [{"days": "Mon-Sat", "time": "5:00pm"}, {"days": "Sun", "time": "Closed"}], "id": "4110100053", "name": "USPS COLLECTION BOX - BLUE BOX", "address": {"city": "ASHLAND", "state": "KY", "street": "1140 CARTER AVE", "postcode": "41101"}}},
{"geometry": {"type": "Point", "coordinates": [-82.6455397292, 38.4803955468]}, "type": "Feature", "properties": {"collection_times": [{"days": "Mon-Sat", "time": "5:00pm"}, {"days": "Sun", "time": "Closed"}], "id": "4110100055", "name": "USPS COLLECTION BOX - BLUE BOX", "address": {"city": "ASHLAND", "state": "KY", "street": "1140 CARTER AVE", "postcode": "41101"}}},
{"geometry": {"type": "Point", "coordinates": [-82.6377666061, 38.4787638106]}, "type": "Feature", "properties": {"collection_times": [{"days": "Mon-Sat", "time": "11:00am"}, {"days": "Sun", "time": "Closed"}], "id": "4110100061", "name": "USPS COLLECTION BOX - BLUE BOX", "address": {"city": "ASHLAND", "state": "KY", "street": "1700 MARKET ST", "postcode": "41101"}}},
{"geometry": {"type": "Point", "coordinates": [-82.6455397292, 38.4803955468]}, "type": "Feature", "properties": {"collection_times": [{"days": "Mon-Sat", "time": "5:00pm"}, {"days": "Sun", "time": "Closed"}], "id": "4110100063", "name": "USPS COLLECTION BOX - PO LOBBY", "address": {"city": "ASHLAND", "state": "KY", "street": "1140 CARTER AVE", "postcode": "41101"}}},
{"geometry": {"type": "Point", "coordinates": [-82.6419083748, 38.4601231333]}, "type": "Feature", "properties": {"collection_times": [{"days": "Mon-Sat", "time": "11:00am"}, {"days": "Sun", "time": "Closed"}], "id": "4110100064", "name": "USPS COLLECTION BOX - BLUE BOX", "address": {"city": "ASHLAND", "state": "KY", "street": "2900 MOORE ST", "postcode": "41101"}}},
{"geometry": {"type": "Point", "coordinates": [-82.6823607725, 38.5039243374]}, "type": "Feature", "properties": {"collection_times": [{"days": "Mon-Sat", "time": "10:00am"}, {"days": "Sun", "time": "Closed"}], "id": "4110100065", "name": "USPS COLLECTION BOX - BLUE BOX", "address": {"city": "ASHLAND", "state": "KY", "street": "370 DIEDERICH BLVD", "postcode": "41101"}}},
{"geometry": {"type": "Point", "coordinates": [-82.6927871771, 38.5094402758]}, "type": "Feature", "properties": {"collection_times": [{"days": "Mon-Sat", "time": "9:30am"}, {"days": "Sun", "time": "Closed"}], "id": "4110100066", "name": "USPS COLLECTION BOX - BLUE BOX", "address": {"city": "ASHLAND", "state": "KY", "street": "700 SAINT CHRISTOPHER DR", "postcode": "41101"}}},
{"geometry": {"type": "Point", "coordinates": [-82.6329585343, 38.4711640733]}, "type": "Feature", "properties": {"collection_times": [{"days": "Mon-Sat", "time": "9:00am"}, {"days": "Sun", "time": "Closed"}], "id": "4110100068", "name": "USPS COLLECTION BOX - BLUE BOX", "address": {"city": "ASHLAND", "state": "KY", "street": "617 23RD ST", "postcode": "41101"}}},
{"geometry": {"type": "Point", "coordinates": [-82.6390606629, 38.4797496512]}, "type": "Feature", "properties": {"collection_times": [{"days": "Mon-Sat", "time": "10:00am"}, {"days": "Sun", "time": "Closed"}], "id": "4110100069", "name": "USPS COLLECTION BOX - BLUE BOX", "address": {"city": "ASHLAND", "state": "KY", "street": "1539 GREENUP AVE", "postcode": "41101"}}},
{"geometry": {"type": "Point", "coordinates": [-82.6241589288, 38.4694236024]}, "type": "Feature", "properties": {"collection_times": [{"days": "Mon-Sat", "time": "1:00pm"}, {"days": "Sun", "time": "Closed"}], "id": "4110100070", "name": "USPS COLLECTION BOX - BLUE BOX", "address": {"city": "ASHLAND", "state": "KY", "street": "336 29TH ST", "postcode": "41101"}}},
{"geometry": {"type": "Point", "coordinates": [-82.6947885962, 38.5080315048]}, "type": "Feature", "properties": {"collection_times": [{"days": "Mon-Sat", "time": "9:30am"}, {"days": "Sun", "time": "Closed"}], "id": "4110100073", "name": "USPS COLLECTION BOX - BLUE BOX", "address": {"city": "ASHLAND", "state": "KY", "street": "1101 SAINT CHRISTOPHER DR", "postcode": "41101"}}},
{"geometry": {"type": "Point", "coordinates": [-82.640071122, 38.4790332245]}, "type": "Feature", "properties": {"collection_times": [{"days": "Mon-Sat", "time": "10:30am"}, {"days": "Sun", "time": "Closed"}], "id": "4110100076", "name": "USPS COLLECTION BOX - BLUE BOX", "address": {"city": "ASHLAND", "state": "KY", "street": "1544 WINCHESTER AVE", "postcode": "41101"}}},
{"geometry": {"type": "Point", "coordinates": [-82.6477239822, 38.4764606479]}, "type": "Feature", "properties": {"collection_times": [{"days": "Mon-Sat", "time": "10:00am"}, {"days": "Sun", "time": "Closed"}], "id": "4110100077", "name": "USPS COLLECTION BOX - BLUE BOX", "address": {"city": "ASHLAND", "state": "KY", "street": "711 MARTIN LUTHER KING JR BLVD", "postcode": "41101"}}},
{"geometry": {"type": "Point", "coordinates": [-82.6424139625, 38.4626679623]}, "type": "Feature", "properties": {"collection_times": [{"days": "Mon-Sat", "time": "9:00am"}, {"days": "Sun", "time": "Closed"}], "id": "4110100078", "name": "USPS COLLECTION BOX - BLUE BOX", "address": {"city": "ASHLAND", "state": "KY", "street": "2000 ASHLAND DR", "postcode": "41101"}}},
{"geometry": {"type": "Point", "coordinates": [-82.6504349578, 38.4762483346]}, "type": "Feature", "properties": {"collection_times": [{"days": "Mon-Sat", "time": "9:00am"}, {"days": "Sun", "time": "Closed"}], "id": "4110100080", "name": "USPS COLLECTION BOX - BLUE BOX", "address": {"city": "ASHLAND", "state": "KY", "street": "201 PROVIDENCE HILL DR", "postcode": "41101"}}},
{"geometry": {"type": "Point", "coordinates": [-82.67023292, 38.4552861213]}, "type": "Feature", "properties": {"collection_times": [{"days": "Mon-Sat", "time": "9:30am"}, {"days": "Sun", "time": "Closed"}], "id": "4110200000", "name": "USPS COLLECTION BOX - BLUE BOX", "address": {"city": "ASHLAND", "state": "KY", "street": "3501 13TH ST", "postcode": "41102"}}},
{"geometry": {"type": "Point", "coordinates": [-82.684973205, 38.4381900919]}, "type": "Feature", "properties": {"collection_times": [{"days": "Mon-Sat", "time": "1:00pm"}, {"days": "Sun", "time": "Closed"}], "id": "4110200005", "name": "USPS COLLECTION BOX - BLUE BOX", "address": {"city": "ASHLAND", "state": "KY", "street": "6123 US ROUTE 60", "postcode": "41102"}}},
{"geometry": {"type": "Point", "coordinates": [-82.694758529, 38.4394417857]}, "type": "Feature", "properties": {"collection_times": [{"days": "Mon-Sat", "time": "12:30pm"}, {"days": "Sun", "time": "Closed"}], "id": "4110200011", "name": "USPS COLLECTION BOX - BLUE BOX", "address": {"city": "ASHLAND", "state": "KY", "street": "3100 ROBERTS DR", "postcode": "41102"}}},
{"geometry": {"type": "Point", "coordinates": [-82.7116346544, 38.4008637402]}, "type": "Feature", "properties": {"collection_times": [{"days": "Mon-Sat", "time": "10:00am"}, {"days": "Sun", "time": "Closed"}], "id": "4110200012", "name": "USPS COLLECTION BOX - BLUE BOX", "address": {"city": "ASHLAND", "state": "KY", "street": "10699 US ROUTE 60", "postcode": "41102"}}},
{"geometry": {"type": "Point", "coordinates": [-82.803253173, 38.4320519752]}, "type": "Feature", "properties": {"collection_times": [{"days": "Mon-Fri", "time": "4:15pm"}, {"days": "Sat", "time": "11:00am"}, {"days": "Sun", "time": "Closed"}], "id": "4112100000", "name": "USPS COLLECTION BOX - BLUE BOX", "address": {"city": "ARGILLITE", "state": "KY", "street": "5470 STATE ROUTE 1", "postcode": "41121"}}},
{"geometry": {"type": "Point", "coordinates": [-82.83377698, 38.4596721313]}, "type": "Feature", "properties": {"collection_times": [{"days": "Mon-Sat", "time": "1:15pm"}, {"days": "Sun", "time": "Closed"}], "id": "4112100001", "name": "USPS COLLECTION BOX - BLUE BOX", "address": {"city": "ARGILLITE", "state": "KY", "street": "8174 STATE ROUTE 207", "postcode": "41121"}}},
{"geometry": {"type": "Point", "coordinates": [-82.858626848, 38.0353474879]}, "type": "Feature", "properties": {"collection_times": [{"days": "Mon-Fri", "time": "1:00pm"}, {"days": "Sat", "time": "10:00am"}, {"days": "Sun", "time": "Closed"}], "id": "4112400000", "name": "USPS COLLECTION BOX - BLUE BOX", "address": {"city": "BLAINE", "state": "KY", "street": "30 S HIGHWAY 201", "postcode": "41124"}}},
{"geometry": {"type": "Point", "coordinates": [-82.858626848, 38.0353474879]}, "type": "Feature", "properties": {"collection_times": [{"days": "Mon-Fri", "time": "1:00pm"}, {"days": "Sat", "time": "10:00am"}, {"days": "Sun", "time": "Closed"}], "id": "4112400001", "name": "USPS COLLECTION BOX - PO LOBBY", "address": {"city": "BLAINE", "state": "KY", "street": "30 S HIGHWAY 201", "postcode": "41124"}}},
{"geometry": {"type": "Point", "coordinates": [-82.5981393274, 38.4151576219]}, "type": "Feature", "properties": {"collection_times": [{"days": "Mon-Fri", "time": "4:00pm"}, {"days": "Sat", "time": "9:00am"}, {"days": "Sun", "time": "Closed"}], "id": "4112900002", "name": "USPS COLLECTION BOX - BLUE BOX", "address": {"city": "CATLETTSBURG", "state": "KY", "street": "2900 LOUISA ST", "postcode": "41129"}}},
{"geometry": {"type": "Point", "coordinates": [-82.5985159196, 38.417939767]}, "type": "Feature", "properties": {"collection_times": [{"days": "Mon-Fri", "time": "4:00pm"}, {"days": "Sat", "time": "9:00am"}, {"days": "Sun", "time": "Closed"}], "id": "4112900009", "name": "USPS COLLECTION BOX - BLUE BOX", "address": {"city": "CATLETTSBURG", "state": "KY", "street": "2501 BROADWAY ST", "postcode": "41129"}}},
{"geometry": {"type": "Point", "coordinates": [-82.6008984067, 38.4040213501]}, "type": "Feature", "properties": {"collection_times": [{"days": "Mon-Sat", "time": "4:00pm"}, {"days": "Sun", "time": "Closed"}], "id": "4112900012", "name": "USPS COLLECTION BOX - PO LOBBY", "address": {"city": "CATLETTSBURG", "state": "KY", "street": "3514 COURT ST", "postcode": "41129"}}},
{"geometry": {"type": "Point", "coordinates": [-82.6008984067, 38.4040213501]}, "type": "Feature", "properties": {"collection_times": [{"days": "Mon-Sat", "time": "4:00pm"}, {"days": "Sun", "time": "Closed"}], "id": "4112900013", "name": "USPS COLLECTION BOX - PO LOBBY", "address": {"city": "CATLETTSBURG", "state": "KY", "street": "3514 COURT ST", "postcode": "41129"}}},
{"geometry": {"type": "Point", "coordinates": [-82.6009903684, 38.4035420023]}, "type": "Feature", "properties": {"collection_times": [{"days": "Mon-Fri", "time": "4:00pm"}, {"days": "Sat", "time": "2:45pm"}, {"days": "Sun", "time": "Closed"}], "id": "4112900014", "name": "USPS COLLECTION BOX - BLUE BOX", "address": {"city": "CATLETTSBURG", "state": "KY", "street": "3600 LOUISA RD", "postcode": "41129"}}},
{"geometry": {"type": "Point", "coordinates": [-82.6008984067, 38.4040213501]}, "type": "Feature", "properties": {"collection_times": [{"days": "Mon-Sat", "time": "4:00pm"}, {"days": "Sun", "time": "Closed"}], "id": "4112900015", "name": "USPS COLLECTION BOX - BLUE BOX", "address": {"city": "CATLETTSBURG", "state": "KY", "street": "3514 COURT ST", "postcode": "41129"}}},
{"geometry": {"type": "Point", "coordinates": [-82.6988495377, 38.3650299656]}, "type": "Feature", "properties": {"collection_times": [{"days": "Mon-Sat", "time": "10:30am"}, {"days": "Sun", "time": "Closed"}], "id": "4112900017", "name": "USPS COLLECTION BOX - BLUE BOX", "address": {"city": "CATLETTSBURG", "state": "KY", "street": "15300 STATE ROUTE 180", "postcode": "41129"}}},
{"geometry": {"type": "Point", "coordinates": [-82.5981393274, 38.4151576219]}, "type": "Feature", "properties": {"collection_times": [{"days": "Mon-Fri", "time": "4:00pm"}, {"days": "Sat", "time": "9:00am"}, {"days": "Sun", "time": "Closed"}], "id": "4112900019", "name": "USPS COLLECTION BOX - BLUE BOX", "address": {"city": "CATLETTSBURG", "state": "KY", "street": "2900 LOUISA ST", "postcode": "41129"}}},
{"geometry": {"type": "Point", "coordinates": [-82.7199046478, 38.520122678]}, "type": "Feature", "properties": {"collection_times": [{"days": "Mon-Sat", "time": "4:00pm"}, {"days": "Sun", "time": "Closed"}], "id": "4113900005", "name": "USPS COLLECTION BOX - BLUE BOX", "address": {"city": "FLATWOODS", "state": "KY", "street": "2125 ARGILLITE RD", "postcode": "41139"}}},
{"geometry": {"type": "Point", "coordinates": [-82.7199046478, 38.520122678]}, "type": "Feature", "properties": {"collection_times": [{"days": "Mon-Sat", "time": "4:00pm"}, {"days": "Sun", "time": "Closed"}], "id": "4113900006", "name": "USPS COLLECTION BOX - PO LOBBY", "address": {"city": "FLATWOODS", "state": "KY", "street": "2125 ARGILLITE RD", "postcode": "41139"}}},
{"geometry": {"type": "Point", "coordinates": [-82.7199046478, 38.520122678]}, "type": "Feature", "properties": {"collection_times": [{"days": "Mon-Sat", "time": "4:00pm"}, {"days": "Sun", "time": "Closed"}], "id": "4113900007", "name": "USPS COLLECTION BOX - PO LOBBY", "address": {"city": "FLATWOODS", "state": "KY", "street": "2125 ARGILLITE RD", "postcode": "41139"}}},
{"geometry": {"type": "Point", "coordinates": [-83.172843399, 38.5598828443]}, "type": "Feature", "properties": {"collection_times": [{"days": "Mon-Fri", "time": "3:30pm"}, {"days": "Sat", "time": "11:15am"}, {"days": "Sun", "time": "Closed"}], "id": "4114100000", "name": "USPS COLLECTION BOX - BLUE BOX", "address": {"city": "GARRISON", "state": "KY", "street": "9102 E KY 8", "postcode": "41141"}}},
{"geometry": {"type": "Point", "coordinates": [-83.172843399, 38.5598828443]}, "type": "Feature", "properties": {"collection_times": [{"days": "Mon-Fri", "time": "3:30pm"}, {"days": "Sat", "time": "11:15am"}, {"days": "Sun", "time": "Closed"}], "id": "4114100001", "name": "USPS COLLECTION BOX - PO LOBBY", "address": {"city": "GARRISON", "state": "KY", "street": "9102 E KY 8", "postcode": "41141"}}},
{"geometry": {"type": "Point", "coordinates": [-85.2876172144, 37.5272361307]}, "type": "Feature", "properties": {"collection_times": [{"days": "Mon-Fri", "time": "3:45pm"}, {"days": "Sat", "time": "11:00am"}, {"days": "Sun", "time": "Closed"}], "id": "4114200000", "name": "USPS COLLECTION BOX - BLUE BOX", "address": {"city": "GRAHN", "state": "KY", "street": "61 POST OFFICE AVE", "postcode": "41142"}}},
{"geometry": {"type": "Point", "coordinates": [-85.2876172144, 37.5272361307]}, "type": "Feature", "properties": {"collection_times": [{"days": "Mon-Fri", "time": "3:45pm"}, {"days": "Sat", "time": "11:00am"}, {"days": "Sun", "time": "Closed"}], "id": "4114200001", "name": "USPS COLLECTION BOX - PO LOBBY", "address": {"city": "GRAHN", "state": "KY", "street": "61 POST OFFICE AVE", "postcode": "41142"}}},
{"geometry": {"type": "Point", "coordinates": [-82.9488044134, 38.3325744187]}, "type": "Feature", "properties": {"collection_times": [{"days": "Mon-Fri", "time": "3:00pm"}, {"days": "Sat", "time": "1:00pm"}, {"days": "Sun", "time": "Closed"}], "id": "4114300002", "name": "USPS COLLECTION BOX - BLUE BOX", "address": {"city": "GRAYSON", "state": "KY", "street": "100 E MAIN ST", "postcode": "41143"}}},
{"geometry": {"type": "Point", "coordinates": [-82.9366012255, 38.3473598316]}, "type": "Feature", "properties": {"collection_times": [{"days": "Mon-Sat", "time": "8:30am"}, {"days": "Sun", "time": "Closed"}], "id": "4114300005", "name": "USPS COLLECTION BOX - BLUE BOX", "address": {"city": "GRAYSON", "state": "KY", "street": "600 CW STEVENS BLVD", "postcode": "41143"}}},
{"geometry": {"type": "Point", "coordinates": [-82.9423649654, 38.3424648042]}, "type": "Feature", "properties": {"collection_times": [{"days": "Mon-Sat", "time": "10:00am"}, {"days": "Sun", "time": "Closed"}], "id": "4114300006", "name": "USPS COLLECTION BOX - BLUE BOX", "address": {"city": "GRAYSON", "state": "KY", "street": "750 N CAROL MALONE BLVD", "postcode": "41143"}}},
{"geometry": {"type": "Point", "coordinates": [-82.9474640534, 38.3267187142]}, "type": "Feature", "properties": {"collection_times": [{"days": "Mon-Sat", "time": "4:30pm"}, {"days": "Sun", "time": "Closed"}], "id": "4114300007", "name": "USPS COLLECTION BOX - PO LOBBY", "address": {"city": "GRAYSON", "state": "KY", "street": "390 S CAROL MALONE BLVD", "postcode": "41143"}}},
{"geometry": {"type": "Point", "coordinates": [-82.9474640534, 38.3267187142]}, "type": "Feature", "properties": {"collection_times": [{"days": "Mon-Sat", "time": "4:30pm"}, {"days": "Sun", "time": "Closed"}], "id": "4114300008", "name": "USPS COLLECTION BOX - BLUE BOX", "address": {"city": "GRAYSON", "state": "KY", "street": "390 S CAROL MALONE BLVD", "postcode": "41143"}}},
{"geometry": {"type": "Point", "coordinates": [-82.9536482428, 38.3169317654]}, "type": "Feature", "properties": {"collection_times": [{"days": "Mon-Sat", "time": "9:00am"}, {"days": "Sun", "time": "Closed"}], "id": "4114300009", "name": "USPS COLLECTION BOX - BLUE BOX", "address": {"city": "GRAYSON", "state": "KY", "street": "950 N CAROL MALONE BLVD", "postcode": "41143"}}},
{"geometry": {"type": "Point", "coordinates": [-82.8361386684, 38.5776414417]}, "type": "Feature", "properties": {"collection_times": [{"days": "Mon-Sat", "time": "2:00pm"}, {"days": "Sun", "time": "Closed"}], "id": "4114400003", "name": "USPS COLLECTION BOX - BLUE BOX", "address": {"city": "GREENUP", "state": "KY", "street": "401 MAIN ST", "postcode": "41144"}}},
{"geometry": {"type": "Point", "coordinates": [-82.9247643904, 38.4910699638]}, "type": "Feature", "properties": {"collection_times": [{"days": "Mon-Sat", "time": "2:00pm"}, {"days": "Sun", "time": "Closed"}], "id": "4114400004", "name": "USPS COLLECTION BOX - BLUE BOX", "address": {"city": "GREENUP", "state": "KY", "street": "1625 ASHLAND RD", "postcode": "41144"}}},
{"geometry": {"type": "Point", "coordinates": [-82.9247643904, 38.4910699638]}, "type": "Feature", "properties": {"collection_times": [{"days": "Mon-Fri", "time": "4:00pm"}, {"days": "Sat", "time": "2:00pm"}, {"days": "Sun", "time": "Closed"}], "id": "4114400009", "name": "USPS COLLECTION BOX - BLUE BOX", "address": {"city": "GREENUP", "state": "KY", "street": "1312 ASHLAND RD", "postcode": "41144"}}},
{"geometry": {"type": "Point", "coordinates": [-82.8354242776, 38.5785427692]}, "type": "Feature", "properties": {"collection_times": [{"days": "Mon-Sat", "time": "2:00pm"}, {"days": "Sun", "time": "Closed"}], "id": "4114400013", "name": "USPS COLLECTION BOX - BLUE BOX", "address": {"city": "GREENUP", "state": "KY", "street": "101 HARRISON ST", "postcode": "41144"}}},
{"geometry": {"type": "Point", "coordinates": [-82.9247643904, 38.4910699638]}, "type": "Feature", "properties": {"collection_times": [{"days": "Mon-Fri", "time": "4:30pm"}, {"days": "Sat", "time": "2:00pm"}, {"days": "Sun", "time": "Closed"}], "id": "4114400014", "name": "USPS COLLECTION BOX - PO LOBBY", "address": {"city": "GREENUP", "state": "KY", "street": "1312 ASHLAND RD", "postcode": "41144"}}},
{"geometry": {"type": "Point", "coordinates": [-82.9247643904, 38.4910699638]}, "type": "Feature", "properties": {"collection_times": [{"days": "Mon-Fri", "time": "4:30pm"}, {"days": "Sat", "time": "2:00pm"}, {"days": "Sun", "time": "Closed"}], "id": "4114400015", "name": "USPS COLLECTION BOX - PO LOBBY", "address": {"city": "GREENUP", "state": "KY", "street": "1312 ASHLAND RD", "postcode": "41144"}}},
{"geometry": {"type": "Point", "coordinates": [-82.7803642065, 38.5504494549]}, "type": "Feature", "properties": {"collection_times": [{"days": "Mon-Sat", "time": "11:00am"}, {"days": "Sun", "time": "Closed"}], "id": "4114400018", "name": "USPS COLLECTION BOX - BLUE BOX", "address": {"city": "GREENUP", "state": "KY", "street": "500 WURTLAND AVE", "postcode": "41144"}}},
{"geometry": {"type": "Point", "coordinates": [-82.9247643904, 38.4910699638]}, "type": "Feature", "properties": {"collection_times": [{"days": "Mon-Sat", "time": "1:00pm"}, {"days": "Sun", "time": "Closed"}], "id": "4114400019", "name": "USPS COLLECTION BOX - BLUE BOX", "address": {"city": "GREENUP", "state": "KY", "street": "950 TOWNHILL PLZ", "postcode": "41144"}}},
{"geometry": {"type": "Point", "coordinates": [-82.9184850523, 38.2852316864]}, "type": "Feature", "properties": {"collection_times": [{"days": "Mon-Fri", "time": "3:45pm"}, {"days": "Sat", "time": "11:30am"}, {"days": "Sun", "time": "Closed"}], "id": "4114600000", "name": "USPS COLLECTION BOX - BLUE BOX", "address": {"city": "HITCHINS", "state": "KY", "street": "3625 S STATE HIGHWAY 1", "postcode": "41146"}}},
{"geometry": {"type": "Point", "coordinates": [-82.9184850523, 38.2852316864]}, "type": "Feature", "properties": {"collection_times": [{"days": "Mon-Fri", "time": "3:45pm"}, {"days": "Sat", "time": "11:30am"}, {"days": "Sun", "time": "Closed"}], "id": "4114600001", "name": "USPS COLLECTION BOX - PO LOBBY", "address": {"city": "HITCHINS", "state": "KY", "street": "3625 S STATE HIGHWAY 1", "postcode": "41146"}}},
{"geometry": {"type": "Point", "coordinates": [-83.0407743282, 38.0613649031]}, "type": "Feature", "properties": {"collection_times": [{"days": "Mon-Fri", "time": "12:00pm"}, {"days": "Sat", "time": "11:30am"}, {"days": "Sun", "time": "Closed"}], "id": "4114900000", "name": "USPS COLLECTION BOX - BLUE BOX", "address": {"city": "ISONVILLE", "state": "KY", "street": "5454 S KY 32", "postcode": "41149"}}},
{"geometry": {"type": "Point", "coordinates": [-82.9159311753, 38.0064908166]}, "type": "Feature", "properties": {"collection_times": [{"days": "Mon-Fri", "time": "12:45pm"}, {"days": "Sat", "time": "11:45am"}, {"days": "Sun", "time": "Closed"}], "id": "4115900000", "name": "USPS COLLECTION BOX - BLUE BOX", "address": {"city": "MARTHA", "state": "KY", "street": "247 HIGHWAY 469", "postcode": "41159"}}},
{"geometry": {"type": "Point", "coordinates": [-82.9159311753, 38.0064908166]}, "type": "Feature", "properties": {"collection_times": [{"days": "Mon-Fri", "time": "12:45pm"}, {"days": "Sat", "time": "11:45am"}, {"days": "Sun", "time": "Closed"}], "id": "4115900001", "name": "USPS COLLECTION BOX - PO LOBBY", "address": {"city": "MARTHA", "state": "KY", "street": "247 HIGHWAY 469", "postcode": "41159"}}},
{"geometry": {"type": "Point", "coordinates": [-83.1735483359, 38.3014866682]}, "type": "Feature", "properties": {"collection_times": [{"days": "Mon-Sat", "time": "4:30pm"}, {"days": "Sun", "time": "Closed"}], "id": "4116400000", "name": "USPS COLLECTION BOX - BLUE BOX", "address": {"city": "OLIVE HILL", "state": "KY", "street": "215 W TOM T HALL BLVD", "postcode": "41164"}}},
{"geometry": {"type": "Point", "coordinates": [-83.1735483359, 38.3014866682]}, "type": "Feature", "properties": {"collection_times": [{"days": "Mon-Sat", "time": "4:30pm"}, {"days": "Sun", "time": "Closed"}], "id": "4116400001", "name": "USPS COLLECTION BOX - BLUE BOX", "address": {"city": "OLIVE HILL", "state": "KY", "street": "215 W TOM T HALL BLVD", "postcode": "41164"}}},
{"geometry": {"type": "Point", "coordinates": [-83.1735483359, 38.3014866682]}, "type": "Feature", "properties": {"collection_times": [{"days": "Mon-Sat", "time": "4:30pm"}, {"days": "Sun", "time": "Closed"}], "id": "4116400007", "name": "USPS COLLECTION BOX - PO LOBBY", "address": {"city": "OLIVE HILL", "state": "KY", "street": "215 W TOM T HALL BLVD", "postcode": "41164"}}},
{"geometry": {"type": "Point", "coordinates": [-83.1735483359, 38.3014866682]}, "type": "Feature", "properties": {"collection_times": [{"days": "Mon-Sat", "time": "4:30pm"}, {"days": "Sun", "time": "Closed"}], "id": "4116400008", "name": "USPS COLLECTION BOX - PO LOBBY", "address": {"city": "OLIVE HILL", "state": "KY", "street": "215 W TOM T HALL BLVD", "postcode": "41164"}}},
{"geometry": {"type": "Point", "coordinates": [-83.0839349353, 38.6486108683]}, "type": "Feature", "properties": {"collection_times": [{"days": "Mon-Fri", "time": "3:45pm"}, {"days": "Sat", "time": "10:00am"}, {"days": "Sun", "time": "Closed"}], "id": "4116600000", "name": "USPS COLLECTION BOX - BLUE BOX", "address": {"city": "QUINCY", "state": "KY", "street": "11977 E KY 8", "postcode": "41166"}}},
{"geometry": {"type": "Point", "coordinates": [-83.0839349353, 38.6486108683]}, "type": "Feature", "properties": {"collection_times": [{"days": "Mon-Fri", "time": "3:45pm"}, {"days": "Sat", "time": "10:00am"}, {"days": "Sun", "time": "Closed"}], "id": "4116600001", "name": "USPS COLLECTION BOX - PO LOBBY", "address": {"city": "QUINCY", "state": "KY", "street": "11977 E KY 8", "postcode": "41166"}}},
{"geometry": {"type": "Point", "coordinates": [-82.7242232945, 38.3030817804]}, "type": "Feature", "properties": {"collection_times": [{"days": "Mon-Fri", "time": "2:45pm"}, {"days": "Sat", "time": "10:45am"}, {"days": "Sun", "time": "Closed"}], "id": "4116800000", "name": "USPS COLLECTION BOX - BLUE BOX", "address": {"city": "RUSH", "state": "KY", "street": "15100 STATE ROUTE 854", "postcode": "41168"}}},
{"geometry": {"type": "Point", "coordinates": [-82.7242232945, 38.3030817804]}, "type": "Feature", "properties": {"collection_times": [{"days": "Mon-Fri", "time": "2:45pm"}, {"days": "Sat", "time": "10:45am"}, {"days": "Sun", "time": "Closed"}], "id": "4116800001", "name": "USPS COLLECTION BOX - PO LOBBY", "address": {"city": "RUSH", "state": "KY", "street": "15100 STATE ROUTE 854", "postcode": "41168"}}},
{"geometry": {"type": "Point", "coordinates": [-82.7664546968, 38.3697072594]}, "type": "Feature", "properties": {"collection_times": [{"days": "Mon-Sat", "time": "10:45am"}, {"days": "Sun", "time": "Closed"}], "id": "4116800002", "name": "USPS COLLECTION BOX - BLUE BOX", "address": {"city": "RUSH", "state": "KY", "street": "1965 US ROUTE 60", "postcode": "41168"}}},
{"geometry": {"type": "Point", "coordinates": [-82.7706411886, 38.2916769201]}, "type": "Feature", "properties": {"collection_times": [{"days": "Mon-Sat", "time": "7:15am"}, {"days": "Sun", "time": "Closed"}], "id": "4116800003", "name": "USPS COLLECTION BOX - BLUE BOX", "address": {"city": "RUSH", "state": "KY", "street": "2901 PIGEON ROOST RD", "postcode": "41168"}}},
{"geometry": {"type": "Point", "coordinates": [-82.7684194073, 38.2997628939]}, "type": "Feature", "properties": {"collection_times": [{"days": "Mon-Sat", "time": "10:00am"}, {"days": "Sun", "time": "Closed"}], "id": "4116800004", "name": "USPS COLLECTION BOX - BLUE BOX", "address": {"city": "RUSH", "state": "KY", "street": "8088 E US HIGHWAY 60", "postcode": "41168"}}},
{"geometry": {"type": "Point", "coordinates": [-82.6953919531, 38.5315899434]}, "type": "Feature", "properties": {"collection_times": [{"days": "Mon-Fri", "time": "4:00pm"}, {"days": "Sat", "time": "11:30am"}, {"days": "Sun", "time": "Closed"}], "id": "4116900005", "name": "USPS COLLECTION BOX - BLUE BOX", "address": {"city": "RUSSELL", "state": "KY", "street": "517 BOYD ST", "postcode": "41169"}}},
{"geometry": {"type": "Point", "coordinates": [-82.6953919531, 38.5315899434]}, "type": "Feature", "properties": {"collection_times": [{"days": "Mon-Fri", "time": "2:30pm"}, {"days": "Sat", "time": "11:30am"}, {"days": "Sun", "time": "Closed"}], "id": "4116900007", "name": "USPS COLLECTION BOX - PO LOBBY", "address": {"city": "RUSSELL", "state": "KY", "street": "517 BOYD ST", "postcode": "41169"}}},
{"geometry": {"type": "Point", "coordinates": [-83.0764786556, 38.1689311156]}, "type": "Feature", "properties": {"collection_times": [{"days": "Mon-Fri", "time": "4:00pm"}, {"days": "Sat", "time": "11:00am"}, {"days": "Sun", "time": "Closed"}], "id": "4117100000", "name": "USPS COLLECTION BOX - BLUE BOX", "address": {"city": "SANDY HOOK", "state": "KY", "street": "200 S KY 7", "postcode": "41171"}}},
{"geometry": {"type": "Point", "coordinates": [-83.0764786556, 38.1689311156]}, "type": "Feature", "properties": {"collection_times": [{"days": "Mon-Sat", "time": "11:00am"}, {"days": "Sun", "time": "Closed"}], "id": "4117100001", "name": "USPS COLLECTION BOX - BLUE BOX", "address": {"city": "SANDY HOOK", "state": "KY", "street": "8992 N KY 7", "postcode": "41171"}}},
{"geometry": {"type": "Point", "coordinates": [-83.0764786556, 38.1689311156]}, "type": "Feature", "properties": {"collection_times": [{"days": "Mon-Fri", "time": "4:00pm"}, {"days": "Sat", "time": "11:00am"}, {"days": "Sun", "time": "Closed"}], "id": "4117100002", "name": "USPS COLLECTION BOX - PO LOBBY", "address": {"city": "SANDY HOOK", "state": "KY", "street": "200 S KY 7", "postcode": "41171"}}},
{"geometry": {"type": "Point", "coordinates": [-83.2973968366, 38.2587335323]}, "type": "Feature", "properties": {"collection_times": [{"days": "Mon-Fri", "time": "1:00pm"}, {"days": "Sat", "time": "11:00am"}, {"days": "Sun", "time": "Closed"}], "id": "4117300000", "name": "USPS COLLECTION BOX - BLUE BOX", "address": {"city": "SOLDIER", "state": "KY", "street": "8337 STATE HIGHWAY 174", "postcode": "41173"}}},
{"geometry": {"type": "Point", "coordinates": [-83.2973968366, 38.2587335323]}, "type": "Feature", "properties": {"collection_times": [{"days": "Mon-Fri", "time": "1:00pm"}, {"days": "Sat", "time": "11:00am"}, {"days": "Sun", "time": "Closed"}], "id": "4117300001", "name": "USPS COLLECTION BOX - PO LOBBY", "address": {"city": "SOLDIER", "state": "KY", "street": "8337 STATE HIGHWAY 174", "postcode": "41173"}}},
{"geometry": {"type": "Point", "coordinates": [-83.0309392375, 38.7053067061]}, "type": "Feature", "properties": {"collection_times": [{"days": "Mon-Fri", "time": "3:30pm"}, {"days": "Sat", "time": "12:00pm"}, {"days": "Sun", "time": "Closed"}], "id": "4117400000", "name": "USPS COLLECTION BOX - BLUE BOX", "address": {"city": "S PORTSMOUTH", "state": "KY", "street": "2246 STATE ROUTE 8", "postcode": "41174"}}},
{"geometry": {"type": "Point", "coordinates": [-83.0309392375, 38.7053067061]}, "type": "Feature", "properties": {"collection_times": [{"days": "Mon-Fri", "time": "3:30pm"}, {"days": "Sat", "time": "12:00pm"}, {"days": "Sun", "time": "Closed"}], "id": "4117400001", "name": "USPS COLLECTION BOX - PO LOBBY", "address": {"city": "S PORTSMOUTH", "state": "KY", "street": "2246 STATE ROUTE 8", "postcode": "41174"}}},
{"geometry": {"type": "Point", "coordinates": [-82.9801451694, 38.6397565361]}, "type": "Feature", "properties": {"collection_times": [{"days": "Mon-Sat", "time": "4:30pm"}, {"days": "Sun", "time": "Closed"}], "id": "4117500001", "name": "USPS COLLECTION BOX - PO LOBBY", "address": {"city": "SOUTH SHORE", "state": "KY", "street": "11 NARCO DR", "postcode": "41175"}}},
{"geometry": {"type": "Point", "coordinates": [-82.9801451694, 38.6397565361]}, "type": "Feature", "properties": {"collection_times": [{"days": "Mon-Sat", "time": "4:30pm"}, {"days": "Sun", "time": "Closed"}], "id": "4117500003", "name": "USPS COLLECTION BOX - BLUE BOX", "address": {"city": "SOUTH SHORE", "state": "KY", "street": "11 NARCO DR", "postcode": "41175"}}},
{"geometry": {"type": "Point", "coordinates": [-83.3175290297, 38.6005951188]}, "type": "Feature", "properties": {"collection_times": [{"days": "Mon-Fri", "time": "4:00pm"}, {"days": "Sat", "time": "3:00pm"}, {"days": "Sun", "time": "Closed"}], "id": "4117900000", "name": "USPS COLLECTION BOX - PO LOBBY", "address": {"city": "VANCEBURG", "state": "KY", "street": "520 THIRD ST", "postcode": "41179"}}},
{"geometry": {"type": "Point", "coordinates": [-83.3175290297, 38.6005951188]}, "type": "Feature", "properties": {"collection_times": [{"days": "Mon-Fri", "time": "4:00pm"}, {"days": "Sat", "time": "3:00pm"}, {"days": "Sun", "time": "Closed"}], "id": "4117900001", "name": "USPS COLLECTION BOX - BLUE BOX", "address": {"city": "VANCEBURG", "state": "KY", "street": "520 THIRD ST", "postcode": "41179"}}},
{"geometry": {"type": "Point", "coordinates": [-83.3166018423, 38.6012005408]}, "type": "Feature", "properties": {"collection_times": [{"days": "Mon-Sat", "time": "1:00pm"}, {"days": "Sun", "time": "Closed"}], "id": "4117900002", "name": "USPS COLLECTION BOX - BLUE BOX", "address": {"city": "VANCEBURG", "state": "KY", "street": "514 SECOND ST", "postcode": "41179"}}},
{"geometry": {"type": "Point", "coordinates": [-83.3813038177, 38.4962217303]}, "type": "Feature", "properties": {"collection_times": [{"days": "Mon-Sat", "time": "12:45pm"}, {"days": "Sun", "time": "Closed"}], "id": "4117900007", "name": "USPS COLLECTION BOX - BLUE BOX", "address": {"city": "VANCEBURG", "state": "KY", "street": "167 COMMERCIAL DR", "postcode": "41179"}}},
{"geometry": {"type": "Point", "coordinates": [-82.8936207829, 38.2081589898]}, "type": "Feature", "properties": {"collection_times": [{"days": "Mon-Fri", "time": "3:00pm"}, {"days": "Sat", "time": "10:30am"}, {"days": "Sun", "time": "Closed"}], "id": "4118100000", "name": "USPS COLLECTION BOX - BLUE BOX", "address": {"city": "WILLARD", "state": "KY", "street": "8679 S STATE HIGHWAY 1", "postcode": "41181"}}},
{"geometry": {"type": "Point", "coordinates": [-82.8936207829, 38.2081589898]}, "type": "Feature", "properties": {"collection_times": [{"days": "Mon-Fri", "time": "3:00pm"}, {"days": "Sat", "time": "10:30am"}, {"days": "Sun", "time": "Closed"}], "id": "4118100001", "name": "USPS COLLECTION BOX - PO LOBBY", "address": {"city": "WILLARD", "state": "KY", "street": "8679 S STATE HIGHWAY 1", "postcode": "41181"}}},
{"geometry": {"type": "Point", "coordinates": [-82.7276613506, 38.5489858402]}, "type": "Feature", "properties": {"collection_times": [{"days": "Mon-Fri", "time": "3:30pm"}, {"days": "Sat", "time": "12:00pm"}, {"days": "Sun", "time": "Closed"}], "id": "4118300000", "name": "USPS COLLECTION BOX - BLUE BOX", "address": {"city": "WORTHINGTON", "state": "KY", "street": "605 FERRY AVE", "postcode": "41183"}}},
{"geometry": {"type": "Point", "coordinates": [-82.7276613506, 38.5489858402]}, "type": "Feature", "properties": {"collection_times": [{"days": "Mon-Fri", "time": "3:30pm"}, {"days": "Sat", "time": "12:00pm"}, {"days": "Sun", "time": "Closed"}], "id": "4118300001", "name": "USPS COLLECTION BOX - PO LOBBY", "address": {"city": "WORTHINGTON", "state": "KY", "street": "605 FERRY AVE", "postcode": "41183"}}},
{"geometry": {"type": "Point", "coordinates": [-83.546109196, 38.5877444384]}, "type": "Feature", "properties": {"collection_times": [{"days": "Mon-Fri", "time": "3:45pm"}, {"days": "Sat", "time": "11:15am"}, {"days": "Sun", "time": "Closed"}], "id": "4118900000", "name": "USPS COLLECTION BOX - BLUE BOX", "address": {"city": "TOLLESBORO", "state": "KY", "street": "3900 W KY 10", "postcode": "41189"}}},
{"geometry": {"type": "Point", "coordinates": [-83.546109196, 38.5877444384]}, "type": "Feature", "properties": {"collection_times": [{"days": "Mon-Fri", "time": "3:45pm"}, {"days": "Sat", "time": "11:15am"}, {"days": "Sun", "time": "Closed"}], "id": "4118900001", "name": "USPS COLLECTION BOX - PO LOBBY", "address": {"city": "TOLLESBORO", "state": "KY", "street": "3900 W KY 10", "postcode": "41189"}}}
]}
