{"type": "FeatureCollection", "features": [
{"geometry": {"type": "Point", "coordinates": [-82.4500772761, 37.8263613788]}, "type": "Feature", "properties": {"collection_times": [{"days": "Mon-Fri", "time": "3:00pm"}, {"days": "Sat", "time": "11:30am"}, {"days": "Sun", "time": "Closed"}], "id": "4120300000", "name": "USPS COLLECTION BOX - BLUE BOX", "address": {"city": "BEAUTY", "state": "KY", "street": "7815 BEAUTY RD", "postcode": "41203"}}},
{"geometry": {"type": "Point", "coordinates": [-82.4500772761, 37.8263613788]}, "type": "Feature", "properties": {"collection_times": [{"days": "Mon-Fri", "time": "3:00pm"}, {"days": "Sat", "time": "11:30am"}, {"days": "Sun", "time": "Closed"}], "id": "4120300001", "name": "USPS COLLECTION BOX - PO LOBBY", "address": {"city": "BEAUTY", "state": "KY", "street": "7815 BEAUTY RD", "postcode": "41203"}}},
{"geometry": {"type": "Point", "coordinates": [-82.7003676085, 37.8322800229]}, "type": "Feature", "properties": {"collection_times": [{"days": "Mon-Fri", "time": "1:45pm"}, {"days": "Sat", "time": "12:45pm"}, {"days": "Sun", "time": "Closed"}], "id": "4120400000", "name": "USPS COLLECTION BOX - BLUE BOX", "address": {"city": "BOONS CAMP", "state": "KY", "street": "10061 KY ROUTE 40 E", "postcode": "41204"}}},
{"geometry": {"type": "Point", "coordinates": [-82.9176321505, 37.8980754379]}, "type": "Feature", "properties": {"collection_times": [{"days": "Mon-Fri", "time": "2:30pm"}, {"days": "Sat", "time": "11:00am"}, {"days": "Sun", "time": "Closed"}], "id": "4121900000", "name": "USPS COLLECTION BOX - BLUE BOX", "address": {"city": "FLATGAP", "state": "KY", "street": "1145 KY ROUTE 689 E", "postcode": "41219"}}},
{"geometry": {"type": "Point", "coordinates": [-82.9176321505, 37.8980754379]}, "type": "Feature", "properties": {"collection_times": [{"days": "Mon-Fri", "time": "2:30pm"}, {"days": "Sat", "time": "11:00am"}, {"days": "Sun", "time": "Closed"}], "id": "4121900001", "name": "USPS COLLECTION BOX - PO LOBBY", "address": {"city": "FLATGAP", "state": "KY", "street": "1145 KY ROUTE 689 E", "postcode": "41219"}}},
{"geometry": {"type": "Point", "coordinates": [-82.792289464, 37.7907360679]}, "type": "Feature", "properties": {"collection_times": [{"days": "Mon-Fri", "time": "2:00pm"}, {"days": "Sat", "time": "12:30pm"}, {"days": "Sun", "time": "Closed"}], "id": "4122200000", "name": "USPS COLLECTION BOX - BLUE BOX", "address": {"city": "HAGERHILL", "state": "KY", "street": "1344 KY ROUTE 1428", "postcode": "41222"}}},
{"geometry": {"type": "Point", "coordinates": [-82.792289464, 37.7907360679]}, "type": "Feature", "properties": {"collection_times": [{"days": "Mon-Fri", "time": "2:00pm"}, {"days": "Sat", "time": "12:30pm"}, {"days": "Sun", "time": "Closed"}], "id": "4122200001", "name": "USPS COLLECTION BOX - PO LOBBY", "address": {"city": "HAGERHILL", "state": "KY", "street": "1344 KY ROUTE 1428", "postcode": "41222"}}},
{"geometry": {"type": "Point", "coordinates": [-82.5134300798, 37.8691682105]}, "type": "Feature", "properties": {"collection_times": [{"days": "Mon-Fri", "time": "3:45pm"}, {"days": "Sat", "time": "1:00pm"}, {"days": "Sun", "time": "Closed"}], "id": "4122400000", "name": "USPS COLLECTION BOX - BLUE BOX", "address": {"city": "INEZ", "state": "KY", "street": "33 PARK PL", "postcode": "41224"}}},
{"geometry": {"type": "Point", "coordinates": [-82.5134300798, 37.8691682105]}, "type": "Feature", "properties": {"collection_times": [{"days": "Mon-Fri", "time": "3:30pm"}, {"days": "Sat", "time": "10:15am"}, {"days": "Sun", "time": "Closed"}], "id": "4122400002", "name": "USPS COLLECTION BOX - BLUE BOX", "address": {"city": "INEZ", "state": "KY", "street": "14 COURT ST", "postcode": "41224"}}},
{"geometry": {"type": "Point", "coordinates": [-82.5134300798, 37.8691682105]}, "type": "Feature", "properties": {"collection_times": [{"days": "Mon-Fri", "time": "4:00pm"}, {"days": "Sat", "time": "1:00pm"}, {"days": "Sun", "time": "Closed"}], "id": "4122400003", "name": "USPS COLLECTION BOX - PO LOBBY", "address": {"city": "INEZ", "state": "KY", "street": "33 PARK PL", "postcode": "41224"}}},
{"geometry": {"type": "Point", "coordinates": [-82.5401823059, 37.8670948937]}, "type": "Feature", "properties": {"collection_times": [{"days": "Mon-Fri", "time": "12:00pm"}, {"days": "Sat-Sun", "time": "Closed"}], "id": "4122400004", "name": "USPS COLLECTION BOX - BLUE BOX", "address": {"city": "INEZ", "state": "KY", "street": "387 E MAIN ST", "postcode": "41224"}}},
{"geometry": {"type": "Point", "coordinates": [-82.5134300798, 37.8691682105]}, "type": "Feature", "properties": {"collection_times": [{"days": "Mon-Sat", "time": "10:15am"}, {"days": "Sun", "time": "Closed"}], "id": "4122400005", "name": "USPS COLLECTION BOX - BLUE BOX", "address": {"city": "INEZ", "state": "KY", "street": "30 ROCKCASTLE RD", "postcode": "41224"}}},
{"geometry": {"type": "Point", "coordinates": [-85.2876172144, 37.5272361307]}, "type": "Feature", "properties": {"collection_times": [{"days": "Mon-Fri", "time": "12:00pm"}, {"days": "Sat", "time": "10:00am"}, {"days": "Sun", "time": "Closed"}], "id": "4122400006", "name": "USPS COLLECTION BOX - BLUE BOX", "address": {"city": "INEZ", "state": "KY", "street": "104 E MAIN ST", "postcode": "41224"}}},
{"geometry": {"type": "Point", "coordinates": [-82.6014670374, 38.111772287]}, "type": "Feature", "properties": {"collection_times": [{"days": "Mon-Fri", "time": "2:30pm"}, {"days": "Sat", "time": "12:00pm"}, {"days": "Sun", "time": "Closed"}], "id": "4123000000", "name": "USPS COLLECTION BOX - BLUE BOX", "address": {"city": "LOUISA", "state": "KY", "street": "122 S RICKY SKAGGS BLVD", "postcode": "41230"}}},
{"geometry": {"type": "Point", "coordinates": [-82.6036510405, 38.1142017735]}, "type": "Feature", "properties": {"collection_times": [{"days": "Mon-Sat", "time": "4:30pm"}, {"days": "Sun", "time": "Closed"}], "id": "4123000005", "name": "USPS COLLECTION BOX - BLUE BOX", "address": {"city": "LOUISA", "state": "KY", "street": "108 E MADISON ST", "postcode": "41230"}}},
{"geometry": {"type": "Point", "coordinates": [-82.6102968612, 38.11254458]}, "type": "Feature", "properties": {"collection_times": [{"days": "Mon-Sat", "time": "10:00am"}, {"days": "Sun", "time": "Closed"}], "id": "4123000007", "name": "USPS COLLECTION BOX - BLUE BOX", "address": {"city": "LOUISA", "state": "KY", "street": "115 LOUISA PLZ", "postcode": "41230"}}},
{"geometry": {"type": "Point", "coordinates": [-82.6560911029, 38.0855054612]}, "type": "Feature", "properties": {"collection_times": [{"days": "Mon-Sat", "time": "10:00am"}, {"days": "Sun", "time": "Closed"}], "id": "4123000011", "name": "USPS COLLECTION BOX - BLUE BOX", "address": {"city": "LOUISA", "state": "KY", "street": "70 BUSINESS US 23 N", "postcode": "41230"}}},
{"geometry": {"type": "Point", "coordinates": [-82.6036510405, 38.1142017735]}, "type": "Feature", "properties": {"collection_times": [{"days": "Mon-Sat", "time": "4:30pm"}, {"days": "Sun", "time": "Closed"}], "id": "4123000012", "name": "USPS COLLECTION BOX - PO LOBBY", "address": {"city": "LOUISA", "state": "KY", "street": "108 E MADISON ST", "postcode": "41230"}}},
{"geometry": {"type": "Point", "coordinates": [-82.6036510405, 38.1142017735]}, "type": "Feature", "properties": {"collection_times": [{"days": "Mon-Sat", "time": "4:30pm"}, {"days": "Sun", "time": "Closed"}], "id": "4123000013", "name": "USPS COLLECTION BOX - PO LOBBY", "address": {"city": "LOUISA", "state": "KY", "street": "108 E MADISON ST", "postcode": "41230"}}},
{"geometry": {"type": "Point", "coordinates": [-82.6560911029, 38.0855054612]}, "type": "Feature", "properties": {"collection_times": [{"days": "Mon-Sat", "time": "12:00pm"}, {"days": "Sun", "time": "Closed"}], "id": "4123000016", "name": "USPS COLLECTION BOX - BLUE BOX", "address": {"city": "LOUISA", "state": "KY", "street": "275 WALTON DR", "postcode": "41230"}}},
{"geometry": {"type": "Point", "coordinates": [-82.3617698045, 37.7799983223]}, "type": "Feature", "properties": {"collection_times": [{"days": "Mon-Fri", "time": "2:30pm"}, {"days": "Sat", "time": "12:00pm"}, {"days": "Sun", "time": "Closed"}], "id": "4123100000", "name": "USPS COLLECTION BOX - BLUE BOX", "address": {"city": "LOVELY", "state": "KY", "street": "1423 RIVER FRONT RD STE 100", "postcode": "41231"}}},
{"geometry": {"type": "Point", "coordinates": [-82.3617698045, 37.7799983223]}, "type": "Feature", "properties": {"collection_times": [{"days": "Mon-Fri", "time": "2:30pm"}, {"days": "Sat", "time": "12:00pm"}, {"days": "Sun", "time": "Closed"}], "id": "4123100001", "name": "USPS COLLECTION BOX - PO LOBBY", "address": {"city": "LOVELY", "state": "KY", "street": "1423 RIVER FRONT RD STE 100", "postcode": "41231"}}},
{"geometry": {"type": "Point", "coordinates": [-82.699423625, 37.9393919305]}, "type": "Feature", "properties": {"collection_times": [{"days": "Mon-Fri", "time": "2:00pm"}, {"days": "Sat", "time": "11:30am"}, {"days": "Sun", "time": "Closed"}], "id": "4123200000", "name": "USPS COLLECTION BOX - BLUE BOX", "address": {"city": "LOWMANSVILLE", "state": "KY", "street": "48 MAY LN", "postcode": "41232"}}},
{"geometry": {"type": "Point", "coordinates": [-82.699423625, 37.9393919305]}, "type": "Feature", "properties": {"collection_times": [{"days": "Mon-Fri", "time": "2:00pm"}, {"days": "Sat", "time": "11:30am"}, {"days": "Sun", "time": "Closed"}], "id": "4123200001", "name": "USPS COLLECTION BOX - PO LOBBY", "address": {"city": "LOWMANSVILLE", "state": "KY", "street": "48 MAY LN", "postcode": "41232"}}},
{"geometry": {"type": "Point", "coordinates": [-82.7465524976, 37.7954862834]}, "type": "Feature", "properties": {"collection_times": [{"days": "Mon-Fri", "time": "1:00pm"}, {"days": "Sat", "time": "11:30am"}, {"days": "Sun", "time": "Closed"}], "id": "4123400000", "name": "USPS COLLECTION BOX - BLUE BOX", "address": {"city": "MEALLY", "state": "KY", "street": "3699 KY ROUTE 40 E", "postcode": "41234"}}},
{"geometry": {"type": "Point", "coordinates": [-82.7465524976, 37.7954862834]}, "type": "Feature", "properties": {"collection_times": [{"days": "Mon-Fri", "time": "1:00pm"}, {"days": "Sat", "time": "11:30am"}, {"days": "Sun", "time": "Closed"}], "id": "4123400001", "name": "USPS COLLECTION BOX - PO LOBBY", "address": {"city": "MEALLY", "state": "KY", "street": "3699 KY ROUTE 40 E", "postcode": "41234"}}},
{"geometry": {"type": "Point", "coordinates": [-82.9475871931, 37.8080980925]}, "type": "Feature", "properties": {"collection_times": [{"days": "Mon-Sat", "time": "2:00pm"}, {"days": "Sun", "time": "Closed"}], "id": "4123800000", "name": "USPS COLLECTION BOX - BLUE BOX", "address": {"city": "OIL SPRINGS", "state": "KY", "street": "8895 KY ROUTE 40 W", "postcode": "41238"}}},
{"geometry": {"type": "Point", "coordinates": [-82.9475871931, 37.8080980925]}, "type": "Feature", "properties": {"collection_times": [{"days": "Mon-Sat", "time": "2:00pm"}, {"days": "Sun", "time": "Closed"}], "id": "4123800001", "name": "USPS COLLECTION BOX - PO LOBBY", "address": {"city": "OIL SPRINGS", "state": "KY", "street": "8895 KY ROUTE 40 W", "postcode": "41238"}}},
{"geometry": {"type": "Point", "coordinates": [-82.9509574333, 37.8360812869]}, "type": "Feature", "properties": {"collection_times": [{"days": "Mon-Sat", "time": "2:00pm"}, {"days": "Sun", "time": "Closed"}], "id": "4123800002", "name": "USPS COLLECTION BOX - BLUE BOX", "address": {"city": "OIL SPRINGS", "state": "KY", "street": "8085 KY ROUTE 40 W", "postcode": "41238"}}},
{"geometry": {"type": "Point", "coordinates": [-82.8093047978, 37.8146822361]}, "type": "Feature", "properties": {"collection_times": [{"days": "Mon-Fri", "time": "11:00am"}, {"days": "Sat", "time": "10:30am"}, {"days": "Sun", "time": "Closed"}], "id": "4124000000", "name": "USPS COLLECTION BOX - BLUE BOX", "address": {"city": "PAINTSVILLE", "state": "KY", "street": "244 2ND ST", "postcode": "41240"}}},
{"geometry": {"type": "Point", "coordinates": [-82.8080722854, 37.8135939621]}, "type": "Feature", "properties": {"collection_times": [{"days": "Mon-Fri", "time": "11:00am"}, {"days": "Sat", "time": "10:30am"}, {"days": "Sun", "time": "Closed"}], "id": "4124000002", "name": "USPS COLLECTION BOX - BLUE BOX", "address": {"city": "PAINTSVILLE", "state": "KY", "street": "404 MAIN ST", "postcode": "41240"}}},
{"geometry": {"type": "Point", "coordinates": [-82.8014867635, 37.8099718149]}, "type": "Feature", "properties": {"collection_times": [{"days": "Mon-Sat", "time": "11:45am"}, {"days": "Sun", "time": "Closed"}], "id": "4124000003", "name": "USPS COLLECTION BOX - BLUE BOX", "address": {"city": "PAINTSVILLE", "state": "KY", "street": "640 JEFFERSON AVE", "postcode": "41240"}}},
{"geometry": {"type": "Point", "coordinates": [-82.8109994069, 37.8134067881]}, "type": "Feature", "properties": {"collection_times": [{"days": "Mon-Fri", "time": "11:00am"}, {"days": "Sat", "time": "10:30am"}, {"days": "Sun", "time": "Closed"}], "id": "4124000006", "name": "USPS COLLECTION BOX - BLUE BOX", "address": {"city": "PAINTSVILLE", "state": "KY", "street": "205 MAIN ST", "postcode": "41240"}}},
{"geometry": {"type": "Point", "coordinates": [-82.8158288903, 37.816126047]}, "type": "Feature", "properties": {"collection_times": [{"days": "Mon-Sat", "time": "9:00am"}, {"days": "Sun", "time": "Closed"}], "id": "4124000013", "name": "USPS COLLECTION BOX - BLUE BOX", "address": {"city": "PAINTSVILLE", "state": "KY", "street": "313 N MAYO TRL", "postcode": "41240"}}},
{"geometry": {"type": "Point", "coordinates": [-82.7946588955, 37.8246408875]}, "type": "Feature", "properties": {"collection_times": [{"days": "Mon-Sat", "time": "4:15pm"}, {"days": "Sun", "time": "Closed"}], "id": "4124000015", "name": "USPS COLLECTION BOX - PO LOBBY", "address": {"city": "PAINTSVILLE", "state": "KY", "street": "100 FEDERAL DR # 41240", "postcode": "41240"}}},
{"geometry": {"type": "Point", "coordinates": [-82.7390436359, 37.8476262681]}, "type": "Feature", "properties": {"collection_times": [{"days": "Mon-Sat", "time": "4:15pm"}, {"days": "Sun", "time": "Closed"}], "id": "4124000017", "name": "USPS COLLECTION BOX - BLUE BOX", "address": {"city": "PAINTSVILLE", "state": "KY", "street": "100 FEDERAL DR", "postcode": "41240"}}},
{"geometry": {"type": "Point", "coordinates": [-82.7946588955, 37.8246408875]}, "type": "Feature", "properties": {"collection_times": [{"days": "Mon-Sat", "time": "10:00am"}, {"days": "Sun", "time": "Closed"}], "id": "4124000019", "name": "USPS COLLECTION BOX - BLUE BOX", "address": {"city": "PAINTSVILLE", "state": "KY", "street": "470 N MAYO TRL", "postcode": "41240"}}},
{"geometry": {"type": "Point", "coordinates": [-82.4763177545, 37.7360548627]}, "type": "Feature", "properties": {"collection_times": [{"days": "Mon-Fri", "time": "2:15pm"}, {"days": "Sat", "time": "12:45pm"}, {"days": "Sun", "time": "Closed"}], "id": "4125000000", "name": "USPS COLLECTION BOX - BLUE BOX", "address": {"city": "PILGRIM", "state": "KY", "street": "75 EMILY CRK", "postcode": "41250"}}},
{"geometry": {"type": "Point", "coordinates": [-82.4763177545, 37.7360548627]}, "type": "Feature", "properties": {"collection_times": [{"days": "Mon-Fri", "time": "2:15pm"}, {"days": "Sat", "time": "12:45pm"}, {"days": "Sun", "time": "Closed"}], "id": "4125000001", "name": "USPS COLLECTION BOX - PO LOBBY", "address": {"city": "PILGRIM", "state": "KY", "street": "75 EMILY CRK", "postcode": "41250"}}},
{"geometry": {"type": "Point", "coordinates": [-82.8509765127, 37.829631155]}, "type": "Feature", "properties": {"collection_times": [{"days": "Mon-Fri", "time": "2:00pm"}, {"days": "Sat", "time": "11:30am"}, {"days": "Sun", "time": "Closed"}], "id": "4125600000", "name": "USPS COLLECTION BOX - BLUE BOX", "address": {"city": "STAFFORDSVILLE", "state": "KY", "street": "1100 KY ROUTE 40 W", "postcode": "41256"}}},
{"geometry": {"type": "Point", "coordinates": [-82.8509765127, 37.829631155]}, "type": "Feature", "properties": {"collection_times": [{"days": "Mon-Fri", "time": "2:00pm"}, {"days": "Sat", "time": "11:30am"}, {"days": "Sun", "time": "Closed"}], "id": "4125600001", "name": "USPS COLLECTION BOX - PO LOBBY", "address": {"city": "STAFFORDSVILLE", "state": "KY", "street": "1100 KY ROUTE 40 W", "postcode": "41256"}}},
{"geometry": {"type": "Point", "coordinates": [-82.7655293462, 37.8227779069]}, "type": "Feature", "properties": {"collection_times": [{"days": "Mon-Fri", "time": "2:15pm"}, {"days": "Sat", "time": "11:15am"}, {"days": "Sun", "time": "Closed"}], "id": "4126000000", "name": "USPS COLLECTION BOX - BLUE BOX", "address": {"city": "THELMA", "state": "KY", "street": "5490 MAIN ST", "postcode": "41260"}}},
{"geometry": {"type": "Point", "coordinates": [-82.7655293462, 37.8227779069]}, "type": "Feature", "properties": {"collection_times": [{"days": "Mon-Fri", "time": "2:15pm"}, {"days": "Sat", "time": "11:15am"}, {"days": "Sun", "time": "Closed"}], "id": "4126000001", "name": "USPS COLLECTION BOX - PO LOBBY", "address": {"city": "THELMA", "state": "KY", "street": "5490 MAIN ST", "postcode": "41260"}}},
{"geometry": {"type": "Point", "coordinates": [-82.6108902485, 37.8249619056]}, "type": "Feature", "properties": {"collection_times": [{"days": "Mon-Fri", "time": "12:00pm"}, {"days": "Sat", "time": "11:30am"}, {"days": "Sun", "time": "Closed"}], "id": "4126200000", "name": "USPS COLLECTION BOX - BLUE BOX", "address": {"city": "TOMAHAWK", "state": "KY", "street": "2691 TOMAHAWK RD", "postcode": "41262"}}},
{"geometry": {"type": "Point", "coordinates": [-82.7593567261, 37.7718841572]}, "type": "Feature", "properties": {"collection_times": [{"days": "Mon-Fri", "time": "1:30pm"}, {"days": "Sat", "time": "11:00am"}, {"days": "Sun", "time": "Closed"}], "id": "4126500000", "name": "USPS COLLECTION BOX - BLUE BOX", "address": {"city": "VAN LEAR", "state": "KY", "street": "55 MILLERS CRK", "postcode": "41265"}}},
{"geometry": {"type": "Point", "coordinates": [-82.7593567261, 37.7718841572]}, "type": "Feature", "properties": {"collection_times": [{"days": "Mon-Fri", "time": "1:30pm"}, {"days": "Sat", "time": "11:00am"}, {"days": "Sun", "time": "Closed"}], "id": "4126500001", "name": "USPS COLLECTION BOX - PO LOBBY", "address": {"city": "VAN LEAR", "state": "KY", "street": "55 MILLERS CRK", "postcode": "41265"}}},
{"geometry": {"type": "Point", "coordinates": [-82.4407015158, 37.8658506775]}, "type": "Feature", "properties": {"collection_times": [{"days": "Mon-Fri", "time": "2:45pm"}, {"days": "Sat", "time": "11:30am"}, {"days": "Sun", "time": "Closed"}], "id": "4126700000", "name": "USPS COLLECTION BOX - BLUE BOX", "address": {"city": "WARFIELD", "state": "KY", "street": "82 FIREHOUSE LN", "postcode": "41267"}}},
{"geometry": {"type": "Point", "coordinates": [-82.4407015158, 37.8658506775]}, "type": "Feature", "properties": {"collection_times": [{"days": "Mon-Fri", "time": "2:45pm"}, {"days": "Sat", "time": "11:30am"}, {"days": "Sun", "time": "Closed"}], "id": "4126700001", "name": "USPS COLLECTION BOX - PO LOBBY", "address": {"city": "WARFIELD", "state": "KY", "street": "82 FIREHOUSE LN", "postcode": "41267"}}},
{"geometry": {"type": "Point", "coordinates": [-82.7822014014, 37.7877998528]}, "type": "Feature", "properties": {"collection_times": [{"days": "Mon-Fri", "time": "1:45pm"}, {"days": "Sat", "time": "1:00pm"}, {"days": "Sun", "time": "Closed"}], "id": "4126800000", "name": "USPS COLLECTION BOX - BLUE BOX", "address": {"city": "WEST VAN LEAR", "state": "KY", "street": "797 KY ROUTE 302", "postcode": "41268"}}},
{"geometry": {"type": "Point", "coordinates": [-82.7822014014, 37.7877998528]}, "type": "Feature", "properties": {"collection_times": [{"days": "Mon-Fri", "time": "1:45pm"}, {"days": "Sat", "time": "1:00pm"}, {"days": "Sun", "time": "Closed"}], "id": "4126800001", "name": "USPS COLLECTION BOX - PO LOBBY", "address": {"city": "WEST VAN LEAR", "state": "KY", "street": "797 KY ROUTE 302", "postcode": "41268"}}},
{"geometry": {"type": "Point", "coordinates": [-82.7285427043, 37.8275192298]}, "type": "Feature", "properties": {"collection_times": [{"days": "Mon-Sat", "time": "11:15am"}, {"days": "Sun", "time": "Closed"}], "id": "4127100000", "name": "USPS COLLECTION BOX - BLUE BOX", "address": {"city": "WILLIAMSPORT", "state": "KY", "street": "7540 KY ROUTE 40 E", "postcode": "41271"}}},
{"geometry": {"type": "Point", "coordinates": [-82.7285427043, 37.8275192298]}, "type": "Feature", "properties": {"collection_times": [{"days": "Mon-Sat", "time": "11:15am"}, {"days": "Sun", "time": "Closed"}], "id": "4127100001", "name": "USPS COLLECTION BOX - PO LOBBY", "address": {"city": "WILLIAMSPORT", "state": "KY", "street": "7540 KY ROUTE 40 E", "postcode": "41271"}}},
{"geometry": {"type": "Point", "coordinates": [-82.8004349739, 37.8638403198]}, "type": "Feature", "properties": {"collection_times": [{"days": "Mon-Fri", "time": "4:15pm"}, {"days": "Sat", "time": "12:00pm"}, {"days": "Sun", "time": "Closed"}], "id": "4127400000", "name": "USPS COLLECTION BOX - BLUE BOX", "address": {"city": "WITTENSVILLE", "state": "KY", "street": "3027 N US HIGHWAY 23", "postcode": "41274"}}},
{"geometry": {"type": "Point", "coordinates": [-82.8004349739, 37.8638403198]}, "type": "Feature", "properties": {"collection_times": [{"days": "Mon-Fri", "time": "4:15pm"}, {"days": "Sat", "time": "12:00pm"}, {"days": "Sun", "time": "Closed"}], "id": "4127400001", "name": "USPS COLLECTION BOX - PO LOBBY", "address": {"city": "WITTENSVILLE", "state": "KY", "street": "3027 N US HIGHWAY 23", "postcode": "41274"}}}
]}
