{"type": "FeatureCollection", "features": [
{"geometry": {"type": "Point", "coordinates": [-83.4680583713, 37.731704419]}, "type": "Feature", "properties": {"collection_times": [{"days": "Mon-Sat", "time": "5:00pm"}, {"days": "Sun", "time": "Closed"}], "id": "4130100009", "name": "USPS COLLECTION BOX - PO LOBBY", "address": {"city": "CAMPTON", "state": "KY", "street": "175 MOUNTAIN PARKWAY SPUR RD", "postcode": "41301"}}},
{"geometry": {"type": "Point", "coordinates": [-83.5474353515, 37.7349564744]}, "type": "Feature", "properties": {"collection_times": [{"days": "Mon-Sat", "time": "1:30pm"}, {"days": "Sun", "time": "Closed"}], "id": "4130100010", "name": "USPS COLLECTION BOX - BLUE BOX", "address": {"city": "CAMPTON", "state": "KY", "street": "16 COURT ST", "postcode": "41301"}}},
{"geometry": {"type": "Point", "coordinates": [-83.4680583713, 37.731704419]}, "type": "Feature", "properties": {"collection_times": [{"days": "Mon-Sat", "time": "5:00pm"}, {"days": "Sun", "time": "Closed"}], "id": "4130100011", "name": "USPS COLLECTION BOX - BLUE BOX", "address": {"city": "CAMPTON", "state": "KY", "street": "175 MOUNTAIN PARKWAY SPUR RD", "postcode": "41301"}}},
{"geometry": {"type": "Point", "coordinates": [-83.7023575269, 37.5727477503]}, "type": "Feature", "properties": {"collection_times": [{"days": "Mon-Fri", "time": "4:00pm"}, {"days": "Sat", "time": "2:30pm"}, {"days": "Sun", "time": "Closed"}], "id": "4131100000", "name": "USPS COLLECTION BOX - BLUE BOX", "address": {"city": "BEATTYVILLE", "state": "KY", "street": "301 MAIN ST", "postcode": "41311"}}},
{"geometry": {"type": "Point", "coordinates": [-83.7023575269, 37.5727477503]}, "type": "Feature", "properties": {"collection_times": [{"days": "Mon-Fri", "time": "4:00pm"}, {"days": "Sat", "time": "2:30pm"}, {"days": "Sun", "time": "Closed"}], "id": "4131100001", "name": "USPS COLLECTION BOX - PO LOBBY", "address": {"city": "BEATTYVILLE", "state": "KY", "street": "301 MAIN ST", "postcode": "41311"}}},
{"geometry": {"type": "Point", "coordinates": [-83.7065949767, 37.5702881174]}, "type": "Feature", "properties": {"collection_times": [{"days": "Mon-Sat", "time": "1:30pm"}, {"days": "Sun", "time": "Closed"}], "id": "4131100002", "name": "USPS COLLECTION BOX - BLUE BOX", "address": {"city": "BEATTYVILLE", "state": "KY", "street": "169 BROADWAY ST", "postcode": "41311"}}},
{"geometry": {"type": "Point", "coordinates": [-83.702991056, 37.5713948459]}, "type": "Feature", "properties": {"collection_times": [{"days": "Mon-Sat", "time": "8:00am"}, {"days": "Sun", "time": "Closed"}], "id": "4131100004", "name": "USPS COLLECTION BOX - BLUE BOX", "address": {"city": "BEATTYVILLE", "state": "KY", "street": "18 WATER ST", "postcode": "41311"}}},
{"geometry": {"type": "Point", "coordinates": [-83.6335656174, 37.4905886776]}, "type": "Feature", "properties": {"collection_times": [{"days": "Mon-Fri", "time": "4:00pm"}, {"days": "Sat", "time": "3:15pm"}, {"days": "Sun", "time": "Closed"}], "id": "4131400000", "name": "USPS COLLECTION BOX - BLUE BOX", "address": {"city": "BOONEVILLE", "state": "KY", "street": "830 KY 11 N", "postcode": "41314"}}},
{"geometry": {"type": "Point", "coordinates": [-83.6335656174, 37.4905886776]}, "type": "Feature", "properties": {"collection_times": [{"days": "Mon-Fri", "time": "4:00pm"}, {"days": "Sat", "time": "3:15pm"}, {"days": "Sun", "time": "Closed"}], "id": "4131400001", "name": "USPS COLLECTION BOX - PO LOBBY", "address": {"city": "BOONEVILLE", "state": "KY", "street": "830 KY 11 N", "postcode": "41314"}}},
{"geometry": {"type": "Point", "coordinates": [-83.6335656174, 37.4905886776]}, "type": "Feature", "properties": {"collection_times": [{"days": "Mon-Sat", "time": "2:00pm"}, {"days": "Sun", "time": "Closed"}], "id": "4131400002", "name": "USPS COLLECTION BOX - BLUE BOX", "address": {"city": "BOONEVILLE", "state": "KY", "street": "PO BOX 9998", "postcode": "41314"}}},
{"geometry": {"type": "Point", "coordinates": [-83.6335656174, 37.4905886776]}, "type": "Feature", "properties": {"collection_times": [{"days": "Mon-Sat", "time": "2:00pm"}, {"days": "Sun", "time": "Closed"}], "id": "4131400003", "name": "USPS COLLECTION BOX - BLUE BOX", "address": {"city": "BOONEVILLE", "state": "KY", "street": "1 POSTAL WAY", "postcode": "41314"}}},
{"geometry": {"type": "Point", "coordinates": [-83.2912092183, 37.4655149528]}, "type": "Feature", "properties": {"collection_times": [{"days": "Mon-Sat", "time": "8:00am"}, {"days": "Sun", "time": "Closed"}], "id": "4131700000", "name": "USPS COLLECTION BOX - BLUE BOX", "address": {"city": "CLAYHOLE", "state": "KY", "street": "3757 HIGHWAY 476", "postcode": "41317"}}},
{"geometry": {"type": "Point", "coordinates": [-83.2912092183, 37.4655149528]}, "type": "Feature", "properties": {"collection_times": [{"days": "Mon-Sat", "time": "8:00am"}, {"days": "Sun", "time": "Closed"}], "id": "4131700001", "name": "USPS COLLECTION BOX - PO LOBBY", "address": {"city": "CLAYHOLE", "state": "KY", "street": "3757 HIGHWAY 476", "postcode": "41317"}}},
{"geometry": {"type": "Point", "coordinates": [-83.4033340738, 37.7951109935]}, "type": "Feature", "properties": {"collection_times": [{"days": "Mon-Fri", "time": "3:45pm"}, {"days": "Sat", "time": "11:15am"}, {"days": "Sun", "time": "Closed"}], "id": "4133200000", "name": "USPS COLLECTION BOX - BLUE BOX", "address": {"city": "HAZEL GREEN", "state": "KY", "street": "10491 KY HIGHWAY 191", "postcode": "41332"}}},
{"geometry": {"type": "Point", "coordinates": [-83.4033340738, 37.7951109935]}, "type": "Feature", "properties": {"collection_times": [{"days": "Mon-Fri", "time": "4:00pm"}, {"days": "Sat", "time": "11:30am"}, {"days": "Sun", "time": "Closed"}], "id": "4133200001", "name": "USPS COLLECTION BOX - PO LOBBY", "address": {"city": "HAZEL GREEN", "state": "KY", "street": "10491 KY HIGHWAY 191", "postcode": "41332"}}},
{"geometry": {"type": "Point", "coordinates": [-83.3945567157, 37.5595438068]}, "type": "Feature", "properties": {"collection_times": [{"days": "Mon-Fri", "time": "4:30pm"}, {"days": "Sat", "time": "3:00pm"}, {"days": "Sun", "time": "Closed"}], "id": "4133900000", "name": "USPS COLLECTION BOX - PO LOBBY", "address": {"city": "JACKSON", "state": "KY", "street": "790 HIGHWAY 15 N", "postcode": "41339"}}},
{"geometry": {"type": "Point", "coordinates": [-83.3945567157, 37.5595438068]}, "type": "Feature", "properties": {"collection_times": [{"days": "Mon-Fri", "time": "4:30pm"}, {"days": "Sat", "time": "3:00pm"}, {"days": "Sun", "time": "Closed"}], "id": "4133900003", "name": "USPS COLLECTION BOX - BLUE BOX", "address": {"city": "JACKSON", "state": "KY", "street": "790 HIGHWAY 15 N", "postcode": "41339"}}},
{"geometry": {"type": "Point", "coordinates": [-83.3802010818, 37.5576951205]}, "type": "Feature", "properties": {"collection_times": [{"days": "Mon-Sat", "time": "9:30am"}, {"days": "Sun", "time": "Closed"}], "id": "4133900005", "name": "USPS COLLECTION BOX - BLUE BOX", "address": {"city": "JACKSON", "state": "KY", "street": "100 HIGHWAY 15 S", "postcode": "41339"}}},
{"geometry": {"type": "Point", "coordinates": [-83.3719695908, 37.5583388197]}, "type": "Feature", "properties": {"collection_times": [{"days": "Mon-Fri", "time": "1:30pm"}, {"days": "Sat", "time": "1:00pm"}, {"days": "Sun", "time": "Closed"}], "id": "4133900007", "name": "USPS COLLECTION BOX - BLUE BOX", "address": {"city": "JACKSON", "state": "KY", "street": "720 HIGHWAY 15 S", "postcode": "41339"}}},
{"geometry": {"type": "Point", "coordinates": [-83.3863, 37.55267]}, "type": "Feature", "properties": {"collection_times": [{"days": "Mon-Fri", "time": "1:30pm"}, {"days": "Sat", "time": "12:30pm"}, {"days": "Sun", "time": "Closed"}], "id": "4133900009", "name": "USPS COLLECTION BOX - BLUE BOX", "address": {"city": "JACKSON", "state": "KY", "street": "1152 MAIN ST", "postcode": "41339"}}},
{"geometry": {"type": "Point", "coordinates": [-83.385216, 37.553295]}, "type": "Feature", "properties": {"collection_times": [{"days": "Mon-Fri", "time": "2:00pm"}, {"days": "Sat", "time": "12:30pm"}, {"days": "Sun", "time": "Closed"}], "id": "4133900010", "name": "USPS COLLECTION BOX - BLUE BOX", "address": {"city": "JACKSON", "state": "KY", "street": "1130 MAIN ST", "postcode": "41339"}}},
{"geometry": {"type": "Point", "coordinates": [-83.3391394209, 37.4821995795]}, "type": "Feature", "properties": {"collection_times": [{"days": "Mon-Fri", "time": "1:45pm"}, {"days": "Sat", "time": "11:00am"}, {"days": "Sun", "time": "Closed"}], "id": "4134800000", "name": "USPS COLLECTION BOX - BLUE BOX", "address": {"city": "LOST CREEK", "state": "KY", "street": "9950 HIGHWAY 15 S", "postcode": "41348"}}},
{"geometry": {"type": "Point", "coordinates": [-83.3341877451, 37.8130131037]}, "type": "Feature", "properties": {"collection_times": [{"days": "Mon-Sat", "time": "1:00pm"}, {"days": "Sun", "time": "Closed"}], "id": "4135200000", "name": "USPS COLLECTION BOX - PO LOBBY", "address": {"city": "MIZE", "state": "KY", "street": "8447 HIGHWAY 460 W", "postcode": "41352"}}},
{"geometry": {"type": "Point", "coordinates": [-83.6536593025, 37.7191939314]}, "type": "Feature", "properties": {"collection_times": [{"days": "Mon-Fri", "time": "4:00pm"}, {"days": "Sat", "time": "10:30am"}, {"days": "Sun", "time": "Closed"}], "id": "4136500000", "name": "USPS COLLECTION BOX - BLUE BOX", "address": {"city": "ROGERS", "state": "KY", "street": "1660 KY 715", "postcode": "41365"}}},
{"geometry": {"type": "Point", "coordinates": [-83.6536593025, 37.7191939314]}, "type": "Feature", "properties": {"collection_times": [{"days": "Mon-Fri", "time": "4:00pm"}, {"days": "Sat", "time": "10:30am"}, {"days": "Sun", "time": "Closed"}], "id": "4136500001", "name": "USPS COLLECTION BOX - PO LOBBY", "address": {"city": "ROGERS", "state": "KY", "street": "1660 KY 715", "postcode": "41365"}}},
{"geometry": {"type": "Point", "coordinates": [-83.6490621195, 37.581693675]}, "type": "Feature", "properties": {"collection_times": [{"days": "Mon-Fri", "time": "1:30pm"}, {"days": "Sat", "time": "11:30am"}, {"days": "Sun", "time": "Closed"}], "id": "4136800000", "name": "USPS COLLECTION BOX - PO LOBBY", "address": {"city": "SAINT HELENS", "state": "KY", "street": "92 HIGHWAY 2016", "postcode": "41368"}}},
{"geometry": {"type": "Point", "coordinates": [-83.6490621195, 37.581693675]}, "type": "Feature", "properties": {"collection_times": [{"days": "Mon-Fri", "time": "1:30pm"}, {"days": "Sat", "time": "11:30am"}, {"days": "Sun", "time": "Closed"}], "id": "4136800001", "name": "USPS COLLECTION BOX - BLUE BOX", "address": {"city": "SAINT HELENS", "state": "KY", "street": "92 HIGHWAY 2016", "postcode": "41368"}}},
{"geometry": {"type": "Point", "coordinates": [-83.3381787302, 37.6459742513]}, "type": "Feature", "properties": {"collection_times": [{"days": "Mon-Fri", "time": "3:45pm"}, {"days": "Sat", "time": "10:45am"}, {"days": "Sun", "time": "Closed"}], "id": "4138500000", "name": "USPS COLLECTION BOX - BLUE BOX", "address": {"city": "VANCLEVE", "state": "KY", "street": "6857 HIGHWAY 15 N", "postcode": "41385"}}},
{"geometry": {"type": "Point", "coordinates": [-83.3381787302, 37.6459742513]}, "type": "Feature", "properties": {"collection_times": [{"days": "Mon-Fri", "time": "4:00pm"}, {"days": "Sat", "time": "11:00am"}, {"days": "Sun", "time": "Closed"}], "id": "4138500001", "name": "USPS COLLECTION BOX - PO LOBBY", "address": {"city": "VANCLEVE", "state": "KY", "street": "6857 HIGHWAY 15 N", "postcode": "41385"}}},
{"geometry": {"type": "Point", "coordinates": [-83.8178229633, 37.4558348554]}, "type": "Feature", "properties": {"collection_times": [{"days": "Mon-Sat", "time": "10:00am"}, {"days": "Sun", "time": "Closed"}], "id": "4138600000", "name": "USPS COLLECTION BOX - BLUE BOX", "address": {"city": "VINCENT", "state": "KY", "street": "PO BOX 9998", "postcode": "41386"}}},
{"geometry": {"type": "Point", "coordinates": [-83.6814961961, 37.6760238351]}, "type": "Feature", "properties": {"collection_times": [{"days": "Mon-Fri", "time": "2:15pm"}, {"days": "Sat", "time": "11:15am"}, {"days": "Sun", "time": "Closed"}], "id": "4139700000", "name": "USPS COLLECTION BOX - PO LOBBY", "address": {"city": "ZOE", "state": "KY", "street": "73 ZOE POST OFFICE RD", "postcode": "41397"}}},
{"geometry": {"type": "Point", "coordinates": [-83.6814961961, 37.6760238351]}, "type": "Feature", "properties": {"collection_times": [{"days": "Mon-Fri", "time": "2:15pm"}, {"days": "Sat", "time": "11:15am"}, {"days": "Sun", "time": "Closed"}], "id": "4139700001", "name": "USPS COLLECTION BOX - BLUE BOX", "address": {"city": "ZOE", "state": "KY", "street": "73 ZOE POST OFFICE RD", "postcode": "41397"}}}
]}
