{"type": "FeatureCollection", "features": [
{"geometry": {"type": "Point", "coordinates": [-83.3007580945, 37.7953087016]}, "type": "Feature", "properties": {"collection_times": [{"days": "Mon-Sat", "time": "11:30am"}, {"days": "Sun", "time": "Closed"}], "id": "4140800000", "name": "USPS COLLECTION BOX - PO LOBBY", "address": {"city": "CANNEL CITY", "state": "KY", "street": "9519 HIGHWAY 191", "postcode": "41408"}}},
{"geometry": {"type": "Point", "coordinates": [-83.0904563385, 37.9858530212]}, "type": "Feature", "properties": {"collection_times": [{"days": "Mon-Fri", "time": "2:45pm"}, {"days": "Sat", "time": "11:00am"}, {"days": "Sun", "time": "Closed"}], "id": "4141300000", "name": "USPS COLLECTION BOX - BLUE BOX", "address": {"city": "CROCKETT", "state": "KY", "street": "18 HIGHWAY 706", "postcode": "41413"}}},
{"geometry": {"type": "Point", "coordinates": [-83.4156299836, 37.9049691512]}, "type": "Feature", "properties": {"collection_times": [{"days": "Mon-Fri", "time": "4:00pm"}, {"days": "Sat", "time": "12:00pm"}, {"days": "Sun", "time": "Closed"}], "id": "4142500000", "name": "USPS COLLECTION BOX - BLUE BOX", "address": {"city": "EZEL", "state": "KY", "street": "14269 HIGHWAY 460 W", "postcode": "41425"}}},
{"geometry": {"type": "Point", "coordinates": [-83.4156299836, 37.9049691512]}, "type": "Feature", "properties": {"collection_times": [{"days": "Mon-Fri", "time": "4:00pm"}, {"days": "Sat", "time": "12:00pm"}, {"days": "Sun", "time": "Closed"}], "id": "4142500001", "name": "USPS COLLECTION BOX - PO LOBBY", "address": {"city": "EZEL", "state": "KY", "street": "14269 HIGHWAY 460 W", "postcode": "41425"}}},
{"geometry": {"type": "Point", "coordinates": [-83.0123955684, 37.7826949723]}, "type": "Feature", "properties": {"collection_times": [{"days": "Mon-Fri", "time": "12:15pm"}, {"days": "Sat", "time": "11:45am"}, {"days": "Sun", "time": "Closed"}], "id": "4142600000", "name": "USPS COLLECTION BOX - BLUE BOX", "address": {"city": "FALCON", "state": "KY", "street": "PO BOX 9998", "postcode": "41426"}}},
{"geometry": {"type": "Point", "coordinates": [-83.0123955684, 37.7826949723]}, "type": "Feature", "properties": {"collection_times": [{"days": "Mon-Fri", "time": "12:15pm"}, {"days": "Sat", "time": "11:45am"}, {"days": "Sun", "time": "Closed"}], "id": "4142600001", "name": "USPS COLLECTION BOX - PO LOBBY", "address": {"city": "FALCON", "state": "KY", "street": "PO BOX 9998", "postcode": "41426"}}},
{"geometry": {"type": "Point", "coordinates": [-83.2566981305, 37.8650862951]}, "type": "Feature", "properties": {"collection_times": [{"days": "Mon-Sat", "time": "11:00am"}, {"days": "Sun", "time": "Closed"}], "id": "4145100000", "name": "USPS COLLECTION BOX - BLUE BOX", "address": {"city": "MALONE", "state": "KY", "street": "2570 HIGHWAY 191", "postcode": "41451"}}},
{"geometry": {"type": "Point", "coordinates": [-83.0709543573, 37.7524789868]}, "type": "Feature", "properties": {"collection_times": [{"days": "Mon-Sat", "time": "4:00pm"}, {"days": "Sun", "time": "Closed"}], "id": "4146500000", "name": "USPS COLLECTION BOX - BLUE BOX", "address": {"city": "SALYERSVILLE", "state": "KY", "street": "330 E MAPLE ST", "postcode": "41465"}}},
{"geometry": {"type": "Point", "coordinates": [-83.0709543573, 37.7524789868]}, "type": "Feature", "properties": {"collection_times": [{"days": "Mon-Sat", "time": "4:00pm"}, {"days": "Sun", "time": "Closed"}], "id": "4146500002", "name": "USPS COLLECTION BOX - PO LOBBY", "address": {"city": "SALYERSVILLE", "state": "KY", "street": "330 E MAPLE ST", "postcode": "41465"}}},
{"geometry": {"type": "Point", "coordinates": [-83.0709543573, 37.7524789868]}, "type": "Feature", "properties": {"collection_times": [{"days": "Mon-Sat", "time": "4:00pm"}, {"days": "Sun", "time": "Closed"}], "id": "4146500003", "name": "USPS COLLECTION BOX - BLUE BOX", "address": {"city": "SALYERSVILLE", "state": "KY", "street": "330 E MAPLE ST", "postcode": "41465"}}},
{"geometry": {"type": "Point", "coordinates": [-83.0610664615, 37.7466023519]}, "type": "Feature", "properties": {"collection_times": [{"days": "Mon-Sat", "time": "12:00pm"}, {"days": "Sun", "time": "Closed"}], "id": "4146500004", "name": "USPS COLLECTION BOX - BLUE BOX", "address": {"city": "SALYERSVILLE", "state": "KY", "street": "433 PARKWAY DR", "postcode": "41465"}}},
{"geometry": {"type": "Point", "coordinates": [-83.030872745, 37.7354626134]}, "type": "Feature", "properties": {"collection_times": [{"days": "Mon-Sat", "time": "10:00am"}, {"days": "Sun", "time": "Closed"}], "id": "4146500005", "name": "USPS COLLECTION BOX - BLUE BOX", "address": {"city": "SALYERSVILLE", "state": "KY", "street": "735 E MOUNTAIN PKWY", "postcode": "41465"}}},
{"geometry": {"type": "Point", "coordinates": [-83.2573084993, 37.9199076123]}, "type": "Feature", "properties": {"collection_times": [{"days": "Mon-Fri", "time": "4:00pm"}, {"days": "Sat", "time": "12:00pm"}, {"days": "Sun", "time": "Closed"}], "id": "4147200000", "name": "USPS COLLECTION BOX - PO LOBBY", "address": {"city": "WEST LIBERTY", "state": "KY", "street": "398 GLENN AVE", "postcode": "41472"}}},
{"geometry": {"type": "Point", "coordinates": [-83.2573084993, 37.9199076123]}, "type": "Feature", "properties": {"collection_times": [{"days": "Mon-Fri", "time": "4:00pm"}, {"days": "Sat", "time": "12:00pm"}, {"days": "Sun", "time": "Closed"}], "id": "4147200001", "name": "USPS COLLECTION BOX - BLUE BOX", "address": {"city": "WEST LIBERTY", "state": "KY", "street": "398 GLENN AVE", "postcode": "41472"}}},
{"geometry": {"type": "Point", "coordinates": [-83.2883383254, 37.9320672154]}, "type": "Feature", "properties": {"collection_times": [{"days": "Mon-Fri", "time": "8:30am"}, {"days": "Sat", "time": "8:00am"}, {"days": "Sun", "time": "Closed"}], "id": "4147200009", "name": "USPS COLLECTION BOX - BLUE BOX", "address": {"city": "WEST LIBERTY", "state": "KY", "street": "476 LIBERTY RD", "postcode": "41472"}}},
{"geometry": {"type": "Point", "coordinates": [-83.2017464286, 37.8909133251]}, "type": "Feature", "properties": {"collection_times": [{"days": "Mon-Sat", "time": "11:30am"}, {"days": "Sun", "time": "Closed"}], "id": "4147200010", "name": "USPS COLLECTION BOX - BLUE BOX", "address": {"city": "WEST LIBERTY", "state": "KY", "street": "64 HIGHWAY 191", "postcode": "41472"}}},
{"geometry": {"type": "Point", "coordinates": [-83.0796085878, 37.9759643131]}, "type": "Feature", "properties": {"collection_times": [{"days": "Mon-Sat", "time": "11:00am"}, {"days": "Sun", "time": "Closed"}], "id": "4147200013", "name": "USPS COLLECTION BOX - BLUE BOX", "address": {"city": "WEST LIBERTY", "state": "KY", "street": "13042 HIGHWAY 172", "postcode": "41472"}}}
]}
