{"type": "FeatureCollection", "features": [
{"geometry": {"type": "Point", "coordinates": [-82.5333650857, 37.4700878557]}, "type": "Feature", "properties": {"collection_times": [{"days": "Mon-Fri", "time": "9:30am"}, {"days": "Sat", "time": "9:00am"}, {"days": "Sun", "time": "Closed"}], "id": "4150100000", "name": "USPS COLLECTION BOX - BLUE BOX", "address": {"city": "PIKEVILLE", "state": "KY", "street": "213 S MAYO TRL", "postcode": "41501"}}},
{"geometry": {"type": "Point", "coordinates": [-82.5345537996, 37.4812627778]}, "type": "Feature", "properties": {"collection_times": [{"days": "Mon-Fri", "time": "11:00am"}, {"days": "Sat", "time": "10:30am"}, {"days": "Sun", "time": "Closed"}], "id": "4150100003", "name": "USPS COLLECTION BOX - BLUE BOX", "address": {"city": "PIKEVILLE", "state": "KY", "street": "295 HAMBLEY BLVD", "postcode": "41501"}}},
{"geometry": {"type": "Point", "coordinates": [-82.5174013434, 37.4795639873]}, "type": "Feature", "properties": {"collection_times": [{"days": "Mon-Fri", "time": "4:00pm"}, {"days": "Sat", "time": "12:00pm"}, {"days": "Sun", "time": "Closed"}], "id": "4150100006", "name": "USPS COLLECTION BOX - BLUE BOX", "address": {"city": "PIKEVILLE", "state": "KY", "street": "104 MAIN ST", "postcode": "41501"}}},
{"geometry": {"type": "Point", "coordinates": [-82.5112850792, 37.4373487511]}, "type": "Feature", "properties": {"collection_times": [{"days": "Mon-Sat", "time": "9:00am"}, {"days": "Sun", "time": "Closed"}], "id": "4150100007", "name": "USPS COLLECTION BOX - BLUE BOX", "address": {"city": "PIKEVILLE", "state": "KY", "street": "1098 S MAYO TRL", "postcode": "41501"}}},
{"geometry": {"type": "Point", "coordinates": [-82.5187548564, 37.4792392268]}, "type": "Feature", "properties": {"collection_times": [{"days": "Mon-Fri", "time": "4:00pm"}, {"days": "Sat", "time": "12:00pm"}, {"days": "Sun", "time": "Closed"}], "id": "4150100011", "name": "USPS COLLECTION BOX - BLUE BOX", "address": {"city": "PIKEVILLE", "state": "KY", "street": "208 2ND ST", "postcode": "41501"}}},
{"geometry": {"type": "Point", "coordinates": [-82.491107954, 37.4944520953]}, "type": "Feature", "properties": {"collection_times": [{"days": "Mon-Sat", "time": "12:00pm"}, {"days": "Sun", "time": "Closed"}], "id": "4150100014", "name": "USPS COLLECTION BOX - BLUE BOX", "address": {"city": "PIKEVILLE", "state": "KY", "street": "387 TOWN MOUNTAIN RD", "postcode": "41501"}}},
{"geometry": {"type": "Point", "coordinates": [-82.491118852, 37.4946797417]}, "type": "Feature", "properties": {"collection_times": [{"days": "Mon-Sat", "time": "12:00pm"}, {"days": "Sun", "time": "Closed"}], "id": "4150100015", "name": "USPS COLLECTION BOX - BLUE BOX", "address": {"city": "PIKEVILLE", "state": "KY", "street": "419 TOWN MOUNTAIN RD", "postcode": "41501"}}},
{"geometry": {"type": "Point", "coordinates": [-82.5078931717, 37.4345369818]}, "type": "Feature", "properties": {"collection_times": [{"days": "Mon-Sat", "time": "9:00am"}, {"days": "Sun", "time": "Closed"}], "id": "4150100019", "name": "USPS COLLECTION BOX - BLUE BOX", "address": {"city": "PIKEVILLE", "state": "KY", "street": "1330 S MAYO TRL", "postcode": "41501"}}},
{"geometry": {"type": "Point", "coordinates": [-82.5170305268, 37.4800089673]}, "type": "Feature", "properties": {"collection_times": [{"days": "Mon-Fri", "time": "4:00pm"}, {"days": "Sat", "time": "12:00pm"}, {"days": "Sun", "time": "Closed"}], "id": "4150100020", "name": "USPS COLLECTION BOX - BLUE BOX", "address": {"city": "PIKEVILLE", "state": "KY", "street": "164 MAIN ST", "postcode": "41501"}}},
{"geometry": {"type": "Point", "coordinates": [-82.5187825177, 37.4791868161]}, "type": "Feature", "properties": {"collection_times": [{"days": "Mon-Fri", "time": "4:00pm"}, {"days": "Sat", "time": "12:00pm"}, {"days": "Sun", "time": "Closed"}], "id": "4150100021", "name": "USPS COLLECTION BOX - BLUE BOX", "address": {"city": "PIKEVILLE", "state": "KY", "street": "158 2ND ST", "postcode": "41501"}}},
{"geometry": {"type": "Point", "coordinates": [-82.5187535847, 37.4789503043]}, "type": "Feature", "properties": {"collection_times": [{"days": "Mon-Fri", "time": "4:00pm"}, {"days": "Sat", "time": "12:00pm"}, {"days": "Sun", "time": "Closed"}], "id": "4150100022", "name": "USPS COLLECTION BOX - BLUE BOX", "address": {"city": "PIKEVILLE", "state": "KY", "street": "119 CAROLINE AVE", "postcode": "41501"}}},
{"geometry": {"type": "Point", "coordinates": [-82.544878905, 37.5065226261]}, "type": "Feature", "properties": {"collection_times": [{"days": "Mon-Sat", "time": "5:00pm"}, {"days": "Sun", "time": "Closed"}], "id": "4150100028", "name": "USPS COLLECTION BOX - BLUE BOX", "address": {"city": "PIKEVILLE", "state": "KY", "street": "281 THOMPSON RD", "postcode": "41501"}}},
{"geometry": {"type": "Point", "coordinates": [-82.544878905, 37.5065226261]}, "type": "Feature", "properties": {"collection_times": [{"days": "Mon-Sat", "time": "5:00pm"}, {"days": "Sun", "time": "Closed"}], "id": "4150100029", "name": "USPS COLLECTION BOX - PO LOBBY", "address": {"city": "PIKEVILLE", "state": "KY", "street": "281 THOMPSON RD", "postcode": "41501"}}},
{"geometry": {"type": "Point", "coordinates": [-82.5281895638, 37.4843194112]}, "type": "Feature", "properties": {"collection_times": [{"days": "Mon-Fri", "time": "11:30am"}, {"days": "Sat", "time": "11:00am"}, {"days": "Sun", "time": "Closed"}], "id": "4150100030", "name": "USPS COLLECTION BOX - BLUE BOX", "address": {"city": "PIKEVILLE", "state": "KY", "street": "533 HAMBLEY BLVD", "postcode": "41501"}}},
{"geometry": {"type": "Point", "coordinates": [-82.5197481351, 37.4767125258]}, "type": "Feature", "properties": {"collection_times": [{"days": "Mon-Fri", "time": "4:00pm"}, {"days": "Sat", "time": "12:00pm"}, {"days": "Sun", "time": "Closed"}], "id": "4150100031", "name": "USPS COLLECTION BOX - BLUE BOX", "address": {"city": "PIKEVILLE", "state": "KY", "street": "138 COLLEGE ST", "postcode": "41501"}}},
{"geometry": {"type": "Point", "coordinates": [-82.5680728998, 37.5265350013]}, "type": "Feature", "properties": {"collection_times": [{"days": "Mon-Sat", "time": "9:30am"}, {"days": "Sun", "time": "Closed"}], "id": "4150100033", "name": "USPS COLLECTION BOX - BLUE BOX", "address": {"city": "PIKEVILLE", "state": "KY", "street": "137 WEDDINGTON BRANCH RD", "postcode": "41501"}}},
{"geometry": {"type": "Point", "coordinates": [-82.5161830228, 37.4841540371]}, "type": "Feature", "properties": {"collection_times": [{"days": "Mon-Fri", "time": "4:00pm"}, {"days": "Sat", "time": "12:00pm"}, {"days": "Sun", "time": "Closed"}], "id": "4150100034", "name": "USPS COLLECTION BOX - BLUE BOX", "address": {"city": "PIKEVILLE", "state": "KY", "street": "126 TRIVETTE DR", "postcode": "41501"}}},
{"geometry": {"type": "Point", "coordinates": [-82.5347369402, 37.4837972748]}, "type": "Feature", "properties": {"collection_times": [{"days": "Mon-Fri", "time": "11:00am"}, {"days": "Sat", "time": "10:00am"}, {"days": "Sun", "time": "Closed"}], "id": "4150100036", "name": "USPS COLLECTION BOX - BLUE BOX", "address": {"city": "PIKEVILLE", "state": "KY", "street": "109 LORAINE ST", "postcode": "41501"}}},
{"geometry": {"type": "Point", "coordinates": [-82.5665188364, 37.517417399]}, "type": "Feature", "properties": {"collection_times": [{"days": "Mon-Fri", "time": "9:30am"}, {"days": "Sat", "time": "9:00am"}, {"days": "Sun", "time": "Closed"}], "id": "4150100037", "name": "USPS COLLECTION BOX - BLUE BOX", "address": {"city": "PIKEVILLE", "state": "KY", "street": "255 CHURCH ST", "postcode": "41501"}}},
{"geometry": {"type": "Point", "coordinates": [-82.5186940883, 37.5064304305]}, "type": "Feature", "properties": {"collection_times": [{"days": "Mon-Sat", "time": "9:00am"}, {"days": "Sun", "time": "Closed"}], "id": "4150100039", "name": "USPS COLLECTION BOX - BLUE BOX", "address": {"city": "PIKEVILLE", "state": "KY", "street": "109 PRATER PL", "postcode": "41501"}}},
{"geometry": {"type": "Point", "coordinates": [-82.4348706716, 37.2659935889]}, "type": "Feature", "properties": {"collection_times": [{"days": "Mon-Fri", "time": "3:00pm"}, {"days": "Sat", "time": "11:30am"}, {"days": "Sun", "time": "Closed"}], "id": "4151200000", "name": "USPS COLLECTION BOX - BLUE BOX", "address": {"city": "ASHCAMP", "state": "KY", "street": "6804 ELKHORN CRK", "postcode": "41512"}}},
{"geometry": {"type": "Point", "coordinates": [-82.4348706716, 37.2659935889]}, "type": "Feature", "properties": {"collection_times": [{"days": "Mon-Fri", "time": "3:00pm"}, {"days": "Sat", "time": "11:30am"}, {"days": "Sun", "time": "Closed"}], "id": "4151200001", "name": "USPS COLLECTION BOX - PO LOBBY", "address": {"city": "ASHCAMP", "state": "KY", "street": "6804 ELKHORN CRK", "postcode": "41512"}}},
{"geometry": {"type": "Point", "coordinates": [-82.3778962408, 37.3417241833]}, "type": "Feature", "properties": {"collection_times": [{"days": "Mon-Fri", "time": "3:30pm"}, {"days": "Sat", "time": "10:30am"}, {"days": "Sun", "time": "Closed"}], "id": "4151300000", "name": "USPS COLLECTION BOX - BLUE BOX", "address": {"city": "BELCHER", "state": "KY", "street": "14857 REGINA BELCHER HWY", "postcode": "41513"}}},
{"geometry": {"type": "Point", "coordinates": [-82.3778962408, 37.3417241833]}, "type": "Feature", "properties": {"collection_times": [{"days": "Mon-Fri", "time": "4:00pm"}, {"days": "Sat", "time": "11:00am"}, {"days": "Sun", "time": "Closed"}], "id": "4151300001", "name": "USPS COLLECTION BOX - PO LOBBY", "address": {"city": "BELCHER", "state": "KY", "street": "14857 REGINA BELCHER HWY", "postcode": "41513"}}},
{"geometry": {"type": "Point", "coordinates": [-82.2691642125, 37.6125764151]}, "type": "Feature", "properties": {"collection_times": [{"days": "Mon-Sat", "time": "3:00pm"}, {"days": "Sun", "time": "Closed"}], "id": "4151400000", "name": "USPS COLLECTION BOX - BLUE BOX", "address": {"city": "BELFRY", "state": "KY", "street": "25320 US HIGHWAY 119 N STE 100", "postcode": "41514"}}},
{"geometry": {"type": "Point", "coordinates": [-82.2691642125, 37.6125764151]}, "type": "Feature", "properties": {"collection_times": [{"days": "Mon-Sat", "time": "3:00pm"}, {"days": "Sun", "time": "Closed"}], "id": "4151400001", "name": "USPS COLLECTION BOX - PO LOBBY", "address": {"city": "BELFRY", "state": "KY", "street": "25320 US HIGHWAY 119 N STE 100", "postcode": "41514"}}},
{"geometry": {"type": "Point", "coordinates": [-82.6040363816, 37.1876275855]}, "type": "Feature", "properties": {"collection_times": [{"days": "Mon-Fri", "time": "3:30pm"}, {"days": "Sat", "time": "11:45am"}, {"days": "Sun", "time": "Closed"}], "id": "4151700000", "name": "USPS COLLECTION BOX - BLUE BOX", "address": {"city": "BURDINE", "state": "KY", "street": "11872 HIGHWAY 805", "postcode": "41517"}}},
{"geometry": {"type": "Point", "coordinates": [-82.6040363816, 37.1876275855]}, "type": "Feature", "properties": {"collection_times": [{"days": "Mon-Fri", "time": "3:30pm"}, {"days": "Sat", "time": "11:45am"}, {"days": "Sun", "time": "Closed"}], "id": "4151700001", "name": "USPS COLLECTION BOX - PO LOBBY", "address": {"city": "BURDINE", "state": "KY", "street": "11872 HIGHWAY 805", "postcode": "41517"}}},
{"geometry": {"type": "Point", "coordinates": [-82.3255634819, 37.607982853]}, "type": "Feature", "properties": {"collection_times": [{"days": "Mon-Fri", "time": "3:00pm"}, {"days": "Sat", "time": "12:00pm"}, {"days": "Sun", "time": "Closed"}], "id": "4151900000", "name": "USPS COLLECTION BOX - BLUE BOX", "address": {"city": "CANADA", "state": "KY", "street": "19245 E BIG CREEK RD", "postcode": "41519"}}},
{"geometry": {"type": "Point", "coordinates": [-82.3255634819, 37.607982853]}, "type": "Feature", "properties": {"collection_times": [{"days": "Mon-Fri", "time": "3:00pm"}, {"days": "Sat", "time": "12:00pm"}, {"days": "Sun", "time": "Closed"}], "id": "4151900001", "name": "USPS COLLECTION BOX - PO LOBBY", "address": {"city": "CANADA", "state": "KY", "street": "19245 E BIG CREEK RD", "postcode": "41519"}}},
{"geometry": {"type": "Point", "coordinates": [-82.5793715538, 37.2770446902]}, "type": "Feature", "properties": {"collection_times": [{"days": "Mon-Fri", "time": "3:45pm"}, {"days": "Sat", "time": "11:30am"}, {"days": "Sun", "time": "Closed"}], "id": "4152000000", "name": "USPS COLLECTION BOX - BLUE BOX", "address": {"city": "DORTON", "state": "KY", "street": "87 DORTON JENKINS HWY", "postcode": "41520"}}},
{"geometry": {"type": "Point", "coordinates": [-82.5793715538, 37.2770446902]}, "type": "Feature", "properties": {"collection_times": [{"days": "Mon-Fri", "time": "3:45pm"}, {"days": "Sat", "time": "11:30am"}, {"days": "Sun", "time": "Closed"}], "id": "4152000002", "name": "USPS COLLECTION BOX - PO LOBBY", "address": {"city": "DORTON", "state": "KY", "street": "87 DORTON JENKINS HWY", "postcode": "41520"}}},
{"geometry": {"type": "Point", "coordinates": [-82.346157803, 37.3057626866]}, "type": "Feature", "properties": {"collection_times": [{"days": "Mon-Sat", "time": "3:30pm"}, {"days": "Sun", "time": "Closed"}], "id": "4152200001", "name": "USPS COLLECTION BOX - BLUE BOX", "address": {"city": "ELKHORN CITY", "state": "KY", "street": "145 W RUSSELL ST", "postcode": "41522"}}},
{"geometry": {"type": "Point", "coordinates": [-82.346157803, 37.3057626866]}, "type": "Feature", "properties": {"collection_times": [{"days": "Mon-Sat", "time": "3:45pm"}, {"days": "Sun", "time": "Closed"}], "id": "4152200002", "name": "USPS COLLECTION BOX - PO LOBBY", "address": {"city": "ELKHORN CITY", "state": "KY", "street": "145 W RUSSELL ST", "postcode": "41522"}}},
{"geometry": {"type": "Point", "coordinates": [-82.2406805037, 37.4011685447]}, "type": "Feature", "properties": {"collection_times": [{"days": "Mon-Fri", "time": "1:30pm"}, {"days": "Sat", "time": "11:30am"}, {"days": "Sun", "time": "Closed"}], "id": "4152400000", "name": "USPS COLLECTION BOX - BLUE BOX", "address": {"city": "FEDSCREEK", "state": "KY", "street": "500 FEDSCREEK RD", "postcode": "41524"}}},
{"geometry": {"type": "Point", "coordinates": [-82.2406805037, 37.4011685447]}, "type": "Feature", "properties": {"collection_times": [{"days": "Mon-Fri", "time": "1:30pm"}, {"days": "Sat", "time": "11:30am"}, {"days": "Sun", "time": "Closed"}], "id": "4152400001", "name": "USPS COLLECTION BOX - PO LOBBY", "address": {"city": "FEDSCREEK", "state": "KY", "street": "500 FEDSCREEK RD", "postcode": "41524"}}},
{"geometry": {"type": "Point", "coordinates": [-82.5118373798, 37.4326817429]}, "type": "Feature", "properties": {"collection_times": [{"days": "Mon-Fri", "time": "9:30am"}, {"days": "Sat", "time": "8:30am"}, {"days": "Sun", "time": "Closed"}], "id": "4152600000", "name": "USPS COLLECTION BOX - BLUE BOX", "address": {"city": "FORDS BRANCH", "state": "KY", "street": "2730 KEWANEE RD", "postcode": "41526"}}},
{"geometry": {"type": "Point", "coordinates": [-82.5118373798, 37.4326817429]}, "type": "Feature", "properties": {"collection_times": [{"days": "Mon-Fri", "time": "9:30am"}, {"days": "Sat", "time": "8:30am"}, {"days": "Sun", "time": "Closed"}], "id": "4152600001", "name": "USPS COLLECTION BOX - PO LOBBY", "address": {"city": "FORDS BRANCH", "state": "KY", "street": "2730 KEWANEE RD", "postcode": "41526"}}},
{"geometry": {"type": "Point", "coordinates": [-82.275741245, 37.6423193615]}, "type": "Feature", "properties": {"collection_times": [{"days": "Mon-Sat", "time": "2:00pm"}, {"days": "Sun", "time": "Closed"}], "id": "4152700000", "name": "USPS COLLECTION BOX - BLUE BOX", "address": {"city": "FOREST HILLS", "state": "KY", "street": "1320 FOREST HILLS RD", "postcode": "41527"}}},
{"geometry": {"type": "Point", "coordinates": [-82.275741245, 37.6423193615]}, "type": "Feature", "properties": {"collection_times": [{"days": "Mon-Sat", "time": "2:00pm"}, {"days": "Sun", "time": "Closed"}], "id": "4152700001", "name": "USPS COLLECTION BOX - PO LOBBY", "address": {"city": "FOREST HILLS", "state": "KY", "street": "1320 FOREST HILLS RD", "postcode": "41527"}}},
{"geometry": {"type": "Point", "coordinates": [-82.137420771, 37.5634890328]}, "type": "Feature", "properties": {"collection_times": [{"days": "Mon-Fri", "time": "1:30pm"}, {"days": "Sat", "time": "11:30am"}, {"days": "Sun", "time": "Closed"}], "id": "4152800000", "name": "USPS COLLECTION BOX - BLUE BOX", "address": {"city": "FREEBURN", "state": "KY", "street": "43903 STATE HIGHWAY 194 E", "postcode": "41528"}}},
{"geometry": {"type": "Point", "coordinates": [-82.137420771, 37.5634890328]}, "type": "Feature", "properties": {"collection_times": [{"days": "Mon-Fri", "time": "1:30pm"}, {"days": "Sat", "time": "11:30am"}, {"days": "Sun", "time": "Closed"}], "id": "4152800001", "name": "USPS COLLECTION BOX - PO LOBBY", "address": {"city": "FREEBURN", "state": "KY", "street": "43903 STATE HIGHWAY 194 E", "postcode": "41528"}}},
{"geometry": {"type": "Point", "coordinates": [-82.1443439607, 37.5656031581]}, "type": "Feature", "properties": {"collection_times": [{"days": "Mon-Sat", "time": "12:00pm"}, {"days": "Sun", "time": "Closed"}], "id": "4152800002", "name": "USPS COLLECTION BOX - BLUE BOX", "address": {"city": "FREEBURN", "state": "KY", "street": "51 HIGHWAY 194 SPUR", "postcode": "41528"}}},
{"geometry": {"type": "Point", "coordinates": [-82.2377561351, 37.6133396943]}, "type": "Feature", "properties": {"collection_times": [{"days": "Mon-Fri", "time": "2:30pm"}, {"days": "Sat", "time": "11:15am"}, {"days": "Sun", "time": "Closed"}], "id": "4153100000", "name": "USPS COLLECTION BOX - BLUE BOX", "address": {"city": "HARDY", "state": "KY", "street": "2240 STATE HIGHWAY 319", "postcode": "41531"}}},
{"geometry": {"type": "Point", "coordinates": [-82.2377561351, 37.6133396943]}, "type": "Feature", "properties": {"collection_times": [{"days": "Mon-Fri", "time": "2:30pm"}, {"days": "Sat", "time": "11:15am"}, {"days": "Sun", "time": "Closed"}], "id": "4153100001", "name": "USPS COLLECTION BOX - PO LOBBY", "address": {"city": "HARDY", "state": "KY", "street": "2240 STATE HIGHWAY 319", "postcode": "41531"}}},
{"geometry": {"type": "Point", "coordinates": [-82.4805997134, 37.2767471758]}, "type": "Feature", "properties": {"collection_times": [{"days": "Mon-Fri", "time": "3:00pm"}, {"days": "Sat", "time": "11:15am"}, {"days": "Sun", "time": "Closed"}], "id": "4153400000", "name": "USPS COLLECTION BOX - BLUE BOX", "address": {"city": "HELLIER", "state": "KY", "street": "126 ALLEGHENY RD", "postcode": "41534"}}},
{"geometry": {"type": "Point", "coordinates": [-82.4805997134, 37.2767471758]}, "type": "Feature", "properties": {"collection_times": [{"days": "Mon-Fri", "time": "3:00pm"}, {"days": "Sat", "time": "11:15am"}, {"days": "Sun", "time": "Closed"}], "id": "4153400001", "name": "USPS COLLECTION BOX - PO LOBBY", "address": {"city": "HELLIER", "state": "KY", "street": "126 ALLEGHENY RD", "postcode": "41534"}}},
{"geometry": {"type": "Point", "coordinates": [-82.6472654312, 37.1877411633]}, "type": "Feature", "properties": {"collection_times": [{"days": "Mon-Fri", "time": "3:45pm"}, {"days": "Sat", "time": "12:15pm"}, {"days": "Sun", "time": "Closed"}], "id": "4153700000", "name": "USPS COLLECTION BOX - BLUE BOX", "address": {"city": "JENKINS", "state": "KY", "street": "9382 HIGHWAY 805 STE A", "postcode": "41537"}}},
{"geometry": {"type": "Point", "coordinates": [-82.6472654312, 37.1877411633]}, "type": "Feature", "properties": {"collection_times": [{"days": "Mon-Fri", "time": "3:45pm"}, {"days": "Sat", "time": "12:15pm"}, {"days": "Sun", "time": "Closed"}], "id": "4153700002", "name": "USPS COLLECTION BOX - PO LOBBY", "address": {"city": "JENKINS", "state": "KY", "street": "9382 HIGHWAY 805 STE A", "postcode": "41537"}}},
{"geometry": {"type": "Point", "coordinates": [-82.5843130441, 37.3150677387]}, "type": "Feature", "properties": {"collection_times": [{"days": "Mon-Fri", "time": "12:30pm"}, {"days": "Sat", "time": "10:45am"}, {"days": "Sun", "time": "Closed"}], "id": "4153800000", "name": "USPS COLLECTION BOX - BLUE BOX", "address": {"city": "JONANCY", "state": "KY", "street": "3440 KY HIGHWAY 610 W", "postcode": "41538"}}},
{"geometry": {"type": "Point", "coordinates": [-82.5843130441, 37.3150677387]}, "type": "Feature", "properties": {"collection_times": [{"days": "Mon-Fri", "time": "12:30pm"}, {"days": "Sat", "time": "10:45am"}, {"days": "Sun", "time": "Closed"}], "id": "4153800001", "name": "USPS COLLECTION BOX - PO LOBBY", "address": {"city": "JONANCY", "state": "KY", "street": "3440 KY HIGHWAY 610 W", "postcode": "41538"}}},
{"geometry": {"type": "Point", "coordinates": [-82.367805023, 37.5278090736]}, "type": "Feature", "properties": {"collection_times": [{"days": "Mon-Fri", "time": "3:00pm"}, {"days": "Sat", "time": "11:00am"}, {"days": "Sun", "time": "Closed"}], "id": "4153900000", "name": "USPS COLLECTION BOX - BLUE BOX", "address": {"city": "KIMPER", "state": "KY", "street": "9414 STATE HIGHWAY 194 E", "postcode": "41539"}}},
{"geometry": {"type": "Point", "coordinates": [-82.367805023, 37.5278090736]}, "type": "Feature", "properties": {"collection_times": [{"days": "Mon-Fri", "time": "3:00pm"}, {"days": "Sat", "time": "11:00am"}, {"days": "Sun", "time": "Closed"}], "id": "4153900001", "name": "USPS COLLECTION BOX - PO LOBBY", "address": {"city": "KIMPER", "state": "KY", "street": "9414 STATE HIGHWAY 194 E", "postcode": "41539"}}},
{"geometry": {"type": "Point", "coordinates": [-82.34923, 37.497517]}, "type": "Feature", "properties": {"collection_times": [{"days": "Mon-Fri", "time": "12:00pm"}, {"days": "Sat", "time": "11:00am"}, {"days": "Sun", "time": "Closed"}], "id": "4153900002", "name": "USPS COLLECTION BOX - BLUE BOX", "address": {"city": "KIMPER", "state": "KY", "street": "19 UPPER JOHNS CRK", "postcode": "41539"}}},
{"geometry": {"type": "Point", "coordinates": [-82.3048692102, 37.3995703207]}, "type": "Feature", "properties": {"collection_times": [{"days": "Mon-Sat", "time": "12:30pm"}, {"days": "Sun", "time": "Closed"}], "id": "4154000001", "name": "USPS COLLECTION BOX - PO LOBBY", "address": {"city": "LICK CREEK", "state": "KY", "street": "1651 LICK CREEK RD", "postcode": "41540"}}},
{"geometry": {"type": "Point", "coordinates": [-82.2653644147, 37.5666715646]}, "type": "Feature", "properties": {"collection_times": [{"days": "Mon-Fri", "time": "2:30pm"}, {"days": "Sat", "time": "11:30am"}, {"days": "Sun", "time": "Closed"}], "id": "4154300000", "name": "USPS COLLECTION BOX - BLUE BOX", "address": {"city": "MC ANDREWS", "state": "KY", "street": "2330 POND CREEK RD STE 105", "postcode": "41543"}}},
{"geometry": {"type": "Point", "coordinates": [-82.2653644147, 37.5666715646]}, "type": "Feature", "properties": {"collection_times": [{"days": "Mon-Fri", "time": "2:30pm"}, {"days": "Sat", "time": "11:30am"}, {"days": "Sun", "time": "Closed"}], "id": "4154300001", "name": "USPS COLLECTION BOX - PO LOBBY", "address": {"city": "MC ANDREWS", "state": "KY", "street": "2330 POND CREEK RD STE 105", "postcode": "41543"}}},
{"geometry": {"type": "Point", "coordinates": [-82.1813778379, 37.5805837923]}, "type": "Feature", "properties": {"collection_times": [{"days": "Mon-Fri", "time": "2:30pm"}, {"days": "Sat", "time": "11:45am"}, {"days": "Sun", "time": "Closed"}], "id": "4154400000", "name": "USPS COLLECTION BOX - BLUE BOX", "address": {"city": "MCCARR", "state": "KY", "street": "6884 STATE HIGHWAY 319", "postcode": "41544"}}},
{"geometry": {"type": "Point", "coordinates": [-82.1813778379, 37.5805837923]}, "type": "Feature", "properties": {"collection_times": [{"days": "Mon-Fri", "time": "2:30pm"}, {"days": "Sat", "time": "11:45am"}, {"days": "Sun", "time": "Closed"}], "id": "4154400001", "name": "USPS COLLECTION BOX - PO LOBBY", "address": {"city": "MCCARR", "state": "KY", "street": "6884 STATE HIGHWAY 319", "postcode": "41544"}}},
{"geometry": {"type": "Point", "coordinates": [-82.1010791343, 37.5369435586]}, "type": "Feature", "properties": {"collection_times": [{"days": "Mon-Fri", "time": "2:00pm"}, {"days": "Sat", "time": "12:00pm"}, {"days": "Sun", "time": "Closed"}], "id": "4154700000", "name": "USPS COLLECTION BOX - BLUE BOX", "address": {"city": "MAJESTIC", "state": "KY", "street": "48789 STATE HIGHWAY 194 E", "postcode": "41547"}}},
{"geometry": {"type": "Point", "coordinates": [-82.2242423466, 37.3651501399]}, "type": "Feature", "properties": {"collection_times": [{"days": "Mon-Fri", "time": "2:30pm"}, {"days": "Sat", "time": "11:00am"}, {"days": "Sun", "time": "Closed"}], "id": "4154800000", "name": "USPS COLLECTION BOX - BLUE BOX", "address": {"city": "MOUTHCARD", "state": "KY", "street": "23590 S LEVISA RD", "postcode": "41548"}}},
{"geometry": {"type": "Point", "coordinates": [-82.2242423466, 37.3651501399]}, "type": "Feature", "properties": {"collection_times": [{"days": "Mon-Fri", "time": "2:30pm"}, {"days": "Sat", "time": "11:00am"}, {"days": "Sun", "time": "Closed"}], "id": "4154800001", "name": "USPS COLLECTION BOX - PO LOBBY", "address": {"city": "MOUTHCARD", "state": "KY", "street": "23590 S LEVISA RD", "postcode": "41548"}}},
{"geometry": {"type": "Point", "coordinates": [-82.1447321794, 37.5093048868]}, "type": "Feature", "properties": {"collection_times": [{"days": "Mon-Sat", "time": "2:30pm"}, {"days": "Sun", "time": "Closed"}], "id": "4155300000", "name": "USPS COLLECTION BOX - BLUE BOX", "address": {"city": "PHELPS", "state": "KY", "street": "37719 STATE HIGHWAY 194 E", "postcode": "41553"}}},
{"geometry": {"type": "Point", "coordinates": [-82.1447321794, 37.5093048868]}, "type": "Feature", "properties": {"collection_times": [{"days": "Mon-Sat", "time": "2:30pm"}, {"days": "Sun", "time": "Closed"}], "id": "4155300001", "name": "USPS COLLECTION BOX - PO LOBBY", "address": {"city": "PHELPS", "state": "KY", "street": "37719 STATE HIGHWAY 194 E", "postcode": "41553"}}},
{"geometry": {"type": "Point", "coordinates": [-82.3349458889, 37.4426270498]}, "type": "Feature", "properties": {"collection_times": [{"days": "Mon-Fri", "time": "2:00pm"}, {"days": "Sat", "time": "11:30am"}, {"days": "Sun", "time": "Closed"}], "id": "4155400000", "name": "USPS COLLECTION BOX - BLUE BOX", "address": {"city": "PHYLLIS", "state": "KY", "street": "16240 GRAPEVINE RD", "postcode": "41554"}}},
{"geometry": {"type": "Point", "coordinates": [-82.3349458889, 37.4426270498]}, "type": "Feature", "properties": {"collection_times": [{"days": "Mon-Fri", "time": "2:00pm"}, {"days": "Sat", "time": "11:30am"}, {"days": "Sun", "time": "Closed"}], "id": "4155400001", "name": "USPS COLLECTION BOX - PO LOBBY", "address": {"city": "PHYLLIS", "state": "KY", "street": "16240 GRAPEVINE RD", "postcode": "41554"}}},
{"geometry": {"type": "Point", "coordinates": [-82.2650438111, 37.5511746572]}, "type": "Feature", "properties": {"collection_times": [{"days": "Mon-Fri", "time": "1:30pm"}, {"days": "Sat", "time": "11:00am"}, {"days": "Sun", "time": "Closed"}], "id": "4155500000", "name": "USPS COLLECTION BOX - BLUE BOX", "address": {"city": "PINSONFORK", "state": "KY", "street": "3903 POND CREEK RD", "postcode": "41555"}}},
{"geometry": {"type": "Point", "coordinates": [-82.2650438111, 37.5511746572]}, "type": "Feature", "properties": {"collection_times": [{"days": "Mon-Fri", "time": "1:30pm"}, {"days": "Sat", "time": "11:00am"}, {"days": "Sun", "time": "Closed"}], "id": "4155500001", "name": "USPS COLLECTION BOX - PO LOBBY", "address": {"city": "PINSONFORK", "state": "KY", "street": "3903 POND CREEK RD", "postcode": "41555"}}},
{"geometry": {"type": "Point", "coordinates": [-82.4473459157, 37.5123555416]}, "type": "Feature", "properties": {"collection_times": [{"days": "Mon-Fri", "time": "2:00pm"}, {"days": "Sat", "time": "11:30am"}, {"days": "Sun", "time": "Closed"}], "id": "4155700000", "name": "USPS COLLECTION BOX - BLUE BOX", "address": {"city": "RACCOON", "state": "KY", "street": "68 GRASSY BR", "postcode": "41557"}}},
{"geometry": {"type": "Point", "coordinates": [-82.4473459157, 37.5123555416]}, "type": "Feature", "properties": {"collection_times": [{"days": "Mon-Fri", "time": "2:00pm"}, {"days": "Sat", "time": "11:30am"}, {"days": "Sun", "time": "Closed"}], "id": "4155700001", "name": "USPS COLLECTION BOX - PO LOBBY", "address": {"city": "RACCOON", "state": "KY", "street": "68 GRASSY BR", "postcode": "41557"}}},
{"geometry": {"type": "Point", "coordinates": [-82.4147544586, 37.3686556794]}, "type": "Feature", "properties": {"collection_times": [{"days": "Mon-Fri", "time": "3:30pm"}, {"days": "Sat", "time": "12:00pm"}, {"days": "Sun", "time": "Closed"}], "id": "4155900000", "name": "USPS COLLECTION BOX - PO LOBBY", "address": {"city": "REGINA", "state": "KY", "street": "10051 REGINA BELCHER HWY", "postcode": "41559"}}},
{"geometry": {"type": "Point", "coordinates": [-82.4147544586, 37.3686556794]}, "type": "Feature", "properties": {"collection_times": [{"days": "Mon-Fri", "time": "3:30pm"}, {"days": "Sat", "time": "12:00pm"}, {"days": "Sun", "time": "Closed"}], "id": "4155900001", "name": "USPS COLLECTION BOX - BLUE BOX", "address": {"city": "REGINA", "state": "KY", "street": "10051 REGINA BELCHER HWY", "postcode": "41559"}}},
{"geometry": {"type": "Point", "coordinates": [-82.5861423922, 37.3763342509]}, "type": "Feature", "properties": {"collection_times": [{"days": "Mon-Fri", "time": "3:30pm"}, {"days": "Sat", "time": "11:30am"}, {"days": "Sun", "time": "Closed"}], "id": "4156000000", "name": "USPS COLLECTION BOX - BLUE BOX", "address": {"city": "ROBINSON CREEK", "state": "KY", "street": "6500 ROBINSON CREEK RD", "postcode": "41560"}}},
{"geometry": {"type": "Point", "coordinates": [-82.5861423922, 37.3763342509]}, "type": "Feature", "properties": {"collection_times": [{"days": "Mon-Fri", "time": "3:30pm"}, {"days": "Sat", "time": "11:30am"}, {"days": "Sun", "time": "Closed"}], "id": "4156000001", "name": "USPS COLLECTION BOX - PO LOBBY", "address": {"city": "ROBINSON CREEK", "state": "KY", "street": "6500 ROBINSON CREEK RD", "postcode": "41560"}}},
{"geometry": {"type": "Point", "coordinates": [-82.453369235, 37.3283421331]}, "type": "Feature", "properties": {"collection_times": [{"days": "Mon-Fri", "time": "3:00pm"}, {"days": "Sat", "time": "11:30am"}, {"days": "Sun", "time": "Closed"}], "id": "4156100000", "name": "USPS COLLECTION BOX - BLUE BOX", "address": {"city": "ROCKHOUSE", "state": "KY", "street": "4535 MARROWBONE CREEK RD", "postcode": "41561"}}},
{"geometry": {"type": "Point", "coordinates": [-82.453369235, 37.3283421331]}, "type": "Feature", "properties": {"collection_times": [{"days": "Mon-Fri", "time": "3:00pm"}, {"days": "Sat", "time": "11:30am"}, {"days": "Sun", "time": "Closed"}], "id": "4156100001", "name": "USPS COLLECTION BOX - PO LOBBY", "address": {"city": "ROCKHOUSE", "state": "KY", "street": "4535 MARROWBONE CREEK RD", "postcode": "41561"}}},
{"geometry": {"type": "Point", "coordinates": [-82.4757764354, 37.3603112167]}, "type": "Feature", "properties": {"collection_times": [{"days": "Mon-Fri", "time": "3:45pm"}, {"days": "Sat", "time": "11:45am"}, {"days": "Sun", "time": "Closed"}], "id": "4156200000", "name": "USPS COLLECTION BOX - BLUE BOX", "address": {"city": "SHELBIANA", "state": "KY", "street": "147 LONGVIEW DR", "postcode": "41562"}}},
{"geometry": {"type": "Point", "coordinates": [-82.4757764354, 37.3603112167]}, "type": "Feature", "properties": {"collection_times": [{"days": "Mon-Fri", "time": "3:45pm"}, {"days": "Sat", "time": "11:45am"}, {"days": "Sun", "time": "Closed"}], "id": "4156200001", "name": "USPS COLLECTION BOX - PO LOBBY", "address": {"city": "SHELBIANA", "state": "KY", "street": "147 LONGVIEW DR", "postcode": "41562"}}},
{"geometry": {"type": "Point", "coordinates": [-82.3529534333, 37.6201666105]}, "type": "Feature", "properties": {"collection_times": [{"days": "Mon-Fri", "time": "2:30pm"}, {"days": "Sat", "time": "11:00am"}, {"days": "Sun", "time": "Closed"}], "id": "4156400000", "name": "USPS COLLECTION BOX - BLUE BOX", "address": {"city": "SIDNEY", "state": "KY", "street": "17340 E BIG CREEK RD", "postcode": "41564"}}},
{"geometry": {"type": "Point", "coordinates": [-82.3529534333, 37.6201666105]}, "type": "Feature", "properties": {"collection_times": [{"days": "Mon-Fri", "time": "2:30pm"}, {"days": "Sat", "time": "11:00am"}, {"days": "Sun", "time": "Closed"}], "id": "4156400001", "name": "USPS COLLECTION BOX - PO LOBBY", "address": {"city": "SIDNEY", "state": "KY", "street": "17340 E BIG CREEK RD", "postcode": "41564"}}},
{"geometry": {"type": "Point", "coordinates": [-82.2135144396, 37.3914772097]}, "type": "Feature", "properties": {"collection_times": [{"days": "Mon-Fri", "time": "1:30pm"}, {"days": "Sat", "time": "11:30am"}, {"days": "Sun", "time": "Closed"}], "id": "4156600000", "name": "USPS COLLECTION BOX - BLUE BOX", "address": {"city": "STEELE", "state": "KY", "street": "2308 FEDSCREEK RD", "postcode": "41566"}}},
{"geometry": {"type": "Point", "coordinates": [-82.2135144396, 37.3914772097]}, "type": "Feature", "properties": {"collection_times": [{"days": "Mon-Fri", "time": "1:30pm"}, {"days": "Sat", "time": "11:30am"}, {"days": "Sun", "time": "Closed"}], "id": "4156600001", "name": "USPS COLLECTION BOX - PO LOBBY", "address": {"city": "STEELE", "state": "KY", "street": "2308 FEDSCREEK RD", "postcode": "41566"}}},
{"geometry": {"type": "Point", "coordinates": [-82.0680175557, 37.5039229965]}, "type": "Feature", "properties": {"collection_times": [{"days": "Mon-Sat", "time": "12:00pm"}, {"days": "Sun", "time": "Closed"}], "id": "4156800002", "name": "USPS COLLECTION BOX - BLUE BOX", "address": {"city": "STOPOVER", "state": "KY", "street": "52694 STATE HIGHWAY 194 E", "postcode": "41568"}}},
{"geometry": {"type": "Point", "coordinates": [-82.5860067764, 37.3377265129]}, "type": "Feature", "properties": {"collection_times": [{"days": "Mon-Fri", "time": "3:45pm"}, {"days": "Sat", "time": "12:15pm"}, {"days": "Sun", "time": "Closed"}], "id": "4157200000", "name": "USPS COLLECTION BOX - BLUE BOX", "address": {"city": "VIRGIE", "state": "KY", "street": "1070 KY HIGHWAY 610 W", "postcode": "41572"}}},
{"geometry": {"type": "Point", "coordinates": [-82.5860067764, 37.3377265129]}, "type": "Feature", "properties": {"collection_times": [{"days": "Mon-Fri", "time": "3:45pm"}, {"days": "Sat", "time": "12:15pm"}, {"days": "Sun", "time": "Closed"}], "id": "4157200001", "name": "USPS COLLECTION BOX - PO LOBBY", "address": {"city": "VIRGIE", "state": "KY", "street": "1070 KY HIGHWAY 610 W", "postcode": "41572"}}}
]}
