{"type": "FeatureCollection", "features": [
{"geometry": {"type": "Point", "coordinates": [-82.7215894234, 37.6149689698]}, "type": "Feature", "properties": {"collection_times": [{"days": "Mon-Fri", "time": "3:00pm"}, {"days": "Sat", "time": "12:30pm"}, {"days": "Sun", "time": "Closed"}], "id": "4160100000", "name": "USPS COLLECTION BOX - BLUE BOX", "address": {"city": "ALLEN", "state": "KY", "street": "137 COURT ST", "postcode": "41601"}}},
{"geometry": {"type": "Point", "coordinates": [-82.7215894234, 37.6149689698]}, "type": "Feature", "properties": {"collection_times": [{"days": "Mon-Fri", "time": "3:00pm"}, {"days": "Sat", "time": "12:30pm"}, {"days": "Sun", "time": "Closed"}], "id": "4160100001", "name": "USPS COLLECTION BOX - PO LOBBY", "address": {"city": "ALLEN", "state": "KY", "street": "137 COURT ST", "postcode": "41601"}}},
{"geometry": {"type": "Point", "coordinates": [-82.76122, 37.738228]}, "type": "Feature", "properties": {"collection_times": [{"days": "Mon-Sat", "time": "12:00pm"}, {"days": "Sun", "time": "Closed"}], "id": "4160200000", "name": "USPS COLLECTION BOX - BLUE BOX", "address": {"city": "AUXIER", "state": "KY", "street": "11 W MARKET ST", "postcode": "41602"}}},
{"geometry": {"type": "Point", "coordinates": [-82.7083632043, 37.7206919143]}, "type": "Feature", "properties": {"collection_times": [{"days": "Mon-Sat", "time": "12:00pm"}, {"days": "Sun", "time": "Closed"}], "id": "4160200001", "name": "USPS COLLECTION BOX - PO LOBBY", "address": {"city": "AUXIER", "state": "KY", "street": "11 W MARKET ST", "postcode": "41602"}}},
{"geometry": {"type": "Point", "coordinates": [-82.6534328142, 37.5402948413]}, "type": "Feature", "properties": {"collection_times": [{"days": "Mon-Fri", "time": "3:00pm"}, {"days": "Sat", "time": "1:00pm"}, {"days": "Sun", "time": "Closed"}], "id": "4160300000", "name": "USPS COLLECTION BOX - BLUE BOX", "address": {"city": "BANNER", "state": "KY", "street": "54 HALL ADDITION", "postcode": "41603"}}},
{"geometry": {"type": "Point", "coordinates": [-82.6534328142, 37.5402948413]}, "type": "Feature", "properties": {"collection_times": [{"days": "Mon-Fri", "time": "3:00pm"}, {"days": "Sat", "time": "1:00pm"}, {"days": "Sun", "time": "Closed"}], "id": "4160300001", "name": "USPS COLLECTION BOX - PO LOBBY", "address": {"city": "BANNER", "state": "KY", "street": "54 HALL ADDITION", "postcode": "41603"}}},
{"geometry": {"type": "Point", "coordinates": [-82.6231800389, 37.5765689034]}, "type": "Feature", "properties": {"collection_times": [{"days": "Mon-Fri", "time": "3:15pm"}, {"days": "Sat", "time": "11:30am"}, {"days": "Sun", "time": "Closed"}], "id": "4160500000", "name": "USPS COLLECTION BOX - BLUE BOX", "address": {"city": "BETSY LAYNE", "state": "KY", "street": "11105 US HIGHWAY 23 S STE 101", "postcode": "41605"}}},
{"geometry": {"type": "Point", "coordinates": [-82.6231800389, 37.5765689034]}, "type": "Feature", "properties": {"collection_times": [{"days": "Mon-Fri", "time": "3:15pm"}, {"days": "Sat", "time": "11:30am"}, {"days": "Sun", "time": "Closed"}], "id": "4160500001", "name": "USPS COLLECTION BOX - PO LOBBY", "address": {"city": "BETSY LAYNE", "state": "KY", "street": "11105 US HIGHWAY 23 S STE 101", "postcode": "41605"}}},
{"geometry": {"type": "Point", "coordinates": [-82.738789301, 37.3685252242]}, "type": "Feature", "properties": {"collection_times": [{"days": "Mon-Fri", "time": "2:15pm"}, {"days": "Sat", "time": "12:00pm"}, {"days": "Sun", "time": "Closed"}], "id": "4160600000", "name": "USPS COLLECTION BOX - BLUE BOX", "address": {"city": "BEVINSVILLE", "state": "KY", "street": "20311 KY ROUTE 122", "postcode": "41606"}}},
{"geometry": {"type": "Point", "coordinates": [-82.738789301, 37.3685252242]}, "type": "Feature", "properties": {"collection_times": [{"days": "Mon-Fri", "time": "2:15pm"}, {"days": "Sat", "time": "12:00pm"}, {"days": "Sun", "time": "Closed"}], "id": "4160600001", "name": "USPS COLLECTION BOX - PO LOBBY", "address": {"city": "BEVINSVILLE", "state": "KY", "street": "20311 KY ROUTE 122", "postcode": "41606"}}},
{"geometry": {"type": "Point", "coordinates": [-82.8160987831, 37.6422969903]}, "type": "Feature", "properties": {"collection_times": [{"days": "Mon-Fri", "time": "1:30pm"}, {"days": "Sat", "time": "12:00pm"}, {"days": "Sun", "time": "Closed"}], "id": "4160700000", "name": "USPS COLLECTION BOX - BLUE BOX", "address": {"city": "BLUE RIVER", "state": "KY", "street": "3563 KY ROUTE 404 STE 2", "postcode": "41607"}}},
{"geometry": {"type": "Point", "coordinates": [-82.8160987831, 37.6422969903]}, "type": "Feature", "properties": {"collection_times": [{"days": "Mon-Fri", "time": "1:30pm"}, {"days": "Sat", "time": "12:00pm"}, {"days": "Sun", "time": "Closed"}], "id": "4160700001", "name": "USPS COLLECTION BOX - PO LOBBY", "address": {"city": "BLUE RIVER", "state": "KY", "street": "3563 KY ROUTE 404 STE 2", "postcode": "41607"}}},
{"geometry": {"type": "Point", "coordinates": [-85.2876172144, 37.5272361307]}, "type": "Feature", "properties": {"collection_times": [{"days": "Mon-Sat", "time": "9:30am"}, {"days": "Sun", "time": "Closed"}], "id": "4161200002", "name": "USPS COLLECTION BOX - BLUE BOX", "address": {"city": "BYPRO", "state": "KY", "street": "21452 KY ROUTE 122", "postcode": "41612"}}},
{"geometry": {"type": "Point", "coordinates": [-82.8963723928, 37.5989678568]}, "type": "Feature", "properties": {"collection_times": [{"days": "Mon-Sat", "time": "10:45am"}, {"days": "Sun", "time": "Closed"}], "id": "4161600000", "name": "USPS COLLECTION BOX - BLUE BOX", "address": {"city": "DAVID", "state": "KY", "street": "6693 KY ROUTE 404", "postcode": "41616"}}},
{"geometry": {"type": "Point", "coordinates": [-82.8963723928, 37.5989678568]}, "type": "Feature", "properties": {"collection_times": [{"days": "Mon-Sat", "time": "10:45am"}, {"days": "Sun", "time": "Closed"}], "id": "4161600001", "name": "USPS COLLECTION BOX - PO LOBBY", "address": {"city": "DAVID", "state": "KY", "street": "6693 KY ROUTE 404", "postcode": "41616"}}},
{"geometry": {"type": "Point", "coordinates": [-82.7257285614, 37.623921682]}, "type": "Feature", "properties": {"collection_times": [{"days": "Mon-Fri", "time": "1:30pm"}, {"days": "Sat", "time": "12:00pm"}, {"days": "Sun", "time": "Closed"}], "id": "4162100000", "name": "USPS COLLECTION BOX - BLUE BOX", "address": {"city": "DWALE", "state": "KY", "street": "310 BEAVER JUNCTION RD", "postcode": "41621"}}},
{"geometry": {"type": "Point", "coordinates": [-82.7257285614, 37.623921682]}, "type": "Feature", "properties": {"collection_times": [{"days": "Mon-Fri", "time": "1:30pm"}, {"days": "Sat", "time": "12:00pm"}, {"days": "Sun", "time": "Closed"}], "id": "4162100001", "name": "USPS COLLECTION BOX - PO LOBBY", "address": {"city": "DWALE", "state": "KY", "street": "310 BEAVER JUNCTION RD", "postcode": "41621"}}},
{"geometry": {"type": "Point", "coordinates": [-82.8034555178, 37.5180377669]}, "type": "Feature", "properties": {"collection_times": [{"days": "Mon-Fri", "time": "1:00pm"}, {"days": "Sat", "time": "11:30am"}, {"days": "Sun", "time": "Closed"}], "id": "4162200000", "name": "USPS COLLECTION BOX - BLUE BOX", "address": {"city": "EASTERN", "state": "KY", "street": "356 KY ROUTE 550", "postcode": "41622"}}},
{"geometry": {"type": "Point", "coordinates": [-82.8034555178, 37.5180377669]}, "type": "Feature", "properties": {"collection_times": [{"days": "Mon-Fri", "time": "1:00pm"}, {"days": "Sat", "time": "11:30am"}, {"days": "Sun", "time": "Closed"}], "id": "4162200001", "name": "USPS COLLECTION BOX - PO LOBBY", "address": {"city": "EASTERN", "state": "KY", "street": "356 KY ROUTE 550", "postcode": "41622"}}},
{"geometry": {"type": "Point", "coordinates": [-86.1129492658, 37.8981015742]}, "type": "Feature", "properties": {"collection_times": [{"days": "Mon-Fri", "time": "1:00pm"}, {"days": "Sat", "time": "12:30pm"}, {"days": "Sun", "time": "Closed"}], "id": "4163000000", "name": "USPS COLLECTION BOX - BLUE BOX", "address": {"city": "GARRETT", "state": "KY", "street": "451 FRONT ST", "postcode": "41630"}}},
{"geometry": {"type": "Point", "coordinates": [-86.1129492658, 37.8981015742]}, "type": "Feature", "properties": {"collection_times": [{"days": "Mon-Fri", "time": "1:00pm"}, {"days": "Sat", "time": "12:30pm"}, {"days": "Sun", "time": "Closed"}], "id": "4163000001", "name": "USPS COLLECTION BOX - PO LOBBY", "address": {"city": "GARRETT", "state": "KY", "street": "451 FRONT ST", "postcode": "41630"}}},
{"geometry": {"type": "Point", "coordinates": [-82.6542505119, 37.4668730171]}, "type": "Feature", "properties": {"collection_times": [{"days": "Mon-Fri", "time": "1:45pm"}, {"days": "Sat", "time": "12:30pm"}, {"days": "Sun", "time": "Closed"}], "id": "4163100000", "name": "USPS COLLECTION BOX - BLUE BOX", "address": {"city": "GRETHEL", "state": "KY", "street": "6789 KY ROUTE 979", "postcode": "41631"}}},
{"geometry": {"type": "Point", "coordinates": [-82.6542505119, 37.4668730171]}, "type": "Feature", "properties": {"collection_times": [{"days": "Mon-Fri", "time": "1:45pm"}, {"days": "Sat", "time": "12:30pm"}, {"days": "Sun", "time": "Closed"}], "id": "4163100001", "name": "USPS COLLECTION BOX - PO LOBBY", "address": {"city": "GRETHEL", "state": "KY", "street": "6789 KY ROUTE 979", "postcode": "41631"}}},
{"geometry": {"type": "Point", "coordinates": [-82.6282041164, 37.5311305474]}, "type": "Feature", "properties": {"collection_times": [{"days": "Mon-Sat", "time": "3:45pm"}, {"days": "Sun", "time": "Closed"}], "id": "4163500000", "name": "USPS COLLECTION BOX - BLUE BOX", "address": {"city": "HAROLD", "state": "KY", "street": "107 LAYNESVILLE RD", "postcode": "41635"}}},
{"geometry": {"type": "Point", "coordinates": [-82.6282041164, 37.5311305474]}, "type": "Feature", "properties": {"collection_times": [{"days": "Mon-Sat", "time": "3:45pm"}, {"days": "Sun", "time": "Closed"}], "id": "4163500001", "name": "USPS COLLECTION BOX - PO LOBBY", "address": {"city": "HAROLD", "state": "KY", "street": "107 LAYNESVILLE RD", "postcode": "41635"}}},
{"geometry": {"type": "Point", "coordinates": [-82.7314736066, 37.3910368804]}, "type": "Feature", "properties": {"collection_times": [{"days": "Mon-Fri", "time": "2:30pm"}, {"days": "Sat", "time": "11:00am"}, {"days": "Sun", "time": "Closed"}], "id": "4163600000", "name": "USPS COLLECTION BOX - BLUE BOX", "address": {"city": "HI HAT", "state": "KY", "street": "17460 KY ROUTE 122", "postcode": "41636"}}},
{"geometry": {"type": "Point", "coordinates": [-82.7314736066, 37.3910368804]}, "type": "Feature", "properties": {"collection_times": [{"days": "Mon-Fri", "time": "2:30pm"}, {"days": "Sat", "time": "11:00am"}, {"days": "Sun", "time": "Closed"}], "id": "4163600001", "name": "USPS COLLECTION BOX - PO LOBBY", "address": {"city": "HI HAT", "state": "KY", "street": "17460 KY ROUTE 122", "postcode": "41636"}}},
{"geometry": {"type": "Point", "coordinates": [-82.744119101, 37.370902075]}, "type": "Feature", "properties": {"collection_times": [{"days": "Mon-Sat", "time": "1:00pm"}, {"days": "Sun", "time": "Closed"}], "id": "4163600003", "name": "USPS COLLECTION BOX - BLUE BOX", "address": {"city": "HI HAT", "state": "KY", "street": "16509 KY ROUTE 122", "postcode": "41636"}}},
{"geometry": {"type": "Point", "coordinates": [-82.850367225, 37.4962821274]}, "type": "Feature", "properties": {"collection_times": [{"days": "Mon-Fri", "time": "1:00pm"}, {"days": "Sat", "time": "11:00am"}, {"days": "Sun", "time": "Closed"}], "id": "4164000000", "name": "USPS COLLECTION BOX - BLUE BOX", "address": {"city": "HUEYSVILLE", "state": "KY", "street": "85 SALT LICK CRK", "postcode": "41640"}}},
{"geometry": {"type": "Point", "coordinates": [-82.850367225, 37.4962821274]}, "type": "Feature", "properties": {"collection_times": [{"days": "Mon-Fri", "time": "1:00pm"}, {"days": "Sat", "time": "11:00am"}, {"days": "Sun", "time": "Closed"}], "id": "4164000001", "name": "USPS COLLECTION BOX - PO LOBBY", "address": {"city": "HUEYSVILLE", "state": "KY", "street": "85 SALT LICK CRK", "postcode": "41640"}}},
{"geometry": {"type": "Point", "coordinates": [-82.6677082398, 37.5942178197]}, "type": "Feature", "properties": {"collection_times": [{"days": "Mon-Fri", "time": "3:30pm"}, {"days": "Sat", "time": "11:30am"}, {"days": "Sun", "time": "Closed"}], "id": "4164200000", "name": "USPS COLLECTION BOX - BLUE BOX", "address": {"city": "IVEL", "state": "KY", "street": "6367 US HIGHWAY 23 S STE 101", "postcode": "41642"}}},
{"geometry": {"type": "Point", "coordinates": [-82.6677082398, 37.5942178197]}, "type": "Feature", "properties": {"collection_times": [{"days": "Mon-Fri", "time": "3:30pm"}, {"days": "Sat", "time": "11:30am"}, {"days": "Sun", "time": "Closed"}], "id": "4164200001", "name": "USPS COLLECTION BOX - PO LOBBY", "address": {"city": "IVEL", "state": "KY", "street": "6367 US HIGHWAY 23 S STE 101", "postcode": "41642"}}},
{"geometry": {"type": "Point", "coordinates": [-82.7728696855, 37.4606541582]}, "type": "Feature", "properties": {"collection_times": [{"days": "Mon-Fri", "time": "2:00pm"}, {"days": "Sat", "time": "10:45am"}, {"days": "Sun", "time": "Closed"}], "id": "4164300000", "name": "USPS COLLECTION BOX - BLUE BOX", "address": {"city": "LACKEY", "state": "KY", "street": "235 KY ROUTE 7", "postcode": "41643"}}},
{"geometry": {"type": "Point", "coordinates": [-82.7728696855, 37.4606541582]}, "type": "Feature", "properties": {"collection_times": [{"days": "Mon-Fri", "time": "2:00pm"}, {"days": "Sat", "time": "10:45am"}, {"days": "Sun", "time": "Closed"}], "id": "4164300001", "name": "USPS COLLECTION BOX - PO LOBBY", "address": {"city": "LACKEY", "state": "KY", "street": "235 KY ROUTE 7", "postcode": "41643"}}},
{"geometry": {"type": "Point", "coordinates": [-82.7407489697, 37.4569245517]}, "type": "Feature", "properties": {"collection_times": [{"days": "Mon-Fri", "time": "3:00pm"}, {"days": "Sat", "time": "12:30pm"}, {"days": "Sun", "time": "Closed"}], "id": "4164700000", "name": "USPS COLLECTION BOX - BLUE BOX", "address": {"city": "MCDOWELL", "state": "KY", "street": "9668 KY ROUTE 122", "postcode": "41647"}}},
{"geometry": {"type": "Point", "coordinates": [-82.7407489697, 37.4569245517]}, "type": "Feature", "properties": {"collection_times": [{"days": "Mon-Fri", "time": "3:00pm"}, {"days": "Sat", "time": "12:30pm"}, {"days": "Sun", "time": "Closed"}], "id": "4164700001", "name": "USPS COLLECTION BOX - PO LOBBY", "address": {"city": "MCDOWELL", "state": "KY", "street": "9668 KY ROUTE 122", "postcode": "41647"}}},
{"geometry": {"type": "Point", "coordinates": [-82.7407489697, 37.4569245517]}, "type": "Feature", "properties": {"collection_times": [{"days": "Mon-Fri", "time": "3:00pm"}, {"days": "Sat", "time": "12:30pm"}, {"days": "Sun", "time": "Closed"}], "id": "4164700003", "name": "USPS COLLECTION BOX - BLUE BOX", "address": {"city": "MCDOWELL", "state": "KY", "street": "9668 KY ROUTE 122", "postcode": "41647"}}},
{"geometry": {"type": "Point", "coordinates": [-82.753033415, 37.5714174766]}, "type": "Feature", "properties": {"collection_times": [{"days": "Mon-Fri", "time": "3:15pm"}, {"days": "Sat", "time": "12:15pm"}, {"days": "Sun", "time": "Closed"}], "id": "4164900002", "name": "USPS COLLECTION BOX - PO LOBBY", "address": {"city": "MARTIN", "state": "KY", "street": "11561 MAIN ST", "postcode": "41649"}}},
{"geometry": {"type": "Point", "coordinates": [-82.753033415, 37.5714174766]}, "type": "Feature", "properties": {"collection_times": [{"days": "Mon-Fri", "time": "3:15pm"}, {"days": "Sat", "time": "12:15pm"}, {"days": "Sun", "time": "Closed"}], "id": "4164900003", "name": "USPS COLLECTION BOX - BLUE BOX", "address": {"city": "MARTIN", "state": "KY", "street": "11561 MAIN ST", "postcode": "41649"}}},
{"geometry": {"type": "Point", "coordinates": [-82.6936504203, 37.3511244274]}, "type": "Feature", "properties": {"collection_times": [{"days": "Mon-Fri", "time": "2:00pm"}, {"days": "Sat", "time": "12:00pm"}, {"days": "Sun", "time": "Closed"}], "id": "4165000000", "name": "USPS COLLECTION BOX - BLUE BOX", "address": {"city": "MELVIN", "state": "KY", "street": "22944 KY ROUTE 122", "postcode": "41650"}}},
{"geometry": {"type": "Point", "coordinates": [-82.6936504203, 37.3511244274]}, "type": "Feature", "properties": {"collection_times": [{"days": "Mon-Fri", "time": "2:00pm"}, {"days": "Sat", "time": "12:00pm"}, {"days": "Sun", "time": "Closed"}], "id": "4165000001", "name": "USPS COLLECTION BOX - PO LOBBY", "address": {"city": "MELVIN", "state": "KY", "street": "22944 KY ROUTE 122", "postcode": "41650"}}},
{"geometry": {"type": "Point", "coordinates": [-82.7548029832, 37.6600172904]}, "type": "Feature", "properties": {"collection_times": [{"days": "Mon-Sat", "time": "9:00am"}, {"days": "Sun", "time": "Closed"}], "id": "4165300000", "name": "USPS COLLECTION BOX - BLUE BOX", "address": {"city": "PRESTONSBURG", "state": "KY", "street": "363 VILLAGE DR", "postcode": "41653"}}},
{"geometry": {"type": "Point", "coordinates": [-82.7760020501, 37.6713700434]}, "type": "Feature", "properties": {"collection_times": [{"days": "Mon-Sat", "time": "9:00am"}, {"days": "Sun", "time": "Closed"}], "id": "4165300001", "name": "USPS COLLECTION BOX - BLUE BOX", "address": {"city": "PRESTONSBURG", "state": "KY", "street": "67 KY ROUTE 114", "postcode": "41653"}}},
{"geometry": {"type": "Point", "coordinates": [-82.7801454489, 37.6838190878]}, "type": "Feature", "properties": {"collection_times": [{"days": "Mon-Fri", "time": "11:30am"}, {"days": "Sat", "time": "10:30am"}, {"days": "Sun", "time": "Closed"}], "id": "4165300002", "name": "USPS COLLECTION BOX - BLUE BOX", "address": {"city": "PRESTONSBURG", "state": "KY", "street": "186 COLLINS CIR", "postcode": "41653"}}},
{"geometry": {"type": "Point", "coordinates": [-82.7752120544, 37.670799251]}, "type": "Feature", "properties": {"collection_times": [{"days": "Mon-Fri", "time": "1:30pm"}, {"days": "Sat", "time": "9:30am"}, {"days": "Sun", "time": "Closed"}], "id": "4165300003", "name": "USPS COLLECTION BOX - BLUE BOX", "address": {"city": "PRESTONSBURG", "state": "KY", "street": "514 N LAKE DR", "postcode": "41653"}}},
{"geometry": {"type": "Point", "coordinates": [-82.7758643186, 37.6718328576]}, "type": "Feature", "properties": {"collection_times": [{"days": "Mon-Fri", "time": "2:00pm"}, {"days": "Sat", "time": "12:00pm"}, {"days": "Sun", "time": "Closed"}], "id": "4165300004", "name": "USPS COLLECTION BOX - BLUE BOX", "address": {"city": "PRESTONSBURG", "state": "KY", "street": "686 N LAKE DR", "postcode": "41653"}}},
{"geometry": {"type": "Point", "coordinates": [-82.7771970831, 37.673684453]}, "type": "Feature", "properties": {"collection_times": [{"days": "Mon-Fri", "time": "2:00pm"}, {"days": "Sat", "time": "12:00pm"}, {"days": "Sun", "time": "Closed"}], "id": "4165300005", "name": "USPS COLLECTION BOX - BLUE BOX", "address": {"city": "PRESTONSBURG", "state": "KY", "street": "1009 N LAKE DR", "postcode": "41653"}}},
{"geometry": {"type": "Point", "coordinates": [-82.7739934007, 37.6690919041]}, "type": "Feature", "properties": {"collection_times": [{"days": "Mon-Fri", "time": "1:00pm"}, {"days": "Sat", "time": "11:00am"}, {"days": "Sun", "time": "Closed"}], "id": "4165300006", "name": "USPS COLLECTION BOX - BLUE BOX", "address": {"city": "PRESTONSBURG", "state": "KY", "street": "200 N LAKE DR", "postcode": "41653"}}},
{"geometry": {"type": "Point", "coordinates": [-82.8291981027, 37.6786358006]}, "type": "Feature", "properties": {"collection_times": [{"days": "Mon-Fri", "time": "11:00am"}, {"days": "Sat", "time": "10:00am"}, {"days": "Sun", "time": "Closed"}], "id": "4165300008", "name": "USPS COLLECTION BOX - BLUE BOX", "address": {"city": "PRESTONSBURG", "state": "KY", "street": "478 MEADOWS BR", "postcode": "41653"}}},
{"geometry": {"type": "Point", "coordinates": [-82.7132323134, 37.6632719566]}, "type": "Feature", "properties": {"collection_times": [{"days": "Mon-Fri", "time": "11:30am"}, {"days": "Sat", "time": "10:15am"}, {"days": "Sun", "time": "Closed"}], "id": "4165300009", "name": "USPS COLLECTION BOX - BLUE BOX", "address": {"city": "PRESTONSBURG", "state": "KY", "street": "387 S ROBERTS DR", "postcode": "41653"}}},
{"geometry": {"type": "Point", "coordinates": [-82.7748918483, 37.6672637069]}, "type": "Feature", "properties": {"collection_times": [{"days": "Mon-Fri", "time": "2:45pm"}, {"days": "Sat", "time": "12:00pm"}, {"days": "Sun", "time": "Closed"}], "id": "4165300013", "name": "USPS COLLECTION BOX - BLUE BOX", "address": {"city": "PRESTONSBURG", "state": "KY", "street": "170 W COURT ST", "postcode": "41653"}}},
{"geometry": {"type": "Point", "coordinates": [-82.7673251805, 37.6652726948]}, "type": "Feature", "properties": {"collection_times": [{"days": "Mon-Fri", "time": "2:45pm"}, {"days": "Sat", "time": "12:00pm"}, {"days": "Sun", "time": "Closed"}], "id": "4165300015", "name": "USPS COLLECTION BOX - BLUE BOX", "address": {"city": "PRESTONSBURG", "state": "KY", "street": "358 S LAKE DR", "postcode": "41653"}}},
{"geometry": {"type": "Point", "coordinates": [-82.7723101529, 37.6649444069]}, "type": "Feature", "properties": {"collection_times": [{"days": "Mon-Sat", "time": "10:00am"}, {"days": "Sun", "time": "Closed"}], "id": "4165300017", "name": "USPS COLLECTION BOX - BLUE BOX", "address": {"city": "PRESTONSBURG", "state": "KY", "street": "316 S ARNOLD AVE", "postcode": "41653"}}},
{"geometry": {"type": "Point", "coordinates": [-82.7177014261, 37.6695423008]}, "type": "Feature", "properties": {"collection_times": [{"days": "Mon-Fri", "time": "11:30am"}, {"days": "Sat", "time": "10:20am"}, {"days": "Sun", "time": "Closed"}], "id": "4165300018", "name": "USPS COLLECTION BOX - BLUE BOX", "address": {"city": "PRESTONSBURG", "state": "KY", "street": "77 N ROBERTS DR", "postcode": "41653"}}},
{"geometry": {"type": "Point", "coordinates": [-82.7713558328, 37.6669300347]}, "type": "Feature", "properties": {"collection_times": [{"days": "Mon-Fri", "time": "2:45pm"}, {"days": "Sat", "time": "12:00pm"}, {"days": "Sun", "time": "Closed"}], "id": "4165300019", "name": "USPS COLLECTION BOX - BLUE BOX", "address": {"city": "PRESTONSBURG", "state": "KY", "street": "113 S CENTRAL AVE", "postcode": "41653"}}},
{"geometry": {"type": "Point", "coordinates": [-82.7548029832, 37.6600172904]}, "type": "Feature", "properties": {"collection_times": [{"days": "Mon-Fri", "time": "4:00pm"}, {"days": "Sat", "time": "3:00pm"}, {"days": "Sun", "time": "Closed"}], "id": "4165300020", "name": "USPS COLLECTION BOX - PO LOBBY", "address": {"city": "PRESTONSBURG", "state": "KY", "street": "119 FRANKLIN COR", "postcode": "41653"}}},
{"geometry": {"type": "Point", "coordinates": [-82.7548029832, 37.6600172904]}, "type": "Feature", "properties": {"collection_times": [{"days": "Mon-Fri", "time": "4:00pm"}, {"days": "Sat", "time": "3:00pm"}, {"days": "Sun", "time": "Closed"}], "id": "4165300021", "name": "USPS COLLECTION BOX - PO LOBBY", "address": {"city": "PRESTONSBURG", "state": "KY", "street": "119 FRANKLIN COR", "postcode": "41653"}}},
{"geometry": {"type": "Point", "coordinates": [-82.776013001, 37.6956049402]}, "type": "Feature", "properties": {"collection_times": [{"days": "Mon-Sat", "time": "11:00am"}, {"days": "Sun", "time": "Closed"}], "id": "4165300022", "name": "USPS COLLECTION BOX - BLUE BOX", "address": {"city": "PRESTONSBURG", "state": "KY", "street": "112 CLIFFSIDE CIR", "postcode": "41653"}}},
{"geometry": {"type": "Point", "coordinates": [-82.7762285861, 37.6878941128]}, "type": "Feature", "properties": {"collection_times": [{"days": "Mon-Sat", "time": "9:00am"}, {"days": "Sun", "time": "Closed"}], "id": "4165300023", "name": "USPS COLLECTION BOX - BLUE BOX", "address": {"city": "PRESTONSBURG", "state": "KY", "street": "5000 KY ROUTE 321", "postcode": "41653"}}},
{"geometry": {"type": "Point", "coordinates": [-82.7709411802, 37.6691707534]}, "type": "Feature", "properties": {"collection_times": [{"days": "Mon-Fri", "time": "2:45pm"}, {"days": "Sat", "time": "12:00pm"}, {"days": "Sun", "time": "Closed"}], "id": "4165300026", "name": "USPS COLLECTION BOX - BLUE BOX", "address": {"city": "PRESTONSBURG", "state": "KY", "street": "287 W COURT ST", "postcode": "41653"}}},
{"geometry": {"type": "Point", "coordinates": [-82.771833533, 37.6661773097]}, "type": "Feature", "properties": {"collection_times": [{"days": "Mon-Fri", "time": "2:45pm"}, {"days": "Sat", "time": "12:00pm"}, {"days": "Sun", "time": "Closed"}], "id": "4165300030", "name": "USPS COLLECTION BOX - BLUE BOX", "address": {"city": "PRESTONSBURG", "state": "KY", "street": "132 S LAKE DR", "postcode": "41653"}}},
{"geometry": {"type": "Point", "coordinates": [-82.7548029832, 37.6600172904]}, "type": "Feature", "properties": {"collection_times": [{"days": "Mon-Fri", "time": "4:00pm"}, {"days": "Sat", "time": "3:00pm"}, {"days": "Sun", "time": "Closed"}], "id": "4165300031", "name": "USPS COLLECTION BOX - BLUE BOX", "address": {"city": "PRESTONSBURG", "state": "KY", "street": "119 FRANKLIN COR", "postcode": "41653"}}},
{"geometry": {"type": "Point", "coordinates": [-82.776208115, 37.6870034576]}, "type": "Feature", "properties": {"collection_times": [{"days": "Mon-Sat", "time": "9:00am"}, {"days": "Sun", "time": "Closed"}], "id": "4165300033", "name": "USPS COLLECTION BOX - BLUE BOX", "address": {"city": "PRESTONSBURG", "state": "KY", "street": "5230 KY ROUTE 321", "postcode": "41653"}}},
{"geometry": {"type": "Point", "coordinates": [-82.7548029832, 37.6600172904]}, "type": "Feature", "properties": {"collection_times": [{"days": "Mon-Sat", "time": "9:00am"}, {"days": "Sun", "time": "Closed"}], "id": "4165300034", "name": "USPS COLLECTION BOX - BLUE BOX", "address": {"city": "PRESTONSBURG", "state": "KY", "street": "477 VILLAGE DR", "postcode": "41653"}}},
{"geometry": {"type": "Point", "coordinates": [-82.7615535554, 37.7212061914]}, "type": "Feature", "properties": {"collection_times": [{"days": "Mon-Fri", "time": "11:00am"}, {"days": "Sat", "time": "10:00am"}, {"days": "Sun", "time": "Closed"}], "id": "4165300035", "name": "USPS COLLECTION BOX - BLUE BOX", "address": {"city": "PRESTONSBURG", "state": "KY", "street": "1897 KY ROUTE 321", "postcode": "41653"}}},
{"geometry": {"type": "Point", "coordinates": [-82.7372392389, 37.5136679094]}, "type": "Feature", "properties": {"collection_times": [{"days": "Mon-Fri", "time": "3:15pm"}, {"days": "Sat", "time": "11:30am"}, {"days": "Sun", "time": "Closed"}], "id": "4165500000", "name": "USPS COLLECTION BOX - BLUE BOX", "address": {"city": "PRINTER", "state": "KY", "street": "2928 KY ROUTE 122 STE 2", "postcode": "41655"}}},
{"geometry": {"type": "Point", "coordinates": [-82.7372392389, 37.5136679094]}, "type": "Feature", "properties": {"collection_times": [{"days": "Mon-Fri", "time": "3:15pm"}, {"days": "Sat", "time": "11:30am"}, {"days": "Sun", "time": "Closed"}], "id": "4165500001", "name": "USPS COLLECTION BOX - PO LOBBY", "address": {"city": "PRINTER", "state": "KY", "street": "2928 KY ROUTE 122 STE 2", "postcode": "41655"}}},
{"geometry": {"type": "Point", "coordinates": [-82.6004361124, 37.5639082882]}, "type": "Feature", "properties": {"collection_times": [{"days": "Mon-Fri", "time": "3:30pm"}, {"days": "Sat", "time": "1:00pm"}, {"days": "Sun", "time": "Closed"}], "id": "4165900000", "name": "USPS COLLECTION BOX - BLUE BOX", "address": {"city": "STANVILLE", "state": "KY", "street": "185 E MAIN ST", "postcode": "41659"}}},
{"geometry": {"type": "Point", "coordinates": [-82.6004361124, 37.5639082882]}, "type": "Feature", "properties": {"collection_times": [{"days": "Mon-Fri", "time": "3:30pm"}, {"days": "Sat", "time": "1:00pm"}, {"days": "Sun", "time": "Closed"}], "id": "4165900001", "name": "USPS COLLECTION BOX - PO LOBBY", "address": {"city": "STANVILLE", "state": "KY", "street": "185 E MAIN ST", "postcode": "41659"}}},
{"geometry": {"type": "Point", "coordinates": [-82.6492056272, 37.4123419352]}, "type": "Feature", "properties": {"collection_times": [{"days": "Mon-Fri", "time": "2:15pm"}, {"days": "Sat", "time": "12:30pm"}, {"days": "Sun", "time": "Closed"}], "id": "4166000000", "name": "USPS COLLECTION BOX - BLUE BOX", "address": {"city": "TEABERRY", "state": "KY", "street": "11136 KY ROUTE 979", "postcode": "41660"}}},
{"geometry": {"type": "Point", "coordinates": [-82.6492056272, 37.4123419352]}, "type": "Feature", "properties": {"collection_times": [{"days": "Mon-Fri", "time": "2:15pm"}, {"days": "Sat", "time": "12:30pm"}, {"days": "Sun", "time": "Closed"}], "id": "4166000001", "name": "USPS COLLECTION BOX - PO LOBBY", "address": {"city": "TEABERRY", "state": "KY", "street": "11136 KY ROUTE 979", "postcode": "41660"}}},
{"geometry": {"type": "Point", "coordinates": [-82.8086905172, 37.440307096]}, "type": "Feature", "properties": {"collection_times": [{"days": "Mon-Fri", "time": "1:45pm"}, {"days": "Sat", "time": "12:30pm"}, {"days": "Sun", "time": "Closed"}], "id": "4166600000", "name": "USPS COLLECTION BOX - BLUE BOX", "address": {"city": "WAYLAND", "state": "KY", "street": "2617 KING KELLY COLEMAN HWY", "postcode": "41666"}}},
{"geometry": {"type": "Point", "coordinates": [-82.8086905172, 37.440307096]}, "type": "Feature", "properties": {"collection_times": [{"days": "Mon-Fri", "time": "1:45pm"}, {"days": "Sat", "time": "12:30pm"}, {"days": "Sun", "time": "Closed"}], "id": "4166600001", "name": "USPS COLLECTION BOX - PO LOBBY", "address": {"city": "WAYLAND", "state": "KY", "street": "2617 KING KELLY COLEMAN HWY", "postcode": "41666"}}},
{"geometry": {"type": "Point", "coordinates": [-82.690435739, 37.3167471066]}, "type": "Feature", "properties": {"collection_times": [{"days": "Mon-Sat", "time": "10:20am"}, {"days": "Sun", "time": "Closed"}], "id": "4166700000", "name": "USPS COLLECTION BOX - BLUE BOX", "address": {"city": "WEEKSBURY", "state": "KY", "street": "1905 KY ROUTE 466", "postcode": "41667"}}},
{"geometry": {"type": "Point", "coordinates": [-82.690435739, 37.3167471066]}, "type": "Feature", "properties": {"collection_times": [{"days": "Mon-Sat", "time": "10:20am"}, {"days": "Sun", "time": "Closed"}], "id": "4166700001", "name": "USPS COLLECTION BOX - PO LOBBY", "address": {"city": "WEEKSBURY", "state": "KY", "street": "1905 KY ROUTE 466", "postcode": "41667"}}},
{"geometry": {"type": "Point", "coordinates": [-82.7196466614, 37.3325695437]}, "type": "Feature", "properties": {"collection_times": [{"days": "Mon-Fri", "time": "2:15pm"}, {"days": "Sat", "time": "12:00pm"}, {"days": "Sun", "time": "Closed"}], "id": "4166900000", "name": "USPS COLLECTION BOX - BLUE BOX", "address": {"city": "WHEELWRIGHT", "state": "KY", "street": "80 SHOP FORK ST", "postcode": "41669"}}},
{"geometry": {"type": "Point", "coordinates": [-82.7196466614, 37.3325695437]}, "type": "Feature", "properties": {"collection_times": [{"days": "Mon-Fri", "time": "2:15pm"}, {"days": "Sat", "time": "12:00pm"}, {"days": "Sun", "time": "Closed"}], "id": "4166900001", "name": "USPS COLLECTION BOX - PO LOBBY", "address": {"city": "WHEELWRIGHT", "state": "KY", "street": "80 SHOP FORK ST", "postcode": "41669"}}}
]}
