{"type": "FeatureCollection", "features": [
{"geometry": {"type": "Point", "coordinates": [-83.2006417011, 37.2543643093]}, "type": "Feature", "properties": {"collection_times": [{"days": "Mon-Fri", "time": "5:00pm"}, {"days": "Sat", "time": "12:00pm"}, {"days": "Sun", "time": "Closed"}], "id": "4170100001", "name": "USPS COLLECTION BOX - BLUE BOX", "address": {"city": "HAZARD", "state": "KY", "street": "201 BLACK GOLD BLVD", "postcode": "41701"}}},
{"geometry": {"type": "Point", "coordinates": [-83.1865054922, 37.246137274]}, "type": "Feature", "properties": {"collection_times": [{"days": "Mon-Sat", "time": "11:00am"}, {"days": "Sun", "time": "Closed"}], "id": "4170100003", "name": "USPS COLLECTION BOX - BLUE BOX", "address": {"city": "HAZARD", "state": "KY", "street": "279 E MAIN ST", "postcode": "41701"}}},
{"geometry": {"type": "Point", "coordinates": [-83.1881755513, 37.2460632644]}, "type": "Feature", "properties": {"collection_times": [{"days": "Mon-Sat", "time": "11:00am"}, {"days": "Sun", "time": "Closed"}], "id": "4170100004", "name": "USPS COLLECTION BOX - BLUE BOX", "address": {"city": "HAZARD", "state": "KY", "street": "124 E MAIN ST", "postcode": "41701"}}},
{"geometry": {"type": "Point", "coordinates": [-83.1959260051, 37.249451311]}, "type": "Feature", "properties": {"collection_times": [{"days": "Mon-Sat", "time": "11:00am"}, {"days": "Sun", "time": "Closed"}], "id": "4170100005", "name": "USPS COLLECTION BOX - BLUE BOX", "address": {"city": "HAZARD", "state": "KY", "street": "601 MAIN ST", "postcode": "41701"}}},
{"geometry": {"type": "Point", "coordinates": [-83.1953245857, 37.2481910437]}, "type": "Feature", "properties": {"collection_times": [{"days": "Mon-Sat", "time": "11:00am"}, {"days": "Sun", "time": "Closed"}], "id": "4170100007", "name": "USPS COLLECTION BOX - BLUE BOX", "address": {"city": "HAZARD", "state": "KY", "street": "470 MAIN ST", "postcode": "41701"}}},
{"geometry": {"type": "Point", "coordinates": [-83.1962110501, 37.2871351054]}, "type": "Feature", "properties": {"collection_times": [{"days": "Mon-Sat", "time": "10:00am"}, {"days": "Sun", "time": "Closed"}], "id": "4170100009", "name": "USPS COLLECTION BOX - BLUE BOX", "address": {"city": "HAZARD", "state": "KY", "street": "120 DANIEL BOONE PLZ", "postcode": "41701"}}},
{"geometry": {"type": "Point", "coordinates": [-83.1952484024, 37.2504351946]}, "type": "Feature", "properties": {"collection_times": [{"days": "Mon-Sat", "time": "11:00am"}, {"days": "Sun", "time": "Closed"}], "id": "4170100010", "name": "USPS COLLECTION BOX - BLUE BOX", "address": {"city": "HAZARD", "state": "KY", "street": "742 HIGH ST", "postcode": "41701"}}},
{"geometry": {"type": "Point", "coordinates": [-83.2272816534, 37.2822284492]}, "type": "Feature", "properties": {"collection_times": [{"days": "Mon-Sat", "time": "11:00am"}, {"days": "Sun", "time": "Closed"}], "id": "4170100018", "name": "USPS COLLECTION BOX - BLUE BOX", "address": {"city": "HAZARD", "state": "KY", "street": "278 VILLAGE LN", "postcode": "41701"}}},
{"geometry": {"type": "Point", "coordinates": [-83.2060487896, 37.2865221255]}, "type": "Feature", "properties": {"collection_times": [{"days": "Mon-Sat", "time": "11:00am"}, {"days": "Sun", "time": "Closed"}], "id": "4170100020", "name": "USPS COLLECTION BOX - BLUE BOX", "address": {"city": "HAZARD", "state": "KY", "street": "100 AIRPORT GARDENS RD", "postcode": "41701"}}},
{"geometry": {"type": "Point", "coordinates": [-83.2006417011, 37.2543643093]}, "type": "Feature", "properties": {"collection_times": [{"days": "Mon-Fri", "time": "5:00pm"}, {"days": "Sat", "time": "12:00pm"}, {"days": "Sun", "time": "Closed"}], "id": "4170100024", "name": "USPS COLLECTION BOX - PO LOBBY", "address": {"city": "HAZARD", "state": "KY", "street": "201 BLACK GOLD BLVD", "postcode": "41701"}}},
{"geometry": {"type": "Point", "coordinates": [-83.1925368968, 37.2655182865]}, "type": "Feature", "properties": {"collection_times": [{"days": "Mon-Sat", "time": "10:00am"}, {"days": "Sun", "time": "Closed"}], "id": "4170100027", "name": "USPS COLLECTION BOX - BLUE BOX", "address": {"city": "HAZARD", "state": "KY", "street": "1908 N MAIN ST", "postcode": "41701"}}},
{"geometry": {"type": "Point", "coordinates": [-83.2006417011, 37.2543643093]}, "type": "Feature", "properties": {"collection_times": [{"days": "Mon-Fri", "time": "5:00pm"}, {"days": "Sat", "time": "12:00pm"}, {"days": "Sun", "time": "Closed"}], "id": "4170100028", "name": "USPS COLLECTION BOX - PO LOBBY", "address": {"city": "HAZARD", "state": "KY", "street": "201 BLACK GOLD BLVD", "postcode": "41701"}}},
{"geometry": {"type": "Point", "coordinates": [-83.1917170605, 37.2827809778]}, "type": "Feature", "properties": {"collection_times": [{"days": "Mon-Sat", "time": "9:30am"}, {"days": "Sun", "time": "Closed"}], "id": "4170100033", "name": "USPS COLLECTION BOX - BLUE BOX", "address": {"city": "HAZARD", "state": "KY", "street": "16973 KY HIGHWAY 476", "postcode": "41701"}}},
{"geometry": {"type": "Point", "coordinates": [-83.2589018016, 37.236175299]}, "type": "Feature", "properties": {"collection_times": [{"days": "Mon-Sat", "time": "11:45am"}, {"days": "Sun", "time": "Closed"}], "id": "4170100035", "name": "USPS COLLECTION BOX - BLUE BOX", "address": {"city": "HAZARD", "state": "KY", "street": "5584 W KY HIGHWAY 80", "postcode": "41701"}}},
{"geometry": {"type": "Point", "coordinates": [-83.2568256933, 37.3378987667]}, "type": "Feature", "properties": {"collection_times": [{"days": "Mon-Sat", "time": "11:30am"}, {"days": "Sun", "time": "Closed"}], "id": "4170100036", "name": "USPS COLLECTION BOX - BLUE BOX", "address": {"city": "HAZARD", "state": "KY", "street": "7351 N KY HIGHWAY 15", "postcode": "41701"}}},
{"geometry": {"type": "Point", "coordinates": [-83.1438384377, 37.3699629419]}, "type": "Feature", "properties": {"collection_times": [{"days": "Mon-Fri", "time": "1:30pm"}, {"days": "Sat", "time": "11:30am"}, {"days": "Sun", "time": "Closed"}], "id": "4171200000", "name": "USPS COLLECTION BOX - BLUE BOX", "address": {"city": "ARY", "state": "KY", "street": "14065 KY HIGHWAY 476 STE 102", "postcode": "41712"}}},
{"geometry": {"type": "Point", "coordinates": [-83.1438384377, 37.3699629419]}, "type": "Feature", "properties": {"collection_times": [{"days": "Mon-Fri", "time": "1:30pm"}, {"days": "Sat", "time": "11:30am"}, {"days": "Sun", "time": "Closed"}], "id": "4171200001", "name": "USPS COLLECTION BOX - PO LOBBY", "address": {"city": "ARY", "state": "KY", "street": "14065 KY HIGHWAY 476 STE 102", "postcode": "41712"}}},
{"geometry": {"type": "Point", "coordinates": [-83.2802391174, 37.2209151575]}, "type": "Feature", "properties": {"collection_times": [{"days": "Mon-Fri", "time": "3:30pm"}, {"days": "Sat", "time": "11:00am"}, {"days": "Sun", "time": "Closed"}], "id": "4171300000", "name": "USPS COLLECTION BOX - BLUE BOX", "address": {"city": "AVAWAM", "state": "KY", "street": "7201 W KY HIGHWAY 80", "postcode": "41713"}}},
{"geometry": {"type": "Point", "coordinates": [-83.2802391174, 37.2209151575]}, "type": "Feature", "properties": {"collection_times": [{"days": "Mon-Fri", "time": "3:30pm"}, {"days": "Sat", "time": "11:00am"}, {"days": "Sun", "time": "Closed"}], "id": "4171300001", "name": "USPS COLLECTION BOX - PO LOBBY", "address": {"city": "AVAWAM", "state": "KY", "street": "7201 W KY HIGHWAY 80", "postcode": "41713"}}},
{"geometry": {"type": "Point", "coordinates": [-83.4988027382, 37.193928767]}, "type": "Feature", "properties": {"collection_times": [{"days": "Mon-Sat", "time": "12:30pm"}, {"days": "Sun", "time": "Closed"}], "id": "4171400000", "name": "USPS COLLECTION BOX - BLUE BOX", "address": {"city": "BEAR BRANCH", "state": "KY", "street": "35137 HIGHWAY 421", "postcode": "41714"}}},
{"geometry": {"type": "Point", "coordinates": [-83.4988027382, 37.193928767]}, "type": "Feature", "properties": {"collection_times": [{"days": "Mon-Sat", "time": "12:30pm"}, {"days": "Sun", "time": "Closed"}], "id": "4171400001", "name": "USPS COLLECTION BOX - PO LOBBY", "address": {"city": "BEAR BRANCH", "state": "KY", "street": "35137 HIGHWAY 421", "postcode": "41714"}}},
{"geometry": {"type": "Point", "coordinates": [-83.2486772102, 37.2957233679]}, "type": "Feature", "properties": {"collection_times": [{"days": "Mon-Fri", "time": "2:00pm"}, {"days": "Sat", "time": "11:30am"}, {"days": "Sun", "time": "Closed"}], "id": "4171900000", "name": "USPS COLLECTION BOX - BLUE BOX", "address": {"city": "BONNYMAN", "state": "KY", "street": "112 BONNYMAN CIR", "postcode": "41719"}}},
{"geometry": {"type": "Point", "coordinates": [-83.2486772102, 37.2957233679]}, "type": "Feature", "properties": {"collection_times": [{"days": "Mon-Fri", "time": "2:00pm"}, {"days": "Sat", "time": "11:30am"}, {"days": "Sun", "time": "Closed"}], "id": "4171900001", "name": "USPS COLLECTION BOX - PO LOBBY", "address": {"city": "BONNYMAN", "state": "KY", "street": "112 BONNYMAN CIR", "postcode": "41719"}}},
{"geometry": {"type": "Point", "coordinates": [-83.4777290652, 37.3493301969]}, "type": "Feature", "properties": {"collection_times": [{"days": "Mon-Fri", "time": "1:30pm"}, {"days": "Sat", "time": "12:00pm"}, {"days": "Sun", "time": "Closed"}], "id": "4172100000", "name": "USPS COLLECTION BOX - BLUE BOX", "address": {"city": "BUCKHORN", "state": "KY", "street": "18540 KY HIGHWAY 28 STE 102", "postcode": "41721"}}},
{"geometry": {"type": "Point", "coordinates": [-83.4777290652, 37.3493301969]}, "type": "Feature", "properties": {"collection_times": [{"days": "Mon-Fri", "time": "1:30pm"}, {"days": "Sat", "time": "12:00pm"}, {"days": "Sun", "time": "Closed"}], "id": "4172100001", "name": "USPS COLLECTION BOX - PO LOBBY", "address": {"city": "BUCKHORN", "state": "KY", "street": "18540 KY HIGHWAY 28 STE 102", "postcode": "41721"}}},
{"geometry": {"type": "Point", "coordinates": [-83.1703248355, 37.2972225342]}, "type": "Feature", "properties": {"collection_times": [{"days": "Mon-Fri", "time": "3:00pm"}, {"days": "Sat", "time": "12:00pm"}, {"days": "Sun", "time": "Closed"}], "id": "4172200001", "name": "USPS COLLECTION BOX - PO LOBBY", "address": {"city": "BULAN", "state": "KY", "street": "4672 KY HIGHWAY 476", "postcode": "41722"}}},
{"geometry": {"type": "Point", "coordinates": [-83.1703248355, 37.2972225342]}, "type": "Feature", "properties": {"collection_times": [{"days": "Mon-Fri", "time": "3:00pm"}, {"days": "Sat", "time": "12:00pm"}, {"days": "Sun", "time": "Closed"}], "id": "4172200003", "name": "USPS COLLECTION BOX - BLUE BOX", "address": {"city": "BULAN", "state": "KY", "street": "4672 KY HIGHWAY 476", "postcode": "41722"}}},
{"geometry": {"type": "Point", "coordinates": [-83.0266167238, 37.3334651561]}, "type": "Feature", "properties": {"collection_times": [{"days": "Mon-Fri", "time": "2:10pm"}, {"days": "Sat", "time": "11:15am"}, {"days": "Sun", "time": "Closed"}], "id": "4172500000", "name": "USPS COLLECTION BOX - BLUE BOX", "address": {"city": "CARRIE", "state": "KY", "street": "4357 HIGHWAY 550 W", "postcode": "41725"}}},
{"geometry": {"type": "Point", "coordinates": [-83.0266167238, 37.3334651561]}, "type": "Feature", "properties": {"collection_times": [{"days": "Mon-Fri", "time": "2:10pm"}, {"days": "Sat", "time": "11:15am"}, {"days": "Sun", "time": "Closed"}], "id": "4172500001", "name": "USPS COLLECTION BOX - PO LOBBY", "address": {"city": "CARRIE", "state": "KY", "street": "4357 HIGHWAY 550 W", "postcode": "41725"}}},
{"geometry": {"type": "Point", "coordinates": [-83.3566713237, 37.3439139561]}, "type": "Feature", "properties": {"collection_times": [{"days": "Mon-Fri", "time": "1:30pm"}, {"days": "Sat", "time": "11:30am"}, {"days": "Sun", "time": "Closed"}], "id": "4172700000", "name": "USPS COLLECTION BOX - BLUE BOX", "address": {"city": "CHAVIES", "state": "KY", "street": "5876 KY HIGHWAY 28", "postcode": "41727"}}},
{"geometry": {"type": "Point", "coordinates": [-83.3566713237, 37.3439139561]}, "type": "Feature", "properties": {"collection_times": [{"days": "Mon-Fri", "time": "1:30pm"}, {"days": "Sat", "time": "11:30am"}, {"days": "Sun", "time": "Closed"}], "id": "4172700001", "name": "USPS COLLECTION BOX - PO LOBBY", "address": {"city": "CHAVIES", "state": "KY", "street": "5876 KY HIGHWAY 28", "postcode": "41727"}}},
{"geometry": {"type": "Point", "coordinates": [-83.2143388461, 37.267681717]}, "type": "Feature", "properties": {"collection_times": [{"days": "Mon-Fri", "time": "3:00pm"}, {"days": "Sat", "time": "9:30am"}, {"days": "Sun", "time": "Closed"}], "id": "4172900000", "name": "USPS COLLECTION BOX - BLUE BOX", "address": {"city": "COMBS", "state": "KY", "street": "526 W KY HIGHWAY 80 STE 102", "postcode": "41729"}}},
{"geometry": {"type": "Point", "coordinates": [-83.2143388461, 37.267681717]}, "type": "Feature", "properties": {"collection_times": [{"days": "Mon-Fri", "time": "3:00pm"}, {"days": "Sat", "time": "9:30am"}, {"days": "Sun", "time": "Closed"}], "id": "4172900001", "name": "USPS COLLECTION BOX - PO LOBBY", "address": {"city": "COMBS", "state": "KY", "street": "526 W KY HIGHWAY 80 STE 102", "postcode": "41729"}}},
{"geometry": {"type": "Point", "coordinates": [-83.0488030326, 37.1267025887]}, "type": "Feature", "properties": {"collection_times": [{"days": "Mon-Fri", "time": "3:30pm"}, {"days": "Sat", "time": "11:30am"}, {"days": "Sun", "time": "Closed"}], "id": "4173100000", "name": "USPS COLLECTION BOX - BLUE BOX", "address": {"city": "CORNETTSVILLE", "state": "KY", "street": "11571 KY HIGHWAY 7", "postcode": "41731"}}},
{"geometry": {"type": "Point", "coordinates": [-83.0488030326, 37.1267025887]}, "type": "Feature", "properties": {"collection_times": [{"days": "Mon-Fri", "time": "3:30pm"}, {"days": "Sat", "time": "11:30am"}, {"days": "Sun", "time": "Closed"}], "id": "4173100001", "name": "USPS COLLECTION BOX - PO LOBBY", "address": {"city": "CORNETTSVILLE", "state": "KY", "street": "11571 KY HIGHWAY 7", "postcode": "41731"}}},
{"geometry": {"type": "Point", "coordinates": [-83.0887288677, 37.0248731051]}, "type": "Feature", "properties": {"collection_times": [{"days": "Mon-Sat", "time": "1:30pm"}, {"days": "Sun", "time": "Closed"}], "id": "4173500000", "name": "USPS COLLECTION BOX - BLUE BOX", "address": {"city": "DELPHIA", "state": "KY", "street": "3946 KY HIGHWAY 463 STE 102", "postcode": "41735"}}},
{"geometry": {"type": "Point", "coordinates": [-83.0916469564, 37.0212934425]}, "type": "Feature", "properties": {"collection_times": [{"days": "Mon-Sat", "time": "1:30pm"}, {"days": "Sun", "time": "Closed"}], "id": "4173500001", "name": "USPS COLLECTION BOX - PO LOBBY", "address": {"city": "DELPHIA", "state": "KY", "street": "3946 KY HIGHWAY 463 STE 102", "postcode": "41735"}}},
{"geometry": {"type": "Point", "coordinates": [-83.1574150946, 37.3950792467]}, "type": "Feature", "properties": {"collection_times": [{"days": "Mon-Fri", "time": "1:00pm"}, {"days": "Sat", "time": "11:30am"}, {"days": "Sun", "time": "Closed"}], "id": "4173600000", "name": "USPS COLLECTION BOX - BLUE BOX", "address": {"city": "DICE", "state": "KY", "street": "4188 SIXTEENMILE CREEK RD STE 102", "postcode": "41736"}}},
{"geometry": {"type": "Point", "coordinates": [-83.1295392927, 37.3355384092]}, "type": "Feature", "properties": {"collection_times": [{"days": "Mon-Fri", "time": "2:45pm"}, {"days": "Sat", "time": "10:45am"}, {"days": "Sun", "time": "Closed"}], "id": "4173900000", "name": "USPS COLLECTION BOX - BLUE BOX", "address": {"city": "DWARF", "state": "KY", "street": "9325 KY HIGHWAY 476", "postcode": "41739"}}},
{"geometry": {"type": "Point", "coordinates": [-83.1295392927, 37.3355384092]}, "type": "Feature", "properties": {"collection_times": [{"days": "Mon-Fri", "time": "2:45pm"}, {"days": "Sat", "time": "10:45am"}, {"days": "Sun", "time": "Closed"}], "id": "4173900001", "name": "USPS COLLECTION BOX - PO LOBBY", "address": {"city": "DWARF", "state": "KY", "street": "9325 KY HIGHWAY 476", "postcode": "41739"}}},
{"geometry": {"type": "Point", "coordinates": [-83.0758125947, 37.3364432902]}, "type": "Feature", "properties": {"collection_times": [{"days": "Mon-Fri", "time": "2:20pm"}, {"days": "Sat", "time": "10:45am"}, {"days": "Sun", "time": "Closed"}], "id": "4174000000", "name": "USPS COLLECTION BOX - BLUE BOX", "address": {"city": "EMMALENA", "state": "KY", "street": "8334 HIGHWAY 550 W", "postcode": "41740"}}},
{"geometry": {"type": "Point", "coordinates": [-83.0758125947, 37.3364432902]}, "type": "Feature", "properties": {"collection_times": [{"days": "Mon-Fri", "time": "2:20pm"}, {"days": "Sat", "time": "10:45am"}, {"days": "Sun", "time": "Closed"}], "id": "4174000001", "name": "USPS COLLECTION BOX - PO LOBBY", "address": {"city": "EMMALENA", "state": "KY", "street": "8334 HIGHWAY 550 W", "postcode": "41740"}}},
{"geometry": {"type": "Point", "coordinates": [-83.1018382473, 37.335183213]}, "type": "Feature", "properties": {"collection_times": [{"days": "Mon-Fri", "time": "12:00pm"}, {"days": "Sat", "time": "10:15am"}, {"days": "Sun", "time": "Closed"}], "id": "4174300000", "name": "USPS COLLECTION BOX - BLUE BOX", "address": {"city": "FISTY", "state": "KY", "street": "10573 HIGHWAY 550 W", "postcode": "41743"}}},
{"geometry": {"type": "Point", "coordinates": [-83.1018382473, 37.335183213]}, "type": "Feature", "properties": {"collection_times": [{"days": "Mon-Fri", "time": "12:00pm"}, {"days": "Sat", "time": "10:15am"}, {"days": "Sun", "time": "Closed"}], "id": "4174300001", "name": "USPS COLLECTION BOX - PO LOBBY", "address": {"city": "FISTY", "state": "KY", "street": "10573 HIGHWAY 550 W", "postcode": "41743"}}},
{"geometry": {"type": "Point", "coordinates": [-83.095833002, 37.2049261487]}, "type": "Feature", "properties": {"collection_times": [{"days": "Mon-Fri", "time": "1:15pm"}, {"days": "Sat", "time": "11:30am"}, {"days": "Sun", "time": "Closed"}], "id": "4174600000", "name": "USPS COLLECTION BOX - BLUE BOX", "address": {"city": "HAPPY", "state": "KY", "street": "10028 S KY HIGHWAY 15", "postcode": "41746"}}},
{"geometry": {"type": "Point", "coordinates": [-83.095833002, 37.2049261487]}, "type": "Feature", "properties": {"collection_times": [{"days": "Mon-Fri", "time": "1:15pm"}, {"days": "Sat", "time": "11:30am"}, {"days": "Sun", "time": "Closed"}], "id": "4174600001", "name": "USPS COLLECTION BOX - PO LOBBY", "address": {"city": "HAPPY", "state": "KY", "street": "10028 S KY HIGHWAY 15", "postcode": "41746"}}},
{"geometry": {"type": "Point", "coordinates": [-83.3709065417, 37.1556255626]}, "type": "Feature", "properties": {"collection_times": [{"days": "Mon-Fri", "time": "3:30pm"}, {"days": "Sat", "time": "2:15pm"}, {"days": "Sun", "time": "Closed"}], "id": "4174900001", "name": "USPS COLLECTION BOX - BLUE BOX", "address": {"city": "HYDEN", "state": "KY", "street": "140 HIGHWAY 80", "postcode": "41749"}}},
{"geometry": {"type": "Point", "coordinates": [-83.3709065417, 37.1556255626]}, "type": "Feature", "properties": {"collection_times": [{"days": "Mon-Fri", "time": "3:30pm"}, {"days": "Sat", "time": "2:15pm"}, {"days": "Sun", "time": "Closed"}], "id": "4174900003", "name": "USPS COLLECTION BOX - PO LOBBY", "address": {"city": "HYDEN", "state": "KY", "street": "140 HIGHWAY 80", "postcode": "41749"}}},
{"geometry": {"type": "Point", "coordinates": [-83.3994152797, 37.1504939825]}, "type": "Feature", "properties": {"collection_times": [{"days": "Mon-Fri", "time": "3:30pm"}, {"days": "Sat", "time": "2:15pm"}, {"days": "Sun", "time": "Closed"}], "id": "4174900004", "name": "USPS COLLECTION BOX - BLUE BOX", "address": {"city": "HYDEN", "state": "KY", "street": "22045 MAIN ST", "postcode": "41749"}}},
{"geometry": {"type": "Point", "coordinates": [-83.1296586386, 37.2249970729]}, "type": "Feature", "properties": {"collection_times": [{"days": "Mon-Fri", "time": "3:30pm"}, {"days": "Sat", "time": "11:30am"}, {"days": "Sun", "time": "Closed"}], "id": "4175100000", "name": "USPS COLLECTION BOX - BLUE BOX", "address": {"city": "JEFF", "state": "KY", "street": "136 KY HIGHWAY 7 STE 101", "postcode": "41751"}}},
{"geometry": {"type": "Point", "coordinates": [-83.1296586386, 37.2249970729]}, "type": "Feature", "properties": {"collection_times": [{"days": "Mon-Fri", "time": "3:30pm"}, {"days": "Sat", "time": "11:30am"}, {"days": "Sun", "time": "Closed"}], "id": "4175100001", "name": "USPS COLLECTION BOX - PO LOBBY", "address": {"city": "JEFF", "state": "KY", "street": "136 KY HIGHWAY 7 STE 101", "postcode": "41751"}}},
{"geometry": {"type": "Point", "coordinates": [-83.3091904047, 37.3094293295]}, "type": "Feature", "properties": {"collection_times": [{"days": "Mon-Sat", "time": "11:00am"}, {"days": "Sun", "time": "Closed"}], "id": "4175400000", "name": "USPS COLLECTION BOX - PO LOBBY", "address": {"city": "KRYPTON", "state": "KY", "street": "239 KRYPTON NAPFOR RD", "postcode": "41754"}}},
{"geometry": {"type": "Point", "coordinates": [-83.0542975472, 37.2201578164]}, "type": "Feature", "properties": {"collection_times": [{"days": "Mon-Sat", "time": "11:45am"}, {"days": "Sun", "time": "Closed"}], "id": "4175900000", "name": "USPS COLLECTION BOX - BLUE BOX", "address": {"city": "SASSAFRAS", "state": "KY", "street": "315 MAIN ST", "postcode": "41759"}}},
{"geometry": {"type": "Point", "coordinates": [-83.0542975472, 37.2201578164]}, "type": "Feature", "properties": {"collection_times": [{"days": "Mon-Sat", "time": "11:45am"}, {"days": "Sun", "time": "Closed"}], "id": "4175900001", "name": "USPS COLLECTION BOX - PO LOBBY", "address": {"city": "SASSAFRAS", "state": "KY", "street": "315 MAIN ST", "postcode": "41759"}}},
{"geometry": {"type": "Point", "coordinates": [-83.1119300241, 37.0796937686]}, "type": "Feature", "properties": {"collection_times": [{"days": "Mon-Fri", "time": "2:30pm"}, {"days": "Sat", "time": "11:15am"}, {"days": "Sun", "time": "Closed"}], "id": "4176300000", "name": "USPS COLLECTION BOX - BLUE BOX", "address": {"city": "SLEMP", "state": "KY", "street": "45 OWENS BRANCH RD", "postcode": "41763"}}},
{"geometry": {"type": "Point", "coordinates": [-83.2852761723, 37.1303936973]}, "type": "Feature", "properties": {"collection_times": [{"days": "Mon-Fri", "time": "2:45pm"}, {"days": "Sat", "time": "11:15am"}, {"days": "Sun", "time": "Closed"}], "id": "4176400000", "name": "USPS COLLECTION BOX - BLUE BOX", "address": {"city": "SMILAX", "state": "KY", "street": "3624 CUTSHIN RD", "postcode": "41764"}}},
{"geometry": {"type": "Point", "coordinates": [-83.2852761723, 37.1303936973]}, "type": "Feature", "properties": {"collection_times": [{"days": "Mon-Fri", "time": "2:45pm"}, {"days": "Sat", "time": "11:15am"}, {"days": "Sun", "time": "Closed"}], "id": "4176400001", "name": "USPS COLLECTION BOX - PO LOBBY", "address": {"city": "SMILAX", "state": "KY", "street": "3624 CUTSHIN RD", "postcode": "41764"}}},
{"geometry": {"type": "Point", "coordinates": [-83.0584787303, 37.4411141019]}, "type": "Feature", "properties": {"collection_times": [{"days": "Mon-Sat", "time": "12:15pm"}, {"days": "Sun", "time": "Closed"}], "id": "4177200000", "name": "USPS COLLECTION BOX - BLUE BOX", "address": {"city": "VEST", "state": "KY", "street": "47 VEST TALCUM RD", "postcode": "41772"}}},
{"geometry": {"type": "Point", "coordinates": [-83.0584787303, 37.4411141019]}, "type": "Feature", "properties": {"collection_times": [{"days": "Mon-Sat", "time": "12:15pm"}, {"days": "Sun", "time": "Closed"}], "id": "4177200001", "name": "USPS COLLECTION BOX - PO LOBBY", "address": {"city": "VEST", "state": "KY", "street": "47 VEST TALCUM RD", "postcode": "41772"}}},
{"geometry": {"type": "Point", "coordinates": [-83.0617401731, 37.2154624372]}, "type": "Feature", "properties": {"collection_times": [{"days": "Mon-Fri", "time": "1:00pm"}, {"days": "Sat", "time": "11:30am"}, {"days": "Sun", "time": "Closed"}], "id": "4177300000", "name": "USPS COLLECTION BOX - BLUE BOX", "address": {"city": "VICCO", "state": "KY", "street": "301 MAIN ST", "postcode": "41773"}}},
{"geometry": {"type": "Point", "coordinates": [-83.0617401731, 37.2154624372]}, "type": "Feature", "properties": {"collection_times": [{"days": "Mon-Fri", "time": "1:00pm"}, {"days": "Sat", "time": "11:30am"}, {"days": "Sun", "time": "Closed"}], "id": "4177300002", "name": "USPS COLLECTION BOX - PO LOBBY", "address": {"city": "VICCO", "state": "KY", "street": "301 MAIN ST", "postcode": "41773"}}},
{"geometry": {"type": "Point", "coordinates": [-83.061809589, 37.216304994]}, "type": "Feature", "properties": {"collection_times": [{"days": "Mon-Sat", "time": "11:00am"}, {"days": "Sun", "time": "Closed"}], "id": "4177300004", "name": "USPS COLLECTION BOX - BLUE BOX", "address": {"city": "VICCO", "state": "KY", "street": "12140 S KY HIGHWAY 15", "postcode": "41773"}}},
{"geometry": {"type": "Point", "coordinates": [-83.3157314185, 37.1584511949]}, "type": "Feature", "properties": {"collection_times": [{"days": "Mon-Fri", "time": "3:15pm"}, {"days": "Sat", "time": "11:30am"}, {"days": "Sun", "time": "Closed"}], "id": "4177600000", "name": "USPS COLLECTION BOX - BLUE BOX", "address": {"city": "WOOTON", "state": "KY", "street": "5275 HIGHWAY 80", "postcode": "41776"}}},
{"geometry": {"type": "Point", "coordinates": [-83.3157314185, 37.1584511949]}, "type": "Feature", "properties": {"collection_times": [{"days": "Mon-Fri", "time": "3:15pm"}, {"days": "Sat", "time": "11:30am"}, {"days": "Sun", "time": "Closed"}], "id": "4177600001", "name": "USPS COLLECTION BOX - PO LOBBY", "address": {"city": "WOOTON", "state": "KY", "street": "5275 HIGHWAY 80", "postcode": "41776"}}},
{"geometry": {"type": "Point", "coordinates": [-83.2223995761, 37.0693644042]}, "type": "Feature", "properties": {"collection_times": [{"days": "Mon-Fri", "time": "1:00pm"}, {"days": "Sat", "time": "12:00pm"}, {"days": "Sun", "time": "Closed"}], "id": "4177700000", "name": "USPS COLLECTION BOX - BLUE BOX", "address": {"city": "YEADDISS", "state": "KY", "street": "11545 CUTSHIN RD", "postcode": "41777"}}},
{"geometry": {"type": "Point", "coordinates": [-83.2223995761, 37.0693644042]}, "type": "Feature", "properties": {"collection_times": [{"days": "Mon-Fri", "time": "1:00pm"}, {"days": "Sat", "time": "12:00pm"}, {"days": "Sun", "time": "Closed"}], "id": "4177700001", "name": "USPS COLLECTION BOX - PO LOBBY", "address": {"city": "YEADDISS", "state": "KY", "street": "11545 CUTSHIN RD", "postcode": "41777"}}},
{"geometry": {"type": "Point", "coordinates": [-83.3010997015, 37.2772006095]}, "type": "Feature", "properties": {"collection_times": [{"days": "Mon-Fri", "time": "12:30pm"}, {"days": "Sat", "time": "11:30am"}, {"days": "Sun", "time": "Closed"}], "id": "4177800000", "name": "USPS COLLECTION BOX - BLUE BOX", "address": {"city": "YERKES", "state": "KY", "street": "8550 KY HIGHWAY 451", "postcode": "41778"}}}
]}
