{"type": "FeatureCollection", "features": [
{"geometry": {"type": "Point", "coordinates": [-82.9519511331, 37.1523660348]}, "type": "Feature", "properties": {"collection_times": [{"days": "Mon-Fri", "time": "3:00pm"}, {"days": "Sat", "time": "11:30am"}, {"days": "Sun", "time": "Closed"}], "id": "4180400000", "name": "USPS COLLECTION BOX - BLUE BOX", "address": {"city": "BLACKEY", "state": "KY", "street": "8271 HIGHWAY 7 S", "postcode": "41804"}}},
{"geometry": {"type": "Point", "coordinates": [-82.9519511331, 37.1523660348]}, "type": "Feature", "properties": {"collection_times": [{"days": "Mon-Fri", "time": "3:00pm"}, {"days": "Sat", "time": "11:30am"}, {"days": "Sun", "time": "Closed"}], "id": "4180400001", "name": "USPS COLLECTION BOX - PO LOBBY", "address": {"city": "BLACKEY", "state": "KY", "street": "8271 HIGHWAY 7 S", "postcode": "41804"}}},
{"geometry": {"type": "Point", "coordinates": [-82.6969216226, 37.186249424]}, "type": "Feature", "properties": {"collection_times": [{"days": "Mon-Fri", "time": "3:45pm"}, {"days": "Sat", "time": "11:30am"}, {"days": "Sun", "time": "Closed"}], "id": "4181000000", "name": "USPS COLLECTION BOX - BLUE BOX", "address": {"city": "CROMONA", "state": "KY", "street": "4761 HIGHWAY 805", "postcode": "41810"}}},
{"geometry": {"type": "Point", "coordinates": [-82.6969216226, 37.186249424]}, "type": "Feature", "properties": {"collection_times": [{"days": "Mon-Fri", "time": "3:45pm"}, {"days": "Sat", "time": "11:30am"}, {"days": "Sun", "time": "Closed"}], "id": "4181000001", "name": "USPS COLLECTION BOX - PO LOBBY", "address": {"city": "CROMONA", "state": "KY", "street": "4761 HIGHWAY 805", "postcode": "41810"}}},
{"geometry": {"type": "Point", "coordinates": [-82.7707896562, 37.2453100362]}, "type": "Feature", "properties": {"collection_times": [{"days": "Mon-Fri", "time": "2:00pm"}, {"days": "Sat", "time": "12:00pm"}, {"days": "Sun", "time": "Closed"}], "id": "4181200000", "name": "USPS COLLECTION BOX - BLUE BOX", "address": {"city": "DEANE", "state": "KY", "street": "11125 HIGHWAY 7 N", "postcode": "41812"}}},
{"geometry": {"type": "Point", "coordinates": [-82.7707896562, 37.2453100362]}, "type": "Feature", "properties": {"collection_times": [{"days": "Mon-Fri", "time": "2:00pm"}, {"days": "Sat", "time": "12:00pm"}, {"days": "Sun", "time": "Closed"}], "id": "4181200001", "name": "USPS COLLECTION BOX - PO LOBBY", "address": {"city": "DEANE", "state": "KY", "street": "11125 HIGHWAY 7 N", "postcode": "41812"}}},
{"geometry": {"type": "Point", "coordinates": [-83.0525660552, 37.115772579]}, "type": "Feature", "properties": {"collection_times": [{"days": "Mon-Sat", "time": "11:00am"}, {"days": "Sun", "time": "Closed"}], "id": "4182100000", "name": "USPS COLLECTION BOX - BLUE BOX", "address": {"city": "HALLIE", "state": "KY", "street": "3996 HIGHWAY 1103", "postcode": "41821"}}},
{"geometry": {"type": "Point", "coordinates": [-82.980627843, 37.3357182589]}, "type": "Feature", "properties": {"collection_times": [{"days": "Mon-Fri", "time": "3:15pm"}, {"days": "Sat", "time": "12:30pm"}, {"days": "Sun", "time": "Closed"}], "id": "4182200001", "name": "USPS COLLECTION BOX - PO LOBBY", "address": {"city": "HINDMAN", "state": "KY", "street": "27 MAIN ST E", "postcode": "41822"}}},
{"geometry": {"type": "Point", "coordinates": [-82.9678440127, 37.3170483131]}, "type": "Feature", "properties": {"collection_times": [{"days": "Mon-Fri", "time": "12:30pm"}, {"days": "Sat", "time": "12:15pm"}, {"days": "Sun", "time": "Closed"}], "id": "4182200002", "name": "USPS COLLECTION BOX - BLUE BOX", "address": {"city": "HINDMAN", "state": "KY", "street": "92 HOLLY HILLS MALL RD", "postcode": "41822"}}},
{"geometry": {"type": "Point", "coordinates": [-82.9803475117, 37.3356564638]}, "type": "Feature", "properties": {"collection_times": [{"days": "Mon-Sat", "time": "2:45pm"}, {"days": "Sun", "time": "Closed"}], "id": "4182200003", "name": "USPS COLLECTION BOX - BLUE BOX", "address": {"city": "HINDMAN", "state": "KY", "street": "57 MAIN ST E", "postcode": "41822"}}},
{"geometry": {"type": "Point", "coordinates": [-82.980627843, 37.3357182589]}, "type": "Feature", "properties": {"collection_times": [{"days": "Mon-Fri", "time": "2:30pm"}, {"days": "Sat", "time": "12:30pm"}, {"days": "Sun", "time": "Closed"}], "id": "4182200004", "name": "USPS COLLECTION BOX - BLUE BOX", "address": {"city": "HINDMAN", "state": "KY", "street": "27 MAIN ST E", "postcode": "41822"}}},
{"geometry": {"type": "Point", "coordinates": [-82.8964364537, 37.1890373402]}, "type": "Feature", "properties": {"collection_times": [{"days": "Mon-Fri", "time": "2:00pm"}, {"days": "Sat", "time": "12:00pm"}, {"days": "Sun", "time": "Closed"}], "id": "4182400000", "name": "USPS COLLECTION BOX - BLUE BOX", "address": {"city": "ISOM", "state": "KY", "street": "9305 HIGHWAY 15", "postcode": "41824"}}},
{"geometry": {"type": "Point", "coordinates": [-82.8964364537, 37.1890373402]}, "type": "Feature", "properties": {"collection_times": [{"days": "Mon-Fri", "time": "2:00pm"}, {"days": "Sat", "time": "12:00pm"}, {"days": "Sun", "time": "Closed"}], "id": "4182400001", "name": "USPS COLLECTION BOX - PO LOBBY", "address": {"city": "ISOM", "state": "KY", "street": "9305 HIGHWAY 15", "postcode": "41824"}}},
{"geometry": {"type": "Point", "coordinates": [-82.6961089336, 37.2257060446]}, "type": "Feature", "properties": {"collection_times": [{"days": "Mon-Fri", "time": "2:45pm"}, {"days": "Sat", "time": "11:15am"}, {"days": "Sun", "time": "Closed"}], "id": "4182500000", "name": "USPS COLLECTION BOX - BLUE BOX", "address": {"city": "JACKHORN", "state": "KY", "street": "2636 HIGHWAY 317", "postcode": "41825"}}},
{"geometry": {"type": "Point", "coordinates": [-82.6961089336, 37.2257060446]}, "type": "Feature", "properties": {"collection_times": [{"days": "Mon-Fri", "time": "2:45pm"}, {"days": "Sat", "time": "11:15am"}, {"days": "Sun", "time": "Closed"}], "id": "4182500001", "name": "USPS COLLECTION BOX - PO LOBBY", "address": {"city": "JACKHORN", "state": "KY", "street": "2636 HIGHWAY 317", "postcode": "41825"}}},
{"geometry": {"type": "Point", "coordinates": [-82.9358641343, 37.163512156]}, "type": "Feature", "properties": {"collection_times": [{"days": "Mon-Fri", "time": "2:30pm"}, {"days": "Sat", "time": "11:45am"}, {"days": "Sun", "time": "Closed"}], "id": "4182600000", "name": "USPS COLLECTION BOX - BLUE BOX", "address": {"city": "JEREMIAH", "state": "KY", "street": "2563 HIGHWAY 7 S", "postcode": "41826"}}},
{"geometry": {"type": "Point", "coordinates": [-82.9358641343, 37.163512156]}, "type": "Feature", "properties": {"collection_times": [{"days": "Mon-Fri", "time": "2:30pm"}, {"days": "Sat", "time": "11:45am"}, {"days": "Sun", "time": "Closed"}], "id": "4182600001", "name": "USPS COLLECTION BOX - PO LOBBY", "address": {"city": "JEREMIAH", "state": "KY", "street": "2563 HIGHWAY 7 S", "postcode": "41826"}}},
{"geometry": {"type": "Point", "coordinates": [-82.8029666784, 37.33217403]}, "type": "Feature", "properties": {"collection_times": [{"days": "Mon-Fri", "time": "2:00pm"}, {"days": "Sat", "time": "12:00pm"}, {"days": "Sun", "time": "Closed"}], "id": "4182800000", "name": "USPS COLLECTION BOX - BLUE BOX", "address": {"city": "KITE", "state": "KY", "street": "9069 HIGHWAY 7 S", "postcode": "41828"}}},
{"geometry": {"type": "Point", "coordinates": [-82.8029666784, 37.33217403]}, "type": "Feature", "properties": {"collection_times": [{"days": "Mon-Fri", "time": "2:00pm"}, {"days": "Sat", "time": "12:00pm"}, {"days": "Sun", "time": "Closed"}], "id": "4182800001", "name": "USPS COLLECTION BOX - PO LOBBY", "address": {"city": "KITE", "state": "KY", "street": "9069 HIGHWAY 7 S", "postcode": "41828"}}},
{"geometry": {"type": "Point", "coordinates": [-82.9913068564, 37.3800473413]}, "type": "Feature", "properties": {"collection_times": [{"days": "Mon-Fri", "time": "2:00pm"}, {"days": "Sat", "time": "11:00am"}, {"days": "Sun", "time": "Closed"}], "id": "4183100000", "name": "USPS COLLECTION BOX - BLUE BOX", "address": {"city": "LEBURN", "state": "KY", "street": "2028 HIGHWAY 550 E", "postcode": "41831"}}},
{"geometry": {"type": "Point", "coordinates": [-82.9913068564, 37.3800473413]}, "type": "Feature", "properties": {"collection_times": [{"days": "Mon-Fri", "time": "2:00pm"}, {"days": "Sat", "time": "11:00am"}, {"days": "Sun", "time": "Closed"}], "id": "4183100001", "name": "USPS COLLECTION BOX - PO LOBBY", "address": {"city": "LEBURN", "state": "KY", "street": "2028 HIGHWAY 550 E", "postcode": "41831"}}},
{"geometry": {"type": "Point", "coordinates": [-82.9435417081, 37.2556600212]}, "type": "Feature", "properties": {"collection_times": [{"days": "Mon-Fri", "time": "12:00pm"}, {"days": "Sat", "time": "11:00am"}, {"days": "Sun", "time": "Closed"}], "id": "4183400000", "name": "USPS COLLECTION BOX - BLUE BOX", "address": {"city": "LITTCARR", "state": "KY", "street": "7351 HIGHWAY 160 S", "postcode": "41834"}}},
{"geometry": {"type": "Point", "coordinates": [-82.9409018387, 37.26957587]}, "type": "Feature", "properties": {"collection_times": [{"days": "Mon-Fri", "time": "12:00pm"}, {"days": "Sat", "time": "11:00am"}, {"days": "Sun", "time": "Closed"}], "id": "4183400001", "name": "USPS COLLECTION BOX - PO LOBBY", "address": {"city": "LITTCARR", "state": "KY", "street": "7351 HIGHWAY 160 S", "postcode": "41834"}}},
{"geometry": {"type": "Point", "coordinates": [-82.6757967554, 37.2044990928]}, "type": "Feature", "properties": {"collection_times": [{"days": "Mon-Fri", "time": "3:15pm"}, {"days": "Sat", "time": "11:30am"}, {"days": "Sun", "time": "Closed"}], "id": "4183500000", "name": "USPS COLLECTION BOX - BLUE BOX", "address": {"city": "MCROBERTS", "state": "KY", "street": "2461 HIGHWAY 343", "postcode": "41835"}}},
{"geometry": {"type": "Point", "coordinates": [-82.6757967554, 37.2044990928]}, "type": "Feature", "properties": {"collection_times": [{"days": "Mon-Fri", "time": "3:15pm"}, {"days": "Sat", "time": "11:30am"}, {"days": "Sun", "time": "Closed"}], "id": "4183500001", "name": "USPS COLLECTION BOX - PO LOBBY", "address": {"city": "MCROBERTS", "state": "KY", "street": "2461 HIGHWAY 343", "postcode": "41835"}}},
{"geometry": {"type": "Point", "coordinates": [-82.9312389077, 37.2474625255]}, "type": "Feature", "properties": {"collection_times": [{"days": "Mon-Fri", "time": "2:45pm"}, {"days": "Sat", "time": "12:30pm"}, {"days": "Sun", "time": "Closed"}], "id": "4183600000", "name": "USPS COLLECTION BOX - BLUE BOX", "address": {"city": "MALLIE", "state": "KY", "street": "22 BRANHAMS CREEK RD", "postcode": "41836"}}},
{"geometry": {"type": "Point", "coordinates": [-82.9312389077, 37.2474625255]}, "type": "Feature", "properties": {"collection_times": [{"days": "Mon-Fri", "time": "2:45pm"}, {"days": "Sat", "time": "12:30pm"}, {"days": "Sun", "time": "Closed"}], "id": "4183600001", "name": "USPS COLLECTION BOX - PO LOBBY", "address": {"city": "MALLIE", "state": "KY", "street": "22 BRANHAMS CREEK RD", "postcode": "41836"}}},
{"geometry": {"type": "Point", "coordinates": [-82.738256521, 37.124273361]}, "type": "Feature", "properties": {"collection_times": [{"days": "Mon-Fri", "time": "3:30pm"}, {"days": "Sat", "time": "11:30am"}, {"days": "Sun", "time": "Closed"}], "id": "4183700000", "name": "USPS COLLECTION BOX - BLUE BOX", "address": {"city": "MAYKING", "state": "KY", "street": "3397 HIGHWAY 119 N", "postcode": "41837"}}},
{"geometry": {"type": "Point", "coordinates": [-82.738256521, 37.124273361]}, "type": "Feature", "properties": {"collection_times": [{"days": "Mon-Fri", "time": "3:30pm"}, {"days": "Sat", "time": "11:30am"}, {"days": "Sun", "time": "Closed"}], "id": "4183700001", "name": "USPS COLLECTION BOX - PO LOBBY", "address": {"city": "MAYKING", "state": "KY", "street": "3397 HIGHWAY 119 N", "postcode": "41837"}}},
{"geometry": {"type": "Point", "coordinates": [-82.8693040817, 37.4291027977]}, "type": "Feature", "properties": {"collection_times": [{"days": "Mon-Fri", "time": "1:30pm"}, {"days": "Sat", "time": "11:30am"}, {"days": "Sun", "time": "Closed"}], "id": "4183900000", "name": "USPS COLLECTION BOX - BLUE BOX", "address": {"city": "MOUSIE", "state": "KY", "street": "9479 HIGHWAY 550 E", "postcode": "41839"}}},
{"geometry": {"type": "Point", "coordinates": [-82.8693040817, 37.4291027977]}, "type": "Feature", "properties": {"collection_times": [{"days": "Mon-Fri", "time": "1:30pm"}, {"days": "Sat", "time": "11:30am"}, {"days": "Sun", "time": "Closed"}], "id": "4183900001", "name": "USPS COLLECTION BOX - PO LOBBY", "address": {"city": "MOUSIE", "state": "KY", "street": "9479 HIGHWAY 550 E", "postcode": "41839"}}},
{"geometry": {"type": "Point", "coordinates": [-82.7130643144, 37.1913534708]}, "type": "Feature", "properties": {"collection_times": [{"days": "Mon-Fri", "time": "3:30pm"}, {"days": "Sat", "time": "12:30pm"}, {"days": "Sun", "time": "Closed"}], "id": "4184000000", "name": "USPS COLLECTION BOX - BLUE BOX", "address": {"city": "NEON", "state": "KY", "street": "71 HIGHWAY 343", "postcode": "41840"}}},
{"geometry": {"type": "Point", "coordinates": [-82.7130643144, 37.1913534708]}, "type": "Feature", "properties": {"collection_times": [{"days": "Mon-Fri", "time": "3:30pm"}, {"days": "Sat", "time": "2:30pm"}, {"days": "Sun", "time": "Closed"}], "id": "4184000001", "name": "USPS COLLECTION BOX - PO LOBBY", "address": {"city": "NEON", "state": "KY", "street": "71 HIGHWAY 343", "postcode": "41840"}}},
{"geometry": {"type": "Point", "coordinates": [-82.8602804031, 37.2742023177]}, "type": "Feature", "properties": {"collection_times": [{"days": "Mon-Sat", "time": "10:30am"}, {"days": "Sun", "time": "Closed"}], "id": "4184300000", "name": "USPS COLLECTION BOX - BLUE BOX", "address": {"city": "PINE TOP", "state": "KY", "street": "3880 HIGHWAY 582", "postcode": "41843"}}},
{"geometry": {"type": "Point", "coordinates": [-82.8602804031, 37.2742023177]}, "type": "Feature", "properties": {"collection_times": [{"days": "Mon-Sat", "time": "10:30am"}, {"days": "Sun", "time": "Closed"}], "id": "4184300001", "name": "USPS COLLECTION BOX - PO LOBBY", "address": {"city": "PINE TOP", "state": "KY", "street": "3880 HIGHWAY 582", "postcode": "41843"}}},
{"geometry": {"type": "Point", "coordinates": [-82.8662834049, 37.3434663676]}, "type": "Feature", "properties": {"collection_times": [{"days": "Mon-Fri", "time": "2:30pm"}, {"days": "Sat", "time": "12:00pm"}, {"days": "Sun", "time": "Closed"}], "id": "4184400000", "name": "USPS COLLECTION BOX - BLUE BOX", "address": {"city": "PIPPA PASSES", "state": "KY", "street": "4982 HIGHWAY 899", "postcode": "41844"}}},
{"geometry": {"type": "Point", "coordinates": [-82.8662834049, 37.3434663676]}, "type": "Feature", "properties": {"collection_times": [{"days": "Mon-Fri", "time": "2:30pm"}, {"days": "Sat", "time": "12:00pm"}, {"days": "Sun", "time": "Closed"}], "id": "4184400002", "name": "USPS COLLECTION BOX - PO LOBBY", "address": {"city": "PIPPA PASSES", "state": "KY", "street": "4982 HIGHWAY 899", "postcode": "41844"}}},
{"geometry": {"type": "Point", "coordinates": [-82.9159812772, 37.1282673868]}, "type": "Feature", "properties": {"collection_times": [{"days": "Mon-Fri", "time": "12:30pm"}, {"days": "Sat", "time": "11:30am"}, {"days": "Sun", "time": "Closed"}], "id": "4184500000", "name": "USPS COLLECTION BOX - BLUE BOX", "address": {"city": "PREMIUM", "state": "KY", "street": "3752 HIGHWAY 160", "postcode": "41845"}}},
{"geometry": {"type": "Point", "coordinates": [-82.9483259902, 37.2141156047]}, "type": "Feature", "properties": {"collection_times": [{"days": "Mon-Fri", "time": "12:15pm"}, {"days": "Sat", "time": "11:15am"}, {"days": "Sun", "time": "Closed"}], "id": "4184700000", "name": "USPS COLLECTION BOX - BLUE BOX", "address": {"city": "RED FOX", "state": "KY", "street": "1915 REDFOX RD", "postcode": "41847"}}},
{"geometry": {"type": "Point", "coordinates": [-82.9483259902, 37.2141156047]}, "type": "Feature", "properties": {"collection_times": [{"days": "Mon-Fri", "time": "12:15pm"}, {"days": "Sat", "time": "11:15am"}, {"days": "Sun", "time": "Closed"}], "id": "4184700001", "name": "USPS COLLECTION BOX - PO LOBBY", "address": {"city": "RED FOX", "state": "KY", "street": "1915 REDFOX RD", "postcode": "41847"}}},
{"geometry": {"type": "Point", "coordinates": [-82.9376835885, 37.1151263471]}, "type": "Feature", "properties": {"collection_times": [{"days": "Mon-Fri", "time": "12:30pm"}, {"days": "Sat", "time": "11:30am"}, {"days": "Sun", "time": "Closed"}], "id": "4184800000", "name": "USPS COLLECTION BOX - BLUE BOX", "address": {"city": "ROXANA", "state": "KY", "street": "4115 HIGHWAY 2036", "postcode": "41848"}}},
{"geometry": {"type": "Point", "coordinates": [-82.9376835885, 37.1151263471]}, "type": "Feature", "properties": {"collection_times": [{"days": "Mon-Fri", "time": "12:30pm"}, {"days": "Sat", "time": "11:30am"}, {"days": "Sun", "time": "Closed"}], "id": "4184800001", "name": "USPS COLLECTION BOX - PO LOBBY", "address": {"city": "ROXANA", "state": "KY", "street": "4115 HIGHWAY 2036", "postcode": "41848"}}},
{"geometry": {"type": "Point", "coordinates": [-82.7310630865, 37.1722134889]}, "type": "Feature", "properties": {"collection_times": [{"days": "Mon-Fri", "time": "3:15pm"}, {"days": "Sat", "time": "1:30pm"}, {"days": "Sun", "time": "Closed"}], "id": "4184900000", "name": "USPS COLLECTION BOX - BLUE BOX", "address": {"city": "SECO", "state": "KY", "street": "131 SECO DR", "postcode": "41849"}}},
{"geometry": {"type": "Point", "coordinates": [-82.7310630865, 37.1722134889]}, "type": "Feature", "properties": {"collection_times": [{"days": "Mon-Fri", "time": "3:15pm"}, {"days": "Sat", "time": "1:30pm"}, {"days": "Sun", "time": "Closed"}], "id": "4184900001", "name": "USPS COLLECTION BOX - PO LOBBY", "address": {"city": "SECO", "state": "KY", "street": "131 SECO DR", "postcode": "41849"}}},
{"geometry": {"type": "Point", "coordinates": [-82.8359861715, 37.1207299552]}, "type": "Feature", "properties": {"collection_times": [{"days": "Mon-Sat", "time": "11:00am"}, {"days": "Sun", "time": "Closed"}], "id": "4185800000", "name": "USPS COLLECTION BOX - BLUE BOX", "address": {"city": "WHITESBURG", "state": "KY", "street": "92 ALASKA AVE", "postcode": "41858"}}},
{"geometry": {"type": "Point", "coordinates": [-82.8358687692, 37.1222777794]}, "type": "Feature", "properties": {"collection_times": [{"days": "Mon-Sat", "time": "11:00am"}, {"days": "Sun", "time": "Closed"}], "id": "4185800001", "name": "USPS COLLECTION BOX - BLUE BOX", "address": {"city": "WHITESBURG", "state": "KY", "street": "36 BACH CT", "postcode": "41858"}}},
{"geometry": {"type": "Point", "coordinates": [-82.8395313851, 37.1226731468]}, "type": "Feature", "properties": {"collection_times": [{"days": "Mon-Sat", "time": "11:00am"}, {"days": "Sun", "time": "Closed"}], "id": "4185800002", "name": "USPS COLLECTION BOX - BLUE BOX", "address": {"city": "WHITESBURG", "state": "KY", "street": "172 PARKWAY PLAZA LOOP", "postcode": "41858"}}},
{"geometry": {"type": "Point", "coordinates": [-82.8032003871, 37.1101223497]}, "type": "Feature", "properties": {"collection_times": [{"days": "Mon-Fri", "time": "4:00pm"}, {"days": "Sat", "time": "12:00pm"}, {"days": "Sun", "time": "Closed"}], "id": "4185800006", "name": "USPS COLLECTION BOX - BLUE BOX", "address": {"city": "WHITESBURG", "state": "KY", "street": "71 HIGHWAY 119 S", "postcode": "41858"}}},
{"geometry": {"type": "Point", "coordinates": [-82.8283376624, 37.1188270062]}, "type": "Feature", "properties": {"collection_times": [{"days": "Mon-Sat", "time": "11:00am"}, {"days": "Sun", "time": "Closed"}], "id": "4185800009", "name": "USPS COLLECTION BOX - BLUE BOX", "address": {"city": "WHITESBURG", "state": "KY", "street": "351 MAIN ST", "postcode": "41858"}}},
{"geometry": {"type": "Point", "coordinates": [-82.8266790802, 37.1181884498]}, "type": "Feature", "properties": {"collection_times": [{"days": "Mon-Sat", "time": "11:00am"}, {"days": "Sun", "time": "Closed"}], "id": "4185800010", "name": "USPS COLLECTION BOX - BLUE BOX", "address": {"city": "WHITESBURG", "state": "KY", "street": "59 MAIN ST", "postcode": "41858"}}},
{"geometry": {"type": "Point", "coordinates": [-82.7949919057, 37.1178270676]}, "type": "Feature", "properties": {"collection_times": [{"days": "Mon-Sat", "time": "9:30am"}, {"days": "Sun", "time": "Closed"}], "id": "4185800011", "name": "USPS COLLECTION BOX - BLUE BOX", "address": {"city": "WHITESBURG", "state": "KY", "street": "66 WHITESBURG PLZ", "postcode": "41858"}}},
{"geometry": {"type": "Point", "coordinates": [-82.8032003871, 37.1101223497]}, "type": "Feature", "properties": {"collection_times": [{"days": "Mon-Fri", "time": "4:00pm"}, {"days": "Sat", "time": "12:00pm"}, {"days": "Sun", "time": "Closed"}], "id": "4185800012", "name": "USPS COLLECTION BOX - PO LOBBY", "address": {"city": "WHITESBURG", "state": "KY", "street": "71 HIGHWAY 119 S", "postcode": "41858"}}},
{"geometry": {"type": "Point", "coordinates": [-82.8418395909, 37.1225583473]}, "type": "Feature", "properties": {"collection_times": [{"days": "Mon-Sat", "time": "11:00am"}, {"days": "Sun", "time": "Closed"}], "id": "4185800014", "name": "USPS COLLECTION BOX - BLUE BOX", "address": {"city": "WHITESBURG", "state": "KY", "street": "251 MEDICAL PLAZA LN", "postcode": "41858"}}},
{"geometry": {"type": "Point", "coordinates": [-82.8271888471, 37.1184913379]}, "type": "Feature", "properties": {"collection_times": [{"days": "Mon-Sat", "time": "11:00am"}, {"days": "Sun", "time": "Closed"}], "id": "4185800015", "name": "USPS COLLECTION BOX - BLUE BOX", "address": {"city": "WHITESBURG", "state": "KY", "street": "156 MAIN ST", "postcode": "41858"}}},
{"geometry": {"type": "Point", "coordinates": [-82.8271888471, 37.1184913379]}, "type": "Feature", "properties": {"collection_times": [{"days": "Mon-Sat", "time": "11:00am"}, {"days": "Sun", "time": "Closed"}], "id": "4185800020", "name": "USPS COLLECTION BOX - BLUE BOX", "address": {"city": "WHITESBURG", "state": "KY", "street": "156 MAIN ST", "postcode": "41858"}}},
{"geometry": {"type": "Point", "coordinates": [-82.8256949639, 37.1179560522]}, "type": "Feature", "properties": {"collection_times": [{"days": "Mon-Sat", "time": "11:00am"}, {"days": "Sun", "time": "Closed"}], "id": "4185800022", "name": "USPS COLLECTION BOX - BLUE BOX", "address": {"city": "WHITESBURG", "state": "KY", "street": "109 E MAIN ST", "postcode": "41858"}}},
{"geometry": {"type": "Point", "coordinates": [-82.7971974703, 37.3586240263]}, "type": "Feature", "properties": {"collection_times": [{"days": "Mon-Fri", "time": "2:15pm"}, {"days": "Sat", "time": "12:00pm"}, {"days": "Sun", "time": "Closed"}], "id": "4186200000", "name": "USPS COLLECTION BOX - BLUE BOX", "address": {"city": "TOPMOST", "state": "KY", "street": "6100 HIGHWAY 7 S", "postcode": "41862"}}},
{"geometry": {"type": "Point", "coordinates": [-82.7971974703, 37.3586240263]}, "type": "Feature", "properties": {"collection_times": [{"days": "Mon-Fri", "time": "2:15pm"}, {"days": "Sat", "time": "12:00pm"}, {"days": "Sun", "time": "Closed"}], "id": "4186200001", "name": "USPS COLLECTION BOX - PO LOBBY", "address": {"city": "TOPMOST", "state": "KY", "street": "6100 HIGHWAY 7 S", "postcode": "41862"}}},
{"geometry": {"type": "Point", "coordinates": [-82.782863473, 37.375984915]}, "type": "Feature", "properties": {"collection_times": [{"days": "Mon-Sat", "time": "10:30am"}, {"days": "Sun", "time": "Closed"}], "id": "4186200003", "name": "USPS COLLECTION BOX - BLUE BOX", "address": {"city": "TOPMOST", "state": "KY", "street": "53 OLD HOUSE BRANCH RD", "postcode": "41862"}}}
]}
