{"type": "FeatureCollection", "features": [
{"geometry": {"type": "Point", "coordinates": [-88.5967026568, 37.0846928482]}, "type": "Feature", "properties": {"collection_times": [{"days": "Mon-Fri", "time": "6:15pm"}, {"days": "Sat", "time": "5:15pm"}, {"days": "Sun", "time": "Closed"}], "id": "4200200000", "name": "USPS COLLECTION BOX - PO LOBBY", "address": {"city": "PADUCAH", "state": "KY", "street": "300 S 4TH ST", "postcode": "42002"}}},
{"geometry": {"type": "Point", "coordinates": [-88.5967026568, 37.0846928482]}, "type": "Feature", "properties": {"collection_times": [{"days": "Mon-Fri", "time": "6:15pm"}, {"days": "Sat", "time": "5:15pm"}, {"days": "Sun", "time": "Closed"}], "id": "4200200001", "name": "USPS COLLECTION BOX - BLUE BOX", "address": {"city": "PADUCAH", "state": "KY", "street": "300 S 4TH ST", "postcode": "42002"}}},
{"geometry": {"type": "Point", "coordinates": [-88.5705186753, 37.0543559062]}, "type": "Feature", "properties": {"collection_times": [{"days": "Mon-Fri", "time": "5:00pm"}, {"days": "Sat", "time": "3:30pm"}, {"days": "Sun", "time": "Closed"}], "id": "4200200003", "name": "USPS COLLECTION BOX - BLUE BOX", "address": {"city": "PADUCAH", "state": "KY", "street": "3160 IRVIN COBB DR", "postcode": "42002"}}},
{"geometry": {"type": "Point", "coordinates": [-88.6276568687, 37.0735425267]}, "type": "Feature", "properties": {"collection_times": [{"days": "Mon-Fri", "time": "5:15pm"}, {"days": "Sat", "time": "4:15pm"}, {"days": "Sun", "time": "Closed"}], "id": "4200200006", "name": "USPS COLLECTION BOX - BLUE BOX", "address": {"city": "PADUCAH", "state": "KY", "street": "2601 KENTUCKY AVE", "postcode": "42002"}}},
{"geometry": {"type": "Point", "coordinates": [-88.6347971454, 37.071900249]}, "type": "Feature", "properties": {"collection_times": [{"days": "Mon-Fri", "time": "5:15pm"}, {"days": "Sat", "time": "4:15pm"}, {"days": "Sun", "time": "Closed"}], "id": "4200200023", "name": "USPS COLLECTION BOX - BLUE BOX", "address": {"city": "PADUCAH", "state": "KY", "street": "2927 BROADWAY ST", "postcode": "42002"}}},
{"geometry": {"type": "Point", "coordinates": [-88.6662979898, 37.0357188168]}, "type": "Feature", "properties": {"collection_times": [{"days": "Mon-Fri", "time": "4:30pm"}, {"days": "Sat", "time": "3:45pm"}, {"days": "Sun", "time": "Closed"}], "id": "4200200025", "name": "USPS COLLECTION BOX - BLUE BOX", "address": {"city": "PADUCAH", "state": "KY", "street": "3101 LONE OAK RD", "postcode": "42002"}}},
{"geometry": {"type": "Point", "coordinates": [-88.6613021102, 37.0389761028]}, "type": "Feature", "properties": {"collection_times": [{"days": "Mon-Fri", "time": "4:45pm"}, {"days": "Sat", "time": "4:00pm"}, {"days": "Sun", "time": "Closed"}], "id": "4200200028", "name": "USPS COLLECTION BOX - BLUE BOX", "address": {"city": "PADUCAH", "state": "KY", "street": "2850 LONE OAK RD", "postcode": "42002"}}},
{"geometry": {"type": "Point", "coordinates": [-88.6591971268, 37.0415234195]}, "type": "Feature", "properties": {"collection_times": [{"days": "Mon-Fri", "time": "4:45pm"}, {"days": "Sat", "time": "4:00pm"}, {"days": "Sun", "time": "Closed"}], "id": "4200200029", "name": "USPS COLLECTION BOX - BLUE BOX", "address": {"city": "PADUCAH", "state": "KY", "street": "2630 LONE OAK RD", "postcode": "42002"}}},
{"geometry": {"type": "Point", "coordinates": [-88.6466531096, 37.0536105522]}, "type": "Feature", "properties": {"collection_times": [{"days": "Mon-Fri", "time": "5:00pm"}, {"days": "Sat-Sun", "time": "Closed"}], "id": "4200200030", "name": "USPS COLLECTION BOX - BLUE BOX", "address": {"city": "PADUCAH", "state": "KY", "street": "1532 LONE OAK RD", "postcode": "42002"}}},
{"geometry": {"type": "Point", "coordinates": [-88.6439768721, 37.0531413842]}, "type": "Feature", "properties": {"collection_times": [{"days": "Mon-Fri", "time": "5:00pm"}, {"days": "Sat-Sun", "time": "Closed"}], "id": "4200200031", "name": "USPS COLLECTION BOX - BLUE BOX", "address": {"city": "PADUCAH", "state": "KY", "street": "225 MEDICAL CENTER DR", "postcode": "42002"}}},
{"geometry": {"type": "Point", "coordinates": [-88.6036831474, 37.0856699571]}, "type": "Feature", "properties": {"collection_times": [{"days": "Mon-Fri", "time": "5:15pm"}, {"days": "Sat", "time": "3:00pm"}, {"days": "Sun", "time": "Closed"}], "id": "4200200037", "name": "USPS COLLECTION BOX - BLUE BOX", "address": {"city": "PADUCAH", "state": "KY", "street": "800 JEFFERSON ST", "postcode": "42002"}}},
{"geometry": {"type": "Point", "coordinates": [-88.6173516889, 37.0789332108]}, "type": "Feature", "properties": {"collection_times": [{"days": "Mon-Fri", "time": "4:30pm"}, {"days": "Sat", "time": "2:45pm"}, {"days": "Sun", "time": "Closed"}], "id": "4200200040", "name": "USPS COLLECTION BOX - BLUE BOX", "address": {"city": "PADUCAH", "state": "KY", "street": "100 FOUNTAIN AVE", "postcode": "42002"}}},
{"geometry": {"type": "Point", "coordinates": [-88.5948762575, 37.0818317822]}, "type": "Feature", "properties": {"collection_times": [{"days": "Mon-Fri", "time": "4:30pm"}, {"days": "Sat", "time": "2:45pm"}, {"days": "Sun", "time": "Closed"}], "id": "4200200041", "name": "USPS COLLECTION BOX - BLUE BOX", "address": {"city": "PADUCAH", "state": "KY", "street": "1501 BROADWAY ST", "postcode": "42002"}}},
{"geometry": {"type": "Point", "coordinates": [-88.5948762575, 37.0818317822]}, "type": "Feature", "properties": {"collection_times": [{"days": "Mon-Fri", "time": "5:30pm"}, {"days": "Sat", "time": "3:00pm"}, {"days": "Sun", "time": "Closed"}], "id": "4200200043", "name": "USPS COLLECTION BOX - BLUE BOX", "address": {"city": "PADUCAH", "state": "KY", "street": "333 BROADWAY ST", "postcode": "42002"}}},
{"geometry": {"type": "Point", "coordinates": [-88.5979511294, 37.0867172989]}, "type": "Feature", "properties": {"collection_times": [{"days": "Mon-Fri", "time": "5:30pm"}, {"days": "Sat", "time": "3:00pm"}, {"days": "Sun", "time": "Closed"}], "id": "4200200044", "name": "USPS COLLECTION BOX - BLUE BOX", "address": {"city": "PADUCAH", "state": "KY", "street": "100 S 4TH ST", "postcode": "42002"}}},
{"geometry": {"type": "Point", "coordinates": [-88.5948762575, 37.0818317822]}, "type": "Feature", "properties": {"collection_times": [{"days": "Mon-Fri", "time": "5:00pm"}, {"days": "Sat", "time": "3:15pm"}, {"days": "Sun", "time": "Closed"}], "id": "4200200046", "name": "USPS COLLECTION BOX - BLUE BOX", "address": {"city": "PADUCAH", "state": "KY", "street": "5530 REIDLAND RD", "postcode": "42002"}}},
{"geometry": {"type": "Point", "coordinates": [-88.600417222, 37.0831863629]}, "type": "Feature", "properties": {"collection_times": [{"days": "Mon-Fri", "time": "5:15pm"}, {"days": "Sat-Sun", "time": "Closed"}], "id": "4200200047", "name": "USPS COLLECTION BOX - BLUE BOX", "address": {"city": "PADUCAH", "state": "KY", "street": "300 S 7TH ST", "postcode": "42002"}}},
{"geometry": {"type": "Point", "coordinates": [-88.6644770013, 37.0811568454]}, "type": "Feature", "properties": {"collection_times": [{"days": "Mon-Fri", "time": "5:00pm"}, {"days": "Sat", "time": "4:30pm"}, {"days": "Sun", "time": "Closed"}], "id": "4200200049", "name": "USPS COLLECTION BOX - BLUE BOX", "address": {"city": "PADUCAH", "state": "KY", "street": "3550 PARK PLAZA RD", "postcode": "42002"}}},
{"geometry": {"type": "Point", "coordinates": [-88.5966091995, 37.0843791386]}, "type": "Feature", "properties": {"collection_times": [{"days": "Mon-Fri", "time": "4:15pm"}, {"days": "Sat-Sun", "time": "Closed"}], "id": "4200200051", "name": "USPS COLLECTION BOX - BLUE BOX", "address": {"city": "PADUCAH", "state": "KY", "street": "296 PECAN DR", "postcode": "42002"}}},
{"geometry": {"type": "Point", "coordinates": [-88.5948762575, 37.0818317822]}, "type": "Feature", "properties": {"collection_times": [{"days": "Mon-Fri", "time": "4:30pm"}, {"days": "Sat", "time": "2:45pm"}, {"days": "Sun", "time": "Closed"}], "id": "4200200056", "name": "USPS COLLECTION BOX - BLUE BOX", "address": {"city": "PADUCAH", "state": "KY", "street": "1900 BROADWAY ST", "postcode": "42002"}}},
{"geometry": {"type": "Point", "coordinates": [-88.6350829468, 37.065057221]}, "type": "Feature", "properties": {"collection_times": [{"days": "Mon-Fri", "time": "4:00pm"}, {"days": "Sat-Sun", "time": "Closed"}], "id": "4200200066", "name": "USPS COLLECTION BOX - BLUE BOX", "address": {"city": "PADUCAH", "state": "KY", "street": "3100 PARISA DR", "postcode": "42002"}}},
{"geometry": {"type": "Point", "coordinates": [-88.5948762575, 37.0818317822]}, "type": "Feature", "properties": {"collection_times": [{"days": "Mon-Fri", "time": "3:45pm"}, {"days": "Sat", "time": "2:30pm"}, {"days": "Sun", "time": "Closed"}], "id": "4200200067", "name": "USPS COLLECTION BOX - BLUE BOX", "address": {"city": "PADUCAH", "state": "KY", "street": "2755 W PARK DR", "postcode": "42002"}}},
{"geometry": {"type": "Point", "coordinates": [-88.5967026568, 37.0846928482]}, "type": "Feature", "properties": {"collection_times": [{"days": "Mon-Fri", "time": "6:15pm"}, {"days": "Sat", "time": "5:15pm"}, {"days": "Sun", "time": "Closed"}], "id": "4200200068", "name": "USPS COLLECTION BOX - BLUE BOX", "address": {"city": "PADUCAH", "state": "KY", "street": "300 S 4TH ST", "postcode": "42002"}}},
{"geometry": {"type": "Point", "coordinates": [-88.600417222, 37.0831863629]}, "type": "Feature", "properties": {"collection_times": [{"days": "Mon-Fri", "time": "5:15pm"}, {"days": "Sat-Sun", "time": "Closed"}], "id": "4200200081", "name": "USPS COLLECTION BOX - BLUE BOX", "address": {"city": "PADUCAH", "state": "KY", "street": "300 S 7TH ST", "postcode": "42002"}}},
{"geometry": {"type": "Point", "coordinates": [-88.6466531096, 37.0536105522]}, "type": "Feature", "properties": {"collection_times": [{"days": "Mon-Fri", "time": "5:00pm"}, {"days": "Sat-Sun", "time": "Closed"}], "id": "4200200088", "name": "USPS COLLECTION BOX - BLUE BOX", "address": {"city": "PADUCAH", "state": "KY", "street": "1532 LONE OAK RD", "postcode": "42002"}}},
{"geometry": {"type": "Point", "coordinates": [-88.6277117886, 37.0735206272]}, "type": "Feature", "properties": {"collection_times": [{"days": "Mon-Fri", "time": "5:15pm"}, {"days": "Sat", "time": "4:15pm"}, {"days": "Sun", "time": "Closed"}], "id": "4200200091", "name": "USPS COLLECTION BOX - BLUE BOX", "address": {"city": "PADUCAH", "state": "KY", "street": "2605 KENTUCKY AVE", "postcode": "42002"}}},
{"geometry": {"type": "Point", "coordinates": [-88.5967026568, 37.0846928482]}, "type": "Feature", "properties": {"collection_times": [{"days": "Mon-Fri", "time": "6:15pm"}, {"days": "Sat", "time": "5:15pm"}, {"days": "Sun", "time": "Closed"}], "id": "4200200094", "name": "USPS COLLECTION BOX - PO LOBBY", "address": {"city": "PADUCAH", "state": "KY", "street": "300 S 4TH ST", "postcode": "42002"}}},
{"geometry": {"type": "Point", "coordinates": [-89.0121792521, 36.7893994512]}, "type": "Feature", "properties": {"collection_times": [{"days": "Mon-Fri", "time": "3:45pm"}, {"days": "Sat", "time": "10:45am"}, {"days": "Sun", "time": "Closed"}], "id": "4202100000", "name": "USPS COLLECTION BOX - BLUE BOX", "address": {"city": "ARLINGTON", "state": "KY", "street": "10 WALNUT ST", "postcode": "42021"}}},
{"geometry": {"type": "Point", "coordinates": [-89.0121792521, 36.7893994512]}, "type": "Feature", "properties": {"collection_times": [{"days": "Mon-Fri", "time": "3:45pm"}, {"days": "Sat", "time": "10:45am"}, {"days": "Sun", "time": "Closed"}], "id": "4202100001", "name": "USPS COLLECTION BOX - BLUE BOX", "address": {"city": "ARLINGTON", "state": "KY", "street": "10 WALNUT ST", "postcode": "42021"}}},
{"geometry": {"type": "Point", "coordinates": [-88.9462359754, 37.1459190207]}, "type": "Feature", "properties": {"collection_times": [{"days": "Mon-Sat", "time": "1:45pm"}, {"days": "Sun", "time": "Closed"}], "id": "4202200000", "name": "USPS COLLECTION BOX - BLUE BOX", "address": {"city": "BANDANA", "state": "KY", "street": "82 ALLEN ST", "postcode": "42022"}}},
{"geometry": {"type": "Point", "coordinates": [-88.9462872673, 37.1455034928]}, "type": "Feature", "properties": {"collection_times": [{"days": "Mon-Sat", "time": "1:45pm"}, {"days": "Sun", "time": "Closed"}], "id": "4202200001", "name": "USPS COLLECTION BOX - PO LOBBY", "address": {"city": "BANDANA", "state": "KY", "street": "82 ALLEN ST # 42022", "postcode": "42022"}}},
{"geometry": {"type": "Point", "coordinates": [-88.9650185861, 36.8673623107]}, "type": "Feature", "properties": {"collection_times": [{"days": "Mon-Fri", "time": "3:45pm"}, {"days": "Sat", "time": "11:00am"}, {"days": "Sun", "time": "Closed"}], "id": "4202300000", "name": "USPS COLLECTION BOX - BLUE BOX", "address": {"city": "BARDWELL", "state": "KY", "street": "125 ELM ST # 42023", "postcode": "42023"}}},
{"geometry": {"type": "Point", "coordinates": [-89.0085911756, 36.8689052568]}, "type": "Feature", "properties": {"collection_times": [{"days": "Mon-Fri", "time": "3:45pm"}, {"days": "Sat", "time": "11:00am"}, {"days": "Sun", "time": "Closed"}], "id": "4202300001", "name": "USPS COLLECTION BOX - PO LOBBY", "address": {"city": "BARDWELL", "state": "KY", "street": "125 ELM ST", "postcode": "42023"}}},
{"geometry": {"type": "Point", "coordinates": [-89.0472009653, 37.0515046763]}, "type": "Feature", "properties": {"collection_times": [{"days": "Mon-Fri", "time": "4:00pm"}, {"days": "Sat", "time": "11:00am"}, {"days": "Sun", "time": "Closed"}], "id": "4202400000", "name": "USPS COLLECTION BOX - BLUE BOX", "address": {"city": "BARLOW", "state": "KY", "street": "117 S 4TH ST", "postcode": "42024"}}},
{"geometry": {"type": "Point", "coordinates": [-89.0472009653, 37.0515046763]}, "type": "Feature", "properties": {"collection_times": [{"days": "Mon-Fri", "time": "4:00pm"}, {"days": "Sat", "time": "11:00am"}, {"days": "Sun", "time": "Closed"}], "id": "4202400001", "name": "USPS COLLECTION BOX - PO LOBBY", "address": {"city": "BARLOW", "state": "KY", "street": "117 S 4TH ST", "postcode": "42024"}}},
{"geometry": {"type": "Point", "coordinates": [-88.3572635029, 36.8659921499]}, "type": "Feature", "properties": {"collection_times": [{"days": "Mon-Fri", "time": "4:00pm"}, {"days": "Sat", "time": "2:00pm"}, {"days": "Sun", "time": "Closed"}], "id": "4202500000", "name": "USPS COLLECTION BOX - PO LOBBY", "address": {"city": "BENTON", "state": "KY", "street": "219 W 5TH ST", "postcode": "42025"}}},
{"geometry": {"type": "Point", "coordinates": [-88.3572635029, 36.8659921499]}, "type": "Feature", "properties": {"collection_times": [{"days": "Mon-Fri", "time": "4:00pm"}, {"days": "Sat", "time": "2:00pm"}, {"days": "Sun", "time": "Closed"}], "id": "4202500001", "name": "USPS COLLECTION BOX - BLUE BOX", "address": {"city": "BENTON", "state": "KY", "street": "219 W 5TH ST", "postcode": "42025"}}},
{"geometry": {"type": "Point", "coordinates": [-88.3507491039, 36.8589531941]}, "type": "Feature", "properties": {"collection_times": [{"days": "Mon-Fri", "time": "2:30pm"}, {"days": "Sat", "time": "2:00pm"}, {"days": "Sun", "time": "Closed"}], "id": "4202500002", "name": "USPS COLLECTION BOX - BLUE BOX", "address": {"city": "BENTON", "state": "KY", "street": "1009 MAIN ST", "postcode": "42025"}}},
{"geometry": {"type": "Point", "coordinates": [-88.3507362562, 36.8579211388]}, "type": "Feature", "properties": {"collection_times": [{"days": "Mon-Fri", "time": "2:30pm"}, {"days": "Sat", "time": "2:00pm"}, {"days": "Sun", "time": "Closed"}], "id": "4202500003", "name": "USPS COLLECTION BOX - BLUE BOX", "address": {"city": "BENTON", "state": "KY", "street": "1101 MAIN ST", "postcode": "42025"}}},
{"geometry": {"type": "Point", "coordinates": [-88.3477987814, 36.9289866785]}, "type": "Feature", "properties": {"collection_times": [{"days": "Mon-Sat", "time": "10:00am"}, {"days": "Sun", "time": "Closed"}], "id": "4202500007", "name": "USPS COLLECTION BOX - BLUE BOX", "address": {"city": "BENTON", "state": "KY", "street": "23 US HIGHWAY 68 W", "postcode": "42025"}}},
{"geometry": {"type": "Point", "coordinates": [-88.3498478054, 36.8579527553]}, "type": "Feature", "properties": {"collection_times": [{"days": "Mon-Fri", "time": "2:30pm"}, {"days": "Sat", "time": "2:00pm"}, {"days": "Sun", "time": "Closed"}], "id": "4202500011", "name": "USPS COLLECTION BOX - BLUE BOX", "address": {"city": "BENTON", "state": "KY", "street": "201 E 11TH ST", "postcode": "42025"}}},
{"geometry": {"type": "Point", "coordinates": [-88.6281406392, 36.8855134201]}, "type": "Feature", "properties": {"collection_times": [{"days": "Mon-Fri", "time": "3:00pm"}, {"days": "Sat", "time": "9:30am"}, {"days": "Sun", "time": "Closed"}], "id": "4202700000", "name": "USPS COLLECTION BOX - BLUE BOX", "address": {"city": "BOAZ", "state": "KY", "street": "1970 MCCRACKEN COUNTY RD", "postcode": "42027"}}},
{"geometry": {"type": "Point", "coordinates": [-88.6281406392, 36.8855134201]}, "type": "Feature", "properties": {"collection_times": [{"days": "Mon-Fri", "time": "3:00pm"}, {"days": "Sat", "time": "9:30am"}, {"days": "Sun", "time": "Closed"}], "id": "4202700002", "name": "USPS COLLECTION BOX - PO LOBBY", "address": {"city": "BOAZ", "state": "KY", "street": "1970 MCCRACKEN COUNTY RD", "postcode": "42027"}}},
{"geometry": {"type": "Point", "coordinates": [-88.4089655946, 37.179369899]}, "type": "Feature", "properties": {"collection_times": [{"days": "Mon-Fri", "time": "1:45pm"}, {"days": "Sat", "time": "12:45pm"}, {"days": "Sun", "time": "Closed"}], "id": "4202800000", "name": "USPS COLLECTION BOX - BLUE BOX", "address": {"city": "BURNA", "state": "KY", "street": "1499 US HIGHWAY 60 E", "postcode": "42028"}}},
{"geometry": {"type": "Point", "coordinates": [-88.4089655946, 37.179369899]}, "type": "Feature", "properties": {"collection_times": [{"days": "Mon-Fri", "time": "1:45pm"}, {"days": "Sat", "time": "12:45pm"}, {"days": "Sun", "time": "Closed"}], "id": "4202800001", "name": "USPS COLLECTION BOX - PO LOBBY", "address": {"city": "BURNA", "state": "KY", "street": "1499 US HIGHWAY 60 E", "postcode": "42028"}}},
{"geometry": {"type": "Point", "coordinates": [-88.3604463446, 37.2454315558]}, "type": "Feature", "properties": {"collection_times": [{"days": "Mon-Fri", "time": "1:45pm"}, {"days": "Sat", "time": "12:45pm"}, {"days": "Sun", "time": "Closed"}], "id": "4202800003", "name": "USPS COLLECTION BOX - BLUE BOX", "address": {"city": "BURNA", "state": "KY", "street": "1530 US HIGHWAY 60 E", "postcode": "42028"}}},
{"geometry": {"type": "Point", "coordinates": [-88.3499119315, 37.0268817987]}, "type": "Feature", "properties": {"collection_times": [{"days": "Mon-Fri", "time": "3:30pm"}, {"days": "Sat", "time": "10:15am"}, {"days": "Sun", "time": "Closed"}], "id": "4202900000", "name": "USPS COLLECTION BOX - BLUE BOX", "address": {"city": "CALVERT CITY", "state": "KY", "street": "134 E 5TH AVE", "postcode": "42029"}}},
{"geometry": {"type": "Point", "coordinates": [-88.3499119315, 37.0268817987]}, "type": "Feature", "properties": {"collection_times": [{"days": "Mon-Fri", "time": "3:30pm"}, {"days": "Sat", "time": "10:15am"}, {"days": "Sun", "time": "Closed"}], "id": "4202900002", "name": "USPS COLLECTION BOX - BLUE BOX", "address": {"city": "CALVERT CITY", "state": "KY", "street": "134 E 5TH AVE", "postcode": "42029"}}},
{"geometry": {"type": "Point", "coordinates": [-88.3499119315, 37.0268817987]}, "type": "Feature", "properties": {"collection_times": [{"days": "Mon-Fri", "time": "3:30pm"}, {"days": "Sat", "time": "10:15am"}, {"days": "Sun", "time": "Closed"}], "id": "4202900004", "name": "USPS COLLECTION BOX - PO LOBBY", "address": {"city": "CALVERT CITY", "state": "KY", "street": "134 E 5TH AVE", "postcode": "42029"}}},
{"geometry": {"type": "Point", "coordinates": [-88.9936770475, 36.6650087338]}, "type": "Feature", "properties": {"collection_times": [{"days": "Mon-Sat", "time": "4:00pm"}, {"days": "Sun", "time": "Closed"}], "id": "4203100000", "name": "USPS COLLECTION BOX - PO LOBBY", "address": {"city": "CLINTON", "state": "KY", "street": "304 S WASHINGTON ST", "postcode": "42031"}}},
{"geometry": {"type": "Point", "coordinates": [-88.9944160017, 36.6671207103]}, "type": "Feature", "properties": {"collection_times": [{"days": "Mon-Sat", "time": "3:15pm"}, {"days": "Sun", "time": "Closed"}], "id": "4203100001", "name": "USPS COLLECTION BOX - BLUE BOX", "address": {"city": "CLINTON", "state": "KY", "street": "115 E CLAY ST", "postcode": "42031"}}},
{"geometry": {"type": "Point", "coordinates": [-88.9936770475, 36.6650087338]}, "type": "Feature", "properties": {"collection_times": [{"days": "Mon-Sat", "time": "3:45pm"}, {"days": "Sun", "time": "Closed"}], "id": "4203100006", "name": "USPS COLLECTION BOX - BLUE BOX", "address": {"city": "CLINTON", "state": "KY", "street": "304 S WASHINGTON ST", "postcode": "42031"}}},
{"geometry": {"type": "Point", "coordinates": [-89.1037535551, 36.7594043237]}, "type": "Feature", "properties": {"collection_times": [{"days": "Mon-Fri", "time": "11:30am"}, {"days": "Sat", "time": "11:15am"}, {"days": "Sun", "time": "Closed"}], "id": "4203200000", "name": "USPS COLLECTION BOX - BLUE BOX", "address": {"city": "COLUMBUS", "state": "KY", "street": "55 E HOOVER PKWY", "postcode": "42032"}}},
{"geometry": {"type": "Point", "coordinates": [-89.1037535551, 36.7594043237]}, "type": "Feature", "properties": {"collection_times": [{"days": "Mon-Fri", "time": "11:30am"}, {"days": "Sat", "time": "11:15am"}, {"days": "Sun", "time": "Closed"}], "id": "4203200001", "name": "USPS COLLECTION BOX - PO LOBBY", "address": {"city": "COLUMBUS", "state": "KY", "street": "55 E HOOVER PKWY", "postcode": "42032"}}},
{"geometry": {"type": "Point", "coordinates": [-88.0826118056, 37.269426441]}, "type": "Feature", "properties": {"collection_times": [{"days": "Mon-Fri", "time": "12:45pm"}, {"days": "Sat", "time": "10:30am"}, {"days": "Sun", "time": "Closed"}], "id": "4203300000", "name": "USPS COLLECTION BOX - BLUE BOX", "address": {"city": "CRAYNE", "state": "KY", "street": "4577 US HIGHWAY 641", "postcode": "42033"}}},
{"geometry": {"type": "Point", "coordinates": [-88.082497814, 37.270497716]}, "type": "Feature", "properties": {"collection_times": [{"days": "Mon-Fri", "time": "12:45pm"}, {"days": "Sat", "time": "10:30am"}, {"days": "Sun", "time": "Closed"}], "id": "4203300001", "name": "USPS COLLECTION BOX - PO LOBBY", "address": {"city": "CRAYNE", "state": "KY", "street": "4577 US HIGHWAY 641", "postcode": "42033"}}},
{"geometry": {"type": "Point", "coordinates": [-88.8896941873, 36.9091528175]}, "type": "Feature", "properties": {"collection_times": [{"days": "Mon-Fri", "time": "11:45am"}, {"days": "Sat", "time": "11:30am"}, {"days": "Sun", "time": "Closed"}], "id": "4203500000", "name": "USPS COLLECTION BOX - BLUE BOX", "address": {"city": "CUNNINGHAM", "state": "KY", "street": "54 STATE ROUTE 1820", "postcode": "42035"}}},
{"geometry": {"type": "Point", "coordinates": [-88.8896941873, 36.9091528175]}, "type": "Feature", "properties": {"collection_times": [{"days": "Mon-Fri", "time": "11:45am"}, {"days": "Sat", "time": "11:30am"}, {"days": "Sun", "time": "Closed"}], "id": "4203500001", "name": "USPS COLLECTION BOX - PO LOBBY", "address": {"city": "CUNNINGHAM", "state": "KY", "street": "54 STATE ROUTE 1820", "postcode": "42035"}}},
{"geometry": {"type": "Point", "coordinates": [-88.880382265, 36.906943042]}, "type": "Feature", "properties": {"collection_times": [{"days": "Mon-Sat", "time": "9:00am"}, {"days": "Sun", "time": "Closed"}], "id": "4203500003", "name": "USPS COLLECTION BOX - BLUE BOX", "address": {"city": "CUNNINGHAM", "state": "KY", "street": "8091 US HIGHWAY 62", "postcode": "42035"}}},
{"geometry": {"type": "Point", "coordinates": [-88.2967753, 36.7413641687]}, "type": "Feature", "properties": {"collection_times": [{"days": "Mon-Fri", "time": "1:45pm"}, {"days": "Sat", "time": "12:45pm"}, {"days": "Sun", "time": "Closed"}], "id": "4203600000", "name": "USPS COLLECTION BOX - BLUE BOX", "address": {"city": "DEXTER", "state": "KY", "street": "4580 RADIO RD", "postcode": "42036"}}},
{"geometry": {"type": "Point", "coordinates": [-88.2967753, 36.7413641687]}, "type": "Feature", "properties": {"collection_times": [{"days": "Mon-Fri", "time": "1:45pm"}, {"days": "Sat", "time": "12:45pm"}, {"days": "Sun", "time": "Closed"}], "id": "4203600001", "name": "USPS COLLECTION BOX - PO LOBBY", "address": {"city": "DEXTER", "state": "KY", "street": "4580 RADIO RD", "postcode": "42036"}}},
{"geometry": {"type": "Point", "coordinates": [-88.0890205904, 37.0924995067]}, "type": "Feature", "properties": {"collection_times": [{"days": "Mon-Fri", "time": "4:00pm"}, {"days": "Sat", "time": "12:00pm"}, {"days": "Sun", "time": "Closed"}], "id": "4203800000", "name": "USPS COLLECTION BOX - BLUE BOX", "address": {"city": "EDDYVILLE", "state": "KY", "street": "144 COMMERCE ST", "postcode": "42038"}}},
{"geometry": {"type": "Point", "coordinates": [-88.0890205904, 37.0924995067]}, "type": "Feature", "properties": {"collection_times": [{"days": "Mon-Fri", "time": "4:00pm"}, {"days": "Sat", "time": "12:00pm"}, {"days": "Sun", "time": "Closed"}], "id": "4203800002", "name": "USPS COLLECTION BOX - PO LOBBY", "address": {"city": "EDDYVILLE", "state": "KY", "street": "144 COMMERCE ST", "postcode": "42038"}}},
{"geometry": {"type": "Point", "coordinates": [-88.7917718885, 36.7984030242]}, "type": "Feature", "properties": {"collection_times": [{"days": "Mon-Fri", "time": "3:45pm"}, {"days": "Sat", "time": "10:45am"}, {"days": "Sun", "time": "Closed"}], "id": "4203900000", "name": "USPS COLLECTION BOX - BLUE BOX", "address": {"city": "FANCY FARM", "state": "KY", "street": "23 STATE ROUTE 339 S", "postcode": "42039"}}},
{"geometry": {"type": "Point", "coordinates": [-88.7917718885, 36.7984030242]}, "type": "Feature", "properties": {"collection_times": [{"days": "Mon-Fri", "time": "3:45pm"}, {"days": "Sat", "time": "10:45am"}, {"days": "Sun", "time": "Closed"}], "id": "4203900001", "name": "USPS COLLECTION BOX - PO LOBBY", "address": {"city": "FANCY FARM", "state": "KY", "street": "23 STATE ROUTE 339 S", "postcode": "42039"}}},
{"geometry": {"type": "Point", "coordinates": [-88.788385391, 36.831804939]}, "type": "Feature", "properties": {"collection_times": [{"days": "Mon-Sat", "time": "10:00am"}, {"days": "Sun", "time": "Closed"}], "id": "4203900003", "name": "USPS COLLECTION BOX - BLUE BOX", "address": {"city": "FANCY FARM", "state": "KY", "street": "21 STAHR RD", "postcode": "42039"}}},
{"geometry": {"type": "Point", "coordinates": [-88.5254379911, 36.6696627747]}, "type": "Feature", "properties": {"collection_times": [{"days": "Mon-Fri", "time": "1:45pm"}, {"days": "Sat", "time": "10:45am"}, {"days": "Sun", "time": "Closed"}], "id": "4204000000", "name": "USPS COLLECTION BOX - BLUE BOX", "address": {"city": "FARMINGTON", "state": "KY", "street": "8406 STATE ROUTE 121 S", "postcode": "42040"}}},
{"geometry": {"type": "Point", "coordinates": [-88.5254379911, 36.6696627747]}, "type": "Feature", "properties": {"collection_times": [{"days": "Mon-Fri", "time": "1:45pm"}, {"days": "Sat", "time": "10:45am"}, {"days": "Sun", "time": "Closed"}], "id": "4204000001", "name": "USPS COLLECTION BOX - PO LOBBY", "address": {"city": "FARMINGTON", "state": "KY", "street": "8406 STATE ROUTE 121 S", "postcode": "42040"}}},
{"geometry": {"type": "Point", "coordinates": [-88.507958347, 36.66489221]}, "type": "Feature", "properties": {"collection_times": [{"days": "Mon-Sat", "time": "10:00am"}, {"days": "Sun", "time": "Closed"}], "id": "4204000003", "name": "USPS COLLECTION BOX - BLUE BOX", "address": {"city": "FARMINGTON", "state": "KY", "street": "8196 STATE ROUTE 121 S", "postcode": "42040"}}},
{"geometry": {"type": "Point", "coordinates": [-88.8740284804, 36.5040796377]}, "type": "Feature", "properties": {"collection_times": [{"days": "Mon-Fri", "time": "4:30pm"}, {"days": "Sat", "time": "3:45pm"}, {"days": "Sun", "time": "Closed"}], "id": "4204100000", "name": "USPS COLLECTION BOX - BLUE BOX", "address": {"city": "FULTON", "state": "KY", "street": "416 WALNUT ST", "postcode": "42041"}}},
{"geometry": {"type": "Point", "coordinates": [-88.8876158066, 36.5470567171]}, "type": "Feature", "properties": {"collection_times": [{"days": "Mon-Sat", "time": "2:00pm"}, {"days": "Sun", "time": "Closed"}], "id": "4204100003", "name": "USPS COLLECTION BOX - BLUE BOX", "address": {"city": "FULTON", "state": "KY", "street": "700 MILTON COUNCE RD", "postcode": "42041"}}},
{"geometry": {"type": "Point", "coordinates": [-88.8926710936, 36.5107961417]}, "type": "Feature", "properties": {"collection_times": [{"days": "Mon-Sat", "time": "12:30pm"}, {"days": "Sun", "time": "Closed"}], "id": "4204100005", "name": "USPS COLLECTION BOX - BLUE BOX", "address": {"city": "FULTON", "state": "KY", "street": "607 N HIGHLAND DR", "postcode": "42041"}}},
{"geometry": {"type": "Point", "coordinates": [-88.8755930273, 36.5038080072]}, "type": "Feature", "properties": {"collection_times": [{"days": "Mon-Sat", "time": "2:30pm"}, {"days": "Sun", "time": "Closed"}], "id": "4204100010", "name": "USPS COLLECTION BOX - BLUE BOX", "address": {"city": "FULTON", "state": "KY", "street": "306 LAKE ST", "postcode": "42041"}}},
{"geometry": {"type": "Point", "coordinates": [-88.8740284804, 36.5040796377]}, "type": "Feature", "properties": {"collection_times": [{"days": "Mon-Fri", "time": "4:30pm"}, {"days": "Sat", "time": "3:45pm"}, {"days": "Sun", "time": "Closed"}], "id": "4204100017", "name": "USPS COLLECTION BOX - PO LOBBY", "address": {"city": "FULTON", "state": "KY", "street": "416 WALNUT ST", "postcode": "42041"}}},
{"geometry": {"type": "Point", "coordinates": [-88.8740284804, 36.5040796377]}, "type": "Feature", "properties": {"collection_times": [{"days": "Mon-Fri", "time": "4:30pm"}, {"days": "Sat", "time": "3:45pm"}, {"days": "Sun", "time": "Closed"}], "id": "4204100019", "name": "USPS COLLECTION BOX - BLUE BOX", "address": {"city": "FULTON", "state": "KY", "street": "416 WALNUT ST", "postcode": "42041"}}},
{"geometry": {"type": "Point", "coordinates": [-89.0260561803, 36.5178672862]}, "type": "Feature", "properties": {"collection_times": [{"days": "Mon-Sat", "time": "10:00am"}, {"days": "Sun", "time": "Closed"}], "id": "4204100022", "name": "USPS COLLECTION BOX - BLUE BOX", "address": {"city": "FULTON", "state": "KY", "street": "1405 MIDDLE RD", "postcode": "42041"}}},
{"geometry": {"type": "Point", "coordinates": [-88.2691637193, 36.9622996072]}, "type": "Feature", "properties": {"collection_times": [{"days": "Mon-Fri", "time": "3:45pm"}, {"days": "Sat", "time": "11:15am"}, {"days": "Sun", "time": "Closed"}], "id": "4204400000", "name": "USPS COLLECTION BOX - BLUE BOX", "address": {"city": "GILBERTSVILLE", "state": "KY", "street": "119 ADMINISTRATION AVE", "postcode": "42044"}}},
{"geometry": {"type": "Point", "coordinates": [-88.2691637193, 36.9622996072]}, "type": "Feature", "properties": {"collection_times": [{"days": "Mon-Fri", "time": "3:45pm"}, {"days": "Sat", "time": "11:15am"}, {"days": "Sun", "time": "Closed"}], "id": "4204400001", "name": "USPS COLLECTION BOX - PO LOBBY", "address": {"city": "GILBERTSVILLE", "state": "KY", "street": "119 ADMINISTRATION AVE", "postcode": "42044"}}},
{"geometry": {"type": "Point", "coordinates": [-88.2303253848, 36.9975900446]}, "type": "Feature", "properties": {"collection_times": [{"days": "Mon-Fri", "time": "2:00pm"}, {"days": "Sat", "time": "11:15am"}, {"days": "Sun", "time": "Closed"}], "id": "4204500000", "name": "USPS COLLECTION BOX - BLUE BOX", "address": {"city": "GRAND RIVERS", "state": "KY", "street": "1818 JH OBRYAN AVE", "postcode": "42045"}}},
{"geometry": {"type": "Point", "coordinates": [-88.269367303, 37.037756501]}, "type": "Feature", "properties": {"collection_times": [{"days": "Mon-Sat", "time": "1:00pm"}, {"days": "Sun", "time": "Closed"}], "id": "4204500001", "name": "USPS COLLECTION BOX - BLUE BOX", "address": {"city": "GRAND RIVERS", "state": "KY", "street": "720 COMPLEX DR", "postcode": "42045"}}},
{"geometry": {"type": "Point", "coordinates": [-88.2462764663, 37.0257116912]}, "type": "Feature", "properties": {"collection_times": [{"days": "Mon-Sat", "time": "1:00pm"}, {"days": "Sun", "time": "Closed"}], "id": "4204500002", "name": "USPS COLLECTION BOX - BLUE BOX", "address": {"city": "GRAND RIVERS", "state": "KY", "street": "900 US HIGHWAY 62", "postcode": "42045"}}},
{"geometry": {"type": "Point", "coordinates": [-88.2303253848, 36.9975900446]}, "type": "Feature", "properties": {"collection_times": [{"days": "Mon-Fri", "time": "2:00pm"}, {"days": "Sat", "time": "11:15am"}, {"days": "Sun", "time": "Closed"}], "id": "4204500003", "name": "USPS COLLECTION BOX - PO LOBBY", "address": {"city": "GRAND RIVERS", "state": "KY", "street": "1818 JH OBRYAN AVE", "postcode": "42045"}}},
{"geometry": {"type": "Point", "coordinates": [-88.371590745, 37.2828810826]}, "type": "Feature", "properties": {"collection_times": [{"days": "Mon-Fri", "time": "12:15pm"}, {"days": "Sat", "time": "1:00pm"}, {"days": "Sun", "time": "Closed"}], "id": "4204700000", "name": "USPS COLLECTION BOX - BLUE BOX", "address": {"city": "HAMPTON", "state": "KY", "street": "724 MAIN ST", "postcode": "42047"}}},
{"geometry": {"type": "Point", "coordinates": [-88.371590745, 37.2828810826]}, "type": "Feature", "properties": {"collection_times": [{"days": "Mon-Fri", "time": "12:15pm"}, {"days": "Sat", "time": "1:00pm"}, {"days": "Sun", "time": "Closed"}], "id": "4204700001", "name": "USPS COLLECTION BOX - PO LOBBY", "address": {"city": "HAMPTON", "state": "KY", "street": "724 MAIN ST", "postcode": "42047"}}},
{"geometry": {"type": "Point", "coordinates": [-88.2957893813, 36.7665632776]}, "type": "Feature", "properties": {"collection_times": [{"days": "Mon-Fri", "time": "3:45pm"}, {"days": "Sat", "time": "12:15pm"}, {"days": "Sun", "time": "Closed"}], "id": "4204800001", "name": "USPS COLLECTION BOX - BLUE BOX", "address": {"city": "HARDIN", "state": "KY", "street": "85 COMMERCE ST", "postcode": "42048"}}},
{"geometry": {"type": "Point", "coordinates": [-88.3100517363, 36.7654509871]}, "type": "Feature", "properties": {"collection_times": [{"days": "Mon-Sat", "time": "11:15am"}, {"days": "Sun", "time": "Closed"}], "id": "4204800002", "name": "USPS COLLECTION BOX - BLUE BOX", "address": {"city": "HARDIN", "state": "KY", "street": "31 BREWERS HWY", "postcode": "42048"}}},
{"geometry": {"type": "Point", "coordinates": [-88.1491334366, 36.7771630726]}, "type": "Feature", "properties": {"collection_times": [{"days": "Mon-Sat", "time": "11:00am"}, {"days": "Sun", "time": "Closed"}], "id": "4204800003", "name": "USPS COLLECTION BOX - BLUE BOX", "address": {"city": "HARDIN", "state": "KY", "street": "16474 US HIGHWAY 68 E", "postcode": "42048"}}},
{"geometry": {"type": "Point", "coordinates": [-88.142653945, 36.7610726418]}, "type": "Feature", "properties": {"collection_times": [{"days": "Mon-Sat", "time": "11:30am"}, {"days": "Sun", "time": "Closed"}], "id": "4204800004", "name": "USPS COLLECTION BOX - BLUE BOX", "address": {"city": "HARDIN", "state": "KY", "street": "542 KENLAKE RD", "postcode": "42048"}}},
{"geometry": {"type": "Point", "coordinates": [-88.2957893813, 36.7665632776]}, "type": "Feature", "properties": {"collection_times": [{"days": "Mon-Fri", "time": "3:45pm"}, {"days": "Sat", "time": "12:15pm"}, {"days": "Sun", "time": "Closed"}], "id": "4204800007", "name": "USPS COLLECTION BOX - PO LOBBY", "address": {"city": "HARDIN", "state": "KY", "street": "85 COMMERCE ST", "postcode": "42048"}}},
{"geometry": {"type": "Point", "coordinates": [-88.3160931078, 36.7806231912]}, "type": "Feature", "properties": {"collection_times": [{"days": "Mon-Sat", "time": "11:15am"}, {"days": "Sun", "time": "Closed"}], "id": "4204800008", "name": "USPS COLLECTION BOX - BLUE BOX", "address": {"city": "HARDIN", "state": "KY", "street": "4154 MURRAY HWY", "postcode": "42048"}}},
{"geometry": {"type": "Point", "coordinates": [-88.3259127127, 36.5005722067]}, "type": "Feature", "properties": {"collection_times": [{"days": "Mon-Fri", "time": "3:30pm"}, {"days": "Sat", "time": "10:45am"}, {"days": "Sun", "time": "Closed"}], "id": "4204900000", "name": "USPS COLLECTION BOX - BLUE BOX", "address": {"city": "HAZEL", "state": "KY", "street": "304 MAIN ST", "postcode": "42049"}}},
{"geometry": {"type": "Point", "coordinates": [-88.3259127127, 36.5005722067]}, "type": "Feature", "properties": {"collection_times": [{"days": "Mon-Fri", "time": "3:30pm"}, {"days": "Sat", "time": "10:45am"}, {"days": "Sun", "time": "Closed"}], "id": "4204900001", "name": "USPS COLLECTION BOX - PO LOBBY", "address": {"city": "HAZEL", "state": "KY", "street": "304 MAIN ST", "postcode": "42049"}}},
{"geometry": {"type": "Point", "coordinates": [-89.2004939815, 36.568520279]}, "type": "Feature", "properties": {"collection_times": [{"days": "Mon-Sat", "time": "10:00am"}, {"days": "Sun", "time": "Closed"}], "id": "4205000000", "name": "USPS COLLECTION BOX - BLUE BOX", "address": {"city": "HICKMAN", "state": "KY", "street": "801 BROADWAY ST", "postcode": "42050"}}},
{"geometry": {"type": "Point", "coordinates": [-89.129669266, 36.5724177296]}, "type": "Feature", "properties": {"collection_times": [{"days": "Mon-Sat", "time": "3:15pm"}, {"days": "Sun", "time": "Closed"}], "id": "4205000001", "name": "USPS COLLECTION BOX - BLUE BOX", "address": {"city": "HICKMAN", "state": "KY", "street": "114 E WELLINGTON ST", "postcode": "42050"}}},
{"geometry": {"type": "Point", "coordinates": [-89.1790387122, 36.5605126979]}, "type": "Feature", "properties": {"collection_times": [{"days": "Mon-Sat", "time": "3:15pm"}, {"days": "Sun", "time": "Closed"}], "id": "4205000002", "name": "USPS COLLECTION BOX - BLUE BOX", "address": {"city": "HICKMAN", "state": "KY", "street": "2001 S 7TH ST", "postcode": "42050"}}},
{"geometry": {"type": "Point", "coordinates": [-89.1918373447, 36.5730208567]}, "type": "Feature", "properties": {"collection_times": [{"days": "Mon-Sat", "time": "3:45pm"}, {"days": "Sun", "time": "Closed"}], "id": "4205000008", "name": "USPS COLLECTION BOX - PO LOBBY", "address": {"city": "HICKMAN", "state": "KY", "street": "201 JACKSON ST", "postcode": "42050"}}},
{"geometry": {"type": "Point", "coordinates": [-89.1940269313, 36.573024073]}, "type": "Feature", "properties": {"collection_times": [{"days": "Mon-Sat", "time": "3:45pm"}, {"days": "Sun", "time": "Closed"}], "id": "4205000009", "name": "USPS COLLECTION BOX - BLUE BOX", "address": {"city": "HICKMAN", "state": "KY", "street": "301 CUMBERLAND ST", "postcode": "42050"}}},
{"geometry": {"type": "Point", "coordinates": [-88.7115237121, 36.8624326287]}, "type": "Feature", "properties": {"collection_times": [{"days": "Mon-Fri", "time": "3:15pm"}, {"days": "Sat", "time": "12:45pm"}, {"days": "Sun", "time": "Closed"}], "id": "4205100000", "name": "USPS COLLECTION BOX - BLUE BOX", "address": {"city": "HICKORY", "state": "KY", "street": "1976 STATE ROUTE 1241", "postcode": "42051"}}},
{"geometry": {"type": "Point", "coordinates": [-88.7115237121, 36.8624326287]}, "type": "Feature", "properties": {"collection_times": [{"days": "Mon-Fri", "time": "3:15pm"}, {"days": "Sat", "time": "12:45pm"}, {"days": "Sun", "time": "Closed"}], "id": "4205100001", "name": "USPS COLLECTION BOX - PO LOBBY", "address": {"city": "HICKORY", "state": "KY", "street": "1976 STATE ROUTE 1241", "postcode": "42051"}}},
{"geometry": {"type": "Point", "coordinates": [-88.654770721, 36.823225015]}, "type": "Feature", "properties": {"collection_times": [{"days": "Mon-Sat", "time": "10:00am"}, {"days": "Sun", "time": "Closed"}], "id": "4205100003", "name": "USPS COLLECTION BOX - BLUE BOX", "address": {"city": "HICKORY", "state": "KY", "street": "71 COMMERCE ST", "postcode": "42051"}}},
{"geometry": {"type": "Point", "coordinates": [-88.8870438277, 37.083865468]}, "type": "Feature", "properties": {"collection_times": [{"days": "Mon-Fri", "time": "3:45pm"}, {"days": "Sat", "time": "11:00am"}, {"days": "Sun", "time": "Closed"}], "id": "4205300000", "name": "USPS COLLECTION BOX - BLUE BOX", "address": {"city": "KEVIL", "state": "KY", "street": "253 WALLACE AVE", "postcode": "42053"}}},
{"geometry": {"type": "Point", "coordinates": [-88.8870438277, 37.083865468]}, "type": "Feature", "properties": {"collection_times": [{"days": "Mon-Fri", "time": "3:45pm"}, {"days": "Sat", "time": "11:00am"}, {"days": "Sun", "time": "Closed"}], "id": "4205300001", "name": "USPS COLLECTION BOX - PO LOBBY", "address": {"city": "KEVIL", "state": "KY", "street": "253 WALLACE AVE", "postcode": "42053"}}},
{"geometry": {"type": "Point", "coordinates": [-88.1576557343, 37.0608628317]}, "type": "Feature", "properties": {"collection_times": [{"days": "Mon-Sat", "time": "2:00pm"}, {"days": "Sun", "time": "Closed"}], "id": "4205500000", "name": "USPS COLLECTION BOX - BLUE BOX", "address": {"city": "KUTTAWA", "state": "KY", "street": "67 BEECH ST", "postcode": "42055"}}},
{"geometry": {"type": "Point", "coordinates": [-88.129436969, 37.0644366139]}, "type": "Feature", "properties": {"collection_times": [{"days": "Mon-Fri", "time": "2:00pm"}, {"days": "Sat", "time": "10:45am"}, {"days": "Sun", "time": "Closed"}], "id": "4205500003", "name": "USPS COLLECTION BOX - PO LOBBY", "address": {"city": "KUTTAWA", "state": "KY", "street": "67 BEECH ST", "postcode": "42055"}}},
{"geometry": {"type": "Point", "coordinates": [-88.1576557343, 37.0608628317]}, "type": "Feature", "properties": {"collection_times": [{"days": "Mon-Sat", "time": "2:00pm"}, {"days": "Sun", "time": "Closed"}], "id": "4205500004", "name": "USPS COLLECTION BOX - BLUE BOX", "address": {"city": "KUTTAWA", "state": "KY", "street": "215 VISTA DR", "postcode": "42055"}}},
{"geometry": {"type": "Point", "coordinates": [-88.9734814035, 37.0763712237]}, "type": "Feature", "properties": {"collection_times": [{"days": "Mon-Fri", "time": "3:45pm"}, {"days": "Sat", "time": "10:45am"}, {"days": "Sun", "time": "Closed"}], "id": "4205600000", "name": "USPS COLLECTION BOX - BLUE BOX", "address": {"city": "LACENTER", "state": "KY", "street": "348 BROADWAY", "postcode": "42056"}}},
{"geometry": {"type": "Point", "coordinates": [-88.9734814035, 37.0763712237]}, "type": "Feature", "properties": {"collection_times": [{"days": "Mon-Fri", "time": "3:45pm"}, {"days": "Sat", "time": "10:45am"}, {"days": "Sun", "time": "Closed"}], "id": "4205600001", "name": "USPS COLLECTION BOX - PO LOBBY", "address": {"city": "LACENTER", "state": "KY", "street": "348 BROADWAY", "postcode": "42056"}}},
{"geometry": {"type": "Point", "coordinates": [-88.452949928, 37.0516915273]}, "type": "Feature", "properties": {"collection_times": [{"days": "Mon-Fri", "time": "1:45pm"}, {"days": "Sat", "time": "10:00am"}, {"days": "Sun", "time": "Closed"}], "id": "4205800000", "name": "USPS COLLECTION BOX - BLUE BOX", "address": {"city": "LEDBETTER", "state": "KY", "street": "1490 US HIGHWAY 60 W", "postcode": "42058"}}},
{"geometry": {"type": "Point", "coordinates": [-88.452949928, 37.0516915273]}, "type": "Feature", "properties": {"collection_times": [{"days": "Mon-Fri", "time": "1:45pm"}, {"days": "Sat", "time": "10:00am"}, {"days": "Sun", "time": "Closed"}], "id": "4205800001", "name": "USPS COLLECTION BOX - PO LOBBY", "address": {"city": "LEDBETTER", "state": "KY", "street": "1490 US HIGHWAY 60 W", "postcode": "42058"}}},
{"geometry": {"type": "Point", "coordinates": [-88.8290780433, 36.9692472459]}, "type": "Feature", "properties": {"collection_times": [{"days": "Mon-Fri", "time": "3:45pm"}, {"days": "Sat", "time": "11:00am"}, {"days": "Sun", "time": "Closed"}], "id": "4206000000", "name": "USPS COLLECTION BOX - BLUE BOX", "address": {"city": "LOVELACEVILLE", "state": "KY", "street": "142 N BROADWAY ST", "postcode": "42060"}}},
{"geometry": {"type": "Point", "coordinates": [-88.8290780433, 36.9692472459]}, "type": "Feature", "properties": {"collection_times": [{"days": "Mon-Fri", "time": "3:45pm"}, {"days": "Sat", "time": "11:00am"}, {"days": "Sun", "time": "Closed"}], "id": "4206000001", "name": "USPS COLLECTION BOX - PO LOBBY", "address": {"city": "LOVELACEVILLE", "state": "KY", "street": "142 N BROADWAY ST", "postcode": "42060"}}},
{"geometry": {"type": "Point", "coordinates": [-88.7737973651, 36.8854931819]}, "type": "Feature", "properties": {"collection_times": [{"days": "Mon-Sat", "time": "12:45pm"}, {"days": "Sun", "time": "Closed"}], "id": "4206100001", "name": "USPS COLLECTION BOX - BLUE BOX", "address": {"city": "LOWES", "state": "KY", "street": "6899 STATE ROUTE 440", "postcode": "42061"}}},
{"geometry": {"type": "Point", "coordinates": [-88.081080133, 37.3321697707]}, "type": "Feature", "properties": {"collection_times": [{"days": "Mon-Fri", "time": "4:00pm"}, {"days": "Sat", "time": "11:00am"}, {"days": "Sun", "time": "Closed"}], "id": "4206400000", "name": "USPS COLLECTION BOX - BLUE BOX", "address": {"city": "MARION", "state": "KY", "street": "128 E CARLISLE ST", "postcode": "42064"}}},
{"geometry": {"type": "Point", "coordinates": [-88.081080133, 37.3321697707]}, "type": "Feature", "properties": {"collection_times": [{"days": "Mon-Fri", "time": "4:00pm"}, {"days": "Sat", "time": "11:00am"}, {"days": "Sun", "time": "Closed"}], "id": "4206400006", "name": "USPS COLLECTION BOX - PO LOBBY", "address": {"city": "MARION", "state": "KY", "street": "128 E CARLISLE ST", "postcode": "42064"}}},
{"geometry": {"type": "Point", "coordinates": [-88.6643688655, 36.7402117014]}, "type": "Feature", "properties": {"collection_times": [{"days": "Mon-Sat", "time": "2:30pm"}, {"days": "Sun", "time": "Closed"}], "id": "4206600001", "name": "USPS COLLECTION BOX - BLUE BOX", "address": {"city": "MAYFIELD", "state": "KY", "street": "1326 W BROADWAY", "postcode": "42066"}}},
{"geometry": {"type": "Point", "coordinates": [-88.637006246, 36.7430804097]}, "type": "Feature", "properties": {"collection_times": [{"days": "Mon-Sat", "time": "3:00pm"}, {"days": "Sun", "time": "Closed"}], "id": "4206600006", "name": "USPS COLLECTION BOX - BLUE BOX", "address": {"city": "MAYFIELD", "state": "KY", "street": "210 N 8TH ST", "postcode": "42066"}}},
{"geometry": {"type": "Point", "coordinates": [-88.6328916794, 36.7416847812]}, "type": "Feature", "properties": {"collection_times": [{"days": "Mon-Sat", "time": "12:00pm"}, {"days": "Sun", "time": "Closed"}], "id": "4206600009", "name": "USPS COLLECTION BOX - BLUE BOX", "address": {"city": "MAYFIELD", "state": "KY", "street": "331 E BROADWAY", "postcode": "42066"}}},
{"geometry": {"type": "Point", "coordinates": [-88.6280877829, 36.7431592209]}, "type": "Feature", "properties": {"collection_times": [{"days": "Mon-Fri", "time": "1:00pm"}, {"days": "Sat", "time": "2:30pm"}, {"days": "Sun", "time": "Closed"}], "id": "4206600010", "name": "USPS COLLECTION BOX - BLUE BOX", "address": {"city": "MAYFIELD", "state": "KY", "street": "715 E BROADWAY", "postcode": "42066"}}},
{"geometry": {"type": "Point", "coordinates": [-88.6347402744, 36.73525716]}, "type": "Feature", "properties": {"collection_times": [{"days": "Mon-Sat", "time": "2:30pm"}, {"days": "Sun", "time": "Closed"}], "id": "4206600014", "name": "USPS COLLECTION BOX - BLUE BOX", "address": {"city": "MAYFIELD", "state": "KY", "street": "635 S 6TH ST", "postcode": "42066"}}},
{"geometry": {"type": "Point", "coordinates": [-88.6305146481, 36.7281708512]}, "type": "Feature", "properties": {"collection_times": [{"days": "Mon-Sat", "time": "11:30am"}, {"days": "Sun", "time": "Closed"}], "id": "4206600018", "name": "USPS COLLECTION BOX - BLUE BOX", "address": {"city": "MAYFIELD", "state": "KY", "street": "1102 PARIS RD", "postcode": "42066"}}},
{"geometry": {"type": "Point", "coordinates": [-88.6394412329, 36.7296655042]}, "type": "Feature", "properties": {"collection_times": [{"days": "Mon-Sat", "time": "2:15pm"}, {"days": "Sun", "time": "Closed"}], "id": "4206600022", "name": "USPS COLLECTION BOX - BLUE BOX", "address": {"city": "MAYFIELD", "state": "KY", "street": "300 W FARTHING ST", "postcode": "42066"}}},
{"geometry": {"type": "Point", "coordinates": [-88.6385643523, 36.7418498422]}, "type": "Feature", "properties": {"collection_times": [{"days": "Mon-Fri", "time": "4:30pm"}, {"days": "Sat", "time": "4:00pm"}, {"days": "Sun", "time": "Closed"}], "id": "4206600024", "name": "USPS COLLECTION BOX - BLUE BOX", "address": {"city": "MAYFIELD", "state": "KY", "street": "104 N 9TH ST", "postcode": "42066"}}},
{"geometry": {"type": "Point", "coordinates": [-88.6399469996, 36.7355218088]}, "type": "Feature", "properties": {"collection_times": [{"days": "Mon-Fri", "time": "2:00pm"}, {"days": "Sat-Sun", "time": "Closed"}], "id": "4206600028", "name": "USPS COLLECTION BOX - BLUE BOX", "address": {"city": "MAYFIELD", "state": "KY", "street": "100 E SOUTH ST", "postcode": "42066"}}},
{"geometry": {"type": "Point", "coordinates": [-88.6385616149, 36.7416951768]}, "type": "Feature", "properties": {"collection_times": [{"days": "Mon-Fri", "time": "4:30pm"}, {"days": "Sat", "time": "4:00pm"}, {"days": "Sun", "time": "Closed"}], "id": "4206600032", "name": "USPS COLLECTION BOX - BLUE BOX", "address": {"city": "MAYFIELD", "state": "KY", "street": "104 N 9TH", "postcode": "42066"}}},
{"geometry": {"type": "Point", "coordinates": [-88.725326201, 36.9470012638]}, "type": "Feature", "properties": {"collection_times": [{"days": "Mon-Fri", "time": "11:15am"}, {"days": "Sat", "time": "10:45am"}, {"days": "Sun", "time": "Closed"}], "id": "4206900000", "name": "USPS COLLECTION BOX - BLUE BOX", "address": {"city": "MELBER", "state": "KY", "street": "8650 CLINTON RD", "postcode": "42069"}}},
{"geometry": {"type": "Point", "coordinates": [-88.7577183737, 36.9240602875]}, "type": "Feature", "properties": {"collection_times": [{"days": "Mon-Fri", "time": "11:15am"}, {"days": "Sat", "time": "10:45am"}, {"days": "Sun", "time": "Closed"}], "id": "4206900001", "name": "USPS COLLECTION BOX - PO LOBBY", "address": {"city": "MELBER", "state": "KY", "street": "8650 CLINTON RD", "postcode": "42069"}}},
{"geometry": {"type": "Point", "coordinates": [-88.2775278806, 36.5947794649]}, "type": "Feature", "properties": {"collection_times": [{"days": "Mon-Sat", "time": "9:30am"}, {"days": "Sun", "time": "Closed"}], "id": "4207100001", "name": "USPS COLLECTION BOX - BLUE BOX", "address": {"city": "MURRAY", "state": "KY", "street": "6500 ELIZABETH COLLEGE", "postcode": "42071"}}},
{"geometry": {"type": "Point", "coordinates": [-88.3148921584, 36.6242527666]}, "type": "Feature", "properties": {"collection_times": [{"days": "Mon-Sat", "time": "11:00am"}, {"days": "Sun", "time": "Closed"}], "id": "4207100003", "name": "USPS COLLECTION BOX - BLUE BOX", "address": {"city": "MURRAY", "state": "KY", "street": "809 N 12TH ST", "postcode": "42071"}}},
{"geometry": {"type": "Point", "coordinates": [-88.3084724797, 36.6075351917]}, "type": "Feature", "properties": {"collection_times": [{"days": "Mon-Fri", "time": "2:30pm"}, {"days": "Sat", "time": "1:00pm"}, {"days": "Sun", "time": "Closed"}], "id": "4207100004", "name": "USPS COLLECTION BOX - BLUE BOX", "address": {"city": "MURRAY", "state": "KY", "street": "300 S 8TH ST", "postcode": "42071"}}},
{"geometry": {"type": "Point", "coordinates": [-88.3019806075, 36.6086562964]}, "type": "Feature", "properties": {"collection_times": [{"days": "Mon-Fri", "time": "3:00pm"}, {"days": "Sat", "time": "1:30pm"}, {"days": "Sun", "time": "Closed"}], "id": "4207100009", "name": "USPS COLLECTION BOX - BLUE BOX", "address": {"city": "MURRAY", "state": "KY", "street": "201 S 4TH ST", "postcode": "42071"}}},
{"geometry": {"type": "Point", "coordinates": [-88.3152144308, 36.597314771]}, "type": "Feature", "properties": {"collection_times": [{"days": "Mon-Fri", "time": "2:30pm"}, {"days": "Sat", "time": "10:00am"}, {"days": "Sun", "time": "Closed"}], "id": "4207100012", "name": "USPS COLLECTION BOX - BLUE BOX", "address": {"city": "MURRAY", "state": "KY", "street": "906 S 12TH ST", "postcode": "42071"}}},
{"geometry": {"type": "Point", "coordinates": [-88.314755696, 36.624247519]}, "type": "Feature", "properties": {"collection_times": [{"days": "Mon-Sat", "time": "10:00am"}, {"days": "Sun", "time": "Closed"}], "id": "4207100017", "name": "USPS COLLECTION BOX - BLUE BOX", "address": {"city": "MURRAY", "state": "KY", "street": "808 N 12TH ST", "postcode": "42071"}}},
{"geometry": {"type": "Point", "coordinates": [-88.315182089, 36.6171159748]}, "type": "Feature", "properties": {"collection_times": [{"days": "Mon-Fri", "time": "4:30pm"}, {"days": "Sat", "time": "4:00pm"}, {"days": "Sun", "time": "Closed"}], "id": "4207100018", "name": "USPS COLLECTION BOX - BLUE BOX", "address": {"city": "MURRAY", "state": "KY", "street": "1105 CHESTNUT ST", "postcode": "42071"}}},
{"geometry": {"type": "Point", "coordinates": [-88.315182089, 36.6171159748]}, "type": "Feature", "properties": {"collection_times": [{"days": "Mon-Fri", "time": "4:30pm"}, {"days": "Sat", "time": "4:00pm"}, {"days": "Sun", "time": "Closed"}], "id": "4207100019", "name": "USPS COLLECTION BOX - PO LOBBY", "address": {"city": "MURRAY", "state": "KY", "street": "1105 CHESTNUT ST", "postcode": "42071"}}},
{"geometry": {"type": "Point", "coordinates": [-88.315182089, 36.6171159748]}, "type": "Feature", "properties": {"collection_times": [{"days": "Mon-Fri", "time": "4:30pm"}, {"days": "Sat", "time": "4:00pm"}, {"days": "Sun", "time": "Closed"}], "id": "4207100024", "name": "USPS COLLECTION BOX - APC", "address": {"city": "MURRAY", "state": "KY", "street": "1105 CHESTNUT ST", "postcode": "42071"}}},
{"geometry": {"type": "Point", "coordinates": [-88.3084724797, 36.6075351917]}, "type": "Feature", "properties": {"collection_times": [{"days": "Mon-Fri", "time": "2:30pm"}, {"days": "Sat", "time": "1:00pm"}, {"days": "Sun", "time": "Closed"}], "id": "4207100026", "name": "USPS COLLECTION BOX - BLUE BOX", "address": {"city": "MURRAY", "state": "KY", "street": "300 S 8TH ST", "postcode": "42071"}}},
{"geometry": {"type": "Point", "coordinates": [-88.2964395548, 36.6173202792]}, "type": "Feature", "properties": {"collection_times": [{"days": "Mon-Sat", "time": "2:30pm"}, {"days": "Sun", "time": "Closed"}], "id": "4207100030", "name": "USPS COLLECTION BOX - BLUE BOX", "address": {"city": "MURRAY", "state": "KY", "street": "3918 KIRKSEY RD", "postcode": "42071"}}},
{"geometry": {"type": "Point", "coordinates": [-88.1555719778, 36.5484785674]}, "type": "Feature", "properties": {"collection_times": [{"days": "Mon-Fri", "time": "2:30pm"}, {"days": "Sat", "time": "10:15am"}, {"days": "Sun", "time": "Closed"}], "id": "4207600002", "name": "USPS COLLECTION BOX - PO LOBBY", "address": {"city": "NEW CONCORD", "state": "KY", "street": "10389 STATE ROUTE 121 S", "postcode": "42076"}}},
{"geometry": {"type": "Point", "coordinates": [-88.1555719778, 36.5484785674]}, "type": "Feature", "properties": {"collection_times": [{"days": "Mon-Fri", "time": "2:30pm"}, {"days": "Sat", "time": "10:15am"}, {"days": "Sun", "time": "Closed"}], "id": "4207600003", "name": "USPS COLLECTION BOX - BLUE BOX", "address": {"city": "NEW CONCORD", "state": "KY", "street": "10389 STATE ROUTE 121 S", "postcode": "42076"}}},
{"geometry": {"type": "Point", "coordinates": [-88.2429974875, 37.2642529058]}, "type": "Feature", "properties": {"collection_times": [{"days": "Mon-Fri", "time": "3:45pm"}, {"days": "Sat", "time": "10:45am"}, {"days": "Sun", "time": "Closed"}], "id": "4207800000", "name": "USPS COLLECTION BOX - BLUE BOX", "address": {"city": "SALEM", "state": "KY", "street": "155 E MAIN ST", "postcode": "42078"}}},
{"geometry": {"type": "Point", "coordinates": [-88.2429974875, 37.2642529058]}, "type": "Feature", "properties": {"collection_times": [{"days": "Mon-Fri", "time": "3:45pm"}, {"days": "Sat", "time": "10:45am"}, {"days": "Sun", "time": "Closed"}], "id": "4207800001", "name": "USPS COLLECTION BOX - PO LOBBY", "address": {"city": "SALEM", "state": "KY", "street": "155 E MAIN ST", "postcode": "42078"}}},
{"geometry": {"type": "Point", "coordinates": [-88.6050178794, 36.6412485057]}, "type": "Feature", "properties": {"collection_times": [{"days": "Mon-Fri", "time": "12:45pm"}, {"days": "Sat", "time": "11:45am"}, {"days": "Sun", "time": "Closed"}], "id": "4207900000", "name": "USPS COLLECTION BOX - BLUE BOX", "address": {"city": "SEDALIA", "state": "KY", "street": "1549 STATE ROUTE 339 E", "postcode": "42079"}}},
{"geometry": {"type": "Point", "coordinates": [-88.6053107053, 36.6412579005]}, "type": "Feature", "properties": {"collection_times": [{"days": "Mon-Fri", "time": "12:45pm"}, {"days": "Sat", "time": "11:45am"}, {"days": "Sun", "time": "Closed"}], "id": "4207900001", "name": "USPS COLLECTION BOX - PO LOBBY", "address": {"city": "SEDALIA", "state": "KY", "street": "1549 STATE ROUTE 339 E", "postcode": "42079"}}},
{"geometry": {"type": "Point", "coordinates": [-88.4037965597, 37.1410112301]}, "type": "Feature", "properties": {"collection_times": [{"days": "Mon-Fri", "time": "3:45pm"}, {"days": "Sat", "time": "11:00am"}, {"days": "Sun", "time": "Closed"}], "id": "4208100000", "name": "USPS COLLECTION BOX - BLUE BOX", "address": {"city": "SMITHLAND", "state": "KY", "street": "121 E ADAIR ST", "postcode": "42081"}}},
{"geometry": {"type": "Point", "coordinates": [-88.4037965597, 37.1410112301]}, "type": "Feature", "properties": {"collection_times": [{"days": "Mon-Fri", "time": "3:45pm"}, {"days": "Sat", "time": "11:00am"}, {"days": "Sun", "time": "Closed"}], "id": "4208100001", "name": "USPS COLLECTION BOX - PO LOBBY", "address": {"city": "SMITHLAND", "state": "KY", "street": "121 E ADAIR ST", "postcode": "42081"}}},
{"geometry": {"type": "Point", "coordinates": [-88.5199344046, 36.9206747029]}, "type": "Feature", "properties": {"collection_times": [{"days": "Mon-Fri", "time": "4:00pm"}, {"days": "Sat", "time": "11:30am"}, {"days": "Sun", "time": "Closed"}], "id": "4208200000", "name": "USPS COLLECTION BOX - BLUE BOX", "address": {"city": "SYMSONIA", "state": "KY", "street": "12022 STATE ROUTE 131", "postcode": "42082"}}},
{"geometry": {"type": "Point", "coordinates": [-88.5199344046, 36.9206747029]}, "type": "Feature", "properties": {"collection_times": [{"days": "Mon-Fri", "time": "4:00pm"}, {"days": "Sat", "time": "11:30am"}, {"days": "Sun", "time": "Closed"}], "id": "4208200001", "name": "USPS COLLECTION BOX - PO LOBBY", "address": {"city": "SYMSONIA", "state": "KY", "street": "12022 STATE ROUTE 131", "postcode": "42082"}}},
{"geometry": {"type": "Point", "coordinates": [-88.2555993596, 37.1699932956]}, "type": "Feature", "properties": {"collection_times": [{"days": "Mon-Sat", "time": "1:00pm"}, {"days": "Sun", "time": "Closed"}], "id": "4208300000", "name": "USPS COLLECTION BOX - BLUE BOX", "address": {"city": "TILINE", "state": "KY", "street": "1330 TILINE RD", "postcode": "42083"}}},
{"geometry": {"type": "Point", "coordinates": [-88.2555993596, 37.1699932956]}, "type": "Feature", "properties": {"collection_times": [{"days": "Mon-Sat", "time": "1:00pm"}, {"days": "Sun", "time": "Closed"}], "id": "4208300001", "name": "USPS COLLECTION BOX - PO LOBBY", "address": {"city": "TILINE", "state": "KY", "street": "1330 TILINE RD", "postcode": "42083"}}},
{"geometry": {"type": "Point", "coordinates": [-88.7934864589, 36.5703507698]}, "type": "Feature", "properties": {"collection_times": [{"days": "Mon-Fri", "time": "1:45pm"}, {"days": "Sat", "time": "11:45am"}, {"days": "Sun", "time": "Closed"}], "id": "4208500000", "name": "USPS COLLECTION BOX - BLUE BOX", "address": {"city": "WATER VALLEY", "state": "KY", "street": "16846 STATE ROUTE 45 S", "postcode": "42085"}}},
{"geometry": {"type": "Point", "coordinates": [-88.7934864589, 36.5703507698]}, "type": "Feature", "properties": {"collection_times": [{"days": "Mon-Fri", "time": "1:45pm"}, {"days": "Sat", "time": "11:45am"}, {"days": "Sun", "time": "Closed"}], "id": "4208500001", "name": "USPS COLLECTION BOX - PO LOBBY", "address": {"city": "WATER VALLEY", "state": "KY", "street": "16846 STATE ROUTE 45 S", "postcode": "42085"}}},
{"geometry": {"type": "Point", "coordinates": [-88.7662172044, 37.0820012374]}, "type": "Feature", "properties": {"collection_times": [{"days": "Mon-Fri", "time": "3:45pm"}, {"days": "Sat", "time": "10:30am"}, {"days": "Sun", "time": "Closed"}], "id": "4208600000", "name": "USPS COLLECTION BOX - BLUE BOX", "address": {"city": "WEST PADUCAH", "state": "KY", "street": "7475 US HIGHWAY 60 W", "postcode": "42086"}}},
{"geometry": {"type": "Point", "coordinates": [-88.7662172044, 37.0820012374]}, "type": "Feature", "properties": {"collection_times": [{"days": "Mon-Fri", "time": "3:45pm"}, {"days": "Sat", "time": "10:30am"}, {"days": "Sun", "time": "Closed"}], "id": "4208600001", "name": "USPS COLLECTION BOX - PO LOBBY", "address": {"city": "WEST PADUCAH", "state": "KY", "street": "7475 US HIGHWAY 60 W", "postcode": "42086"}}},
{"geometry": {"type": "Point", "coordinates": [-89.0898230128, 36.9649318857]}, "type": "Feature", "properties": {"collection_times": [{"days": "Mon-Fri", "time": "3:45pm"}, {"days": "Sat", "time": "10:00am"}, {"days": "Sun", "time": "Closed"}], "id": "4208700000", "name": "USPS COLLECTION BOX - BLUE BOX", "address": {"city": "WICKLIFFE", "state": "KY", "street": "330 COURT ST", "postcode": "42087"}}},
{"geometry": {"type": "Point", "coordinates": [-89.0898230128, 36.9649318857]}, "type": "Feature", "properties": {"collection_times": [{"days": "Mon-Fri", "time": "3:45pm"}, {"days": "Sat", "time": "10:00am"}, {"days": "Sun", "time": "Closed"}], "id": "4208700001", "name": "USPS COLLECTION BOX - PO LOBBY", "address": {"city": "WICKLIFFE", "state": "KY", "street": "330 COURT ST", "postcode": "42087"}}},
{"geometry": {"type": "Point", "coordinates": [-89.0898230128, 36.9649318857]}, "type": "Feature", "properties": {"collection_times": [{"days": "Mon-Fri", "time": "3:45pm"}, {"days": "Sat", "time": "10:00am"}, {"days": "Sun", "time": "Closed"}], "id": "4208700002", "name": "USPS COLLECTION BOX - PO LOBBY", "address": {"city": "WICKLIFFE", "state": "KY", "street": "330 COURT ST", "postcode": "42087"}}},
{"geometry": {"type": "Point", "coordinates": [-88.7363627808, 36.641911408]}, "type": "Feature", "properties": {"collection_times": [{"days": "Mon-Fri", "time": "3:30pm"}, {"days": "Sat", "time": "10:30am"}, {"days": "Sun", "time": "Closed"}], "id": "4208800000", "name": "USPS COLLECTION BOX - BLUE BOX", "address": {"city": "WINGO", "state": "KY", "street": "93 LEBANON ST", "postcode": "42088"}}},
{"geometry": {"type": "Point", "coordinates": [-88.7363627808, 36.641911408]}, "type": "Feature", "properties": {"collection_times": [{"days": "Mon-Fri", "time": "3:30pm"}, {"days": "Sat", "time": "10:30am"}, {"days": "Sun", "time": "Closed"}], "id": "4208800001", "name": "USPS COLLECTION BOX - PO LOBBY", "address": {"city": "WINGO", "state": "KY", "street": "93 LEBANON ST", "postcode": "42088"}}}
]}
