{"type": "FeatureCollection", "features": [
{"geometry": {"type": "Point", "coordinates": [-86.4307025176, 36.9883106037]}, "type": "Feature", "properties": {"collection_times": [{"days": "Mon-Fri", "time": "3:30pm"}, {"days": "Sat", "time": "9:00am"}, {"days": "Sun", "time": "Closed"}], "id": "4210100003", "name": "USPS COLLECTION BOX - BLUE BOX", "address": {"city": "BOWLING GREEN", "state": "KY", "street": "901 LEHMAN AVE", "postcode": "42101"}}},
{"geometry": {"type": "Point", "coordinates": [-86.4480872501, 37.0124333544]}, "type": "Feature", "properties": {"collection_times": [{"days": "Mon-Fri", "time": "5:00pm"}, {"days": "Sat", "time": "2:00pm"}, {"days": "Sun", "time": "Closed"}], "id": "4210100024", "name": "USPS COLLECTION BOX - BLUE BOX", "address": {"city": "BOWLING GREEN", "state": "KY", "street": "1120 COLLEGE ST", "postcode": "42101"}}},
{"geometry": {"type": "Point", "coordinates": [-86.445075205, 36.9916743013]}, "type": "Feature", "properties": {"collection_times": [{"days": "Mon-Sat", "time": "9:00am"}, {"days": "Sun", "time": "Closed"}], "id": "4210100027", "name": "USPS COLLECTION BOX - BLUE BOX", "address": {"city": "BOWLING GREEN", "state": "KY", "street": "1149 COLLEGE ST", "postcode": "42101"}}},
{"geometry": {"type": "Point", "coordinates": [-86.3919751606, 37.0107557711]}, "type": "Feature", "properties": {"collection_times": [{"days": "Mon-Sat", "time": "9:00am"}, {"days": "Sun", "time": "Closed"}], "id": "4210100048", "name": "USPS COLLECTION BOX - BLUE BOX", "address": {"city": "BOWLING GREEN", "state": "KY", "street": "3411 LOUISVILLE RD", "postcode": "42101"}}},
{"geometry": {"type": "Point", "coordinates": [-86.4230401831, 36.9451059495]}, "type": "Feature", "properties": {"collection_times": [{"days": "Mon-Fri", "time": "3:00pm"}, {"days": "Sat", "time": "9:00am"}, {"days": "Sun", "time": "Closed"}], "id": "4210100059", "name": "USPS COLLECTION BOX - BLUE BOX", "address": {"city": "BOWLING GREEN", "state": "KY", "street": "2945 SCOTTSVILLE RD", "postcode": "42101"}}},
{"geometry": {"type": "Point", "coordinates": [-86.4108781101, 36.9258557532]}, "type": "Feature", "properties": {"collection_times": [{"days": "Mon-Fri", "time": "5:30pm"}, {"days": "Sat", "time": "12:00pm"}, {"days": "Sun", "time": "Closed"}], "id": "4210100060", "name": "USPS COLLECTION BOX - BLUE BOX", "address": {"city": "BOWLING GREEN", "state": "KY", "street": "5300 SCOTTSVILLE RD", "postcode": "42101"}}},
{"geometry": {"type": "Point", "coordinates": [-86.4300325868, 36.9964142276]}, "type": "Feature", "properties": {"collection_times": [{"days": "Mon-Fri", "time": "3:30pm"}, {"days": "Sat", "time": "9:00am"}, {"days": "Sun", "time": "Closed"}], "id": "4210100063", "name": "USPS COLLECTION BOX - BLUE BOX", "address": {"city": "BOWLING GREEN", "state": "KY", "street": "250 PARK ST", "postcode": "42101"}}},
{"geometry": {"type": "Point", "coordinates": [-86.4523934445, 36.9902758306]}, "type": "Feature", "properties": {"collection_times": [{"days": "Mon-Sat", "time": "9:00am"}, {"days": "Sun", "time": "Closed"}], "id": "4210100064", "name": "USPS COLLECTION BOX - BLUE BOX", "address": {"city": "BOWLING GREEN", "state": "KY", "street": "1347 KY HIGHWAY 185", "postcode": "42101"}}},
{"geometry": {"type": "Point", "coordinates": [-86.4450864833, 36.9930745067]}, "type": "Feature", "properties": {"collection_times": [{"days": "Mon-Fri", "time": "5:00pm"}, {"days": "Sat", "time": "2:00pm"}, {"days": "Sun", "time": "Closed"}], "id": "4210100072", "name": "USPS COLLECTION BOX - PO LOBBY", "address": {"city": "BOWLING GREEN", "state": "KY", "street": "311 E 11TH AVE", "postcode": "42101"}}},
{"geometry": {"type": "Point", "coordinates": [-86.442623256, 36.9927038186]}, "type": "Feature", "properties": {"collection_times": [{"days": "Mon-Fri", "time": "3:45pm"}, {"days": "Sat", "time": "8:30am"}, {"days": "Sun", "time": "Closed"}], "id": "4210100074", "name": "USPS COLLECTION BOX - BLUE BOX", "address": {"city": "BOWLING GREEN", "state": "KY", "street": "429 E 10TH AVE", "postcode": "42101"}}},
{"geometry": {"type": "Point", "coordinates": [-86.4450864833, 36.9930745067]}, "type": "Feature", "properties": {"collection_times": [{"days": "Mon-Fri", "time": "5:00pm"}, {"days": "Sat", "time": "2:00pm"}, {"days": "Sun", "time": "Closed"}], "id": "4210100076", "name": "USPS COLLECTION BOX - BLUE BOX", "address": {"city": "BOWLING GREEN", "state": "KY", "street": "311 E 11TH AVE", "postcode": "42101"}}},
{"geometry": {"type": "Point", "coordinates": [-86.4480872501, 37.0124333544]}, "type": "Feature", "properties": {"collection_times": [{"days": "Mon-Fri", "time": "5:00pm"}, {"days": "Sat", "time": "2:00pm"}, {"days": "Sun", "time": "Closed"}], "id": "4210100089", "name": "USPS COLLECTION BOX - BLUE BOX", "address": {"city": "BOWLING GREEN", "state": "KY", "street": "1120 COLLEGE ST", "postcode": "42101"}}},
{"geometry": {"type": "Point", "coordinates": [-86.4397918725, 36.9908266179]}, "type": "Feature", "properties": {"collection_times": [{"days": "Mon-Fri", "time": "3:15pm"}, {"days": "Sat", "time": "9:00am"}, {"days": "Sun", "time": "Closed"}], "id": "4210100092", "name": "USPS COLLECTION BOX - BLUE BOX", "address": {"city": "BOWLING GREEN", "state": "KY", "street": "948 ELM ST", "postcode": "42101"}}},
{"geometry": {"type": "Point", "coordinates": [-86.4519593444, 37.0039619227]}, "type": "Feature", "properties": {"collection_times": [{"days": "Mon-Fri", "time": "5:00pm"}, {"days": "Sat", "time": "9:00am"}, {"days": "Sun", "time": "Closed"}], "id": "4210100097", "name": "USPS COLLECTION BOX - BLUE BOX", "address": {"city": "BOWLING GREEN", "state": "KY", "street": "711 CAMPBELL LN", "postcode": "42101"}}},
{"geometry": {"type": "Point", "coordinates": [-86.4599047102, 36.9736486955]}, "type": "Feature", "properties": {"collection_times": [{"days": "Mon-Sat", "time": "9:00am"}, {"days": "Sun", "time": "Closed"}], "id": "4210100099", "name": "USPS COLLECTION BOX - BLUE BOX", "address": {"city": "BOWLING GREEN", "state": "KY", "street": "2413 NASHVILLE RD", "postcode": "42101"}}},
{"geometry": {"type": "Point", "coordinates": [-86.4677461677, 36.9798780054]}, "type": "Feature", "properties": {"collection_times": [{"days": "Mon-Sat", "time": "9:00am"}, {"days": "Sun", "time": "Closed"}], "id": "4210100101", "name": "USPS COLLECTION BOX - BLUE BOX", "address": {"city": "BOWLING GREEN", "state": "KY", "street": "1901 RUSSELLVILLE RD", "postcode": "42101"}}},
{"geometry": {"type": "Point", "coordinates": [-86.4319184872, 36.965243896]}, "type": "Feature", "properties": {"collection_times": [{"days": "Mon-Fri", "time": "4:45pm"}, {"days": "Sat", "time": "9:00am"}, {"days": "Sun", "time": "Closed"}], "id": "4210100103", "name": "USPS COLLECTION BOX - BLUE BOX", "address": {"city": "BOWLING GREEN", "state": "KY", "street": "1945 SCOTTSVILLE RD", "postcode": "42101"}}},
{"geometry": {"type": "Point", "coordinates": [-86.4253514828, 36.951944023]}, "type": "Feature", "properties": {"collection_times": [{"days": "Mon-Fri", "time": "3:00pm"}, {"days": "Sat", "time": "9:00am"}, {"days": "Sun", "time": "Closed"}], "id": "4210100105", "name": "USPS COLLECTION BOX - BLUE BOX", "address": {"city": "BOWLING GREEN", "state": "KY", "street": "2530 SCOTTSVILLE RD", "postcode": "42101"}}},
{"geometry": {"type": "Point", "coordinates": [-86.4409769233, 36.9925098894]}, "type": "Feature", "properties": {"collection_times": [{"days": "Mon-Fri", "time": "3:15pm"}, {"days": "Sat", "time": "9:00am"}, {"days": "Sun", "time": "Closed"}], "id": "4210100107", "name": "USPS COLLECTION BOX - BLUE BOX", "address": {"city": "BOWLING GREEN", "state": "KY", "street": "918 STATE ST", "postcode": "42101"}}},
{"geometry": {"type": "Point", "coordinates": [-86.4349212973, 36.9511908599]}, "type": "Feature", "properties": {"collection_times": [{"days": "Mon-Fri", "time": "3:00pm"}, {"days": "Sat", "time": "9:00am"}, {"days": "Sun", "time": "Closed"}], "id": "4210100109", "name": "USPS COLLECTION BOX - BLUE BOX", "address": {"city": "BOWLING GREEN", "state": "KY", "street": "150 WALTON AVE", "postcode": "42101"}}},
{"geometry": {"type": "Point", "coordinates": [-86.4439866429, 36.9941071719]}, "type": "Feature", "properties": {"collection_times": [{"days": "Mon-Fri", "time": "3:45pm"}, {"days": "Sat", "time": "8:30am"}, {"days": "Sun", "time": "Closed"}], "id": "4210100110", "name": "USPS COLLECTION BOX - BLUE BOX", "address": {"city": "BOWLING GREEN", "state": "KY", "street": "1001 CENTER ST", "postcode": "42101"}}},
{"geometry": {"type": "Point", "coordinates": [-86.4468219959, 36.9595620349]}, "type": "Feature", "properties": {"collection_times": [{"days": "Mon-Sat", "time": "9:00am"}, {"days": "Sun", "time": "Closed"}], "id": "4210100111", "name": "USPS COLLECTION BOX - BLUE BOX", "address": {"city": "BOWLING GREEN", "state": "KY", "street": "1711 DESTINY LN", "postcode": "42101"}}},
{"geometry": {"type": "Point", "coordinates": [-86.4239722205, 36.9696821516]}, "type": "Feature", "properties": {"collection_times": [{"days": "Mon-Sat", "time": "9:00am"}, {"days": "Sun", "time": "Closed"}], "id": "4210100112", "name": "USPS COLLECTION BOX - BLUE BOX", "address": {"city": "BOWLING GREEN", "state": "KY", "street": "996 WILKINSON TRCE", "postcode": "42101"}}},
{"geometry": {"type": "Point", "coordinates": [-86.4450864833, 36.9930745067]}, "type": "Feature", "properties": {"collection_times": [{"days": "Mon-Fri", "time": "5:00pm"}, {"days": "Sat", "time": "2:00pm"}, {"days": "Sun", "time": "Closed"}], "id": "4210100117", "name": "USPS COLLECTION BOX - APC", "address": {"city": "BOWLING GREEN", "state": "KY", "street": "311 E 11TH AVE", "postcode": "42101"}}},
{"geometry": {"type": "Point", "coordinates": [-86.4382192431, 36.9685644443]}, "type": "Feature", "properties": {"collection_times": [{"days": "Mon-Fri", "time": "3:15pm"}, {"days": "Sat", "time": "9:00am"}, {"days": "Sun", "time": "Closed"}], "id": "4210100124", "name": "USPS COLLECTION BOX - BLUE BOX", "address": {"city": "BOWLING GREEN", "state": "KY", "street": "1308 WESTEN ST", "postcode": "42101"}}},
{"geometry": {"type": "Point", "coordinates": [-86.4391722681, 36.9954278364]}, "type": "Feature", "properties": {"collection_times": [{"days": "Mon-Sat", "time": "9:00am"}, {"days": "Sun", "time": "Closed"}], "id": "4210100130", "name": "USPS COLLECTION BOX - BLUE BOX", "address": {"city": "BOWLING GREEN", "state": "KY", "street": "710 COLLEGE ST", "postcode": "42101"}}},
{"geometry": {"type": "Point", "coordinates": [-86.4777811747, 37.0146099295]}, "type": "Feature", "properties": {"collection_times": [{"days": "Mon-Sat", "time": "9:00am"}, {"days": "Sun", "time": "Closed"}], "id": "4210100131", "name": "USPS COLLECTION BOX - BLUE BOX", "address": {"city": "BOWLING GREEN", "state": "KY", "street": "2335 BARREN RIVER RD", "postcode": "42101"}}},
{"geometry": {"type": "Point", "coordinates": [-86.4450864833, 36.9930745067]}, "type": "Feature", "properties": {"collection_times": [{"days": "Mon-Fri", "time": "5:00pm"}, {"days": "Sat", "time": "2:00pm"}, {"days": "Sun", "time": "Closed"}], "id": "4210100133", "name": "USPS COLLECTION BOX - PO LOBBY", "address": {"city": "BOWLING GREEN", "state": "KY", "street": "311 E 11TH AVE", "postcode": "42101"}}},
{"geometry": {"type": "Point", "coordinates": [-86.2724186777, 36.6702728612]}, "type": "Feature", "properties": {"collection_times": [{"days": "Mon-Fri", "time": "3:45pm"}, {"days": "Sat", "time": "8:45am"}, {"days": "Sun", "time": "Closed"}], "id": "4212000000", "name": "USPS COLLECTION BOX - BLUE BOX", "address": {"city": "ADOLPHUS", "state": "KY", "street": "6422 NEW GALLATIN RD", "postcode": "42120"}}},
{"geometry": {"type": "Point", "coordinates": [-86.2724186777, 36.6702728612]}, "type": "Feature", "properties": {"collection_times": [{"days": "Mon-Fri", "time": "3:45pm"}, {"days": "Sat", "time": "8:45am"}, {"days": "Sun", "time": "Closed"}], "id": "4212000001", "name": "USPS COLLECTION BOX - PO LOBBY", "address": {"city": "ADOLPHUS", "state": "KY", "street": "6422 NEW GALLATIN RD", "postcode": "42120"}}},
{"geometry": {"type": "Point", "coordinates": [-86.3314372477, 36.8501033918]}, "type": "Feature", "properties": {"collection_times": [{"days": "Mon-Fri", "time": "3:30pm"}, {"days": "Sat", "time": "11:45am"}, {"days": "Sun", "time": "Closed"}], "id": "4212200000", "name": "USPS COLLECTION BOX - BLUE BOX", "address": {"city": "ALVATON", "state": "KY", "street": "10363 ALVATON RD", "postcode": "42122"}}},
{"geometry": {"type": "Point", "coordinates": [-86.3314372477, 36.8501033918]}, "type": "Feature", "properties": {"collection_times": [{"days": "Mon-Fri", "time": "3:30pm"}, {"days": "Sat", "time": "11:45am"}, {"days": "Sun", "time": "Closed"}], "id": "4212200001", "name": "USPS COLLECTION BOX - PO LOBBY", "address": {"city": "ALVATON", "state": "KY", "street": "10363 ALVATON RD", "postcode": "42122"}}},
{"geometry": {"type": "Point", "coordinates": [-86.353544865, 36.873756853]}, "type": "Feature", "properties": {"collection_times": [{"days": "Mon-Sat", "time": "9:00am"}, {"days": "Sun", "time": "Closed"}], "id": "4212200002", "name": "USPS COLLECTION BOX - BLUE BOX", "address": {"city": "ALVATON", "state": "KY", "street": "9996 ALVATON RD", "postcode": "42122"}}},
{"geometry": {"type": "Point", "coordinates": [-86.0138904575, 36.8274659026]}, "type": "Feature", "properties": {"collection_times": [{"days": "Mon-Sat", "time": "10:30am"}, {"days": "Sun", "time": "Closed"}], "id": "4212300000", "name": "USPS COLLECTION BOX - BLUE BOX", "address": {"city": "AUSTIN", "state": "KY", "street": "3453 AUSTIN TRACY RD", "postcode": "42123"}}},
{"geometry": {"type": "Point", "coordinates": [-85.9583101314, 37.1377159469]}, "type": "Feature", "properties": {"collection_times": [{"days": "Mon-Fri", "time": "2:45pm"}, {"days": "Sat", "time": "10:00am"}, {"days": "Sun", "time": "Closed"}], "id": "4212700001", "name": "USPS COLLECTION BOX - PO LOBBY", "address": {"city": "CAVE CITY", "state": "KY", "street": "309 BROADWAY ST", "postcode": "42127"}}},
{"geometry": {"type": "Point", "coordinates": [-85.9583101314, 37.1377159469]}, "type": "Feature", "properties": {"collection_times": [{"days": "Mon-Fri", "time": "2:45pm"}, {"days": "Sat", "time": "10:00am"}, {"days": "Sun", "time": "Closed"}], "id": "4212700002", "name": "USPS COLLECTION BOX - BLUE BOX", "address": {"city": "CAVE CITY", "state": "KY", "street": "309 BROADWAY ST", "postcode": "42127"}}},
{"geometry": {"type": "Point", "coordinates": [-85.6107039472, 36.9788369851]}, "type": "Feature", "properties": {"collection_times": [{"days": "Mon-Fri", "time": "4:00pm"}, {"days": "Sat", "time": "11:00am"}, {"days": "Sun", "time": "Closed"}], "id": "4212900001", "name": "USPS COLLECTION BOX - BLUE BOX", "address": {"city": "EDMONTON", "state": "KY", "street": "202 HAMILTON ST", "postcode": "42129"}}},
{"geometry": {"type": "Point", "coordinates": [-85.6107039472, 36.9788369851]}, "type": "Feature", "properties": {"collection_times": [{"days": "Mon-Fri", "time": "4:00pm"}, {"days": "Sat", "time": "11:00am"}, {"days": "Sun", "time": "Closed"}], "id": "4212900003", "name": "USPS COLLECTION BOX - PO LOBBY", "address": {"city": "EDMONTON", "state": "KY", "street": "202 HAMILTON ST", "postcode": "42129"}}},
{"geometry": {"type": "Point", "coordinates": [-85.6406098196, 36.9887461856]}, "type": "Feature", "properties": {"collection_times": [{"days": "Mon-Sat", "time": "1:00pm"}, {"days": "Sun", "time": "Closed"}], "id": "4212900004", "name": "USPS COLLECTION BOX - BLUE BOX", "address": {"city": "EDMONTON", "state": "KY", "street": "1417 W STOCKTON ST", "postcode": "42129"}}},
{"geometry": {"type": "Point", "coordinates": [-85.9662831311, 36.7251602754]}, "type": "Feature", "properties": {"collection_times": [{"days": "Mon-Fri", "time": "3:15pm"}, {"days": "Sat", "time": "9:45am"}, {"days": "Sun", "time": "Closed"}], "id": "4213300000", "name": "USPS COLLECTION BOX - BLUE BOX", "address": {"city": "FOUNTAIN RUN", "state": "KY", "street": "200 MAIN ST", "postcode": "42133"}}},
{"geometry": {"type": "Point", "coordinates": [-85.9662831311, 36.7251602754]}, "type": "Feature", "properties": {"collection_times": [{"days": "Mon-Fri", "time": "3:15pm"}, {"days": "Sat", "time": "9:45am"}, {"days": "Sun", "time": "Closed"}], "id": "4213300001", "name": "USPS COLLECTION BOX - PO LOBBY", "address": {"city": "FOUNTAIN RUN", "state": "KY", "street": "200 MAIN ST", "postcode": "42133"}}},
{"geometry": {"type": "Point", "coordinates": [-86.5784320239, 36.7296840896]}, "type": "Feature", "properties": {"collection_times": [{"days": "Mon-Fri", "time": "4:00pm"}, {"days": "Sat", "time": "3:30pm"}, {"days": "Sun", "time": "Closed"}], "id": "4213400006", "name": "USPS COLLECTION BOX - BLUE BOX", "address": {"city": "FRANKLIN", "state": "KY", "street": "619 N MAIN ST", "postcode": "42134"}}},
{"geometry": {"type": "Point", "coordinates": [-86.5784320239, 36.7296840896]}, "type": "Feature", "properties": {"collection_times": [{"days": "Mon-Fri", "time": "4:00pm"}, {"days": "Sat", "time": "3:30pm"}, {"days": "Sun", "time": "Closed"}], "id": "4213400007", "name": "USPS COLLECTION BOX - BLUE BOX", "address": {"city": "FRANKLIN", "state": "KY", "street": "619 N MAIN ST", "postcode": "42134"}}},
{"geometry": {"type": "Point", "coordinates": [-86.5784320239, 36.7296840896]}, "type": "Feature", "properties": {"collection_times": [{"days": "Mon-Fri", "time": "4:00pm"}, {"days": "Sat", "time": "3:30pm"}, {"days": "Sun", "time": "Closed"}], "id": "4213400009", "name": "USPS COLLECTION BOX - PO LOBBY", "address": {"city": "FRANKLIN", "state": "KY", "street": "619 N MAIN ST", "postcode": "42134"}}},
{"geometry": {"type": "Point", "coordinates": [-85.7951552431, 36.6393365453]}, "type": "Feature", "properties": {"collection_times": [{"days": "Mon-Fri", "time": "3:30pm"}, {"days": "Sat", "time": "10:00am"}, {"days": "Sun", "time": "Closed"}], "id": "4214000000", "name": "USPS COLLECTION BOX - BLUE BOX", "address": {"city": "GAMALIEL", "state": "KY", "street": "106 FOUNTAIN RUN RD", "postcode": "42140"}}},
{"geometry": {"type": "Point", "coordinates": [-85.7951552431, 36.6393365453]}, "type": "Feature", "properties": {"collection_times": [{"days": "Mon-Fri", "time": "3:30pm"}, {"days": "Sat", "time": "10:00am"}, {"days": "Sun", "time": "Closed"}], "id": "4214000001", "name": "USPS COLLECTION BOX - PO LOBBY", "address": {"city": "GAMALIEL", "state": "KY", "street": "106 FOUNTAIN RUN RD", "postcode": "42140"}}},
{"geometry": {"type": "Point", "coordinates": [-85.9034385442, 37.0094710699]}, "type": "Feature", "properties": {"collection_times": [{"days": "Mon-Fri", "time": "4:00pm"}, {"days": "Sat", "time": "3:30pm"}, {"days": "Sun", "time": "Closed"}], "id": "4214100002", "name": "USPS COLLECTION BOX - BLUE BOX", "address": {"city": "GLASGOW", "state": "KY", "street": "1216 N RACE ST", "postcode": "42141"}}},
{"geometry": {"type": "Point", "coordinates": [-85.913340199, 36.9506008634]}, "type": "Feature", "properties": {"collection_times": [{"days": "Mon-Fri", "time": "4:00pm"}, {"days": "Sat", "time": "3:30pm"}, {"days": "Sun", "time": "Closed"}], "id": "4214100004", "name": "USPS COLLECTION BOX - BLUE BOX", "address": {"city": "GLASGOW", "state": "KY", "street": "108 BRAVO BLVD", "postcode": "42141"}}},
{"geometry": {"type": "Point", "coordinates": [-85.9123850427, 37.0059528504]}, "type": "Feature", "properties": {"collection_times": [{"days": "Mon-Fri", "time": "4:00pm"}, {"days": "Sat", "time": "3:30pm"}, {"days": "Sun", "time": "Closed"}], "id": "4214100006", "name": "USPS COLLECTION BOX - BLUE BOX", "address": {"city": "GLASGOW", "state": "KY", "street": "415 HAPPY VALLEY RD", "postcode": "42141"}}},
{"geometry": {"type": "Point", "coordinates": [-85.9207326583, 37.0113101138]}, "type": "Feature", "properties": {"collection_times": [{"days": "Mon-Fri", "time": "10:30am"}, {"days": "Sat", "time": "10:00am"}, {"days": "Sun", "time": "Closed"}], "id": "4214100007", "name": "USPS COLLECTION BOX - BLUE BOX", "address": {"city": "GLASGOW", "state": "KY", "street": "1000 STONEHENGE PL", "postcode": "42141"}}},
{"geometry": {"type": "Point", "coordinates": [-85.9284663403, 37.015901688]}, "type": "Feature", "properties": {"collection_times": [{"days": "Mon-Fri", "time": "4:10pm"}, {"days": "Sat", "time": "3:30pm"}, {"days": "Sun", "time": "Closed"}], "id": "4214100009", "name": "USPS COLLECTION BOX - BLUE BOX", "address": {"city": "GLASGOW", "state": "KY", "street": "100 COMMERCE DR", "postcode": "42141"}}},
{"geometry": {"type": "Point", "coordinates": [-85.9325723774, 36.9912088209]}, "type": "Feature", "properties": {"collection_times": [{"days": "Mon-Fri", "time": "4:25pm"}, {"days": "Sat", "time": "3:30pm"}, {"days": "Sun", "time": "Closed"}], "id": "4214100013", "name": "USPS COLLECTION BOX - BLUE BOX", "address": {"city": "GLASGOW", "state": "KY", "street": "619 S L ROGERS WELLS BLVD", "postcode": "42141"}}},
{"geometry": {"type": "Point", "coordinates": [-85.9118023788, 36.995875384]}, "type": "Feature", "properties": {"collection_times": [{"days": "Mon-Fri", "time": "4:00pm"}, {"days": "Sat", "time": "3:30pm"}, {"days": "Sun", "time": "Closed"}], "id": "4214100017", "name": "USPS COLLECTION BOX - BLUE BOX", "address": {"city": "GLASGOW", "state": "KY", "street": "101 E MAIN ST", "postcode": "42141"}}},
{"geometry": {"type": "Point", "coordinates": [-85.9135505299, 36.9953763888]}, "type": "Feature", "properties": {"collection_times": [{"days": "Mon-Fri", "time": "4:45pm"}, {"days": "Sat", "time": "3:30pm"}, {"days": "Sun", "time": "Closed"}], "id": "4214100019", "name": "USPS COLLECTION BOX - BLUE BOX", "address": {"city": "GLASGOW", "state": "KY", "street": "202 W WASHINGTON ST", "postcode": "42141"}}},
{"geometry": {"type": "Point", "coordinates": [-85.9123534756, 36.9950262989]}, "type": "Feature", "properties": {"collection_times": [{"days": "Mon-Fri", "time": "5:00pm"}, {"days": "Sat", "time": "3:30pm"}, {"days": "Sun", "time": "Closed"}], "id": "4214100029", "name": "USPS COLLECTION BOX - BLUE BOX", "address": {"city": "GLASGOW", "state": "KY", "street": "101 E WASHINGTON ST", "postcode": "42141"}}},
{"geometry": {"type": "Point", "coordinates": [-85.9081168899, 36.9975640657]}, "type": "Feature", "properties": {"collection_times": [{"days": "Mon-Fri", "time": "5:15pm"}, {"days": "Sat", "time": "4:15pm"}, {"days": "Sun", "time": "Closed"}], "id": "4214100030", "name": "USPS COLLECTION BOX - BLUE BOX", "address": {"city": "GLASGOW", "state": "KY", "street": "201 COLUMBIA AVE", "postcode": "42141"}}},
{"geometry": {"type": "Point", "coordinates": [-85.9157559707, 36.9973746162]}, "type": "Feature", "properties": {"collection_times": [{"days": "Mon-Fri", "time": "5:00pm"}, {"days": "Sat", "time": "3:45pm"}, {"days": "Sun", "time": "Closed"}], "id": "4214100039", "name": "USPS COLLECTION BOX - BLUE BOX", "address": {"city": "GLASGOW", "state": "KY", "street": "445 W MAIN ST", "postcode": "42141"}}},
{"geometry": {"type": "Point", "coordinates": [-85.9157559707, 36.9973746162]}, "type": "Feature", "properties": {"collection_times": [{"days": "Mon-Fri", "time": "4:45pm"}, {"days": "Sat", "time": "3:45pm"}, {"days": "Sun", "time": "Closed"}], "id": "4214100042", "name": "USPS COLLECTION BOX - PO LOBBY", "address": {"city": "GLASGOW", "state": "KY", "street": "445 W MAIN ST", "postcode": "42141"}}},
{"geometry": {"type": "Point", "coordinates": [-85.9157559707, 36.9973746162]}, "type": "Feature", "properties": {"collection_times": [{"days": "Mon-Fri", "time": "4:45pm"}, {"days": "Sat", "time": "3:45pm"}, {"days": "Sun", "time": "Closed"}], "id": "4214100049", "name": "USPS COLLECTION BOX - PO LOBBY", "address": {"city": "GLASGOW", "state": "KY", "street": "445 W MAIN ST", "postcode": "42141"}}},
{"geometry": {"type": "Point", "coordinates": [-85.9387176102, 37.0272679102]}, "type": "Feature", "properties": {"collection_times": [{"days": "Mon-Sat", "time": "11:00am"}, {"days": "Sun", "time": "Closed"}], "id": "4214100053", "name": "USPS COLLECTION BOX - BLUE BOX", "address": {"city": "GLASGOW", "state": "KY", "street": "2345 HAPPY VALLEY RD", "postcode": "42141"}}},
{"geometry": {"type": "Point", "coordinates": [-85.8150764338, 37.1008542163]}, "type": "Feature", "properties": {"collection_times": [{"days": "Mon-Fri", "time": "11:30am"}, {"days": "Sat", "time": "10:00am"}, {"days": "Sun", "time": "Closed"}], "id": "4215200000", "name": "USPS COLLECTION BOX - BLUE BOX", "address": {"city": "HISEVILLE", "state": "KY", "street": "55 W HISEVILLE MAIN ST", "postcode": "42152"}}},
{"geometry": {"type": "Point", "coordinates": [-85.8150764338, 37.1008542163]}, "type": "Feature", "properties": {"collection_times": [{"days": "Mon-Fri", "time": "11:30am"}, {"days": "Sat", "time": "10:00am"}, {"days": "Sun", "time": "Closed"}], "id": "4215200001", "name": "USPS COLLECTION BOX - PO LOBBY", "address": {"city": "HISEVILLE", "state": "KY", "street": "55 W HISEVILLE MAIN ST", "postcode": "42152"}}},
{"geometry": {"type": "Point", "coordinates": [-86.2494842729, 37.0420519693]}, "type": "Feature", "properties": {"collection_times": [{"days": "Mon-Fri", "time": "1:45pm"}, {"days": "Sat", "time": "11:45am"}, {"days": "Sun", "time": "Closed"}], "id": "4215900000", "name": "USPS COLLECTION BOX - BLUE BOX", "address": {"city": "OAKLAND", "state": "KY", "street": "102 MAIN ST", "postcode": "42159"}}},
{"geometry": {"type": "Point", "coordinates": [-86.2494842729, 37.0420519693]}, "type": "Feature", "properties": {"collection_times": [{"days": "Mon-Fri", "time": "1:45pm"}, {"days": "Sat", "time": "11:45am"}, {"days": "Sun", "time": "Closed"}], "id": "4215900001", "name": "USPS COLLECTION BOX - PO LOBBY", "address": {"city": "OAKLAND", "state": "KY", "street": "102 MAIN ST", "postcode": "42159"}}},
{"geometry": {"type": "Point", "coordinates": [-86.0596089983, 37.0741020174]}, "type": "Feature", "properties": {"collection_times": [{"days": "Mon-Fri", "time": "12:45pm"}, {"days": "Sat", "time": "11:45am"}, {"days": "Sun", "time": "Closed"}], "id": "4216000000", "name": "USPS COLLECTION BOX - BLUE BOX", "address": {"city": "PARK CITY", "state": "KY", "street": "24211 LOUISVILLE RD", "postcode": "42160"}}},
{"geometry": {"type": "Point", "coordinates": [-86.0596089983, 37.0741020174]}, "type": "Feature", "properties": {"collection_times": [{"days": "Mon-Fri", "time": "12:45pm"}, {"days": "Sat", "time": "11:45am"}, {"days": "Sun", "time": "Closed"}], "id": "4216000001", "name": "USPS COLLECTION BOX - PO LOBBY", "address": {"city": "PARK CITY", "state": "KY", "street": "24211 LOUISVILLE RD", "postcode": "42160"}}},
{"geometry": {"type": "Point", "coordinates": [-86.1377989342, 37.0695500335]}, "type": "Feature", "properties": {"collection_times": [{"days": "Mon-Fri", "time": "11:30am"}, {"days": "Sat", "time": "9:45am"}, {"days": "Sun", "time": "Closed"}], "id": "4216300000", "name": "USPS COLLECTION BOX - BLUE BOX", "address": {"city": "ROCKY HILL", "state": "KY", "street": "1793 ROCKY HILL RD", "postcode": "42163"}}},
{"geometry": {"type": "Point", "coordinates": [-86.1872336292, 36.7528981253]}, "type": "Feature", "properties": {"collection_times": [{"days": "Mon-Fri", "time": "4:25pm"}, {"days": "Sat", "time": "3:30pm"}, {"days": "Sun", "time": "Closed"}], "id": "4216400001", "name": "USPS COLLECTION BOX - BLUE BOX", "address": {"city": "SCOTTSVILLE", "state": "KY", "street": "405 E MAIN ST", "postcode": "42164"}}},
{"geometry": {"type": "Point", "coordinates": [-86.1916990439, 36.7534305145]}, "type": "Feature", "properties": {"collection_times": [{"days": "Mon-Sat", "time": "9:00am"}, {"days": "Sun", "time": "Closed"}], "id": "4216400006", "name": "USPS COLLECTION BOX - BLUE BOX", "address": {"city": "SCOTTSVILLE", "state": "KY", "street": "201 W MAIN ST", "postcode": "42164"}}},
{"geometry": {"type": "Point", "coordinates": [-86.1872336292, 36.7528981253]}, "type": "Feature", "properties": {"collection_times": [{"days": "Mon-Fri", "time": "4:25pm"}, {"days": "Sat", "time": "3:30pm"}, {"days": "Sun", "time": "Closed"}], "id": "4216400009", "name": "USPS COLLECTION BOX - PO LOBBY", "address": {"city": "SCOTTSVILLE", "state": "KY", "street": "405 E MAIN ST", "postcode": "42164"}}},
{"geometry": {"type": "Point", "coordinates": [-85.7015855082, 36.8839869066]}, "type": "Feature", "properties": {"collection_times": [{"days": "Mon-Fri", "time": "3:45pm"}, {"days": "Sat", "time": "9:45am"}, {"days": "Sun", "time": "Closed"}], "id": "4216600000", "name": "USPS COLLECTION BOX - BLUE BOX", "address": {"city": "SUMMER SHADE", "state": "KY", "street": "2653 SUMMER SHADE RD", "postcode": "42166"}}},
{"geometry": {"type": "Point", "coordinates": [-85.7015855082, 36.8839869066]}, "type": "Feature", "properties": {"collection_times": [{"days": "Mon-Fri", "time": "3:45pm"}, {"days": "Sat", "time": "9:45am"}, {"days": "Sun", "time": "Closed"}], "id": "4216600001", "name": "USPS COLLECTION BOX - PO LOBBY", "address": {"city": "SUMMER SHADE", "state": "KY", "street": "2653 SUMMER SHADE RD", "postcode": "42166"}}},
{"geometry": {"type": "Point", "coordinates": [-85.6889856612, 36.710259512]}, "type": "Feature", "properties": {"collection_times": [{"days": "Mon-Fri", "time": "3:00pm"}, {"days": "Sat", "time": "12:00pm"}, {"days": "Sun", "time": "Closed"}], "id": "4216700000", "name": "USPS COLLECTION BOX - BLUE BOX", "address": {"city": "TOMPKINSVILLE", "state": "KY", "street": "203 W PAIGE ST", "postcode": "42167"}}},
{"geometry": {"type": "Point", "coordinates": [-85.6922375564, 36.7014258078]}, "type": "Feature", "properties": {"collection_times": [{"days": "Mon-Sat", "time": "9:00am"}, {"days": "Sun", "time": "Closed"}], "id": "4216700002", "name": "USPS COLLECTION BOX - BLUE BOX", "address": {"city": "TOMPKINSVILLE", "state": "KY", "street": "301 N MAIN ST", "postcode": "42167"}}},
{"geometry": {"type": "Point", "coordinates": [-85.6884474776, 36.705843691]}, "type": "Feature", "properties": {"collection_times": [{"days": "Mon-Sat", "time": "9:00am"}, {"days": "Sun", "time": "Closed"}], "id": "4216700006", "name": "USPS COLLECTION BOX - BLUE BOX", "address": {"city": "TOMPKINSVILLE", "state": "KY", "street": "704 N MAIN ST", "postcode": "42167"}}},
{"geometry": {"type": "Point", "coordinates": [-85.6889856612, 36.710259512]}, "type": "Feature", "properties": {"collection_times": [{"days": "Mon-Fri", "time": "3:00pm"}, {"days": "Sat", "time": "12:00pm"}, {"days": "Sun", "time": "Closed"}], "id": "4216700010", "name": "USPS COLLECTION BOX - PO LOBBY", "address": {"city": "TOMPKINSVILLE", "state": "KY", "street": "203 W PAIGE ST", "postcode": "42167"}}},
{"geometry": {"type": "Point", "coordinates": [-85.6889856612, 36.710259512]}, "type": "Feature", "properties": {"collection_times": [{"days": "Mon-Fri", "time": "3:00pm"}, {"days": "Sat", "time": "12:00pm"}, {"days": "Sun", "time": "Closed"}], "id": "4216700011", "name": "USPS COLLECTION BOX - PO LOBBY", "address": {"city": "TOMPKINSVILLE", "state": "KY", "street": "203 W PAIGE ST", "postcode": "42167"}}},
{"geometry": {"type": "Point", "coordinates": [-86.530041949, 36.8405460082]}, "type": "Feature", "properties": {"collection_times": [{"days": "Mon-Fri", "time": "3:30pm"}, {"days": "Sat", "time": "9:00am"}, {"days": "Sun", "time": "Closed"}], "id": "4217000000", "name": "USPS COLLECTION BOX - BLUE BOX", "address": {"city": "WOODBURN", "state": "KY", "street": "250 CLARK ST", "postcode": "42170"}}},
{"geometry": {"type": "Point", "coordinates": [-86.530041949, 36.8405460082]}, "type": "Feature", "properties": {"collection_times": [{"days": "Mon-Fri", "time": "3:30pm"}, {"days": "Sat", "time": "9:00am"}, {"days": "Sun", "time": "Closed"}], "id": "4217000001", "name": "USPS COLLECTION BOX - PO LOBBY", "address": {"city": "WOODBURN", "state": "KY", "street": "250 CLARK ST", "postcode": "42170"}}},
{"geometry": {"type": "Point", "coordinates": [-86.2081496767, 37.0524392814]}, "type": "Feature", "properties": {"collection_times": [{"days": "Mon-Fri", "time": "3:45pm"}, {"days": "Sat", "time": "10:00am"}, {"days": "Sun", "time": "Closed"}], "id": "4217100001", "name": "USPS COLLECTION BOX - BLUE BOX", "address": {"city": "SMITHS GROVE", "state": "KY", "street": "117 W 1ST ST", "postcode": "42171"}}},
{"geometry": {"type": "Point", "coordinates": [-86.2081496767, 37.0524392814]}, "type": "Feature", "properties": {"collection_times": [{"days": "Mon-Fri", "time": "3:45pm"}, {"days": "Sat", "time": "10:00am"}, {"days": "Sun", "time": "Closed"}], "id": "4217100007", "name": "USPS COLLECTION BOX - PO LOBBY", "address": {"city": "SMITHS GROVE", "state": "KY", "street": "117 W 1ST ST", "postcode": "42171"}}}
]}
