{"type": "FeatureCollection", "features": [
{"geometry": {"type": "Point", "coordinates": [-86.681719204, 37.2540421809]}, "type": "Feature", "properties": {"collection_times": [{"days": "Mon-Fri", "time": "1:00pm"}, {"days": "Sat", "time": "11:30am"}, {"days": "Sun", "time": "Closed"}], "id": "4220100000", "name": "USPS COLLECTION BOX - BLUE BOX", "address": {"city": "ABERDEEN", "state": "KY", "street": "2072 BEAVER DAM RD", "postcode": "42201"}}},
{"geometry": {"type": "Point", "coordinates": [-86.681719204, 37.2540421809]}, "type": "Feature", "properties": {"collection_times": [{"days": "Mon-Fri", "time": "1:00pm"}, {"days": "Sat", "time": "11:30am"}, {"days": "Sun", "time": "Closed"}], "id": "4220100001", "name": "USPS COLLECTION BOX - PO LOBBY", "address": {"city": "ABERDEEN", "state": "KY", "street": "2072 BEAVER DAM RD", "postcode": "42201"}}},
{"geometry": {"type": "Point", "coordinates": [-86.8513539046, 36.6674774642]}, "type": "Feature", "properties": {"collection_times": [{"days": "Mon-Fri", "time": "2:00pm"}, {"days": "Sat", "time": "11:15am"}, {"days": "Sun", "time": "Closed"}], "id": "4220200000", "name": "USPS COLLECTION BOX - BLUE BOX", "address": {"city": "ADAIRVILLE", "state": "KY", "street": "300 S EWING ST", "postcode": "42202"}}},
{"geometry": {"type": "Point", "coordinates": [-86.8513539046, 36.6674774642]}, "type": "Feature", "properties": {"collection_times": [{"days": "Mon-Fri", "time": "2:00pm"}, {"days": "Sat", "time": "11:15am"}, {"days": "Sun", "time": "Closed"}], "id": "4220200001", "name": "USPS COLLECTION BOX - PO LOBBY", "address": {"city": "ADAIRVILLE", "state": "KY", "street": "300 S EWING ST", "postcode": "42202"}}},
{"geometry": {"type": "Point", "coordinates": [-87.0678892496, 36.6952131928]}, "type": "Feature", "properties": {"collection_times": [{"days": "Mon-Sat", "time": "1:15pm"}, {"days": "Sun", "time": "Closed"}], "id": "4220400000", "name": "USPS COLLECTION BOX - BLUE BOX", "address": {"city": "ALLENSVILLE", "state": "KY", "street": "8738 ALLENSVILLE RD", "postcode": "42204"}}},
{"geometry": {"type": "Point", "coordinates": [-87.0678892496, 36.6952131928]}, "type": "Feature", "properties": {"collection_times": [{"days": "Mon-Sat", "time": "1:15pm"}, {"days": "Sun", "time": "Closed"}], "id": "4220400001", "name": "USPS COLLECTION BOX - PO LOBBY", "address": {"city": "ALLENSVILLE", "state": "KY", "street": "8738 ALLENSVILLE RD", "postcode": "42204"}}},
{"geometry": {"type": "Point", "coordinates": [-86.7116392484, 36.8626201761]}, "type": "Feature", "properties": {"collection_times": [{"days": "Mon-Fri", "time": "4:00pm"}, {"days": "Sat", "time": "10:00am"}, {"days": "Sun", "time": "Closed"}], "id": "4220600005", "name": "USPS COLLECTION BOX - PO LOBBY", "address": {"city": "AUBURN", "state": "KY", "street": "309 W MAIN ST", "postcode": "42206"}}},
{"geometry": {"type": "Point", "coordinates": [-86.2822257951, 37.2675089458]}, "type": "Feature", "properties": {"collection_times": [{"days": "Mon-Fri", "time": "12:00pm"}, {"days": "Sat", "time": "11:00am"}, {"days": "Sun", "time": "Closed"}], "id": "4220700000", "name": "USPS COLLECTION BOX - BLUE BOX", "address": {"city": "BEE SPRING", "state": "KY", "street": "7535 KY HIGHWAY 259 N", "postcode": "42207"}}},
{"geometry": {"type": "Point", "coordinates": [-86.2822257951, 37.2675089458]}, "type": "Feature", "properties": {"collection_times": [{"days": "Mon-Fri", "time": "12:00pm"}, {"days": "Sat", "time": "11:00am"}, {"days": "Sun", "time": "Closed"}], "id": "4220700001", "name": "USPS COLLECTION BOX - PO LOBBY", "address": {"city": "BEE SPRING", "state": "KY", "street": "7535 KY HIGHWAY 259 N", "postcode": "42207"}}},
{"geometry": {"type": "Point", "coordinates": [-86.2629792687, 37.1902810958]}, "type": "Feature", "properties": {"collection_times": [{"days": "Mon-Fri", "time": "3:45pm"}, {"days": "Sat", "time": "10:30am"}, {"days": "Sun", "time": "Closed"}], "id": "4221000001", "name": "USPS COLLECTION BOX - BLUE BOX", "address": {"city": "BROWNSVILLE", "state": "KY", "street": "535 S MAIN ST", "postcode": "42210"}}},
{"geometry": {"type": "Point", "coordinates": [-86.2629792687, 37.1902810958]}, "type": "Feature", "properties": {"collection_times": [{"days": "Mon-Fri", "time": "3:45pm"}, {"days": "Sat", "time": "10:30am"}, {"days": "Sun", "time": "Closed"}], "id": "4221000004", "name": "USPS COLLECTION BOX - PO LOBBY", "address": {"city": "BROWNSVILLE", "state": "KY", "street": "535 S MAIN ST", "postcode": "42210"}}},
{"geometry": {"type": "Point", "coordinates": [-87.8121091035, 36.8670088105]}, "type": "Feature", "properties": {"collection_times": [{"days": "Mon-Sat", "time": "4:00pm"}, {"days": "Sun", "time": "Closed"}], "id": "4221100000", "name": "USPS COLLECTION BOX - BLUE BOX", "address": {"city": "CADIZ", "state": "KY", "street": "72 LAKOTA DR", "postcode": "42211"}}},
{"geometry": {"type": "Point", "coordinates": [-87.8121091035, 36.8670088105]}, "type": "Feature", "properties": {"collection_times": [{"days": "Mon-Sat", "time": "4:00pm"}, {"days": "Sun", "time": "Closed"}], "id": "4221100001", "name": "USPS COLLECTION BOX - BLUE BOX", "address": {"city": "CADIZ", "state": "KY", "street": "72 LAKOTA DR", "postcode": "42211"}}},
{"geometry": {"type": "Point", "coordinates": [-87.8121091035, 36.8670088105]}, "type": "Feature", "properties": {"collection_times": [{"days": "Mon-Sat", "time": "4:00pm"}, {"days": "Sun", "time": "Closed"}], "id": "4221100003", "name": "USPS COLLECTION BOX - PO LOBBY", "address": {"city": "CADIZ", "state": "KY", "street": "72 LAKOTA DR", "postcode": "42211"}}},
{"geometry": {"type": "Point", "coordinates": [-87.8121091035, 36.8670088105]}, "type": "Feature", "properties": {"collection_times": [{"days": "Mon-Sat", "time": "4:00pm"}, {"days": "Sun", "time": "Closed"}], "id": "4221100005", "name": "USPS COLLECTION BOX - PO LOBBY", "address": {"city": "CADIZ", "state": "KY", "street": "72 LAKOTA DR", "postcode": "42211"}}},
{"geometry": {"type": "Point", "coordinates": [-85.6949277845, 37.1414497879]}, "type": "Feature", "properties": {"collection_times": [{"days": "Mon-Fri", "time": "10:30am"}, {"days": "Sat", "time": "10:00am"}, {"days": "Sun", "time": "Closed"}], "id": "4221400000", "name": "USPS COLLECTION BOX - BLUE BOX", "address": {"city": "CENTER", "state": "KY", "street": "102 MAIN ST", "postcode": "42214"}}},
{"geometry": {"type": "Point", "coordinates": [-85.6949277845, 37.1414497879]}, "type": "Feature", "properties": {"collection_times": [{"days": "Mon-Fri", "time": "10:30am"}, {"days": "Sat", "time": "10:00am"}, {"days": "Sun", "time": "Closed"}], "id": "4221400001", "name": "USPS COLLECTION BOX - PO LOBBY", "address": {"city": "CENTER", "state": "KY", "street": "102 MAIN ST", "postcode": "42214"}}},
{"geometry": {"type": "Point", "coordinates": [-87.7090596243, 36.9618669958]}, "type": "Feature", "properties": {"collection_times": [{"days": "Mon-Fri", "time": "1:45pm"}, {"days": "Sat", "time": "11:45am"}, {"days": "Sun", "time": "Closed"}], "id": "4221500000", "name": "USPS COLLECTION BOX - BLUE BOX", "address": {"city": "CERULEAN", "state": "KY", "street": "417 MAIN ST", "postcode": "42215"}}},
{"geometry": {"type": "Point", "coordinates": [-87.7090596243, 36.9618669958]}, "type": "Feature", "properties": {"collection_times": [{"days": "Mon-Fri", "time": "1:45pm"}, {"days": "Sat", "time": "11:45am"}, {"days": "Sun", "time": "Closed"}], "id": "4221500001", "name": "USPS COLLECTION BOX - PO LOBBY", "address": {"city": "CERULEAN", "state": "KY", "street": "417 MAIN ST", "postcode": "42215"}}},
{"geometry": {"type": "Point", "coordinates": [-87.1539909837, 36.8098934197]}, "type": "Feature", "properties": {"collection_times": [{"days": "Mon-Sat", "time": "10:00am"}, {"days": "Sun", "time": "Closed"}], "id": "4221600000", "name": "USPS COLLECTION BOX - BLUE BOX", "address": {"city": "CLIFTY", "state": "KY", "street": "13290 GREENVILLE RD", "postcode": "42216"}}},
{"geometry": {"type": "Point", "coordinates": [-87.1539909837, 36.8098934197]}, "type": "Feature", "properties": {"collection_times": [{"days": "Mon-Sat", "time": "10:00am"}, {"days": "Sun", "time": "Closed"}], "id": "4221600001", "name": "USPS COLLECTION BOX - PO LOBBY", "address": {"city": "CLIFTY", "state": "KY", "street": "13290 GREENVILLE RD", "postcode": "42216"}}},
{"geometry": {"type": "Point", "coordinates": [-87.4868461145, 37.0475687708]}, "type": "Feature", "properties": {"collection_times": [{"days": "Mon-Fri", "time": "3:45pm"}, {"days": "Sat", "time": "10:45am"}, {"days": "Sun", "time": "Closed"}], "id": "4221700000", "name": "USPS COLLECTION BOX - BLUE BOX", "address": {"city": "CROFTON", "state": "KY", "street": "112 S MADISONVILLE ST", "postcode": "42217"}}},
{"geometry": {"type": "Point", "coordinates": [-87.4868461145, 37.0475687708]}, "type": "Feature", "properties": {"collection_times": [{"days": "Mon-Fri", "time": "3:45pm"}, {"days": "Sat", "time": "10:45am"}, {"days": "Sun", "time": "Closed"}], "id": "4221700001", "name": "USPS COLLECTION BOX - PO LOBBY", "address": {"city": "CROFTON", "state": "KY", "street": "112 S MADISONVILLE ST", "postcode": "42217"}}},
{"geometry": {"type": "Point", "coordinates": [-87.4856364448, 37.0474276682]}, "type": "Feature", "properties": {"collection_times": [{"days": "Mon-Sat", "time": "11:00am"}, {"days": "Sun", "time": "Closed"}], "id": "4221700002", "name": "USPS COLLECTION BOX - BLUE BOX", "address": {"city": "CROFTON", "state": "KY", "street": "114 E MAIN ST", "postcode": "42217"}}},
{"geometry": {"type": "Point", "coordinates": [-86.7425018076, 37.1715371952]}, "type": "Feature", "properties": {"collection_times": [{"days": "Mon-Fri", "time": "10:45am"}, {"days": "Sat", "time": "9:00am"}, {"days": "Sun", "time": "Closed"}], "id": "4221900000", "name": "USPS COLLECTION BOX - BLUE BOX", "address": {"city": "DUNBAR", "state": "KY", "street": "4795 ROCHESTER RD", "postcode": "42219"}}},
{"geometry": {"type": "Point", "coordinates": [-87.154564365, 36.8095421481]}, "type": "Feature", "properties": {"collection_times": [{"days": "Mon-Fri", "time": "4:00pm"}, {"days": "Sat", "time": "11:00am"}, {"days": "Sun", "time": "Closed"}], "id": "4222000000", "name": "USPS COLLECTION BOX - BLUE BOX", "address": {"city": "ELKTON", "state": "KY", "street": "102 W MAIN ST", "postcode": "42220"}}},
{"geometry": {"type": "Point", "coordinates": [-87.154564365, 36.8095421481]}, "type": "Feature", "properties": {"collection_times": [{"days": "Mon-Fri", "time": "4:00pm"}, {"days": "Sat", "time": "11:00am"}, {"days": "Sun", "time": "Closed"}], "id": "4222000002", "name": "USPS COLLECTION BOX - PO LOBBY", "address": {"city": "ELKTON", "state": "KY", "street": "102 W MAIN ST", "postcode": "42220"}}},
{"geometry": {"type": "Point", "coordinates": [-87.3002693255, 36.8423782482]}, "type": "Feature", "properties": {"collection_times": [{"days": "Mon-Sat", "time": "11:45am"}, {"days": "Sun", "time": "Closed"}], "id": "4222100000", "name": "USPS COLLECTION BOX - BLUE BOX", "address": {"city": "FAIRVIEW", "state": "KY", "street": "8489 JEFFERSON DAVIS HWY", "postcode": "42221"}}},
{"geometry": {"type": "Point", "coordinates": [-87.3002693255, 36.8423782482]}, "type": "Feature", "properties": {"collection_times": [{"days": "Mon-Sat", "time": "11:45am"}, {"days": "Sun", "time": "Closed"}], "id": "4222100001", "name": "USPS COLLECTION BOX - PO LOBBY", "address": {"city": "FAIRVIEW", "state": "KY", "street": "8489 JEFFERSON DAVIS HWY", "postcode": "42221"}}},
{"geometry": {"type": "Point", "coordinates": [-87.4619682135, 36.6545526313]}, "type": "Feature", "properties": {"collection_times": [{"days": "Mon-Fri", "time": "4:00pm"}, {"days": "Sat", "time": "3:00pm"}, {"days": "Sun", "time": "Closed"}], "id": "4222300000", "name": "USPS COLLECTION BOX - BLUE BOX", "address": {"city": "FORT CAMPBELL", "state": "KY", "street": "91 MICHIGAN AVE", "postcode": "42223"}}},
{"geometry": {"type": "Point", "coordinates": [-87.4529703824, 36.6621538518]}, "type": "Feature", "properties": {"collection_times": [{"days": "Mon-Fri", "time": "12:30pm"}, {"days": "Sat", "time": "11:00am"}, {"days": "Sun", "time": "Closed"}], "id": "4222300002", "name": "USPS COLLECTION BOX - BLUE BOX", "address": {"city": "FORT CAMPBELL", "state": "KY", "street": "4190 MORGAN RD", "postcode": "42223"}}},
{"geometry": {"type": "Point", "coordinates": [-87.4619682135, 36.6545526313]}, "type": "Feature", "properties": {"collection_times": [{"days": "Mon-Fri", "time": "12:30pm"}, {"days": "Sat", "time": "11:00am"}, {"days": "Sun", "time": "Closed"}], "id": "4222300003", "name": "USPS COLLECTION BOX - BLUE BOX", "address": {"city": "FORT CAMPBELL", "state": "KY", "street": "6989 SCREAMING EAGLE BLVD", "postcode": "42223"}}},
{"geometry": {"type": "Point", "coordinates": [-87.454892815, 36.6236766734]}, "type": "Feature", "properties": {"collection_times": [{"days": "Mon-Fri", "time": "12:30pm"}, {"days": "Sat", "time": "11:00am"}, {"days": "Sun", "time": "Closed"}], "id": "4222300004", "name": "USPS COLLECTION BOX - BLUE BOX", "address": {"city": "FORT CAMPBELL", "state": "KY", "street": "2129 AIRBORNE ST", "postcode": "42223"}}},
{"geometry": {"type": "Point", "coordinates": [-87.4531992747, 36.6432301072]}, "type": "Feature", "properties": {"collection_times": [{"days": "Mon-Fri", "time": "12:30pm"}, {"days": "Sat", "time": "11:30am"}, {"days": "Sun", "time": "Closed"}], "id": "4222300006", "name": "USPS COLLECTION BOX - BLUE BOX", "address": {"city": "FORT CAMPBELL", "state": "KY", "street": "96 MICHIGAN AVE", "postcode": "42223"}}},
{"geometry": {"type": "Point", "coordinates": [-87.4619682135, 36.6545526313]}, "type": "Feature", "properties": {"collection_times": [{"days": "Mon-Fri", "time": "12:30pm"}, {"days": "Sat", "time": "11:30am"}, {"days": "Sun", "time": "Closed"}], "id": "4222300015", "name": "USPS COLLECTION BOX - BLUE BOX", "address": {"city": "FORT CAMPBELL", "state": "KY", "street": "2840 BASTOGNE AVE", "postcode": "42223"}}},
{"geometry": {"type": "Point", "coordinates": [-87.5008600159, 36.6626716767]}, "type": "Feature", "properties": {"collection_times": [{"days": "Mon-Fri", "time": "12:30pm"}, {"days": "Sat", "time": "11:00am"}, {"days": "Sun", "time": "Closed"}], "id": "4222300017", "name": "USPS COLLECTION BOX - BLUE BOX", "address": {"city": "FORT CAMPBELL", "state": "KY", "street": "71001 MARKET GARDEN RD", "postcode": "42223"}}},
{"geometry": {"type": "Point", "coordinates": [-87.4378338027, 36.6026238968]}, "type": "Feature", "properties": {"collection_times": [{"days": "Mon-Sat", "time": "10:00am"}, {"days": "Sun", "time": "Closed"}], "id": "4222300018", "name": "USPS COLLECTION BOX - BLUE BOX", "address": {"city": "FORT CAMPBELL", "state": "KY", "street": "7455 MCAULIFFE LOOP", "postcode": "42223"}}},
{"geometry": {"type": "Point", "coordinates": [-87.5008600159, 36.6626716767]}, "type": "Feature", "properties": {"collection_times": [{"days": "Mon-Sat", "time": "10:30am"}, {"days": "Sun", "time": "Closed"}], "id": "4222300022", "name": "USPS COLLECTION BOX - BLUE BOX", "address": {"city": "FORT CAMPBELL", "state": "KY", "street": "1739 STRIKER BLVD", "postcode": "42223"}}},
{"geometry": {"type": "Point", "coordinates": [-87.4619682135, 36.6545526313]}, "type": "Feature", "properties": {"collection_times": [{"days": "Mon-Fri", "time": "4:00pm"}, {"days": "Sat", "time": "3:00pm"}, {"days": "Sun", "time": "Closed"}], "id": "4222300023", "name": "USPS COLLECTION BOX - PO LOBBY", "address": {"city": "FORT CAMPBELL", "state": "KY", "street": "91 MICHIGAN AVE", "postcode": "42223"}}},
{"geometry": {"type": "Point", "coordinates": [-87.6632151469, 36.8762606037]}, "type": "Feature", "properties": {"collection_times": [{"days": "Mon-Fri", "time": "12:45pm"}, {"days": "Sat", "time": "12:15pm"}, {"days": "Sun", "time": "Closed"}], "id": "4223200000", "name": "USPS COLLECTION BOX - BLUE BOX", "address": {"city": "GRACEY", "state": "KY", "street": "10600 TOBACCO RD", "postcode": "42232"}}},
{"geometry": {"type": "Point", "coordinates": [-87.6632151469, 36.8762606037]}, "type": "Feature", "properties": {"collection_times": [{"days": "Mon-Fri", "time": "12:45pm"}, {"days": "Sat", "time": "12:15pm"}, {"days": "Sun", "time": "Closed"}], "id": "4223200001", "name": "USPS COLLECTION BOX - PO LOBBY", "address": {"city": "GRACEY", "state": "KY", "street": "10600 TOBACCO RD", "postcode": "42232"}}},
{"geometry": {"type": "Point", "coordinates": [-87.1691039113, 36.648437067]}, "type": "Feature", "properties": {"collection_times": [{"days": "Mon-Fri", "time": "3:30pm"}, {"days": "Sat", "time": "11:00am"}, {"days": "Sun", "time": "Closed"}], "id": "4223400000", "name": "USPS COLLECTION BOX - BLUE BOX", "address": {"city": "GUTHRIE", "state": "KY", "street": "202 W PARK ST", "postcode": "42234"}}},
{"geometry": {"type": "Point", "coordinates": [-87.1691039113, 36.648437067]}, "type": "Feature", "properties": {"collection_times": [{"days": "Mon-Fri", "time": "3:30pm"}, {"days": "Sat", "time": "11:00am"}, {"days": "Sun", "time": "Closed"}], "id": "4223400001", "name": "USPS COLLECTION BOX - PO LOBBY", "address": {"city": "GUTHRIE", "state": "KY", "street": "202 W PARK ST", "postcode": "42234"}}},
{"geometry": {"type": "Point", "coordinates": [-87.5644282503, 36.73496677]}, "type": "Feature", "properties": {"collection_times": [{"days": "Mon-Fri", "time": "12:45pm"}, {"days": "Sat", "time": "10:45am"}, {"days": "Sun", "time": "Closed"}], "id": "4223600000", "name": "USPS COLLECTION BOX - BLUE BOX", "address": {"city": "HERNDON", "state": "KY", "street": "10825 LAFAYETTE RD", "postcode": "42236"}}},
{"geometry": {"type": "Point", "coordinates": [-87.5644282503, 36.73496677]}, "type": "Feature", "properties": {"collection_times": [{"days": "Mon-Fri", "time": "12:45pm"}, {"days": "Sat", "time": "10:45am"}, {"days": "Sun", "time": "Closed"}], "id": "4223600001", "name": "USPS COLLECTION BOX - PO LOBBY", "address": {"city": "HERNDON", "state": "KY", "street": "10825 LAFAYETTE RD", "postcode": "42236"}}},
{"geometry": {"type": "Point", "coordinates": [-87.4879538614, 36.866998035]}, "type": "Feature", "properties": {"collection_times": [{"days": "Mon-Sat", "time": "2:00pm"}, {"days": "Sun", "time": "Closed"}], "id": "4224000006", "name": "USPS COLLECTION BOX - BLUE BOX", "address": {"city": "HOPKINSVILLE", "state": "KY", "street": "511 S MAIN ST", "postcode": "42240"}}},
{"geometry": {"type": "Point", "coordinates": [-87.5147204919, 36.8605157243]}, "type": "Feature", "properties": {"collection_times": [{"days": "Mon-Sat", "time": "2:00pm"}, {"days": "Sun", "time": "Closed"}], "id": "4224000019", "name": "USPS COLLECTION BOX - BLUE BOX", "address": {"city": "HOPKINSVILLE", "state": "KY", "street": "3103 CANTON PIKE", "postcode": "42240"}}},
{"geometry": {"type": "Point", "coordinates": [-87.4996095561, 36.8391085944]}, "type": "Feature", "properties": {"collection_times": [{"days": "Mon-Sat", "time": "9:30am"}, {"days": "Sun", "time": "Closed"}], "id": "4224000022", "name": "USPS COLLECTION BOX - BLUE BOX", "address": {"city": "HOPKINSVILLE", "state": "KY", "street": "3231 LAFAYETTE RD", "postcode": "42240"}}},
{"geometry": {"type": "Point", "coordinates": [-87.4917913803, 36.86134704]}, "type": "Feature", "properties": {"collection_times": [{"days": "Mon-Sat", "time": "2:00pm"}, {"days": "Sun", "time": "Closed"}], "id": "4224000029", "name": "USPS COLLECTION BOX - BLUE BOX", "address": {"city": "HOPKINSVILLE", "state": "KY", "street": "1611 S MAIN ST", "postcode": "42240"}}},
{"geometry": {"type": "Point", "coordinates": [-87.4892750205, 36.8649406967]}, "type": "Feature", "properties": {"collection_times": [{"days": "Mon-Sat", "time": "2:00pm"}, {"days": "Sun", "time": "Closed"}], "id": "4224000037", "name": "USPS COLLECTION BOX - BLUE BOX", "address": {"city": "HOPKINSVILLE", "state": "KY", "street": "1012 S MAIN ST", "postcode": "42240"}}},
{"geometry": {"type": "Point", "coordinates": [-87.4748135532, 36.8351894514]}, "type": "Feature", "properties": {"collection_times": [{"days": "Mon-Sat", "time": "10:00am"}, {"days": "Sun", "time": "Closed"}], "id": "4224000038", "name": "USPS COLLECTION BOX - BLUE BOX", "address": {"city": "HOPKINSVILLE", "state": "KY", "street": "4000 FORT CAMPBELL BLVD", "postcode": "42240"}}},
{"geometry": {"type": "Point", "coordinates": [-87.483185574, 36.84124293]}, "type": "Feature", "properties": {"collection_times": [{"days": "Mon-Sat", "time": "2:00pm"}, {"days": "Sun", "time": "Closed"}], "id": "4224000041", "name": "USPS COLLECTION BOX - BLUE BOX", "address": {"city": "HOPKINSVILLE", "state": "KY", "street": "2709 FORT CAMPBELL BLVD", "postcode": "42240"}}},
{"geometry": {"type": "Point", "coordinates": [-87.4943360332, 36.8614904152]}, "type": "Feature", "properties": {"collection_times": [{"days": "Mon-Sat", "time": "9:30am"}, {"days": "Sun", "time": "Closed"}], "id": "4224000049", "name": "USPS COLLECTION BOX - BLUE BOX", "address": {"city": "HOPKINSVILLE", "state": "KY", "street": "1717 HIGH ST", "postcode": "42240"}}},
{"geometry": {"type": "Point", "coordinates": [-87.4711179894, 36.8309473605]}, "type": "Feature", "properties": {"collection_times": [{"days": "Mon-Sat", "time": "10:00am"}, {"days": "Sun", "time": "Closed"}], "id": "4224000052", "name": "USPS COLLECTION BOX - BLUE BOX", "address": {"city": "HOPKINSVILLE", "state": "KY", "street": "300 CLINIC DR", "postcode": "42240"}}},
{"geometry": {"type": "Point", "coordinates": [-87.4643987825, 36.8461696765]}, "type": "Feature", "properties": {"collection_times": [{"days": "Mon-Fri", "time": "12:00pm"}, {"days": "Sat", "time": "10:00am"}, {"days": "Sun", "time": "Closed"}], "id": "4224000053", "name": "USPS COLLECTION BOX - BLUE BOX", "address": {"city": "HOPKINSVILLE", "state": "KY", "street": "1820 E 9TH ST", "postcode": "42240"}}},
{"geometry": {"type": "Point", "coordinates": [-87.485911357, 36.8700265892]}, "type": "Feature", "properties": {"collection_times": [{"days": "Mon-Fri", "time": "5:00pm"}, {"days": "Sat", "time": "4:00pm"}, {"days": "Sun", "time": "Closed"}], "id": "4224000055", "name": "USPS COLLECTION BOX - BLUE BOX", "address": {"city": "HOPKINSVILLE", "state": "KY", "street": "105 S MAIN ST", "postcode": "42240"}}},
{"geometry": {"type": "Point", "coordinates": [-87.485911357, 36.8700265892]}, "type": "Feature", "properties": {"collection_times": [{"days": "Mon-Fri", "time": "5:00pm"}, {"days": "Sat", "time": "4:00pm"}, {"days": "Sun", "time": "Closed"}], "id": "4224000059", "name": "USPS COLLECTION BOX - PO LOBBY", "address": {"city": "HOPKINSVILLE", "state": "KY", "street": "105 S MAIN ST", "postcode": "42240"}}},
{"geometry": {"type": "Point", "coordinates": [-87.4962318032, 36.86155031]}, "type": "Feature", "properties": {"collection_times": [{"days": "Mon-Sat", "time": "10:00am"}, {"days": "Sun", "time": "Closed"}], "id": "4224000061", "name": "USPS COLLECTION BOX - BLUE BOX", "address": {"city": "HOPKINSVILLE", "state": "KY", "street": "1724 KENTON ST", "postcode": "42240"}}},
{"geometry": {"type": "Point", "coordinates": [-87.4730328764, 36.8282554257]}, "type": "Feature", "properties": {"collection_times": [{"days": "Mon-Sat", "time": "10:00am"}, {"days": "Sun", "time": "Closed"}], "id": "4224000063", "name": "USPS COLLECTION BOX - BLUE BOX", "address": {"city": "HOPKINSVILLE", "state": "KY", "street": "4044 FORT CAMPBELL BLVD", "postcode": "42240"}}},
{"geometry": {"type": "Point", "coordinates": [-87.4867406867, 36.8488231976]}, "type": "Feature", "properties": {"collection_times": [{"days": "Mon-Sat", "time": "2:00pm"}, {"days": "Sun", "time": "Closed"}], "id": "4224000064", "name": "USPS COLLECTION BOX - BLUE BOX", "address": {"city": "HOPKINSVILLE", "state": "KY", "street": "2311 FORT CAMPBELL BLVD", "postcode": "42240"}}},
{"geometry": {"type": "Point", "coordinates": [-87.4780145142, 36.8415627718]}, "type": "Feature", "properties": {"collection_times": [{"days": "Mon-Sat", "time": "10:00am"}, {"days": "Sun", "time": "Closed"}], "id": "4224000065", "name": "USPS COLLECTION BOX - BLUE BOX", "address": {"city": "HOPKINSVILLE", "state": "KY", "street": "1213 SKYLINE DR", "postcode": "42240"}}},
{"geometry": {"type": "Point", "coordinates": [-87.47327, 36.827187]}, "type": "Feature", "properties": {"collection_times": [{"days": "Mon-Sat", "time": "10:00am"}, {"days": "Sun", "time": "Closed"}], "id": "4224000067", "name": "USPS COLLECTION BOX - BLUE BOX", "address": {"city": "HOPKINSVILLE", "state": "KY", "street": "4124 FORT CAMPBELL BLVD", "postcode": "42240"}}},
{"geometry": {"type": "Point", "coordinates": [-87.499596, 36.871265]}, "type": "Feature", "properties": {"collection_times": [{"days": "Mon-Sat", "time": "10:00am"}, {"days": "Sun", "time": "Closed"}], "id": "4224000068", "name": "USPS COLLECTION BOX - BLUE BOX", "address": {"city": "HOPKINSVILLE", "state": "KY", "street": "1100A W 7TH ST", "postcode": "42240"}}},
{"geometry": {"type": "Point", "coordinates": [-86.5131918751, 37.25228069]}, "type": "Feature", "properties": {"collection_times": [{"days": "Mon-Sat", "time": "11:00am"}, {"days": "Sun", "time": "Closed"}], "id": "4225200000", "name": "USPS COLLECTION BOX - BLUE BOX", "address": {"city": "JETSON", "state": "KY", "street": "10236 BROWNSVILLE RD", "postcode": "42252"}}},
{"geometry": {"type": "Point", "coordinates": [-86.5131918751, 37.25228069]}, "type": "Feature", "properties": {"collection_times": [{"days": "Mon-Sat", "time": "11:00am"}, {"days": "Sun", "time": "Closed"}], "id": "4225200001", "name": "USPS COLLECTION BOX - PO LOBBY", "address": {"city": "JETSON", "state": "KY", "street": "10236 BROWNSVILLE RD", "postcode": "42252"}}},
{"geometry": {"type": "Point", "coordinates": [-87.6652275708, 36.670051266]}, "type": "Feature", "properties": {"collection_times": [{"days": "Mon-Fri", "time": "2:00pm"}, {"days": "Sat", "time": "10:15am"}, {"days": "Sun", "time": "Closed"}], "id": "4225400002", "name": "USPS COLLECTION BOX - BLUE BOX", "address": {"city": "LAFAYETTE", "state": "KY", "street": "101 N MAIN ST", "postcode": "42254"}}},
{"geometry": {"type": "Point", "coordinates": [-86.9504902093, 36.9851201196]}, "type": "Feature", "properties": {"collection_times": [{"days": "Mon-Fri", "time": "3:45pm"}, {"days": "Sat", "time": "9:45am"}, {"days": "Sun", "time": "Closed"}], "id": "4225600001", "name": "USPS COLLECTION BOX - BLUE BOX", "address": {"city": "LEWISBURG", "state": "KY", "street": "182 S 3RD ST", "postcode": "42256"}}},
{"geometry": {"type": "Point", "coordinates": [-86.9504902093, 36.9851201196]}, "type": "Feature", "properties": {"collection_times": [{"days": "Mon-Fri", "time": "3:45pm"}, {"days": "Sat", "time": "9:45am"}, {"days": "Sun", "time": "Closed"}], "id": "4225600002", "name": "USPS COLLECTION BOX - PO LOBBY", "address": {"city": "LEWISBURG", "state": "KY", "street": "182 S 3RD ST", "postcode": "42256"}}},
{"geometry": {"type": "Point", "coordinates": [-86.0648953358, 37.1291080349]}, "type": "Feature", "properties": {"collection_times": [{"days": "Mon-Sat", "time": "1:00pm"}, {"days": "Sun", "time": "Closed"}], "id": "4225900000", "name": "USPS COLLECTION BOX - BLUE BOX", "address": {"city": "MAMMOTH CAVE", "state": "KY", "street": "2811 ENTRANCE RD", "postcode": "42259"}}},
{"geometry": {"type": "Point", "coordinates": [-86.6847551063, 37.2243269018]}, "type": "Feature", "properties": {"collection_times": [{"days": "Mon-Fri", "time": "4:15pm"}, {"days": "Sat", "time": "1:00pm"}, {"days": "Sun", "time": "Closed"}], "id": "4226100001", "name": "USPS COLLECTION BOX - BLUE BOX", "address": {"city": "MORGANTOWN", "state": "KY", "street": "208 S MAIN ST", "postcode": "42261"}}},
{"geometry": {"type": "Point", "coordinates": [-86.6847551063, 37.2243269018]}, "type": "Feature", "properties": {"collection_times": [{"days": "Mon-Fri", "time": "4:15pm"}, {"days": "Sat", "time": "1:00pm"}, {"days": "Sun", "time": "Closed"}], "id": "4226100005", "name": "USPS COLLECTION BOX - PO LOBBY", "address": {"city": "MORGANTOWN", "state": "KY", "street": "208 S MAIN ST", "postcode": "42261"}}},
{"geometry": {"type": "Point", "coordinates": [-87.4425421679, 36.6622170158]}, "type": "Feature", "properties": {"collection_times": [{"days": "Mon-Fri", "time": "3:45pm"}, {"days": "Sat", "time": "12:00pm"}, {"days": "Sun", "time": "Closed"}], "id": "4226200000", "name": "USPS COLLECTION BOX - PO LOBBY", "address": {"city": "OAK GROVE", "state": "KY", "street": "15124 FORT CAMPBELL BLVD", "postcode": "42262"}}},
{"geometry": {"type": "Point", "coordinates": [-87.4547197651, 36.6965138738]}, "type": "Feature", "properties": {"collection_times": [{"days": "Mon-Sat", "time": "11:30am"}, {"days": "Sun", "time": "Closed"}], "id": "4226200001", "name": "USPS COLLECTION BOX - BLUE BOX", "address": {"city": "OAK GROVE", "state": "KY", "street": "18750 HERNDON OAK GROVE RD", "postcode": "42262"}}},
{"geometry": {"type": "Point", "coordinates": [-87.4528341756, 36.6919212911]}, "type": "Feature", "properties": {"collection_times": [{"days": "Mon-Sat", "time": "10:00am"}, {"days": "Sun", "time": "Closed"}], "id": "4226200002", "name": "USPS COLLECTION BOX - BLUE BOX", "address": {"city": "OAK GROVE", "state": "KY", "street": "12900 FORT CAMPBELL BLVD", "postcode": "42262"}}},
{"geometry": {"type": "Point", "coordinates": [-87.4055879775, 36.6789797201]}, "type": "Feature", "properties": {"collection_times": [{"days": "Mon-Sat", "time": "10:00am"}, {"days": "Sun", "time": "Closed"}], "id": "4226200003", "name": "USPS COLLECTION BOX - BLUE BOX", "address": {"city": "OAK GROVE", "state": "KY", "street": "8190 PEMBROKE OAK GROVE RD", "postcode": "42262"}}},
{"geometry": {"type": "Point", "coordinates": [-87.4425421679, 36.6622170158]}, "type": "Feature", "properties": {"collection_times": [{"days": "Mon-Fri", "time": "3:45pm"}, {"days": "Sat", "time": "12:00pm"}, {"days": "Sun", "time": "Closed"}], "id": "4226200004", "name": "USPS COLLECTION BOX - BLUE BOX", "address": {"city": "OAK GROVE", "state": "KY", "street": "15124 FORT CAMPBELL BLVD", "postcode": "42262"}}},
{"geometry": {"type": "Point", "coordinates": [-87.4435988341, 36.6662355442]}, "type": "Feature", "properties": {"collection_times": [{"days": "Mon-Sat", "time": "11:00am"}, {"days": "Sun", "time": "Closed"}], "id": "4226200005", "name": "USPS COLLECTION BOX - BLUE BOX", "address": {"city": "OAK GROVE", "state": "KY", "street": "14800 FORT CAMPBELL BLVD", "postcode": "42262"}}},
{"geometry": {"type": "Point", "coordinates": [-87.3560943861, 36.7759558493]}, "type": "Feature", "properties": {"collection_times": [{"days": "Mon-Fri", "time": "2:45pm"}, {"days": "Sat", "time": "11:45am"}, {"days": "Sun", "time": "Closed"}], "id": "4226600000", "name": "USPS COLLECTION BOX - BLUE BOX", "address": {"city": "PEMBROKE", "state": "KY", "street": "204 S MAIN ST", "postcode": "42266"}}},
{"geometry": {"type": "Point", "coordinates": [-87.3560943861, 36.7759558493]}, "type": "Feature", "properties": {"collection_times": [{"days": "Mon-Fri", "time": "2:45pm"}, {"days": "Sat", "time": "11:45am"}, {"days": "Sun", "time": "Closed"}], "id": "4226600001", "name": "USPS COLLECTION BOX - PO LOBBY", "address": {"city": "PEMBROKE", "state": "KY", "street": "204 S MAIN ST", "postcode": "42266"}}},
{"geometry": {"type": "Point", "coordinates": [-86.8928151436, 37.2123190842]}, "type": "Feature", "properties": {"collection_times": [{"days": "Mon-Fri", "time": "2:45pm"}, {"days": "Sat", "time": "9:30am"}, {"days": "Sun", "time": "Closed"}], "id": "4227300000", "name": "USPS COLLECTION BOX - BLUE BOX", "address": {"city": "ROCHESTER", "state": "KY", "street": "101 MAIN ST", "postcode": "42273"}}},
{"geometry": {"type": "Point", "coordinates": [-86.8928151436, 37.2123190842]}, "type": "Feature", "properties": {"collection_times": [{"days": "Mon-Fri", "time": "2:45pm"}, {"days": "Sat", "time": "9:30am"}, {"days": "Sun", "time": "Closed"}], "id": "4227300001", "name": "USPS COLLECTION BOX - PO LOBBY", "address": {"city": "ROCHESTER", "state": "KY", "street": "101 MAIN ST", "postcode": "42273"}}},
{"geometry": {"type": "Point", "coordinates": [-86.5675248332, 36.9134484783]}, "type": "Feature", "properties": {"collection_times": [{"days": "Mon-Fri", "time": "2:15pm"}, {"days": "Sat", "time": "11:30am"}, {"days": "Sun", "time": "Closed"}], "id": "4227400000", "name": "USPS COLLECTION BOX - BLUE BOX", "address": {"city": "ROCKFIELD", "state": "KY", "street": "135 RICHPOND ROCKFIELD RD", "postcode": "42274"}}},
{"geometry": {"type": "Point", "coordinates": [-86.5675248332, 36.9134484783]}, "type": "Feature", "properties": {"collection_times": [{"days": "Mon-Fri", "time": "2:15pm"}, {"days": "Sat", "time": "11:30am"}, {"days": "Sun", "time": "Closed"}], "id": "4227400001", "name": "USPS COLLECTION BOX - PO LOBBY", "address": {"city": "ROCKFIELD", "state": "KY", "street": "135 RICHPOND ROCKFIELD RD", "postcode": "42274"}}},
{"geometry": {"type": "Point", "coordinates": [-86.4293714085, 37.2360801532]}, "type": "Feature", "properties": {"collection_times": [{"days": "Mon-Fri", "time": "12:30pm"}, {"days": "Sat", "time": "11:00am"}, {"days": "Sun", "time": "Closed"}], "id": "4227500001", "name": "USPS COLLECTION BOX - BLUE BOX", "address": {"city": "ROUNDHILL", "state": "KY", "street": "31 REEDYVILLE RD", "postcode": "42275"}}},
{"geometry": {"type": "Point", "coordinates": [-86.8927777781, 36.8442178945]}, "type": "Feature", "properties": {"collection_times": [{"days": "Mon-Fri", "time": "4:00pm"}, {"days": "Sat", "time": "3:00pm"}, {"days": "Sun", "time": "Closed"}], "id": "4227600012", "name": "USPS COLLECTION BOX - BLUE BOX", "address": {"city": "RUSSELLVILLE", "state": "KY", "street": "205 W 4TH ST", "postcode": "42276"}}},
{"geometry": {"type": "Point", "coordinates": [-86.8927777781, 36.8442178945]}, "type": "Feature", "properties": {"collection_times": [{"days": "Mon-Fri", "time": "4:00pm"}, {"days": "Sat", "time": "3:00pm"}, {"days": "Sun", "time": "Closed"}], "id": "4227600016", "name": "USPS COLLECTION BOX - PO LOBBY", "address": {"city": "RUSSELLVILLE", "state": "KY", "street": "205 W 4TH ST", "postcode": "42276"}}},
{"geometry": {"type": "Point", "coordinates": [-86.8927777781, 36.8442178945]}, "type": "Feature", "properties": {"collection_times": [{"days": "Mon-Fri", "time": "4:00pm"}, {"days": "Sat", "time": "3:00pm"}, {"days": "Sun", "time": "Closed"}], "id": "4227600017", "name": "USPS COLLECTION BOX - PO LOBBY", "address": {"city": "RUSSELLVILLE", "state": "KY", "street": "205 W 4TH ST", "postcode": "42276"}}},
{"geometry": {"type": "Point", "coordinates": [-86.2834204655, 37.2440531236]}, "type": "Feature", "properties": {"collection_times": [{"days": "Mon-Fri", "time": "1:30pm"}, {"days": "Sat", "time": "11:45am"}, {"days": "Sun", "time": "Closed"}], "id": "4228500000", "name": "USPS COLLECTION BOX - BLUE BOX", "address": {"city": "SWEEDEN", "state": "KY", "street": "4960 KY HIGHWAY 259 N", "postcode": "42285"}}},
{"geometry": {"type": "Point", "coordinates": [-87.2640479732, 36.7243005253]}, "type": "Feature", "properties": {"collection_times": [{"days": "Mon-Fri", "time": "3:45pm"}, {"days": "Sat", "time": "12:15pm"}, {"days": "Sun", "time": "Closed"}], "id": "4228600000", "name": "USPS COLLECTION BOX - BLUE BOX", "address": {"city": "TRENTON", "state": "KY", "street": "206 N MAIN ST", "postcode": "42286"}}},
{"geometry": {"type": "Point", "coordinates": [-87.2640479732, 36.7243005253]}, "type": "Feature", "properties": {"collection_times": [{"days": "Mon-Fri", "time": "3:45pm"}, {"days": "Sat", "time": "12:15pm"}, {"days": "Sun", "time": "Closed"}], "id": "4228600001", "name": "USPS COLLECTION BOX - PO LOBBY", "address": {"city": "TRENTON", "state": "KY", "street": "206 N MAIN ST", "postcode": "42286"}}},
{"geometry": {"type": "Point", "coordinates": [-86.6197502449, 37.1485190572]}, "type": "Feature", "properties": {"collection_times": [{"days": "Mon-Sat", "time": "12:30pm"}, {"days": "Sun", "time": "Closed"}], "id": "4228800001", "name": "USPS COLLECTION BOX - PO LOBBY", "address": {"city": "WOODBURY", "state": "KY", "street": "65 BARREN RIVER RD", "postcode": "42288"}}}
]}
