{"type": "FeatureCollection", "features": [
{"geometry": {"type": "Point", "coordinates": [-87.1535954309, 37.7334842093]}, "type": "Feature", "properties": {"collection_times": [{"days": "Mon-Fri", "time": "3:45pm"}, {"days": "Sat-Sun", "time": "Closed"}], "id": "4230100008", "name": "USPS COLLECTION BOX - BLUE BOX", "address": {"city": "OWENSBORO", "state": "KY", "street": "3000 TAMARACK RD", "postcode": "42301"}}},
{"geometry": {"type": "Point", "coordinates": [-87.0913410376, 37.7368660055]}, "type": "Feature", "properties": {"collection_times": [{"days": "Mon-Fri", "time": "1:00pm"}, {"days": "Sat-Sun", "time": "Closed"}], "id": "4230100024", "name": "USPS COLLECTION BOX - BLUE BOX", "address": {"city": "OWENSBORO", "state": "KY", "street": "3500 NEW HARTFORD RD", "postcode": "42301"}}},
{"geometry": {"type": "Point", "coordinates": [-87.1214554297, 37.7368076517]}, "type": "Feature", "properties": {"collection_times": [{"days": "Mon-Fri", "time": "10:00am"}, {"days": "Sat-Sun", "time": "Closed"}], "id": "4230100027", "name": "USPS COLLECTION BOX - BLUE BOX", "address": {"city": "OWENSBORO", "state": "KY", "street": "1035 TAMARACK RD", "postcode": "42301"}}},
{"geometry": {"type": "Point", "coordinates": [-87.1288796194, 37.7418888052]}, "type": "Feature", "properties": {"collection_times": [{"days": "Mon-Fri", "time": "9:00am"}, {"days": "Sat-Sun", "time": "Closed"}], "id": "4230100037", "name": "USPS COLLECTION BOX - BLUE BOX", "address": {"city": "OWENSBORO", "state": "KY", "street": "1735 SCHERM RD", "postcode": "42301"}}},
{"geometry": {"type": "Point", "coordinates": [-87.1248180803, 37.7196568887]}, "type": "Feature", "properties": {"collection_times": [{"days": "Mon-Sat", "time": "2:00pm"}, {"days": "Sun", "time": "Closed"}], "id": "4230100039", "name": "USPS COLLECTION BOX - BLUE BOX", "address": {"city": "OWENSBORO", "state": "KY", "street": "5000 FREDERICA ST", "postcode": "42301"}}},
{"geometry": {"type": "Point", "coordinates": [-87.1238261275, 37.7242817647]}, "type": "Feature", "properties": {"collection_times": [{"days": "Mon-Sat", "time": "2:00pm"}, {"days": "Sun", "time": "Closed"}], "id": "4230100042", "name": "USPS COLLECTION BOX - BLUE BOX", "address": {"city": "OWENSBORO", "state": "KY", "street": "4760 FREDERICA ST", "postcode": "42301"}}},
{"geometry": {"type": "Point", "coordinates": [-87.1380029985, 37.733332477]}, "type": "Feature", "properties": {"collection_times": [{"days": "Mon-Fri", "time": "3:45pm"}, {"days": "Sat-Sun", "time": "Closed"}], "id": "4230100048", "name": "USPS COLLECTION BOX - BLUE BOX", "address": {"city": "OWENSBORO", "state": "KY", "street": "2070 TAMARACK RD", "postcode": "42301"}}},
{"geometry": {"type": "Point", "coordinates": [-87.112797353, 37.7666501575]}, "type": "Feature", "properties": {"collection_times": [{"days": "Mon-Fri", "time": "3:30pm"}, {"days": "Sat-Sun", "time": "Closed"}], "id": "4230100057", "name": "USPS COLLECTION BOX - BLUE BOX", "address": {"city": "OWENSBORO", "state": "KY", "street": "920 FREDERICA ST", "postcode": "42301"}}},
{"geometry": {"type": "Point", "coordinates": [-87.1298386388, 37.7716886504]}, "type": "Feature", "properties": {"collection_times": [{"days": "Mon-Fri", "time": "4:30pm"}, {"days": "Sat", "time": "5:00pm"}, {"days": "Sun", "time": "Closed"}], "id": "4230100060", "name": "USPS COLLECTION BOX - BLUE BOX", "address": {"city": "OWENSBORO", "state": "KY", "street": "1651 W 4TH ST", "postcode": "42301"}}},
{"geometry": {"type": "Point", "coordinates": [-87.1490671354, 37.7725474087]}, "type": "Feature", "properties": {"collection_times": [{"days": "Mon-Fri", "time": "4:30pm"}, {"days": "Sat-Sun", "time": "Closed"}], "id": "4230100065", "name": "USPS COLLECTION BOX - BLUE BOX", "address": {"city": "OWENSBORO", "state": "KY", "street": "3026 E 4TH ST", "postcode": "42301"}}},
{"geometry": {"type": "Point", "coordinates": [-87.1545677643, 37.7526311113]}, "type": "Feature", "properties": {"collection_times": [{"days": "Mon-Fri", "time": "4:30pm"}, {"days": "Sat-Sun", "time": "Closed"}], "id": "4230100066", "name": "USPS COLLECTION BOX - BLUE BOX", "address": {"city": "OWENSBORO", "state": "KY", "street": "101 E 4TH ST", "postcode": "42301"}}},
{"geometry": {"type": "Point", "coordinates": [-87.1015202052, 37.7455248763]}, "type": "Feature", "properties": {"collection_times": [{"days": "Mon-Fri", "time": "4:30pm"}, {"days": "Sat-Sun", "time": "Closed"}], "id": "4230100067", "name": "USPS COLLECTION BOX - BLUE BOX", "address": {"city": "OWENSBORO", "state": "KY", "street": "2816 VEACH RD", "postcode": "42301"}}},
{"geometry": {"type": "Point", "coordinates": [-87.1501456255, 37.7550224253]}, "type": "Feature", "properties": {"collection_times": [{"days": "Mon-Fri", "time": "1:30pm"}, {"days": "Sat", "time": "5:00pm"}, {"days": "Sun", "time": "Closed"}], "id": "4230100068", "name": "USPS COLLECTION BOX - BLUE BOX", "address": {"city": "OWENSBORO", "state": "KY", "street": "1670 STARLITE DR", "postcode": "42301"}}},
{"geometry": {"type": "Point", "coordinates": [-87.1123662999, 37.773773622]}, "type": "Feature", "properties": {"collection_times": [{"days": "Mon-Fri", "time": "5:00pm"}, {"days": "Sat-Sun", "time": "Closed"}], "id": "4230100073", "name": "USPS COLLECTION BOX - BLUE BOX", "address": {"city": "OWENSBORO", "state": "KY", "street": "298 SAINT ANN ST", "postcode": "42301"}}},
{"geometry": {"type": "Point", "coordinates": [-87.0855821266, 37.7420732659]}, "type": "Feature", "properties": {"collection_times": [{"days": "Mon-Fri", "time": "1:00pm"}, {"days": "Sat-Sun", "time": "Closed"}], "id": "4230100076", "name": "USPS COLLECTION BOX - BLUE BOX", "address": {"city": "OWENSBORO", "state": "KY", "street": "3400 OLD HARTFORD RD", "postcode": "42301"}}},
{"geometry": {"type": "Point", "coordinates": [-87.1254488141, 37.7157802007]}, "type": "Feature", "properties": {"collection_times": [{"days": "Mon-Fri", "time": "10:00am"}, {"days": "Sat-Sun", "time": "Closed"}], "id": "4230100080", "name": "USPS COLLECTION BOX - BLUE BOX", "address": {"city": "OWENSBORO", "state": "KY", "street": "5151 FREDERICA ST", "postcode": "42301"}}},
{"geometry": {"type": "Point", "coordinates": [-87.1184211399, 37.7389689177]}, "type": "Feature", "properties": {"collection_times": [{"days": "Mon-Fri", "time": "10:00am"}, {"days": "Sat-Sun", "time": "Closed"}], "id": "4230100084", "name": "USPS COLLECTION BOX - BLUE BOX", "address": {"city": "OWENSBORO", "state": "KY", "street": "3511 FREDERICA ST", "postcode": "42301"}}},
{"geometry": {"type": "Point", "coordinates": [-87.1234756392, 37.7525863171]}, "type": "Feature", "properties": {"collection_times": [{"days": "Mon-Fri", "time": "3:45pm"}, {"days": "Sat-Sun", "time": "Closed"}], "id": "4230100095", "name": "USPS COLLECTION BOX - BLUE BOX", "address": {"city": "OWENSBORO", "state": "KY", "street": "2211 MAYFAIR DR", "postcode": "42301"}}},
{"geometry": {"type": "Point", "coordinates": [-87.1133119401, 37.7717794675]}, "type": "Feature", "properties": {"collection_times": [{"days": "Mon-Fri", "time": "5:00pm"}, {"days": "Sat", "time": "4:00pm"}, {"days": "Sun", "time": "Closed"}], "id": "4230100110", "name": "USPS COLLECTION BOX - BLUE BOX", "address": {"city": "OWENSBORO", "state": "KY", "street": "423 FREDERICA ST", "postcode": "42301"}}},
{"geometry": {"type": "Point", "coordinates": [-87.1654669749, 37.775795292]}, "type": "Feature", "properties": {"collection_times": [{"days": "Mon-Sat", "time": "5:00pm"}, {"days": "Sun", "time": "Closed"}], "id": "4230100111", "name": "USPS COLLECTION BOX - BLUE BOX", "address": {"city": "OWENSBORO", "state": "KY", "street": "54 BON HARBOR HLS", "postcode": "42301"}}},
{"geometry": {"type": "Point", "coordinates": [-87.1127583469, 37.7490000023]}, "type": "Feature", "properties": {"collection_times": [{"days": "Mon-Fri", "time": "5:00pm"}, {"days": "Sat", "time": "4:30pm"}, {"days": "Sun", "time": "Closed"}], "id": "4230100113", "name": "USPS COLLECTION BOX - BLUE BOX", "address": {"city": "OWENSBORO", "state": "KY", "street": "2736 FREDERICA ST", "postcode": "42301"}}},
{"geometry": {"type": "Point", "coordinates": [-87.0406968502, 37.7437313586]}, "type": "Feature", "properties": {"collection_times": [{"days": "Mon-Fri", "time": "5:00pm"}, {"days": "Sat-Sun", "time": "Closed"}], "id": "4230100122", "name": "USPS COLLECTION BOX - BLUE BOX", "address": {"city": "OWENSBORO", "state": "KY", "street": "4510 STATE ROUTE 54", "postcode": "42301"}}},
{"geometry": {"type": "Point", "coordinates": [-87.1226379197, 37.7507800161]}, "type": "Feature", "properties": {"collection_times": [{"days": "Mon-Fri", "time": "3:45pm"}, {"days": "Sat-Sun", "time": "Closed"}], "id": "4230100123", "name": "USPS COLLECTION BOX - BLUE BOX", "address": {"city": "OWENSBORO", "state": "KY", "street": "2315 MAYFAIR DR", "postcode": "42301"}}},
{"geometry": {"type": "Point", "coordinates": [-87.1173999021, 37.7653367603]}, "type": "Feature", "properties": {"collection_times": [{"days": "Mon-Fri", "time": "3:45pm"}, {"days": "Sat-Sun", "time": "Closed"}], "id": "4230100131", "name": "USPS COLLECTION BOX - BLUE BOX", "address": {"city": "OWENSBORO", "state": "KY", "street": "1100 WALNUT ST", "postcode": "42301"}}},
{"geometry": {"type": "Point", "coordinates": [-87.2416605229, 37.7410588675]}, "type": "Feature", "properties": {"collection_times": [{"days": "Mon-Sat", "time": "5:00pm"}, {"days": "Sun", "time": "Closed"}], "id": "4230100140", "name": "USPS COLLECTION BOX - PO LOBBY", "address": {"city": "OWENSBORO", "state": "KY", "street": "54 BON HARBOR HLS", "postcode": "42301"}}},
{"geometry": {"type": "Point", "coordinates": [-87.2416605229, 37.7410588675]}, "type": "Feature", "properties": {"collection_times": [{"days": "Mon-Sat", "time": "5:00pm"}, {"days": "Sun", "time": "Closed"}], "id": "4230100141", "name": "USPS COLLECTION BOX - PO LOBBY", "address": {"city": "OWENSBORO", "state": "KY", "street": "54 BON HARBOR HLS", "postcode": "42301"}}},
{"geometry": {"type": "Point", "coordinates": [-87.1117551661, 37.7562590459]}, "type": "Feature", "properties": {"collection_times": [{"days": "Mon-Fri", "time": "5:00pm"}, {"days": "Sat-Sun", "time": "Closed"}], "id": "4230100143", "name": "USPS COLLECTION BOX - BLUE BOX", "address": {"city": "OWENSBORO", "state": "KY", "street": "2001 FREDERICA ST", "postcode": "42301"}}},
{"geometry": {"type": "Point", "coordinates": [-87.1027504825, 37.7581730735]}, "type": "Feature", "properties": {"collection_times": [{"days": "Mon-Fri", "time": "4:30pm"}, {"days": "Sat", "time": "4:00pm"}, {"days": "Sun", "time": "Closed"}], "id": "4230100150", "name": "USPS COLLECTION BOX - BLUE BOX", "address": {"city": "OWENSBORO", "state": "KY", "street": "1829 TRIPLETT ST", "postcode": "42301"}}},
{"geometry": {"type": "Point", "coordinates": [-87.1118237778, 37.772658406]}, "type": "Feature", "properties": {"collection_times": [{"days": "Mon-Fri", "time": "4:30pm"}, {"days": "Sat-Sun", "time": "Closed"}], "id": "4230100153", "name": "USPS COLLECTION BOX - PO LOBBY", "address": {"city": "OWENSBORO", "state": "KY", "street": "118 W 4TH ST", "postcode": "42301"}}},
{"geometry": {"type": "Point", "coordinates": [-87.1545677643, 37.7526311113]}, "type": "Feature", "properties": {"collection_times": [{"days": "Mon-Fri", "time": "4:30pm"}, {"days": "Sat-Sun", "time": "Closed"}], "id": "4230100157", "name": "USPS COLLECTION BOX - BLUE BOX", "address": {"city": "OWENSBORO", "state": "KY", "street": "1000 BRECKENRIDGE ST", "postcode": "42301"}}},
{"geometry": {"type": "Point", "coordinates": [-87.1363267021, 37.7587210858]}, "type": "Feature", "properties": {"collection_times": [{"days": "Mon-Fri", "time": "4:45pm"}, {"days": "Sat-Sun", "time": "Closed"}], "id": "4230100158", "name": "USPS COLLECTION BOX - BLUE BOX", "address": {"city": "OWENSBORO", "state": "KY", "street": "2200 E PARRISH AVE", "postcode": "42301"}}},
{"geometry": {"type": "Point", "coordinates": [-87.1545677643, 37.7526311113]}, "type": "Feature", "properties": {"collection_times": [{"days": "Mon-Fri", "time": "5:00pm"}, {"days": "Sat", "time": "3:45pm"}, {"days": "Sun", "time": "Closed"}], "id": "4230100159", "name": "USPS COLLECTION BOX - BLUE BOX", "address": {"city": "OWENSBORO", "state": "KY", "street": "118 W 4TH ST", "postcode": "42301"}}},
{"geometry": {"type": "Point", "coordinates": [-86.8768100273, 37.3951375048]}, "type": "Feature", "properties": {"collection_times": [{"days": "Mon-Fri", "time": "4:00pm"}, {"days": "Sat", "time": "10:30am"}, {"days": "Sun", "time": "Closed"}], "id": "4232000008", "name": "USPS COLLECTION BOX - PO LOBBY", "address": {"city": "BEAVER DAM", "state": "KY", "street": "435 S MAIN ST", "postcode": "42320"}}},
{"geometry": {"type": "Point", "coordinates": [-86.8768100273, 37.3951375048]}, "type": "Feature", "properties": {"collection_times": [{"days": "Mon-Fri", "time": "4:00pm"}, {"days": "Sat", "time": "10:30am"}, {"days": "Sun", "time": "Closed"}], "id": "4232000009", "name": "USPS COLLECTION BOX - BLUE BOX", "address": {"city": "BEAVER DAM", "state": "KY", "street": "435 S MAIN ST", "postcode": "42320"}}},
{"geometry": {"type": "Point", "coordinates": [-87.3976144106, 37.6154813634]}, "type": "Feature", "properties": {"collection_times": [{"days": "Mon-Fri", "time": "12:30pm"}, {"days": "Sat", "time": "10:00am"}, {"days": "Sun", "time": "Closed"}], "id": "4232200000", "name": "USPS COLLECTION BOX - BLUE BOX", "address": {"city": "BEECH GROVE", "state": "KY", "street": "435 MAIN ST", "postcode": "42322"}}},
{"geometry": {"type": "Point", "coordinates": [-87.3962978002, 37.6160962427]}, "type": "Feature", "properties": {"collection_times": [{"days": "Mon-Fri", "time": "12:30pm"}, {"days": "Sat", "time": "10:00am"}, {"days": "Sun", "time": "Closed"}], "id": "4232200001", "name": "USPS COLLECTION BOX - PO LOBBY", "address": {"city": "BEECH GROVE", "state": "KY", "street": "435 MAIN ST", "postcode": "42322"}}},
{"geometry": {"type": "Point", "coordinates": [-87.034068204, 37.1664451017]}, "type": "Feature", "properties": {"collection_times": [{"days": "Mon-Fri", "time": "2:45pm"}, {"days": "Sat", "time": "9:30am"}, {"days": "Sun", "time": "Closed"}], "id": "4232300001", "name": "USPS COLLECTION BOX - BLUE BOX", "address": {"city": "BEECHMONT", "state": "KY", "street": "3736 MERLE TRAVIS HWY", "postcode": "42323"}}},
{"geometry": {"type": "Point", "coordinates": [-87.034068204, 37.1664451017]}, "type": "Feature", "properties": {"collection_times": [{"days": "Mon-Fri", "time": "2:45pm"}, {"days": "Sat", "time": "9:30am"}, {"days": "Sun", "time": "Closed"}], "id": "4232300003", "name": "USPS COLLECTION BOX - PO LOBBY", "address": {"city": "BEECHMONT", "state": "KY", "street": "3736 MERLE TRAVIS HWY", "postcode": "42323"}}},
{"geometry": {"type": "Point", "coordinates": [-87.2183183959, 37.3613468776]}, "type": "Feature", "properties": {"collection_times": [{"days": "Mon-Fri", "time": "2:45pm"}, {"days": "Sat", "time": "10:45am"}, {"days": "Sun", "time": "Closed"}], "id": "4232500000", "name": "USPS COLLECTION BOX - BLUE BOX", "address": {"city": "BREMEN", "state": "KY", "street": "4710 MAIN ST", "postcode": "42325"}}},
{"geometry": {"type": "Point", "coordinates": [-87.2183183959, 37.3613468776]}, "type": "Feature", "properties": {"collection_times": [{"days": "Mon-Fri", "time": "2:45pm"}, {"days": "Sat", "time": "10:45am"}, {"days": "Sun", "time": "Closed"}], "id": "4232500001", "name": "USPS COLLECTION BOX - BLUE BOX", "address": {"city": "BREMEN", "state": "KY", "street": "4710 MAIN ST", "postcode": "42325"}}},
{"geometry": {"type": "Point", "coordinates": [-87.2597652321, 37.5370752726]}, "type": "Feature", "properties": {"collection_times": [{"days": "Mon-Fri", "time": "3:15pm"}, {"days": "Sat", "time": "11:15am"}, {"days": "Sun", "time": "Closed"}], "id": "4232700000", "name": "USPS COLLECTION BOX - BLUE BOX", "address": {"city": "CALHOUN", "state": "KY", "street": "310 W 2ND ST", "postcode": "42327"}}},
{"geometry": {"type": "Point", "coordinates": [-87.2597652321, 37.5370752726]}, "type": "Feature", "properties": {"collection_times": [{"days": "Mon-Fri", "time": "3:15pm"}, {"days": "Sat", "time": "11:15am"}, {"days": "Sun", "time": "Closed"}], "id": "4232700001", "name": "USPS COLLECTION BOX - PO LOBBY", "address": {"city": "CALHOUN", "state": "KY", "street": "310 W 2ND ST", "postcode": "42327"}}},
{"geometry": {"type": "Point", "coordinates": [-87.000029053, 37.4177694641]}, "type": "Feature", "properties": {"collection_times": [{"days": "Mon-Fri", "time": "3:30pm"}, {"days": "Sat", "time": "9:45am"}, {"days": "Sun", "time": "Closed"}], "id": "4232800000", "name": "USPS COLLECTION BOX - BLUE BOX", "address": {"city": "CENTERTOWN", "state": "KY", "street": "805 MAIN ST", "postcode": "42328"}}},
{"geometry": {"type": "Point", "coordinates": [-87.000029053, 37.4177694641]}, "type": "Feature", "properties": {"collection_times": [{"days": "Mon-Fri", "time": "3:30pm"}, {"days": "Sat", "time": "9:45am"}, {"days": "Sun", "time": "Closed"}], "id": "4232800001", "name": "USPS COLLECTION BOX - BLUE BOX", "address": {"city": "CENTERTOWN", "state": "KY", "street": "805 MAIN ST", "postcode": "42328"}}},
{"geometry": {"type": "Point", "coordinates": [-87.1258352591, 37.2928638289]}, "type": "Feature", "properties": {"collection_times": [{"days": "Mon-Fri", "time": "4:00pm"}, {"days": "Sat", "time": "3:00pm"}, {"days": "Sun", "time": "Closed"}], "id": "4233000010", "name": "USPS COLLECTION BOX - PO LOBBY", "address": {"city": "CENTRAL CITY", "state": "KY", "street": "201 W BROAD ST", "postcode": "42330"}}},
{"geometry": {"type": "Point", "coordinates": [-87.1258352591, 37.2928638289]}, "type": "Feature", "properties": {"collection_times": [{"days": "Mon-Fri", "time": "4:00pm"}, {"days": "Sat", "time": "3:00pm"}, {"days": "Sun", "time": "Closed"}], "id": "4233000011", "name": "USPS COLLECTION BOX - BLUE BOX", "address": {"city": "CENTRAL CITY", "state": "KY", "street": "201 W BROAD ST", "postcode": "42330"}}},
{"geometry": {"type": "Point", "coordinates": [-87.0929882075, 37.2526801203]}, "type": "Feature", "properties": {"collection_times": [{"days": "Mon-Fri", "time": "3:00pm"}, {"days": "Sat", "time": "10:00am"}, {"days": "Sun", "time": "Closed"}], "id": "4233200001", "name": "USPS COLLECTION BOX - PO LOBBY", "address": {"city": "CLEATON", "state": "KY", "street": "36 MAIN ST", "postcode": "42332"}}},
{"geometry": {"type": "Point", "coordinates": [-87.09208596, 37.2530717847]}, "type": "Feature", "properties": {"collection_times": [{"days": "Mon-Fri", "time": "11:00am"}, {"days": "Sat", "time": "10:00am"}, {"days": "Sun", "time": "Closed"}], "id": "4233200002", "name": "USPS COLLECTION BOX - BLUE BOX", "address": {"city": "CLEATON", "state": "KY", "street": "36 MAIN ST", "postcode": "42332"}}},
{"geometry": {"type": "Point", "coordinates": [-86.7532884075, 37.3703661122]}, "type": "Feature", "properties": {"collection_times": [{"days": "Mon-Sat", "time": "11:30am"}, {"days": "Sun", "time": "Closed"}], "id": "4233300000", "name": "USPS COLLECTION BOX - BLUE BOX", "address": {"city": "CROMWELL", "state": "KY", "street": "6035 US HIGHWAY 231 S", "postcode": "42333"}}},
{"geometry": {"type": "Point", "coordinates": [-87.04516166, 37.2190752531]}, "type": "Feature", "properties": {"collection_times": [{"days": "Mon-Fri", "time": "3:30pm"}, {"days": "Sat", "time": "10:30am"}, {"days": "Sun", "time": "Closed"}], "id": "4233700000", "name": "USPS COLLECTION BOX - BLUE BOX", "address": {"city": "DRAKESBORO", "state": "KY", "street": "111 W MOSE RAGER BLVD", "postcode": "42337"}}},
{"geometry": {"type": "Point", "coordinates": [-87.04516166, 37.2190752531]}, "type": "Feature", "properties": {"collection_times": [{"days": "Mon-Fri", "time": "3:30pm"}, {"days": "Sat", "time": "10:30am"}, {"days": "Sun", "time": "Closed"}], "id": "4233700001", "name": "USPS COLLECTION BOX - PO LOBBY", "address": {"city": "DRAKESBORO", "state": "KY", "street": "111 W MOSE RAGER BLVD", "postcode": "42337"}}},
{"geometry": {"type": "Point", "coordinates": [-86.9971444851, 37.0752440693]}, "type": "Feature", "properties": {"collection_times": [{"days": "Mon-Fri", "time": "3:00pm"}, {"days": "Sat", "time": "12:00pm"}, {"days": "Sun", "time": "Closed"}], "id": "4233900000", "name": "USPS COLLECTION BOX - BLUE BOX", "address": {"city": "DUNMOR", "state": "KY", "street": "11230 US HIGHWAY 431 S", "postcode": "42339"}}},
{"geometry": {"type": "Point", "coordinates": [-86.9971444851, 37.0752440693]}, "type": "Feature", "properties": {"collection_times": [{"days": "Mon-Fri", "time": "3:00pm"}, {"days": "Sat", "time": "12:00pm"}, {"days": "Sun", "time": "Closed"}], "id": "4233900001", "name": "USPS COLLECTION BOX - PO LOBBY", "address": {"city": "DUNMOR", "state": "KY", "street": "11230 US HIGHWAY 431 S", "postcode": "42339"}}},
{"geometry": {"type": "Point", "coordinates": [-86.7142576895, 37.6366970551]}, "type": "Feature", "properties": {"collection_times": [{"days": "Mon-Fri", "time": "2:30pm"}, {"days": "Sat", "time": "10:45am"}, {"days": "Sun", "time": "Closed"}], "id": "4234300000", "name": "USPS COLLECTION BOX - BLUE BOX", "address": {"city": "FORDSVILLE", "state": "KY", "street": "25 SMITH ST", "postcode": "42343"}}},
{"geometry": {"type": "Point", "coordinates": [-86.7155681821, 37.6355477413]}, "type": "Feature", "properties": {"collection_times": [{"days": "Mon-Fri", "time": "2:30pm"}, {"days": "Sat", "time": "10:45am"}, {"days": "Sun", "time": "Closed"}], "id": "4234300001", "name": "USPS COLLECTION BOX - PO LOBBY", "address": {"city": "FORDSVILLE", "state": "KY", "street": "25 SMITH ST", "postcode": "42343"}}},
{"geometry": {"type": "Point", "coordinates": [-87.2848304418, 37.268654931]}, "type": "Feature", "properties": {"collection_times": [{"days": "Mon-Fri", "time": "3:30pm"}, {"days": "Sat", "time": "11:00am"}, {"days": "Sun", "time": "Closed"}], "id": "4234400000", "name": "USPS COLLECTION BOX - BLUE BOX", "address": {"city": "GRAHAM", "state": "KY", "street": "4909 STATE ROUTE 175 S", "postcode": "42344"}}},
{"geometry": {"type": "Point", "coordinates": [-87.2848304418, 37.268654931]}, "type": "Feature", "properties": {"collection_times": [{"days": "Mon-Fri", "time": "3:30pm"}, {"days": "Sat", "time": "11:00am"}, {"days": "Sun", "time": "Closed"}], "id": "4234400001", "name": "USPS COLLECTION BOX - PO LOBBY", "address": {"city": "GRAHAM", "state": "KY", "street": "4909 STATE ROUTE 175 S", "postcode": "42344"}}},
{"geometry": {"type": "Point", "coordinates": [-87.1776993294, 37.2022588804]}, "type": "Feature", "properties": {"collection_times": [{"days": "Mon-Sat", "time": "4:00pm"}, {"days": "Sun", "time": "Closed"}], "id": "4234500024", "name": "USPS COLLECTION BOX - PO LOBBY", "address": {"city": "GREENVILLE", "state": "KY", "street": "102 COURT ST", "postcode": "42345"}}},
{"geometry": {"type": "Point", "coordinates": [-87.178258722, 37.1998282897]}, "type": "Feature", "properties": {"collection_times": [{"days": "Mon-Sat", "time": "3:00pm"}, {"days": "Sun", "time": "Closed"}], "id": "4234500028", "name": "USPS COLLECTION BOX - BLUE BOX", "address": {"city": "GREENVILLE", "state": "KY", "street": "158 S MAIN ST", "postcode": "42345"}}},
{"geometry": {"type": "Point", "coordinates": [-86.8970412114, 37.4431819961]}, "type": "Feature", "properties": {"collection_times": [{"days": "Mon-Fri", "time": "4:00pm"}, {"days": "Sat", "time": "3:30pm"}, {"days": "Sun", "time": "Closed"}], "id": "4234700000", "name": "USPS COLLECTION BOX - BLUE BOX", "address": {"city": "HARTFORD", "state": "KY", "street": "1101 S MAIN ST", "postcode": "42347"}}},
{"geometry": {"type": "Point", "coordinates": [-86.9068174278, 37.451116273]}, "type": "Feature", "properties": {"collection_times": [{"days": "Mon-Fri", "time": "9:00am"}, {"days": "Sat-Sun", "time": "Closed"}], "id": "4234700004", "name": "USPS COLLECTION BOX - BLUE BOX", "address": {"city": "HARTFORD", "state": "KY", "street": "130 E WASHINGTON ST", "postcode": "42347"}}},
{"geometry": {"type": "Point", "coordinates": [-86.9083529882, 37.450636024]}, "type": "Feature", "properties": {"collection_times": [{"days": "Mon-Fri", "time": "9:30am"}, {"days": "Sat", "time": "9:00am"}, {"days": "Sun", "time": "Closed"}], "id": "4234700005", "name": "USPS COLLECTION BOX - BLUE BOX", "address": {"city": "HARTFORD", "state": "KY", "street": "230 S MAIN ST", "postcode": "42347"}}},
{"geometry": {"type": "Point", "coordinates": [-86.8970412114, 37.4431819961]}, "type": "Feature", "properties": {"collection_times": [{"days": "Mon-Fri", "time": "4:00pm"}, {"days": "Sat", "time": "3:30pm"}, {"days": "Sun", "time": "Closed"}], "id": "4234700009", "name": "USPS COLLECTION BOX - PO LOBBY", "address": {"city": "HARTFORD", "state": "KY", "street": "1101 S MAIN ST", "postcode": "42347"}}},
{"geometry": {"type": "Point", "coordinates": [-86.8970412114, 37.4431819961]}, "type": "Feature", "properties": {"collection_times": [{"days": "Mon-Fri", "time": "4:00pm"}, {"days": "Sat", "time": "3:30pm"}, {"days": "Sun", "time": "Closed"}], "id": "4234700011", "name": "USPS COLLECTION BOX - BLUE BOX", "address": {"city": "HARTFORD", "state": "KY", "street": "1101 S MAIN ST", "postcode": "42347"}}},
{"geometry": {"type": "Point", "coordinates": [-86.7486687069, 37.9019562415]}, "type": "Feature", "properties": {"collection_times": [{"days": "Mon-Fri", "time": "3:45pm"}, {"days": "Sat", "time": "12:00pm"}, {"days": "Sun", "time": "Closed"}], "id": "4234800000", "name": "USPS COLLECTION BOX - BLUE BOX", "address": {"city": "HAWESVILLE", "state": "KY", "street": "115 MAIN CROSS ST", "postcode": "42348"}}},
{"geometry": {"type": "Point", "coordinates": [-86.7486687069, 37.9019562415]}, "type": "Feature", "properties": {"collection_times": [{"days": "Mon-Fri", "time": "3:45pm"}, {"days": "Sat", "time": "12:00pm"}, {"days": "Sun", "time": "Closed"}], "id": "4234800001", "name": "USPS COLLECTION BOX - PO LOBBY", "address": {"city": "HAWESVILLE", "state": "KY", "street": "115 MAIN CROSS ST", "postcode": "42348"}}},
{"geometry": {"type": "Point", "coordinates": [-86.7638083847, 37.8393834911]}, "type": "Feature", "properties": {"collection_times": [{"days": "Mon-Fri", "time": "1:00pm"}, {"days": "Sat-Sun", "time": "Closed"}], "id": "4234800002", "name": "USPS COLLECTION BOX - BLUE BOX", "address": {"city": "HAWESVILLE", "state": "KY", "street": "290 US HIGHWAY 60 E", "postcode": "42348"}}},
{"geometry": {"type": "Point", "coordinates": [-86.6744874577, 37.4616736911]}, "type": "Feature", "properties": {"collection_times": [{"days": "Mon-Fri", "time": "11:00am"}, {"days": "Sat", "time": "9:45am"}, {"days": "Sun", "time": "Closed"}], "id": "4234900002", "name": "USPS COLLECTION BOX - BLUE BOX", "address": {"city": "HORSE BRANCH", "state": "KY", "street": "12621 US HIGHWAY 62 E", "postcode": "42349"}}},
{"geometry": {"type": "Point", "coordinates": [-87.1516247286, 37.43960551]}, "type": "Feature", "properties": {"collection_times": [{"days": "Mon-Fri", "time": "1:45pm"}, {"days": "Sat", "time": "9:45am"}, {"days": "Sun", "time": "Closed"}], "id": "4235000000", "name": "USPS COLLECTION BOX - BLUE BOX", "address": {"city": "ISLAND", "state": "KY", "street": "120 S 1ST ST", "postcode": "42350"}}},
{"geometry": {"type": "Point", "coordinates": [-87.1516247286, 37.43960551]}, "type": "Feature", "properties": {"collection_times": [{"days": "Mon-Fri", "time": "1:45pm"}, {"days": "Sat", "time": "9:45am"}, {"days": "Sun", "time": "Closed"}], "id": "4235000001", "name": "USPS COLLECTION BOX - PO LOBBY", "address": {"city": "ISLAND", "state": "KY", "street": "120 S 1ST ST", "postcode": "42350"}}},
{"geometry": {"type": "Point", "coordinates": [-86.9000696528, 37.9334649678]}, "type": "Feature", "properties": {"collection_times": [{"days": "Mon-Fri", "time": "3:45pm"}, {"days": "Sat", "time": "9:45am"}, {"days": "Sun", "time": "Closed"}], "id": "4235100000", "name": "USPS COLLECTION BOX - BLUE BOX", "address": {"city": "LEWISPORT", "state": "KY", "street": "550 4TH ST", "postcode": "42351"}}},
{"geometry": {"type": "Point", "coordinates": [-86.9000696528, 37.9334649678]}, "type": "Feature", "properties": {"collection_times": [{"days": "Mon-Fri", "time": "3:45pm"}, {"days": "Sat", "time": "9:45am"}, {"days": "Sun", "time": "Closed"}], "id": "4235100002", "name": "USPS COLLECTION BOX - PO LOBBY", "address": {"city": "LEWISPORT", "state": "KY", "street": "550 4TH ST", "postcode": "42351"}}},
{"geometry": {"type": "Point", "coordinates": [-87.1337314127, 37.4950248985]}, "type": "Feature", "properties": {"collection_times": [{"days": "Mon-Fri", "time": "3:30pm"}, {"days": "Sat", "time": "10:30am"}, {"days": "Sun", "time": "Closed"}], "id": "4235200000", "name": "USPS COLLECTION BOX - BLUE BOX", "address": {"city": "LIVERMORE", "state": "KY", "street": "214 HILL ST", "postcode": "42352"}}},
{"geometry": {"type": "Point", "coordinates": [-87.1337314127, 37.4950248985]}, "type": "Feature", "properties": {"collection_times": [{"days": "Mon-Fri", "time": "3:30pm"}, {"days": "Sat", "time": "10:30am"}, {"days": "Sun", "time": "Closed"}], "id": "4235200001", "name": "USPS COLLECTION BOX - PO LOBBY", "address": {"city": "LIVERMORE", "state": "KY", "street": "214 HILL ST", "postcode": "42352"}}},
{"geometry": {"type": "Point", "coordinates": [-86.9232181253, 37.380517651]}, "type": "Feature", "properties": {"collection_times": [{"days": "Mon-Fri", "time": "3:30pm"}, {"days": "Sat", "time": "10:00am"}, {"days": "Sun", "time": "Closed"}], "id": "4235400000", "name": "USPS COLLECTION BOX - BLUE BOX", "address": {"city": "MCHENRY", "state": "KY", "street": "3156 US HIGHWAY 62 W", "postcode": "42354"}}},
{"geometry": {"type": "Point", "coordinates": [-86.9232181253, 37.380517651]}, "type": "Feature", "properties": {"collection_times": [{"days": "Mon-Fri", "time": "3:30pm"}, {"days": "Sat", "time": "10:00am"}, {"days": "Sun", "time": "Closed"}], "id": "4235400001", "name": "USPS COLLECTION BOX - PO LOBBY", "address": {"city": "MCHENRY", "state": "KY", "street": "3156 US HIGHWAY 62 W", "postcode": "42354"}}},
{"geometry": {"type": "Point", "coordinates": [-86.9757614754, 37.8564301405]}, "type": "Feature", "properties": {"collection_times": [{"days": "Mon-Fri", "time": "3:30pm"}, {"days": "Sat", "time": "9:45am"}, {"days": "Sun", "time": "Closed"}], "id": "4235500000", "name": "USPS COLLECTION BOX - BLUE BOX", "address": {"city": "MACEO", "state": "KY", "street": "10124 HIGHWAY 405", "postcode": "42355"}}},
{"geometry": {"type": "Point", "coordinates": [-86.9757614754, 37.8564301405]}, "type": "Feature", "properties": {"collection_times": [{"days": "Mon-Fri", "time": "3:30pm"}, {"days": "Sat", "time": "9:45am"}, {"days": "Sun", "time": "Closed"}], "id": "4235500002", "name": "USPS COLLECTION BOX - PO LOBBY", "address": {"city": "MACEO", "state": "KY", "street": "10124 HIGHWAY 405", "postcode": "42355"}}},
{"geometry": {"type": "Point", "coordinates": [-86.976639102, 37.6981296803]}, "type": "Feature", "properties": {"collection_times": [{"days": "Mon-Fri", "time": "3:45pm"}, {"days": "Sat", "time": "11:00am"}, {"days": "Sun", "time": "Closed"}], "id": "4236600000", "name": "USPS COLLECTION BOX - BLUE BOX", "address": {"city": "PHILPOT", "state": "KY", "street": "6028 STATE ROUTE 54", "postcode": "42366"}}},
{"geometry": {"type": "Point", "coordinates": [-86.976639102, 37.6981296803]}, "type": "Feature", "properties": {"collection_times": [{"days": "Mon-Fri", "time": "4:00pm"}, {"days": "Sat", "time": "11:00am"}, {"days": "Sun", "time": "Closed"}], "id": "4236600001", "name": "USPS COLLECTION BOX - PO LOBBY", "address": {"city": "PHILPOT", "state": "KY", "street": "6028 STATE ROUTE 54", "postcode": "42366"}}},
{"geometry": {"type": "Point", "coordinates": [-87.1618705563, 37.2322259513]}, "type": "Feature", "properties": {"collection_times": [{"days": "Mon-Fri", "time": "3:45pm"}, {"days": "Sat", "time": "10:00am"}, {"days": "Sun", "time": "Closed"}], "id": "4236700000", "name": "USPS COLLECTION BOX - BLUE BOX", "address": {"city": "POWDERLY", "state": "KY", "street": "123 COPPER CREEK DR", "postcode": "42367"}}},
{"geometry": {"type": "Point", "coordinates": [-87.1618705563, 37.2322259513]}, "type": "Feature", "properties": {"collection_times": [{"days": "Mon-Fri", "time": "3:45pm"}, {"days": "Sat", "time": "10:00am"}, {"days": "Sun", "time": "Closed"}], "id": "4236700001", "name": "USPS COLLECTION BOX - BLUE BOX", "address": {"city": "POWDERLY", "state": "KY", "street": "123 COPPER CREEK DR", "postcode": "42367"}}},
{"geometry": {"type": "Point", "coordinates": [-87.1618705563, 37.2322259513]}, "type": "Feature", "properties": {"collection_times": [{"days": "Mon-Fri", "time": "3:45pm"}, {"days": "Sat", "time": "10:00am"}, {"days": "Sun", "time": "Closed"}], "id": "4236700002", "name": "USPS COLLECTION BOX - PO LOBBY", "address": {"city": "POWDERLY", "state": "KY", "street": "123 COPPER CREEK DR", "postcode": "42367"}}},
{"geometry": {"type": "Point", "coordinates": [-86.9774215055, 37.3151771392]}, "type": "Feature", "properties": {"collection_times": [{"days": "Mon-Fri", "time": "3:15pm"}, {"days": "Sat", "time": "10:30am"}, {"days": "Sun", "time": "Closed"}], "id": "4236900000", "name": "USPS COLLECTION BOX - BLUE BOX", "address": {"city": "ROCKPORT", "state": "KY", "street": "12 MAIN ST", "postcode": "42369"}}},
{"geometry": {"type": "Point", "coordinates": [-86.9774215055, 37.3151771392]}, "type": "Feature", "properties": {"collection_times": [{"days": "Mon-Fri", "time": "3:15pm"}, {"days": "Sat", "time": "10:30am"}, {"days": "Sun", "time": "Closed"}], "id": "4236900002", "name": "USPS COLLECTION BOX - PO LOBBY", "address": {"city": "ROCKPORT", "state": "KY", "street": "12 MAIN ST", "postcode": "42369"}}},
{"geometry": {"type": "Point", "coordinates": [-86.7401717202, 37.4505182779]}, "type": "Feature", "properties": {"collection_times": [{"days": "Mon-Fri", "time": "1:15pm"}, {"days": "Sat", "time": "9:45am"}, {"days": "Sun", "time": "Closed"}], "id": "4237000000", "name": "USPS COLLECTION BOX - BLUE BOX", "address": {"city": "ROSINE", "state": "KY", "street": "25 MCHENRY ST", "postcode": "42370"}}},
{"geometry": {"type": "Point", "coordinates": [-86.7401717202, 37.4505182779]}, "type": "Feature", "properties": {"collection_times": [{"days": "Mon-Fri", "time": "1:15pm"}, {"days": "Sat", "time": "9:45am"}, {"days": "Sun", "time": "Closed"}], "id": "4237000001", "name": "USPS COLLECTION BOX - PO LOBBY", "address": {"city": "ROSINE", "state": "KY", "street": "25 MCHENRY ST", "postcode": "42370"}}},
{"geometry": {"type": "Point", "coordinates": [-87.2658112156, 37.4145150744]}, "type": "Feature", "properties": {"collection_times": [{"days": "Mon-Fri", "time": "3:00pm"}, {"days": "Sat", "time": "10:00am"}, {"days": "Sun", "time": "Closed"}], "id": "4237200000", "name": "USPS COLLECTION BOX - BLUE BOX", "address": {"city": "SACRAMENTO", "state": "KY", "street": "315 MAIN ST", "postcode": "42372"}}},
{"geometry": {"type": "Point", "coordinates": [-87.2658112156, 37.4145150744]}, "type": "Feature", "properties": {"collection_times": [{"days": "Mon-Fri", "time": "3:00pm"}, {"days": "Sat", "time": "10:00am"}, {"days": "Sun", "time": "Closed"}], "id": "4237200001", "name": "USPS COLLECTION BOX - PO LOBBY", "address": {"city": "SACRAMENTO", "state": "KY", "street": "315 MAIN ST", "postcode": "42372"}}},
{"geometry": {"type": "Point", "coordinates": [-87.142285136, 37.3397453536]}, "type": "Feature", "properties": {"collection_times": [{"days": "Mon-Fri", "time": "4:00pm"}, {"days": "Sat", "time": "12:00pm"}, {"days": "Sun", "time": "Closed"}], "id": "4237400000", "name": "USPS COLLECTION BOX - BLUE BOX", "address": {"city": "SOUTH CARROLLTON", "state": "KY", "street": "10719 US HIGHWAY 431 N", "postcode": "42374"}}},
{"geometry": {"type": "Point", "coordinates": [-87.142285136, 37.3397453536]}, "type": "Feature", "properties": {"collection_times": [{"days": "Mon-Fri", "time": "4:00pm"}, {"days": "Sat", "time": "12:00pm"}, {"days": "Sun", "time": "Closed"}], "id": "4237400001", "name": "USPS COLLECTION BOX - PO LOBBY", "address": {"city": "SOUTH CARROLLTON", "state": "KY", "street": "10719 US HIGHWAY 431 N", "postcode": "42374"}}},
{"geometry": {"type": "Point", "coordinates": [-87.1053420595, 37.594880972]}, "type": "Feature", "properties": {"collection_times": [{"days": "Mon-Fri", "time": "3:45pm"}, {"days": "Sat", "time": "10:00am"}, {"days": "Sun", "time": "Closed"}], "id": "4237600000", "name": "USPS COLLECTION BOX - PO LOBBY", "address": {"city": "UTICA", "state": "KY", "street": "10734 US HIGHWAY 431", "postcode": "42376"}}},
{"geometry": {"type": "Point", "coordinates": [-87.1053420595, 37.594880972]}, "type": "Feature", "properties": {"collection_times": [{"days": "Mon-Fri", "time": "3:45pm"}, {"days": "Sat", "time": "10:00am"}, {"days": "Sun", "time": "Closed"}], "id": "4237600002", "name": "USPS COLLECTION BOX - BLUE BOX", "address": {"city": "UTICA", "state": "KY", "street": "10734 US HIGHWAY 431", "postcode": "42376"}}},
{"geometry": {"type": "Point", "coordinates": [-86.8714511333, 37.6832968518]}, "type": "Feature", "properties": {"collection_times": [{"days": "Mon-Fri", "time": "3:15pm"}, {"days": "Sat", "time": "9:30am"}, {"days": "Sun", "time": "Closed"}], "id": "4237800000", "name": "USPS COLLECTION BOX - BLUE BOX", "address": {"city": "WHITESVILLE", "state": "KY", "street": "10575 MAIN CROSS ST", "postcode": "42378"}}},
{"geometry": {"type": "Point", "coordinates": [-86.8714511333, 37.6832968518]}, "type": "Feature", "properties": {"collection_times": [{"days": "Mon-Fri", "time": "3:15pm"}, {"days": "Sat", "time": "9:30am"}, {"days": "Sun", "time": "Closed"}], "id": "4237800001", "name": "USPS COLLECTION BOX - PO LOBBY", "address": {"city": "WHITESVILLE", "state": "KY", "street": "10575 MAIN CROSS ST", "postcode": "42378"}}}
]}
