{"type": "FeatureCollection", "features": [
{"geometry": {"type": "Point", "coordinates": [-87.5791381662, 37.8357598717]}, "type": "Feature", "properties": {"collection_times": [{"days": "Mon-Fri", "time": "3:30pm"}, {"days": "Sat", "time": "10:15am"}, {"days": "Sun", "time": "Closed"}], "id": "4240200000", "name": "USPS COLLECTION BOX - BLUE BOX", "address": {"city": "BASKETT", "state": "KY", "street": "1015 2ND AVE", "postcode": "42402"}}},
{"geometry": {"type": "Point", "coordinates": [-87.8226839433, 37.4761268705]}, "type": "Feature", "properties": {"collection_times": [{"days": "Mon-Fri", "time": "3:30pm"}, {"days": "Sat", "time": "9:30am"}, {"days": "Sun", "time": "Closed"}], "id": "4240400001", "name": "USPS COLLECTION BOX - PO LOBBY", "address": {"city": "CLAY", "state": "KY", "street": "39 E ELM ST", "postcode": "42404"}}},
{"geometry": {"type": "Point", "coordinates": [-87.8202209764, 37.4752392323]}, "type": "Feature", "properties": {"collection_times": [{"days": "Mon-Fri", "time": "3:45pm"}, {"days": "Sat", "time": "9:30am"}, {"days": "Sun", "time": "Closed"}], "id": "4240400002", "name": "USPS COLLECTION BOX - BLUE BOX", "address": {"city": "CLAY", "state": "KY", "street": "39 E ELM ST", "postcode": "42404"}}},
{"geometry": {"type": "Point", "coordinates": [-87.7029467685, 37.7447280088]}, "type": "Feature", "properties": {"collection_times": [{"days": "Mon-Fri", "time": "3:45pm"}, {"days": "Sat", "time": "9:30am"}, {"days": "Sun", "time": "Closed"}], "id": "4240600000", "name": "USPS COLLECTION BOX - BLUE BOX", "address": {"city": "CORYDON", "state": "KY", "street": "120 MAIN ST", "postcode": "42406"}}},
{"geometry": {"type": "Point", "coordinates": [-87.7029467685, 37.7447280088]}, "type": "Feature", "properties": {"collection_times": [{"days": "Mon-Fri", "time": "3:45pm"}, {"days": "Sat", "time": "9:30am"}, {"days": "Sun", "time": "Closed"}], "id": "4240600001", "name": "USPS COLLECTION BOX - PO LOBBY", "address": {"city": "CORYDON", "state": "KY", "street": "120 MAIN ST", "postcode": "42406"}}},
{"geometry": {"type": "Point", "coordinates": [-87.6913613602, 37.1663416435]}, "type": "Feature", "properties": {"collection_times": [{"days": "Mon-Fri", "time": "3:45pm"}, {"days": "Sat", "time": "11:30am"}, {"days": "Sun", "time": "Closed"}], "id": "4240800000", "name": "USPS COLLECTION BOX - BLUE BOX", "address": {"city": "DAWSON SPRINGS", "state": "KY", "street": "101 W RAMSEY ST", "postcode": "42408"}}},
{"geometry": {"type": "Point", "coordinates": [-87.6913613602, 37.1663416435]}, "type": "Feature", "properties": {"collection_times": [{"days": "Mon-Fri", "time": "3:45pm"}, {"days": "Sat", "time": "11:30am"}, {"days": "Sun", "time": "Closed"}], "id": "4240800004", "name": "USPS COLLECTION BOX - PO LOBBY", "address": {"city": "DAWSON SPRINGS", "state": "KY", "street": "101 W RAMSEY ST", "postcode": "42408"}}},
{"geometry": {"type": "Point", "coordinates": [-87.6964073302, 37.5243836274]}, "type": "Feature", "properties": {"collection_times": [{"days": "Mon-Fri", "time": "3:45pm"}, {"days": "Sat", "time": "11:00am"}, {"days": "Sun", "time": "Closed"}], "id": "4240900000", "name": "USPS COLLECTION BOX - BLUE BOX", "address": {"city": "DIXON", "state": "KY", "street": "73 US HIGHWAY 41A S", "postcode": "42409"}}},
{"geometry": {"type": "Point", "coordinates": [-87.6964073302, 37.5243836274]}, "type": "Feature", "properties": {"collection_times": [{"days": "Mon-Fri", "time": "4:00pm"}, {"days": "Sat", "time": "11:30am"}, {"days": "Sun", "time": "Closed"}], "id": "4240900001", "name": "USPS COLLECTION BOX - PO LOBBY", "address": {"city": "DIXON", "state": "KY", "street": "73 US HIGHWAY 41A S", "postcode": "42409"}}},
{"geometry": {"type": "Point", "coordinates": [-87.5122157553, 37.274184468]}, "type": "Feature", "properties": {"collection_times": [{"days": "Mon-Sat", "time": "12:00pm"}, {"days": "Sun", "time": "Closed"}], "id": "4241000005", "name": "USPS COLLECTION BOX - BLUE BOX", "address": {"city": "EARLINGTON", "state": "KY", "street": "107 E MAIN ST", "postcode": "42410"}}},
{"geometry": {"type": "Point", "coordinates": [-87.5098519574, 37.2756524212]}, "type": "Feature", "properties": {"collection_times": [{"days": "Mon-Fri", "time": "4:00pm"}, {"days": "Sat", "time": "12:00pm"}, {"days": "Sun", "time": "Closed"}], "id": "4241000007", "name": "USPS COLLECTION BOX - PO LOBBY", "address": {"city": "EARLINGTON", "state": "KY", "street": "301 E MAIN ST", "postcode": "42410"}}},
{"geometry": {"type": "Point", "coordinates": [-87.5098519574, 37.2756524212]}, "type": "Feature", "properties": {"collection_times": [{"days": "Mon-Fri", "time": "4:00pm"}, {"days": "Sat", "time": "12:00pm"}, {"days": "Sun", "time": "Closed"}], "id": "4241000008", "name": "USPS COLLECTION BOX - BLUE BOX", "address": {"city": "EARLINGTON", "state": "KY", "street": "301 E MAIN ST", "postcode": "42410"}}},
{"geometry": {"type": "Point", "coordinates": [-88.0583738777, 37.207188077]}, "type": "Feature", "properties": {"collection_times": [{"days": "Mon-Fri", "time": "3:30pm"}, {"days": "Sat", "time": "10:30am"}, {"days": "Sun", "time": "Closed"}], "id": "4241100000", "name": "USPS COLLECTION BOX - BLUE BOX", "address": {"city": "FREDONIA", "state": "KY", "street": "513 CASSIDY AVE", "postcode": "42411"}}},
{"geometry": {"type": "Point", "coordinates": [-88.0583738777, 37.207188077]}, "type": "Feature", "properties": {"collection_times": [{"days": "Mon-Fri", "time": "3:30pm"}, {"days": "Sat", "time": "10:30am"}, {"days": "Sun", "time": "Closed"}], "id": "4241100001", "name": "USPS COLLECTION BOX - BLUE BOX", "address": {"city": "FREDONIA", "state": "KY", "street": "513 CASSIDY AVE", "postcode": "42411"}}},
{"geometry": {"type": "Point", "coordinates": [-87.4815314808, 37.4173681513]}, "type": "Feature", "properties": {"collection_times": [{"days": "Mon-Fri", "time": "3:45pm"}, {"days": "Sat", "time": "10:45am"}, {"days": "Sun", "time": "Closed"}], "id": "4241300000", "name": "USPS COLLECTION BOX - BLUE BOX", "address": {"city": "HANSON", "state": "KY", "street": "50 SUNSET RD", "postcode": "42413"}}},
{"geometry": {"type": "Point", "coordinates": [-87.4815314808, 37.4173681513]}, "type": "Feature", "properties": {"collection_times": [{"days": "Mon-Fri", "time": "3:45pm"}, {"days": "Sat", "time": "10:45am"}, {"days": "Sun", "time": "Closed"}], "id": "4241300001", "name": "USPS COLLECTION BOX - PO LOBBY", "address": {"city": "HANSON", "state": "KY", "street": "50 SUNSET RD", "postcode": "42413"}}},
{"geometry": {"type": "Point", "coordinates": [-87.5701201569, 37.8316193547]}, "type": "Feature", "properties": {"collection_times": [{"days": "Mon-Fri", "time": "5:00pm"}, {"days": "Sat", "time": "4:00pm"}, {"days": "Sun", "time": "Closed"}], "id": "4242000014", "name": "USPS COLLECTION BOX - BLUE BOX", "address": {"city": "HENDERSON", "state": "KY", "street": "1704 2ND ST", "postcode": "42420"}}},
{"geometry": {"type": "Point", "coordinates": [-87.5939869185, 37.8401382093]}, "type": "Feature", "properties": {"collection_times": [{"days": "Mon-Fri", "time": "5:15pm"}, {"days": "Sat", "time": "4:15pm"}, {"days": "Sun", "time": "Closed"}], "id": "4242000027", "name": "USPS COLLECTION BOX - BLUE BOX", "address": {"city": "HENDERSON", "state": "KY", "street": "100 1ST ST", "postcode": "42420"}}},
{"geometry": {"type": "Point", "coordinates": [-87.5939869185, 37.8401382093]}, "type": "Feature", "properties": {"collection_times": [{"days": "Mon-Fri", "time": "5:15pm"}, {"days": "Sat", "time": "4:15pm"}, {"days": "Sun", "time": "Closed"}], "id": "4242000028", "name": "USPS COLLECTION BOX - BLUE BOX", "address": {"city": "HENDERSON", "state": "KY", "street": "100 1ST ST", "postcode": "42420"}}},
{"geometry": {"type": "Point", "coordinates": [-87.5939869185, 37.8401382093]}, "type": "Feature", "properties": {"collection_times": [{"days": "Mon-Fri", "time": "5:15pm"}, {"days": "Sat", "time": "4:15pm"}, {"days": "Sun", "time": "Closed"}], "id": "4242000030", "name": "USPS COLLECTION BOX - BLUE BOX", "address": {"city": "HENDERSON", "state": "KY", "street": "100 1ST ST", "postcode": "42420"}}},
{"geometry": {"type": "Point", "coordinates": [-87.5703688684, 37.8622621497]}, "type": "Feature", "properties": {"collection_times": [{"days": "Mon-Fri", "time": "4:45pm"}, {"days": "Sat", "time": "3:45pm"}, {"days": "Sun", "time": "Closed"}], "id": "4242000034", "name": "USPS COLLECTION BOX - BLUE BOX", "address": {"city": "HENDERSON", "state": "KY", "street": "714 BARRETT BLVD", "postcode": "42420"}}},
{"geometry": {"type": "Point", "coordinates": [-87.5701201569, 37.8316193547]}, "type": "Feature", "properties": {"collection_times": [{"days": "Mon-Fri", "time": "5:00pm"}, {"days": "Sat", "time": "4:00pm"}, {"days": "Sun", "time": "Closed"}], "id": "4242000035", "name": "USPS COLLECTION BOX - BLUE BOX", "address": {"city": "HENDERSON", "state": "KY", "street": "1704 2ND ST", "postcode": "42420"}}},
{"geometry": {"type": "Point", "coordinates": [-87.5557381614, 37.8277347551]}, "type": "Feature", "properties": {"collection_times": [{"days": "Mon-Fri", "time": "5:00pm"}, {"days": "Sat", "time": "4:00pm"}, {"days": "Sun", "time": "Closed"}], "id": "4242000039", "name": "USPS COLLECTION BOX - BLUE BOX", "address": {"city": "HENDERSON", "state": "KY", "street": "2606 ZION RD", "postcode": "42420"}}},
{"geometry": {"type": "Point", "coordinates": [-87.5557381614, 37.8277347551]}, "type": "Feature", "properties": {"collection_times": [{"days": "Mon-Fri", "time": "5:00pm"}, {"days": "Sat", "time": "4:00pm"}, {"days": "Sun", "time": "Closed"}], "id": "4242000040", "name": "USPS COLLECTION BOX - BLUE BOX", "address": {"city": "HENDERSON", "state": "KY", "street": "2606 ZION RD", "postcode": "42420"}}},
{"geometry": {"type": "Point", "coordinates": [-87.5701201569, 37.8316193547]}, "type": "Feature", "properties": {"collection_times": [{"days": "Mon-Fri", "time": "5:00pm"}, {"days": "Sat", "time": "4:00pm"}, {"days": "Sun", "time": "Closed"}], "id": "4242000041", "name": "USPS COLLECTION BOX - BLUE BOX", "address": {"city": "HENDERSON", "state": "KY", "street": "1704 2ND ST", "postcode": "42420"}}},
{"geometry": {"type": "Point", "coordinates": [-87.5939869185, 37.8401382093]}, "type": "Feature", "properties": {"collection_times": [{"days": "Mon-Fri", "time": "5:30pm"}, {"days": "Sat", "time": "4:30pm"}, {"days": "Sun", "time": "Closed"}], "id": "4242000042", "name": "USPS COLLECTION BOX - PO LOBBY", "address": {"city": "HENDERSON", "state": "KY", "street": "100 1ST ST", "postcode": "42420"}}},
{"geometry": {"type": "Point", "coordinates": [-87.5429824665, 37.864817409]}, "type": "Feature", "properties": {"collection_times": [{"days": "Mon-Fri", "time": "4:45pm"}, {"days": "Sat", "time": "3:45pm"}, {"days": "Sun", "time": "Closed"}], "id": "4242000044", "name": "USPS COLLECTION BOX - BLUE BOX", "address": {"city": "HENDERSON", "state": "KY", "street": "2950 US HIGHWAY 60 E", "postcode": "42420"}}},
{"geometry": {"type": "Point", "coordinates": [-87.5939869185, 37.8401382093]}, "type": "Feature", "properties": {"collection_times": [{"days": "Mon-Fri", "time": "5:15pm"}, {"days": "Sat", "time": "4:15pm"}, {"days": "Sun", "time": "Closed"}], "id": "4242000045", "name": "USPS COLLECTION BOX - APC", "address": {"city": "HENDERSON", "state": "KY", "street": "100 1ST ST", "postcode": "42420"}}},
{"geometry": {"type": "Point", "coordinates": [-87.4978578581, 37.3275803814]}, "type": "Feature", "properties": {"collection_times": [{"days": "Mon-Sat", "time": "10:00am"}, {"days": "Sun", "time": "Closed"}], "id": "4243100001", "name": "USPS COLLECTION BOX - BLUE BOX", "address": {"city": "MADISONVILLE", "state": "KY", "street": "24 UNION ST", "postcode": "42431"}}},
{"geometry": {"type": "Point", "coordinates": [-87.4791914408, 37.3228588609]}, "type": "Feature", "properties": {"collection_times": [{"days": "Mon-Sat", "time": "10:00am"}, {"days": "Sun", "time": "Closed"}], "id": "4243100005", "name": "USPS COLLECTION BOX - BLUE BOX", "address": {"city": "MADISONVILLE", "state": "KY", "street": "455 MADISON SQUARE DR", "postcode": "42431"}}},
{"geometry": {"type": "Point", "coordinates": [-87.4965147093, 37.3404240181]}, "type": "Feature", "properties": {"collection_times": [{"days": "Mon-Sat", "time": "10:00am"}, {"days": "Sun", "time": "Closed"}], "id": "4243100013", "name": "USPS COLLECTION BOX - BLUE BOX", "address": {"city": "MADISONVILLE", "state": "KY", "street": "900 HOSPITAL DR", "postcode": "42431"}}},
{"geometry": {"type": "Point", "coordinates": [-87.500857242, 37.3283787743]}, "type": "Feature", "properties": {"collection_times": [{"days": "Mon-Fri", "time": "4:45pm"}, {"days": "Sat", "time": "4:00pm"}, {"days": "Sun", "time": "Closed"}], "id": "4243100017", "name": "USPS COLLECTION BOX - BLUE BOX", "address": {"city": "MADISONVILLE", "state": "KY", "street": "117 W CENTER ST", "postcode": "42431"}}},
{"geometry": {"type": "Point", "coordinates": [-87.4972825864, 37.3463206242]}, "type": "Feature", "properties": {"collection_times": [{"days": "Mon-Sat", "time": "9:00am"}, {"days": "Sun", "time": "Closed"}], "id": "4243100019", "name": "USPS COLLECTION BOX - BLUE BOX", "address": {"city": "MADISONVILLE", "state": "KY", "street": "1062 THORNBERRY DR", "postcode": "42431"}}},
{"geometry": {"type": "Point", "coordinates": [-87.5097567226, 37.3044042104]}, "type": "Feature", "properties": {"collection_times": [{"days": "Mon-Sat", "time": "1:15pm"}, {"days": "Sun", "time": "Closed"}], "id": "4243100026", "name": "USPS COLLECTION BOX - BLUE BOX", "address": {"city": "MADISONVILLE", "state": "KY", "street": "1771 S MAIN ST", "postcode": "42431"}}},
{"geometry": {"type": "Point", "coordinates": [-87.500857242, 37.3283787743]}, "type": "Feature", "properties": {"collection_times": [{"days": "Mon-Fri", "time": "4:45pm"}, {"days": "Sat", "time": "4:00pm"}, {"days": "Sun", "time": "Closed"}], "id": "4243100033", "name": "USPS COLLECTION BOX - PO LOBBY", "address": {"city": "MADISONVILLE", "state": "KY", "street": "117 W CENTER ST", "postcode": "42431"}}},
{"geometry": {"type": "Point", "coordinates": [-87.4920218426, 37.3510957171]}, "type": "Feature", "properties": {"collection_times": [{"days": "Mon-Sat", "time": "10:00am"}, {"days": "Sun", "time": "Closed"}], "id": "4243100040", "name": "USPS COLLECTION BOX - BLUE BOX", "address": {"city": "MADISONVILLE", "state": "KY", "street": "540 ISLAND FORD RD", "postcode": "42431"}}},
{"geometry": {"type": "Point", "coordinates": [-87.500857242, 37.3283787743]}, "type": "Feature", "properties": {"collection_times": [{"days": "Mon-Fri", "time": "4:45pm"}, {"days": "Sat", "time": "4:00pm"}, {"days": "Sun", "time": "Closed"}], "id": "4243100049", "name": "USPS COLLECTION BOX - BLUE BOX", "address": {"city": "MADISONVILLE", "state": "KY", "street": "117 W CENTER ST", "postcode": "42431"}}},
{"geometry": {"type": "Point", "coordinates": [-87.5765493685, 37.3690539611]}, "type": "Feature", "properties": {"collection_times": [{"days": "Mon-Fri", "time": "3:20pm"}, {"days": "Sat", "time": "12:45pm"}, {"days": "Sun", "time": "Closed"}], "id": "4243600000", "name": "USPS COLLECTION BOX - BLUE BOX", "address": {"city": "MANITOU", "state": "KY", "street": "5270 NEBO RD", "postcode": "42436"}}},
{"geometry": {"type": "Point", "coordinates": [-87.5765493685, 37.3690539611]}, "type": "Feature", "properties": {"collection_times": [{"days": "Mon-Fri", "time": "3:20pm"}, {"days": "Sat", "time": "12:45pm"}, {"days": "Sun", "time": "Closed"}], "id": "4243600001", "name": "USPS COLLECTION BOX - PO LOBBY", "address": {"city": "MANITOU", "state": "KY", "street": "5270 NEBO RD", "postcode": "42436"}}},
{"geometry": {"type": "Point", "coordinates": [-87.9188423386, 37.6852951502]}, "type": "Feature", "properties": {"collection_times": [{"days": "Mon-Fri", "time": "3:45pm"}, {"days": "Sat", "time": "3:00pm"}, {"days": "Sun", "time": "Closed"}], "id": "4243700000", "name": "USPS COLLECTION BOX - BLUE BOX", "address": {"city": "MORGANFIELD", "state": "KY", "street": "231 W MAIN ST", "postcode": "42437"}}},
{"geometry": {"type": "Point", "coordinates": [-87.9188423386, 37.6852951502]}, "type": "Feature", "properties": {"collection_times": [{"days": "Mon-Fri", "time": "3:45pm"}, {"days": "Sat", "time": "2:45pm"}, {"days": "Sun", "time": "Closed"}], "id": "4243700013", "name": "USPS COLLECTION BOX - PO LOBBY", "address": {"city": "MORGANFIELD", "state": "KY", "street": "231 W MAIN ST", "postcode": "42437"}}},
{"geometry": {"type": "Point", "coordinates": [-87.4728464153, 37.2375150113]}, "type": "Feature", "properties": {"collection_times": [{"days": "Mon-Fri", "time": "3:30pm"}, {"days": "Sat", "time": "11:15am"}, {"days": "Sun", "time": "Closed"}], "id": "4244000000", "name": "USPS COLLECTION BOX - PO LOBBY", "address": {"city": "MORTONS GAP", "state": "KY", "street": "140 CROSS ST", "postcode": "42440"}}},
{"geometry": {"type": "Point", "coordinates": [-87.4728464153, 37.2375150113]}, "type": "Feature", "properties": {"collection_times": [{"days": "Mon-Fri", "time": "3:30pm"}, {"days": "Sat", "time": "11:30am"}, {"days": "Sun", "time": "Closed"}], "id": "4244000001", "name": "USPS COLLECTION BOX - BLUE BOX", "address": {"city": "MORTONS GAP", "state": "KY", "street": "140 CROSS ST", "postcode": "42440"}}},
{"geometry": {"type": "Point", "coordinates": [-87.4530817908, 37.1872771236]}, "type": "Feature", "properties": {"collection_times": [{"days": "Mon-Fri", "time": "3:45pm"}, {"days": "Sat", "time": "11:00am"}, {"days": "Sun", "time": "Closed"}], "id": "4244200000", "name": "USPS COLLECTION BOX - BLUE BOX", "address": {"city": "NORTONVILLE", "state": "KY", "street": "39 E WALNUT ST", "postcode": "42442"}}},
{"geometry": {"type": "Point", "coordinates": [-87.4530817908, 37.1872771236]}, "type": "Feature", "properties": {"collection_times": [{"days": "Mon-Fri", "time": "3:45pm"}, {"days": "Sat", "time": "11:00am"}, {"days": "Sun", "time": "Closed"}], "id": "4244200001", "name": "USPS COLLECTION BOX - PO LOBBY", "address": {"city": "NORTONVILLE", "state": "KY", "street": "39 E WALNUT ST", "postcode": "42442"}}},
{"geometry": {"type": "Point", "coordinates": [-87.6440609373, 37.6404076156]}, "type": "Feature", "properties": {"collection_times": [{"days": "Mon-Fri", "time": "3:45pm"}, {"days": "Sat", "time": "10:00am"}, {"days": "Sun", "time": "Closed"}], "id": "4244400000", "name": "USPS COLLECTION BOX - BLUE BOX", "address": {"city": "POOLE", "state": "KY", "street": "9599 US HIGHWAY 41A N", "postcode": "42444"}}},
{"geometry": {"type": "Point", "coordinates": [-87.6440609373, 37.6404076156]}, "type": "Feature", "properties": {"collection_times": [{"days": "Mon-Fri", "time": "3:45pm"}, {"days": "Sat", "time": "10:00am"}, {"days": "Sun", "time": "Closed"}], "id": "4244400001", "name": "USPS COLLECTION BOX - PO LOBBY", "address": {"city": "POOLE", "state": "KY", "street": "9599 US HIGHWAY 41A N", "postcode": "42444"}}},
{"geometry": {"type": "Point", "coordinates": [-87.873209949, 37.1223402685]}, "type": "Feature", "properties": {"collection_times": [{"days": "Mon-Fri", "time": "4:00pm"}, {"days": "Sat", "time": "3:45pm"}, {"days": "Sun", "time": "Closed"}], "id": "4244500000", "name": "USPS COLLECTION BOX - PO LOBBY", "address": {"city": "PRINCETON", "state": "KY", "street": "201 W WASHINGTON ST", "postcode": "42445"}}},
{"geometry": {"type": "Point", "coordinates": [-87.873209949, 37.1223402685]}, "type": "Feature", "properties": {"collection_times": [{"days": "Mon-Fri", "time": "4:00pm"}, {"days": "Sat", "time": "3:45pm"}, {"days": "Sun", "time": "Closed"}], "id": "4244500002", "name": "USPS COLLECTION BOX - BLUE BOX", "address": {"city": "PRINCETON", "state": "KY", "street": "201 W WASHINGTON ST", "postcode": "42445"}}},
{"geometry": {"type": "Point", "coordinates": [-87.873209949, 37.1223402685]}, "type": "Feature", "properties": {"collection_times": [{"days": "Mon-Fri", "time": "4:00pm"}, {"days": "Sat", "time": "3:45pm"}, {"days": "Sun", "time": "Closed"}], "id": "4244500003", "name": "USPS COLLECTION BOX - BLUE BOX", "address": {"city": "PRINCETON", "state": "KY", "street": "201 W WASHINGTON ST", "postcode": "42445"}}},
{"geometry": {"type": "Point", "coordinates": [-87.8996353094, 37.1151574121]}, "type": "Feature", "properties": {"collection_times": [{"days": "Mon-Sat", "time": "10:00am"}, {"days": "Sun", "time": "Closed"}], "id": "4244500009", "name": "USPS COLLECTION BOX - BLUE BOX", "address": {"city": "PRINCETON", "state": "KY", "street": "500 US HIGHWAY 62 W", "postcode": "42445"}}},
{"geometry": {"type": "Point", "coordinates": [-87.7620082233, 37.396110375]}, "type": "Feature", "properties": {"collection_times": [{"days": "Mon-Sat", "time": "10:45am"}, {"days": "Sun", "time": "Closed"}], "id": "4245000018", "name": "USPS COLLECTION BOX - BLUE BOX", "address": {"city": "PROVIDENCE", "state": "KY", "street": "101 US HIGHWAY 41A N", "postcode": "42450"}}},
{"geometry": {"type": "Point", "coordinates": [-87.7626266124, 37.3974946104]}, "type": "Feature", "properties": {"collection_times": [{"days": "Mon-Fri", "time": "3:45pm"}, {"days": "Sat", "time": "11:45am"}, {"days": "Sun", "time": "Closed"}], "id": "4245000019", "name": "USPS COLLECTION BOX - PO LOBBY", "address": {"city": "PROVIDENCE", "state": "KY", "street": "107 E MAIN ST", "postcode": "42450"}}},
{"geometry": {"type": "Point", "coordinates": [-87.7626266124, 37.3974946104]}, "type": "Feature", "properties": {"collection_times": [{"days": "Mon-Fri", "time": "3:45pm"}, {"days": "Sat", "time": "11:45am"}, {"days": "Sun", "time": "Closed"}], "id": "4245000020", "name": "USPS COLLECTION BOX - BLUE BOX", "address": {"city": "PROVIDENCE", "state": "KY", "street": "107 E MAIN ST", "postcode": "42450"}}},
{"geometry": {"type": "Point", "coordinates": [-87.3565007472, 37.8516741233]}, "type": "Feature", "properties": {"collection_times": [{"days": "Mon-Fri", "time": "3:45pm"}, {"days": "Sat", "time": "9:45am"}, {"days": "Sun", "time": "Closed"}], "id": "4245100000", "name": "USPS COLLECTION BOX - BLUE BOX", "address": {"city": "REED", "state": "KY", "street": "16110 US HIGHWAY 60 E", "postcode": "42451"}}},
{"geometry": {"type": "Point", "coordinates": [-87.3565007472, 37.8516741233]}, "type": "Feature", "properties": {"collection_times": [{"days": "Mon-Fri", "time": "3:45pm"}, {"days": "Sat", "time": "9:45am"}, {"days": "Sun", "time": "Closed"}], "id": "4245100001", "name": "USPS COLLECTION BOX - PO LOBBY", "address": {"city": "REED", "state": "KY", "street": "16110 US HIGHWAY 60 E", "postcode": "42451"}}},
{"geometry": {"type": "Point", "coordinates": [-87.5468052379, 37.6739608413]}, "type": "Feature", "properties": {"collection_times": [{"days": "Mon-Fri", "time": "2:30pm"}, {"days": "Sat", "time": "11:00am"}, {"days": "Sun", "time": "Closed"}], "id": "4245200000", "name": "USPS COLLECTION BOX - BLUE BOX", "address": {"city": "ROBARDS", "state": "KY", "street": "1204 E RAILROAD ST", "postcode": "42452"}}},
{"geometry": {"type": "Point", "coordinates": [-87.5468052379, 37.6739608413]}, "type": "Feature", "properties": {"collection_times": [{"days": "Mon-Fri", "time": "2:30pm"}, {"days": "Sat", "time": "11:00am"}, {"days": "Sun", "time": "Closed"}], "id": "4245200001", "name": "USPS COLLECTION BOX - PO LOBBY", "address": {"city": "ROBARDS", "state": "KY", "street": "1204 E RAILROAD ST", "postcode": "42452"}}},
{"geometry": {"type": "Point", "coordinates": [-87.5398779688, 37.1869975439]}, "type": "Feature", "properties": {"collection_times": [{"days": "Mon-Fri", "time": "3:15pm"}, {"days": "Sat", "time": "11:15am"}, {"days": "Sun", "time": "Closed"}], "id": "4245300000", "name": "USPS COLLECTION BOX - BLUE BOX", "address": {"city": "SAINT CHARLES", "state": "KY", "street": "6205 NORTONVILLE RD", "postcode": "42453"}}},
{"geometry": {"type": "Point", "coordinates": [-87.532574174, 37.6075083336]}, "type": "Feature", "properties": {"collection_times": [{"days": "Mon-Fri", "time": "3:45pm"}, {"days": "Sat", "time": "10:15am"}, {"days": "Sun", "time": "Closed"}], "id": "4245500000", "name": "USPS COLLECTION BOX - BLUE BOX", "address": {"city": "SEBREE", "state": "KY", "street": "32 WATKINS SEBREE RD", "postcode": "42455"}}},
{"geometry": {"type": "Point", "coordinates": [-87.532574174, 37.6075083336]}, "type": "Feature", "properties": {"collection_times": [{"days": "Mon-Fri", "time": "3:45pm"}, {"days": "Sat", "time": "10:15am"}, {"days": "Sun", "time": "Closed"}], "id": "4245500001", "name": "USPS COLLECTION BOX - PO LOBBY", "address": {"city": "SEBREE", "state": "KY", "street": "32 WATKINS SEBREE RD", "postcode": "42455"}}},
{"geometry": {"type": "Point", "coordinates": [-87.532574174, 37.6075083336]}, "type": "Feature", "properties": {"collection_times": [{"days": "Mon-Fri", "time": "3:45pm"}, {"days": "Sat", "time": "10:15am"}, {"days": "Sun", "time": "Closed"}], "id": "4245500003", "name": "USPS COLLECTION BOX - PO LOBBY", "address": {"city": "SEBREE", "state": "KY", "street": "32 WATKINS SEBREE RD", "postcode": "42455"}}},
{"geometry": {"type": "Point", "coordinates": [-87.5511885564, 37.5914618223]}, "type": "Feature", "properties": {"collection_times": [{"days": "Mon-Sat", "time": "10:00am"}, {"days": "Sun", "time": "Closed"}], "id": "4245500004", "name": "USPS COLLECTION BOX - BLUE BOX", "address": {"city": "SEBREE", "state": "KY", "street": "9762 US HIGHWAY 41A N", "postcode": "42455"}}},
{"geometry": {"type": "Point", "coordinates": [-87.5081953281, 37.4880659437]}, "type": "Feature", "properties": {"collection_times": [{"days": "Mon-Fri", "time": "3:45pm"}, {"days": "Sat", "time": "10:00am"}, {"days": "Sun", "time": "Closed"}], "id": "4245600000", "name": "USPS COLLECTION BOX - BLUE BOX", "address": {"city": "SLAUGHTERS", "state": "KY", "street": "15452 STATE ROUTE 120 E", "postcode": "42456"}}},
{"geometry": {"type": "Point", "coordinates": [-87.5081953281, 37.4880659437]}, "type": "Feature", "properties": {"collection_times": [{"days": "Mon-Fri", "time": "4:00pm"}, {"days": "Sat", "time": "10:00am"}, {"days": "Sun", "time": "Closed"}], "id": "4245600001", "name": "USPS COLLECTION BOX - PO LOBBY", "address": {"city": "SLAUGHTERS", "state": "KY", "street": "15452 STATE ROUTE 120 E", "postcode": "42456"}}},
{"geometry": {"type": "Point", "coordinates": [-87.6712732327, 37.8072702906]}, "type": "Feature", "properties": {"collection_times": [{"days": "Mon-Sat", "time": "11:00am"}, {"days": "Sun", "time": "Closed"}], "id": "4245700000", "name": "USPS COLLECTION BOX - BLUE BOX", "address": {"city": "SMITH MILLS", "state": "KY", "street": "6161 STATE ROUTE 136 W", "postcode": "42457"}}},
{"geometry": {"type": "Point", "coordinates": [-87.6712732327, 37.8072702906]}, "type": "Feature", "properties": {"collection_times": [{"days": "Mon-Sat", "time": "11:00am"}, {"days": "Sun", "time": "Closed"}], "id": "4245700001", "name": "USPS COLLECTION BOX - PO LOBBY", "address": {"city": "SMITH MILLS", "state": "KY", "street": "6161 STATE ROUTE 136 W", "postcode": "42457"}}},
{"geometry": {"type": "Point", "coordinates": [-87.4148062223, 37.8593364549]}, "type": "Feature", "properties": {"collection_times": [{"days": "Mon-Fri", "time": "3:45pm"}, {"days": "Sat", "time": "10:15am"}, {"days": "Sun", "time": "Closed"}], "id": "4245800000", "name": "USPS COLLECTION BOX - BLUE BOX", "address": {"city": "SPOTTSVILLE", "state": "KY", "street": "1003 MULBERRY ST", "postcode": "42458"}}},
{"geometry": {"type": "Point", "coordinates": [-87.4148062223, 37.8593364549]}, "type": "Feature", "properties": {"collection_times": [{"days": "Mon-Fri", "time": "3:45pm"}, {"days": "Sat", "time": "10:15am"}, {"days": "Sun", "time": "Closed"}], "id": "4245800001", "name": "USPS COLLECTION BOX - BLUE BOX", "address": {"city": "SPOTTSVILLE", "state": "KY", "street": "1003 MULBERRY ST", "postcode": "42458"}}},
{"geometry": {"type": "Point", "coordinates": [-87.984305569, 37.5446190208]}, "type": "Feature", "properties": {"collection_times": [{"days": "Mon-Fri", "time": "3:45pm"}, {"days": "Sat", "time": "12:00pm"}, {"days": "Sun", "time": "Closed"}], "id": "4245900011", "name": "USPS COLLECTION BOX - PO LOBBY", "address": {"city": "STURGIS", "state": "KY", "street": "409 N MAIN ST", "postcode": "42459"}}},
{"geometry": {"type": "Point", "coordinates": [-88.0030082983, 37.5562238277]}, "type": "Feature", "properties": {"collection_times": [{"days": "Mon-Fri", "time": "3:45pm"}, {"days": "Sat", "time": "12:00pm"}, {"days": "Sun", "time": "Closed"}], "id": "4245900013", "name": "USPS COLLECTION BOX - BLUE BOX", "address": {"city": "STURGIS", "state": "KY", "street": "409 N MAIN ST", "postcode": "42459"}}},
{"geometry": {"type": "Point", "coordinates": [-87.944110841, 37.4966483257]}, "type": "Feature", "properties": {"collection_times": [{"days": "Mon-Fri", "time": "1:00pm"}, {"days": "Sat", "time": "10:00am"}, {"days": "Sun", "time": "Closed"}], "id": "4246000000", "name": "USPS COLLECTION BOX - BLUE BOX", "address": {"city": "SULLIVAN", "state": "KY", "street": "16470 STATE ROUTE 109", "postcode": "42460"}}},
{"geometry": {"type": "Point", "coordinates": [-87.944110841, 37.4966483257]}, "type": "Feature", "properties": {"collection_times": [{"days": "Mon-Fri", "time": "1:00pm"}, {"days": "Sat", "time": "10:00am"}, {"days": "Sun", "time": "Closed"}], "id": "4246000001", "name": "USPS COLLECTION BOX - PO LOBBY", "address": {"city": "SULLIVAN", "state": "KY", "street": "16470 STATE ROUTE 109", "postcode": "42460"}}},
{"geometry": {"type": "Point", "coordinates": [-87.9358430122, 37.7724006441]}, "type": "Feature", "properties": {"collection_times": [{"days": "Mon-Fri", "time": "3:45pm"}, {"days": "Sat", "time": "12:45pm"}, {"days": "Sun", "time": "Closed"}], "id": "4246100000", "name": "USPS COLLECTION BOX - BLUE BOX", "address": {"city": "UNIONTOWN", "state": "KY", "street": "223 MAIN ST", "postcode": "42461"}}},
{"geometry": {"type": "Point", "coordinates": [-87.9358430122, 37.7724006441]}, "type": "Feature", "properties": {"collection_times": [{"days": "Mon-Fri", "time": "3:45pm"}, {"days": "Sat", "time": "12:45pm"}, {"days": "Sun", "time": "Closed"}], "id": "4246100001", "name": "USPS COLLECTION BOX - PO LOBBY", "address": {"city": "UNIONTOWN", "state": "KY", "street": "223 MAIN ST", "postcode": "42461"}}},
{"geometry": {"type": "Point", "coordinates": [-87.9141485908, 37.7641931709]}, "type": "Feature", "properties": {"collection_times": [{"days": "Mon-Sat", "time": "11:00am"}, {"days": "Sun", "time": "Closed"}], "id": "4246100002", "name": "USPS COLLECTION BOX - BLUE BOX", "address": {"city": "UNIONTOWN", "state": "KY", "street": "620 3RD ST", "postcode": "42461"}}},
{"geometry": {"type": "Point", "coordinates": [-87.8133577404, 37.7100151321]}, "type": "Feature", "properties": {"collection_times": [{"days": "Mon-Fri", "time": "1:45pm"}, {"days": "Sat", "time": "10:00am"}, {"days": "Sun", "time": "Closed"}], "id": "4246200000", "name": "USPS COLLECTION BOX - BLUE BOX", "address": {"city": "WAVERLY", "state": "KY", "street": "124 N MAPLE ST", "postcode": "42462"}}},
{"geometry": {"type": "Point", "coordinates": [-87.8133577404, 37.7100151321]}, "type": "Feature", "properties": {"collection_times": [{"days": "Mon-Fri", "time": "1:45pm"}, {"days": "Sat", "time": "10:00am"}, {"days": "Sun", "time": "Closed"}], "id": "4246200001", "name": "USPS COLLECTION BOX - BLUE BOX", "address": {"city": "WAVERLY", "state": "KY", "street": "124 N MAPLE ST", "postcode": "42462"}}},
{"geometry": {"type": "Point", "coordinates": [-87.8587549357, 37.4906248141]}, "type": "Feature", "properties": {"collection_times": [{"days": "Mon-Fri", "time": "3:45pm"}, {"days": "Sat", "time": "10:30am"}, {"days": "Sun", "time": "Closed"}], "id": "4246300000", "name": "USPS COLLECTION BOX - BLUE BOX", "address": {"city": "WHEATCROFT", "state": "KY", "street": "18 E BROADWAY ST", "postcode": "42463"}}},
{"geometry": {"type": "Point", "coordinates": [-87.8587549357, 37.4906248141]}, "type": "Feature", "properties": {"collection_times": [{"days": "Mon-Fri", "time": "3:45pm"}, {"days": "Sat", "time": "10:30am"}, {"days": "Sun", "time": "Closed"}], "id": "4246300001", "name": "USPS COLLECTION BOX - PO LOBBY", "address": {"city": "WHEATCROFT", "state": "KY", "street": "18 E BROADWAY ST", "postcode": "42463"}}},
{"geometry": {"type": "Point", "coordinates": [-87.3840343569, 37.1831814585]}, "type": "Feature", "properties": {"collection_times": [{"days": "Mon-Fri", "time": "3:30pm"}, {"days": "Sat", "time": "10:30am"}, {"days": "Sun", "time": "Closed"}], "id": "4246400000", "name": "USPS COLLECTION BOX - BLUE BOX", "address": {"city": "WHITEPLAINS", "state": "KY", "street": "123 S BOB BRUCE DR", "postcode": "42464"}}},
{"geometry": {"type": "Point", "coordinates": [-87.3840343569, 37.1831814585]}, "type": "Feature", "properties": {"collection_times": [{"days": "Mon-Fri", "time": "3:30pm"}, {"days": "Sat", "time": "10:30am"}, {"days": "Sun", "time": "Closed"}], "id": "4246400001", "name": "USPS COLLECTION BOX - PO LOBBY", "address": {"city": "WHITEPLAINS", "state": "KY", "street": "123 S BOB BRUCE DR", "postcode": "42464"}}}
]}
