{"type": "FeatureCollection", "features": [
{"geometry": {"type": "Point", "coordinates": [-84.6040635062, 37.0938118903]}, "type": "Feature", "properties": {"collection_times": [{"days": "Mon-Fri", "time": "5:00pm"}, {"days": "Sat", "time": "12:00pm"}, {"days": "Sun", "time": "Closed"}], "id": "4250100000", "name": "USPS COLLECTION BOX - BLUE BOX", "address": {"city": "SOMERSET", "state": "KY", "street": "119 N MAPLE ST", "postcode": "42501"}}},
{"geometry": {"type": "Point", "coordinates": [-84.6035933982, 37.0924038132]}, "type": "Feature", "properties": {"collection_times": [{"days": "Mon-Sat", "time": "11:00am"}, {"days": "Sun", "time": "Closed"}], "id": "4250100004", "name": "USPS COLLECTION BOX - BLUE BOX", "address": {"city": "SOMERSET", "state": "KY", "street": "200 E MOUNT VERNON ST", "postcode": "42501"}}},
{"geometry": {"type": "Point", "coordinates": [-84.6040896722, 37.0906934352]}, "type": "Feature", "properties": {"collection_times": [{"days": "Mon-Sat", "time": "11:00am"}, {"days": "Sun", "time": "Closed"}], "id": "4250100005", "name": "USPS COLLECTION BOX - BLUE BOX", "address": {"city": "SOMERSET", "state": "KY", "street": "100 S MAIN ST", "postcode": "42501"}}},
{"geometry": {"type": "Point", "coordinates": [-84.6167306095, 37.0888886513]}, "type": "Feature", "properties": {"collection_times": [{"days": "Mon-Fri", "time": "11:00am"}, {"days": "Sat", "time": "9:00am"}, {"days": "Sun", "time": "Closed"}], "id": "4250100016", "name": "USPS COLLECTION BOX - BLUE BOX", "address": {"city": "SOMERSET", "state": "KY", "street": "445 S HIGHWAY 27", "postcode": "42501"}}},
{"geometry": {"type": "Point", "coordinates": [-84.6050939189, 37.0935485152]}, "type": "Feature", "properties": {"collection_times": [{"days": "Mon-Fri", "time": "11:00am"}, {"days": "Sat", "time": "9:00am"}, {"days": "Sun", "time": "Closed"}], "id": "4250100019", "name": "USPS COLLECTION BOX - BLUE BOX", "address": {"city": "SOMERSET", "state": "KY", "street": "100 N MAIN ST", "postcode": "42501"}}},
{"geometry": {"type": "Point", "coordinates": [-84.6266268066, 37.037477322]}, "type": "Feature", "properties": {"collection_times": [{"days": "Mon-Fri", "time": "11:00am"}, {"days": "Sat", "time": "10:00am"}, {"days": "Sun", "time": "Closed"}], "id": "4250100027", "name": "USPS COLLECTION BOX - BLUE BOX", "address": {"city": "SOMERSET", "state": "KY", "street": "3844 S HIGHWAY 27", "postcode": "42501"}}},
{"geometry": {"type": "Point", "coordinates": [-84.6271271052, 37.0333397063]}, "type": "Feature", "properties": {"collection_times": [{"days": "Mon-Fri", "time": "11:00am"}, {"days": "Sat", "time": "10:00am"}, {"days": "Sun", "time": "Closed"}], "id": "4250100028", "name": "USPS COLLECTION BOX - BLUE BOX", "address": {"city": "SOMERSET", "state": "KY", "street": "4150 S HIGHWAY 27", "postcode": "42501"}}},
{"geometry": {"type": "Point", "coordinates": [-84.6226282944, 37.0599411298]}, "type": "Feature", "properties": {"collection_times": [{"days": "Mon-Fri", "time": "11:00am"}, {"days": "Sat", "time": "10:00am"}, {"days": "Sun", "time": "Closed"}], "id": "4250100043", "name": "USPS COLLECTION BOX - BLUE BOX", "address": {"city": "SOMERSET", "state": "KY", "street": "2292 S HIGHWAY 27", "postcode": "42501"}}},
{"geometry": {"type": "Point", "coordinates": [-84.6175298852, 37.0772779565]}, "type": "Feature", "properties": {"collection_times": [{"days": "Mon-Fri", "time": "11:00am"}, {"days": "Sat", "time": "9:00am"}, {"days": "Sun", "time": "Closed"}], "id": "4250100044", "name": "USPS COLLECTION BOX - BLUE BOX", "address": {"city": "SOMERSET", "state": "KY", "street": "1056 S HIGHWAY 27", "postcode": "42501"}}},
{"geometry": {"type": "Point", "coordinates": [-84.6040635062, 37.0938118903]}, "type": "Feature", "properties": {"collection_times": [{"days": "Mon-Fri", "time": "5:00pm"}, {"days": "Sat", "time": "12:00pm"}, {"days": "Sun", "time": "Closed"}], "id": "4250100045", "name": "USPS COLLECTION BOX - BLUE BOX", "address": {"city": "SOMERSET", "state": "KY", "street": "119 N MAPLE ST", "postcode": "42501"}}},
{"geometry": {"type": "Point", "coordinates": [-84.6040635062, 37.0938118903]}, "type": "Feature", "properties": {"collection_times": [{"days": "Mon-Fri", "time": "5:00pm"}, {"days": "Sat", "time": "12:00pm"}, {"days": "Sun", "time": "Closed"}], "id": "4250100046", "name": "USPS COLLECTION BOX - BLUE BOX", "address": {"city": "SOMERSET", "state": "KY", "street": "119 N MAPLE ST", "postcode": "42501"}}},
{"geometry": {"type": "Point", "coordinates": [-84.6254119248, 37.0527969185]}, "type": "Feature", "properties": {"collection_times": [{"days": "Mon-Fri", "time": "11:00am"}, {"days": "Sat", "time": "8:45am"}, {"days": "Sun", "time": "Closed"}], "id": "4250100050", "name": "USPS COLLECTION BOX - BLUE BOX", "address": {"city": "SOMERSET", "state": "KY", "street": "2835 S HIGHWAY 27", "postcode": "42501"}}},
{"geometry": {"type": "Point", "coordinates": [-84.6170194381, 37.0908850248]}, "type": "Feature", "properties": {"collection_times": [{"days": "Mon-Fri", "time": "11:00am"}, {"days": "Sat", "time": "10:00am"}, {"days": "Sun", "time": "Closed"}], "id": "4250100055", "name": "USPS COLLECTION BOX - BLUE BOX", "address": {"city": "SOMERSET", "state": "KY", "street": "370 S HIGHWAY 27", "postcode": "42501"}}},
{"geometry": {"type": "Point", "coordinates": [-84.5647185461, 37.0762919002]}, "type": "Feature", "properties": {"collection_times": [{"days": "Mon-Fri", "time": "11:00am"}, {"days": "Sat", "time": "10:00am"}, {"days": "Sun", "time": "Closed"}], "id": "4250100056", "name": "USPS COLLECTION BOX - BLUE BOX", "address": {"city": "SOMERSET", "state": "KY", "street": "121 TRADEPARK DR", "postcode": "42501"}}},
{"geometry": {"type": "Point", "coordinates": [-84.5921588689, 37.0961612843]}, "type": "Feature", "properties": {"collection_times": [{"days": "Mon-Sat", "time": "10:00am"}, {"days": "Sun", "time": "Closed"}], "id": "4250100057", "name": "USPS COLLECTION BOX - BLUE BOX", "address": {"city": "SOMERSET", "state": "KY", "street": "901 E MOUNT VERNON ST", "postcode": "42501"}}},
{"geometry": {"type": "Point", "coordinates": [-84.6040635062, 37.0938118903]}, "type": "Feature", "properties": {"collection_times": [{"days": "Mon-Fri", "time": "5:00pm"}, {"days": "Sat", "time": "12:00pm"}, {"days": "Sun", "time": "Closed"}], "id": "4250100059", "name": "USPS COLLECTION BOX - PO LOBBY", "address": {"city": "SOMERSET", "state": "KY", "street": "119 N MAPLE ST", "postcode": "42501"}}},
{"geometry": {"type": "Point", "coordinates": [-84.6041887812, 37.0941052495]}, "type": "Feature", "properties": {"collection_times": [{"days": "Mon-Fri", "time": "5:00pm"}, {"days": "Sat", "time": "12:00pm"}, {"days": "Sun", "time": "Closed"}], "id": "4250100062", "name": "USPS COLLECTION BOX - PO LOBBY", "address": {"city": "SOMERSET", "state": "KY", "street": "119 N MAPLE ST", "postcode": "42501"}}},
{"geometry": {"type": "Point", "coordinates": [-84.6215800599, 37.1005903248]}, "type": "Feature", "properties": {"collection_times": [{"days": "Mon-Sat", "time": "11:00am"}, {"days": "Sun", "time": "Closed"}], "id": "4250300000", "name": "USPS COLLECTION BOX - BLUE BOX", "address": {"city": "SOMERSET", "state": "KY", "street": "600 CLIFTY ST", "postcode": "42503"}}},
{"geometry": {"type": "Point", "coordinates": [-84.617643522, 37.0914301928]}, "type": "Feature", "properties": {"collection_times": [{"days": "Mon-Sat", "time": "10:00am"}, {"days": "Sun", "time": "Closed"}], "id": "4250300002", "name": "USPS COLLECTION BOX - BLUE BOX", "address": {"city": "SOMERSET", "state": "KY", "street": "345 N HIGHWAY 27", "postcode": "42503"}}},
{"geometry": {"type": "Point", "coordinates": [-84.6250106659, 37.0676848623]}, "type": "Feature", "properties": {"collection_times": [{"days": "Mon-Fri", "time": "3:30pm"}, {"days": "Sat", "time": "12:00pm"}, {"days": "Sun", "time": "Closed"}], "id": "4250300007", "name": "USPS COLLECTION BOX - BLUE BOX", "address": {"city": "SOMERSET", "state": "KY", "street": "299 WASHINGTON DR", "postcode": "42503"}}},
{"geometry": {"type": "Point", "coordinates": [-84.6291323871, 37.0911962668]}, "type": "Feature", "properties": {"collection_times": [{"days": "Mon-Sat", "time": "11:00am"}, {"days": "Sun", "time": "Closed"}], "id": "4250300009", "name": "USPS COLLECTION BOX - BLUE BOX", "address": {"city": "SOMERSET", "state": "KY", "street": "647 W HIGHWAY 80", "postcode": "42503"}}},
{"geometry": {"type": "Point", "coordinates": [-84.6250106659, 37.0676848623]}, "type": "Feature", "properties": {"collection_times": [{"days": "Mon-Fri", "time": "3:30pm"}, {"days": "Sat", "time": "12:00pm"}, {"days": "Sun", "time": "Closed"}], "id": "4250300010", "name": "USPS COLLECTION BOX - PO LOBBY", "address": {"city": "SOMERSET", "state": "KY", "street": "299 WASHINGTON DR", "postcode": "42503"}}},
{"geometry": {"type": "Point", "coordinates": [-84.6425237314, 36.9846284047]}, "type": "Feature", "properties": {"collection_times": [{"days": "Mon-Fri", "time": "4:00pm"}, {"days": "Sat", "time": "11:00am"}, {"days": "Sun", "time": "Closed"}], "id": "4251800000", "name": "USPS COLLECTION BOX - BLUE BOX", "address": {"city": "BRONSTON", "state": "KY", "street": "1801 HIGHWAY 90", "postcode": "42518"}}},
{"geometry": {"type": "Point", "coordinates": [-84.6425237314, 36.9846284047]}, "type": "Feature", "properties": {"collection_times": [{"days": "Mon-Fri", "time": "4:00pm"}, {"days": "Sat", "time": "11:00am"}, {"days": "Sun", "time": "Closed"}], "id": "4251800002", "name": "USPS COLLECTION BOX - PO LOBBY", "address": {"city": "BRONSTON", "state": "KY", "street": "1801 HIGHWAY 90", "postcode": "42518"}}},
{"geometry": {"type": "Point", "coordinates": [-84.5949708175, 36.9803490659]}, "type": "Feature", "properties": {"collection_times": [{"days": "Mon-Fri", "time": "4:15pm"}, {"days": "Sat", "time": "11:15am"}, {"days": "Sun", "time": "Closed"}], "id": "4251900000", "name": "USPS COLLECTION BOX - BLUE BOX", "address": {"city": "BURNSIDE", "state": "KY", "street": "8250 S HIGHWAY 27", "postcode": "42519"}}},
{"geometry": {"type": "Point", "coordinates": [-84.5949708175, 36.9803490659]}, "type": "Feature", "properties": {"collection_times": [{"days": "Mon-Fri", "time": "4:15pm"}, {"days": "Sat", "time": "11:15am"}, {"days": "Sun", "time": "Closed"}], "id": "4251900001", "name": "USPS COLLECTION BOX - PO LOBBY", "address": {"city": "BURNSIDE", "state": "KY", "street": "8250 S HIGHWAY 27", "postcode": "42519"}}},
{"geometry": {"type": "Point", "coordinates": [-85.011823021, 37.192253958]}, "type": "Feature", "properties": {"collection_times": [{"days": "Mon-Fri", "time": "3:00pm"}, {"days": "Sat", "time": "11:00am"}, {"days": "Sun", "time": "Closed"}], "id": "4252800000", "name": "USPS COLLECTION BOX - BLUE BOX", "address": {"city": "DUNNVILLE", "state": "KY", "street": "10765 S US 127", "postcode": "42528"}}},
{"geometry": {"type": "Point", "coordinates": [-85.011823021, 37.192253958]}, "type": "Feature", "properties": {"collection_times": [{"days": "Mon-Fri", "time": "3:00pm"}, {"days": "Sat", "time": "11:00am"}, {"days": "Sun", "time": "Closed"}], "id": "4252800001", "name": "USPS COLLECTION BOX - PO LOBBY", "address": {"city": "DUNNVILLE", "state": "KY", "street": "10765 S US 127", "postcode": "42528"}}},
{"geometry": {"type": "Point", "coordinates": [-84.9384675515, 37.3196463951]}, "type": "Feature", "properties": {"collection_times": [{"days": "Mon-Sat", "time": "3:30pm"}, {"days": "Sun", "time": "Closed"}], "id": "4253900000", "name": "USPS COLLECTION BOX - BLUE BOX", "address": {"city": "LIBERTY", "state": "KY", "street": "56 HUSTONVILLE ST", "postcode": "42539"}}},
{"geometry": {"type": "Point", "coordinates": [-84.9515113691, 37.2997673049]}, "type": "Feature", "properties": {"collection_times": [{"days": "Mon-Sat", "time": "1:15pm"}, {"days": "Sun", "time": "Closed"}], "id": "4253900001", "name": "USPS COLLECTION BOX - BLUE BOX", "address": {"city": "LIBERTY", "state": "KY", "street": "21 LIBERTY SQ", "postcode": "42539"}}},
{"geometry": {"type": "Point", "coordinates": [-84.9384675515, 37.3196463951]}, "type": "Feature", "properties": {"collection_times": [{"days": "Mon-Fri", "time": "4:00pm"}, {"days": "Sat", "time": "3:30pm"}, {"days": "Sun", "time": "Closed"}], "id": "4253900004", "name": "USPS COLLECTION BOX - PO LOBBY", "address": {"city": "LIBERTY", "state": "KY", "street": "56 HUSTONVILLE ST", "postcode": "42539"}}},
{"geometry": {"type": "Point", "coordinates": [-84.8201424084, 37.3550885623]}, "type": "Feature", "properties": {"collection_times": [{"days": "Mon-Fri", "time": "3:30pm"}, {"days": "Sat", "time": "11:00am"}, {"days": "Sun", "time": "Closed"}], "id": "4254100000", "name": "USPS COLLECTION BOX - BLUE BOX", "address": {"city": "MIDDLEBURG", "state": "KY", "street": "77 S COLLEGE ST", "postcode": "42541"}}},
{"geometry": {"type": "Point", "coordinates": [-84.8201424084, 37.3550885623]}, "type": "Feature", "properties": {"collection_times": [{"days": "Mon-Fri", "time": "3:30pm"}, {"days": "Sat", "time": "11:00am"}, {"days": "Sun", "time": "Closed"}], "id": "4254100001", "name": "USPS COLLECTION BOX - PO LOBBY", "address": {"city": "MIDDLEBURG", "state": "KY", "street": "77 S COLLEGE ST", "postcode": "42541"}}},
{"geometry": {"type": "Point", "coordinates": [-84.8512956656, 37.1323850308]}, "type": "Feature", "properties": {"collection_times": [{"days": "Mon-Fri", "time": "4:00pm"}, {"days": "Sat", "time": "3:00pm"}, {"days": "Sun", "time": "Closed"}], "id": "4254400000", "name": "USPS COLLECTION BOX - BLUE BOX", "address": {"city": "NANCY", "state": "KY", "street": "9150 W HIGHWAY 80", "postcode": "42544"}}},
{"geometry": {"type": "Point", "coordinates": [-84.8512956656, 37.1323850308]}, "type": "Feature", "properties": {"collection_times": [{"days": "Mon-Fri", "time": "4:00pm"}, {"days": "Sat", "time": "3:00pm"}, {"days": "Sun", "time": "Closed"}], "id": "4254400001", "name": "USPS COLLECTION BOX - PO LOBBY", "address": {"city": "NANCY", "state": "KY", "street": "9150 W HIGHWAY 80", "postcode": "42544"}}},
{"geometry": {"type": "Point", "coordinates": [-84.6970274616, 37.1713254982]}, "type": "Feature", "properties": {"collection_times": [{"days": "Mon-Fri", "time": "4:00pm"}, {"days": "Sat", "time": "11:30am"}, {"days": "Sun", "time": "Closed"}], "id": "4255300000", "name": "USPS COLLECTION BOX - BLUE BOX", "address": {"city": "SCIENCE HILL", "state": "KY", "street": "735 CENTRAL AVE", "postcode": "42553"}}},
{"geometry": {"type": "Point", "coordinates": [-84.6970274616, 37.1713254982]}, "type": "Feature", "properties": {"collection_times": [{"days": "Mon-Fri", "time": "4:00pm"}, {"days": "Sat", "time": "11:30am"}, {"days": "Sun", "time": "Closed"}], "id": "4255300001", "name": "USPS COLLECTION BOX - PO LOBBY", "address": {"city": "SCIENCE HILL", "state": "KY", "street": "735 CENTRAL AVE", "postcode": "42553"}}},
{"geometry": {"type": "Point", "coordinates": [-84.9439492501, 37.1180369351]}, "type": "Feature", "properties": {"collection_times": [{"days": "Mon-Sat", "time": "10:00am"}, {"days": "Sun", "time": "Closed"}], "id": "4256500000", "name": "USPS COLLECTION BOX - BLUE BOX", "address": {"city": "WINDSOR", "state": "KY", "street": "3593 KY 80", "postcode": "42565"}}},
{"geometry": {"type": "Point", "coordinates": [-84.6306681287, 37.1900522019]}, "type": "Feature", "properties": {"collection_times": [{"days": "Mon-Fri", "time": "3:30pm"}, {"days": "Sat", "time": "11:30am"}, {"days": "Sun", "time": "Closed"}], "id": "4256700000", "name": "USPS COLLECTION BOX - BLUE BOX", "address": {"city": "EUBANK", "state": "KY", "street": "15058 N HIGHWAY 1247", "postcode": "42567"}}},
{"geometry": {"type": "Point", "coordinates": [-84.6306681287, 37.1900522019]}, "type": "Feature", "properties": {"collection_times": [{"days": "Mon-Fri", "time": "3:30pm"}, {"days": "Sat", "time": "11:30am"}, {"days": "Sun", "time": "Closed"}], "id": "4256700002", "name": "USPS COLLECTION BOX - PO LOBBY", "address": {"city": "EUBANK", "state": "KY", "street": "15058 N HIGHWAY 1247", "postcode": "42567"}}}
]}
