{"type": "FeatureCollection", "features": [
{"geometry": {"type": "Point", "coordinates": [-85.1356522637, 36.6929497107]}, "type": "Feature", "properties": {"collection_times": [{"days": "Mon-Fri", "time": "3:35pm"}, {"days": "Sat", "time": "11:00am"}, {"days": "Sun", "time": "Closed"}], "id": "4260200000", "name": "USPS COLLECTION BOX - BLUE BOX", "address": {"city": "ALBANY", "state": "KY", "street": "401 N CROSS ST", "postcode": "42602"}}},
{"geometry": {"type": "Point", "coordinates": [-85.1356522637, 36.6929497107]}, "type": "Feature", "properties": {"collection_times": [{"days": "Mon-Fri", "time": "3:35pm"}, {"days": "Sat", "time": "11:00am"}, {"days": "Sun", "time": "Closed"}], "id": "4260200001", "name": "USPS COLLECTION BOX - BLUE BOX", "address": {"city": "ALBANY", "state": "KY", "street": "401 N CROSS ST", "postcode": "42602"}}},
{"geometry": {"type": "Point", "coordinates": [-85.1331615746, 36.7228007192]}, "type": "Feature", "properties": {"collection_times": [{"days": "Mon-Sat", "time": "11:00am"}, {"days": "Sun", "time": "Closed"}], "id": "4260200003", "name": "USPS COLLECTION BOX - BLUE BOX", "address": {"city": "ALBANY", "state": "KY", "street": "120 WESTVIEW SHOPPING CTR", "postcode": "42602"}}},
{"geometry": {"type": "Point", "coordinates": [-85.1350706686, 36.6902399544]}, "type": "Feature", "properties": {"collection_times": [{"days": "Mon-Sat", "time": "11:00am"}, {"days": "Sun", "time": "Closed"}], "id": "4260200004", "name": "USPS COLLECTION BOX - BLUE BOX", "address": {"city": "ALBANY", "state": "KY", "street": "200 S WASHINGTON ST", "postcode": "42602"}}},
{"geometry": {"type": "Point", "coordinates": [-85.1356974056, 36.6908819486]}, "type": "Feature", "properties": {"collection_times": [{"days": "Mon-Sat", "time": "11:00am"}, {"days": "Sun", "time": "Closed"}], "id": "4260200005", "name": "USPS COLLECTION BOX - BLUE BOX", "address": {"city": "ALBANY", "state": "KY", "street": "100 N CROSS ST", "postcode": "42602"}}},
{"geometry": {"type": "Point", "coordinates": [-85.1356522637, 36.6929497107]}, "type": "Feature", "properties": {"collection_times": [{"days": "Mon-Fri", "time": "3:35pm"}, {"days": "Sat", "time": "11:00am"}, {"days": "Sun", "time": "Closed"}], "id": "4260200008", "name": "USPS COLLECTION BOX - PO LOBBY", "address": {"city": "ALBANY", "state": "KY", "street": "401 N CROSS ST", "postcode": "42602"}}},
{"geometry": {"type": "Point", "coordinates": [-84.9825810958, 36.7929093557]}, "type": "Feature", "properties": {"collection_times": [{"days": "Mon-Sat", "time": "12:00pm"}, {"days": "Sun", "time": "Closed"}], "id": "4260300000", "name": "USPS COLLECTION BOX - BLUE BOX", "address": {"city": "ALPHA", "state": "KY", "street": "234 OLD HAPPY TOP RD", "postcode": "42603"}}},
{"geometry": {"type": "Point", "coordinates": [-84.9825810958, 36.7929093557]}, "type": "Feature", "properties": {"collection_times": [{"days": "Mon-Sat", "time": "12:00pm"}, {"days": "Sun", "time": "Closed"}], "id": "4260300001", "name": "USPS COLLECTION BOX - PO LOBBY", "address": {"city": "ALPHA", "state": "KY", "street": "234 OLD HAPPY TOP RD", "postcode": "42603"}}},
{"geometry": {"type": "Point", "coordinates": [-85.0686676399, 36.99331101]}, "type": "Feature", "properties": {"collection_times": [{"days": "Mon-Sat", "time": "3:30pm"}, {"days": "Sun", "time": "Closed"}], "id": "4262900000", "name": "USPS COLLECTION BOX - BLUE BOX", "address": {"city": "JAMESTOWN", "state": "KY", "street": "66 FAIR OAKS DR", "postcode": "42629"}}},
{"geometry": {"type": "Point", "coordinates": [-85.0606811779, 36.9888768609]}, "type": "Feature", "properties": {"collection_times": [{"days": "Mon-Sat", "time": "1:30pm"}, {"days": "Sun", "time": "Closed"}], "id": "4262900004", "name": "USPS COLLECTION BOX - BLUE BOX", "address": {"city": "JAMESTOWN", "state": "KY", "street": "410 MONUMENT SQ", "postcode": "42629"}}},
{"geometry": {"type": "Point", "coordinates": [-85.0686676399, 36.99331101]}, "type": "Feature", "properties": {"collection_times": [{"days": "Mon-Sat", "time": "3:45pm"}, {"days": "Sun", "time": "Closed"}], "id": "4262900005", "name": "USPS COLLECTION BOX - PO LOBBY", "address": {"city": "JAMESTOWN", "state": "KY", "street": "66 FAIR OAKS DR", "postcode": "42629"}}},
{"geometry": {"type": "Point", "coordinates": [-84.4738235569, 36.7470577817]}, "type": "Feature", "properties": {"collection_times": [{"days": "Mon-Fri", "time": "4:00pm"}, {"days": "Sat", "time": "11:30am"}, {"days": "Sun", "time": "Closed"}], "id": "4263100000", "name": "USPS COLLECTION BOX - BLUE BOX", "address": {"city": "MARSHES SIDING", "state": "KY", "street": "23 ALUN RD", "postcode": "42631"}}},
{"geometry": {"type": "Point", "coordinates": [-84.8371132231, 36.8469038429]}, "type": "Feature", "properties": {"collection_times": [{"days": "Mon-Sat", "time": "9:15am"}, {"days": "Sun", "time": "Closed"}], "id": "4263300001", "name": "USPS COLLECTION BOX - BLUE BOX", "address": {"city": "MONTICELLO", "state": "KY", "street": "1500 N MAIN ST", "postcode": "42633"}}},
{"geometry": {"type": "Point", "coordinates": [-84.8206329161, 36.7930244392]}, "type": "Feature", "properties": {"collection_times": [{"days": "Mon-Sat", "time": "10:00am"}, {"days": "Sun", "time": "Closed"}], "id": "4263300003", "name": "USPS COLLECTION BOX - BLUE BOX", "address": {"city": "MONTICELLO", "state": "KY", "street": "75 WALMART PLAZA DR", "postcode": "42633"}}},
{"geometry": {"type": "Point", "coordinates": [-84.8324387317, 36.8614281761]}, "type": "Feature", "properties": {"collection_times": [{"days": "Mon-Sat", "time": "10:00am"}, {"days": "Sun", "time": "Closed"}], "id": "4263300005", "name": "USPS COLLECTION BOX - BLUE BOX", "address": {"city": "MONTICELLO", "state": "KY", "street": "203 CUMBERLAND XING", "postcode": "42633"}}},
{"geometry": {"type": "Point", "coordinates": [-84.8206329161, 36.7930244392]}, "type": "Feature", "properties": {"collection_times": [{"days": "Mon-Sat", "time": "10:00am"}, {"days": "Sun", "time": "Closed"}], "id": "4263300013", "name": "USPS COLLECTION BOX - BLUE BOX", "address": {"city": "MONTICELLO", "state": "KY", "street": "175 WALMART PLAZA DR", "postcode": "42633"}}},
{"geometry": {"type": "Point", "coordinates": [-84.8376183871, 36.8461015575]}, "type": "Feature", "properties": {"collection_times": [{"days": "Mon-Sat", "time": "9:00am"}, {"days": "Sun", "time": "Closed"}], "id": "4263300016", "name": "USPS COLLECTION BOX - BLUE BOX", "address": {"city": "MONTICELLO", "state": "KY", "street": "1215 N MAIN ST", "postcode": "42633"}}},
{"geometry": {"type": "Point", "coordinates": [-84.8206329161, 36.7930244392]}, "type": "Feature", "properties": {"collection_times": [{"days": "Mon-Fri", "time": "4:00pm"}, {"days": "Sat", "time": "12:00pm"}, {"days": "Sun", "time": "Closed"}], "id": "4263300018", "name": "USPS COLLECTION BOX - PO LOBBY", "address": {"city": "MONTICELLO", "state": "KY", "street": "65 BARNES DR", "postcode": "42633"}}},
{"geometry": {"type": "Point", "coordinates": [-84.8491201798, 36.8294989717]}, "type": "Feature", "properties": {"collection_times": [{"days": "Mon-Sat", "time": "10:00am"}, {"days": "Sun", "time": "Closed"}], "id": "4263300020", "name": "USPS COLLECTION BOX - BLUE BOX", "address": {"city": "MONTICELLO", "state": "KY", "street": "55 N MAIN ST", "postcode": "42633"}}},
{"geometry": {"type": "Point", "coordinates": [-84.8369837734, 36.8471935638]}, "type": "Feature", "properties": {"collection_times": [{"days": "Mon-Sat", "time": "9:15am"}, {"days": "Sun", "time": "Closed"}], "id": "4263300022", "name": "USPS COLLECTION BOX - BLUE BOX", "address": {"city": "MONTICELLO", "state": "KY", "street": "1520 N MAIN ST", "postcode": "42633"}}},
{"geometry": {"type": "Point", "coordinates": [-84.8206329161, 36.7930244392]}, "type": "Feature", "properties": {"collection_times": [{"days": "Mon-Fri", "time": "3:30pm"}, {"days": "Sat", "time": "12:00pm"}, {"days": "Sun", "time": "Closed"}], "id": "4263300024", "name": "USPS COLLECTION BOX - BLUE BOX", "address": {"city": "MONTICELLO", "state": "KY", "street": "65 BARNES DR", "postcode": "42633"}}},
{"geometry": {"type": "Point", "coordinates": [-84.4152730066, 36.8795246724]}, "type": "Feature", "properties": {"collection_times": [{"days": "Mon-Fri", "time": "2:45pm"}, {"days": "Sat", "time": "9:45am"}, {"days": "Sun", "time": "Closed"}], "id": "4263400000", "name": "USPS COLLECTION BOX - BLUE BOX", "address": {"city": "PARKERS LAKE", "state": "KY", "street": "144 P P WALKER RD", "postcode": "42634"}}},
{"geometry": {"type": "Point", "coordinates": [-84.4152730066, 36.8795246724]}, "type": "Feature", "properties": {"collection_times": [{"days": "Mon-Fri", "time": "2:45pm"}, {"days": "Sat", "time": "9:45am"}, {"days": "Sun", "time": "Closed"}], "id": "4263400001", "name": "USPS COLLECTION BOX - PO LOBBY", "address": {"city": "PARKERS LAKE", "state": "KY", "street": "144 P P WALKER RD", "postcode": "42634"}}},
{"geometry": {"type": "Point", "coordinates": [-84.411873068, 36.6803931282]}, "type": "Feature", "properties": {"collection_times": [{"days": "Mon-Fri", "time": "3:30pm"}, {"days": "Sat", "time": "11:30am"}, {"days": "Sun", "time": "Closed"}], "id": "4263500000", "name": "USPS COLLECTION BOX - BLUE BOX", "address": {"city": "PINE KNOT", "state": "KY", "street": "625 E HIGHWAY 92", "postcode": "42635"}}},
{"geometry": {"type": "Point", "coordinates": [-84.411873068, 36.6803931282]}, "type": "Feature", "properties": {"collection_times": [{"days": "Mon-Fri", "time": "3:30pm"}, {"days": "Sat", "time": "11:30am"}, {"days": "Sun", "time": "Closed"}], "id": "4263500002", "name": "USPS COLLECTION BOX - PO LOBBY", "address": {"city": "PINE KNOT", "state": "KY", "street": "625 E HIGHWAY 92", "postcode": "42635"}}},
{"geometry": {"type": "Point", "coordinates": [-84.4715119397, 36.6719010961]}, "type": "Feature", "properties": {"collection_times": [{"days": "Mon-Fri", "time": "3:30pm"}, {"days": "Sat", "time": "11:30am"}, {"days": "Sun", "time": "Closed"}], "id": "4263800000", "name": "USPS COLLECTION BOX - BLUE BOX", "address": {"city": "REVELO", "state": "KY", "street": "3715 S HIGHWAY 1651", "postcode": "42638"}}},
{"geometry": {"type": "Point", "coordinates": [-84.4715119397, 36.6719010961]}, "type": "Feature", "properties": {"collection_times": [{"days": "Mon-Fri", "time": "3:30pm"}, {"days": "Sat", "time": "11:30am"}, {"days": "Sun", "time": "Closed"}], "id": "4263800001", "name": "USPS COLLECTION BOX - PO LOBBY", "address": {"city": "REVELO", "state": "KY", "street": "3715 S HIGHWAY 1651", "postcode": "42638"}}},
{"geometry": {"type": "Point", "coordinates": [-85.0855702091, 37.057805881]}, "type": "Feature", "properties": {"collection_times": [{"days": "Mon-Sat", "time": "3:45pm"}, {"days": "Sun", "time": "Closed"}], "id": "4264200000", "name": "USPS COLLECTION BOX - BLUE BOX", "address": {"city": "RUSSELL SPRINGS", "state": "KY", "street": "414 MAIN ST", "postcode": "42642"}}},
{"geometry": {"type": "Point", "coordinates": [-85.0855702091, 37.057805881]}, "type": "Feature", "properties": {"collection_times": [{"days": "Mon-Sat", "time": "3:45pm"}, {"days": "Sun", "time": "Closed"}], "id": "4264200003", "name": "USPS COLLECTION BOX - PO LOBBY", "address": {"city": "RUSSELL SPRINGS", "state": "KY", "street": "414 MAIN ST", "postcode": "42642"}}},
{"geometry": {"type": "Point", "coordinates": [-85.0707042704, 37.0619406391]}, "type": "Feature", "properties": {"collection_times": [{"days": "Mon-Sat", "time": "11:00am"}, {"days": "Sun", "time": "Closed"}], "id": "4264200005", "name": "USPS COLLECTION BOX - BLUE BOX", "address": {"city": "RUSSELL SPRINGS", "state": "KY", "street": "231 S HIGHWAY 127", "postcode": "42642"}}},
{"geometry": {"type": "Point", "coordinates": [-84.6175146492, 36.6815340185]}, "type": "Feature", "properties": {"collection_times": [{"days": "Mon-Fri", "time": "4:00pm"}, {"days": "Sat", "time": "12:00pm"}, {"days": "Sun", "time": "Closed"}], "id": "4264700000", "name": "USPS COLLECTION BOX - BLUE BOX", "address": {"city": "STEARNS", "state": "KY", "street": "2539 S HIGHWAY 1651", "postcode": "42647"}}},
{"geometry": {"type": "Point", "coordinates": [-84.6175146492, 36.6815340185]}, "type": "Feature", "properties": {"collection_times": [{"days": "Mon-Fri", "time": "4:00pm"}, {"days": "Sat", "time": "12:00pm"}, {"days": "Sun", "time": "Closed"}], "id": "4264700001", "name": "USPS COLLECTION BOX - PO LOBBY", "address": {"city": "STEARNS", "state": "KY", "street": "2539 S HIGHWAY 1651", "postcode": "42647"}}},
{"geometry": {"type": "Point", "coordinates": [-84.4733092328, 36.6275569751]}, "type": "Feature", "properties": {"collection_times": [{"days": "Mon-Fri", "time": "3:30pm"}, {"days": "Sat", "time": "10:30am"}, {"days": "Sun", "time": "Closed"}], "id": "4264900000", "name": "USPS COLLECTION BOX - BLUE BOX", "address": {"city": "STRUNK", "state": "KY", "street": "271 STRUNK HWY", "postcode": "42649"}}},
{"geometry": {"type": "Point", "coordinates": [-84.4733092328, 36.6275569751]}, "type": "Feature", "properties": {"collection_times": [{"days": "Mon-Fri", "time": "3:30pm"}, {"days": "Sat", "time": "10:30am"}, {"days": "Sun", "time": "Closed"}], "id": "4264900001", "name": "USPS COLLECTION BOX - PO LOBBY", "address": {"city": "STRUNK", "state": "KY", "street": "271 STRUNK HWY", "postcode": "42649"}}},
{"geometry": {"type": "Point", "coordinates": [-84.4728133788, 36.7789913457]}, "type": "Feature", "properties": {"collection_times": [{"days": "Mon-Fri", "time": "4:00pm"}, {"days": "Sat", "time": "12:00pm"}, {"days": "Sun", "time": "Closed"}], "id": "4265300000", "name": "USPS COLLECTION BOX - BLUE BOX", "address": {"city": "WHITLEY CITY", "state": "KY", "street": "1387 N HIGHWAY 27", "postcode": "42653"}}},
{"geometry": {"type": "Point", "coordinates": [-84.4728133788, 36.7789913457]}, "type": "Feature", "properties": {"collection_times": [{"days": "Mon-Fri", "time": "4:00pm"}, {"days": "Sat", "time": "12:00pm"}, {"days": "Sun", "time": "Closed"}], "id": "4265300001", "name": "USPS COLLECTION BOX - PO LOBBY", "address": {"city": "WHITLEY CITY", "state": "KY", "street": "1387 N HIGHWAY 27", "postcode": "42653"}}}
]}
