{"type": "FeatureCollection", "features": [
{"geometry": {"type": "Point", "coordinates": [-85.8398678946, 37.716342461]}, "type": "Feature", "properties": {"collection_times": [{"days": "Mon-Sat", "time": "3:00pm"}, {"days": "Sun", "time": "Closed"}], "id": "4270100002", "name": "USPS COLLECTION BOX - BLUE BOX", "address": {"city": "ELIZABETHTOWN", "state": "KY", "street": "3030 RING RD", "postcode": "42701"}}},
{"geometry": {"type": "Point", "coordinates": [-85.8792964289, 37.7297474791]}, "type": "Feature", "properties": {"collection_times": [{"days": "Mon-Sat", "time": "4:00pm"}, {"days": "Sun", "time": "Closed"}], "id": "4270100009", "name": "USPS COLLECTION BOX - BLUE BOX", "address": {"city": "ELIZABETHTOWN", "state": "KY", "street": "1650 RING RD", "postcode": "42701"}}},
{"geometry": {"type": "Point", "coordinates": [-85.8644217321, 37.69748715]}, "type": "Feature", "properties": {"collection_times": [{"days": "Mon-Sat", "time": "4:00pm"}, {"days": "Sun", "time": "Closed"}], "id": "4270100010", "name": "USPS COLLECTION BOX - BLUE BOX", "address": {"city": "ELIZABETHTOWN", "state": "KY", "street": "325 W DIXIE AVE", "postcode": "42701"}}},
{"geometry": {"type": "Point", "coordinates": [-85.865682167, 37.6991266641]}, "type": "Feature", "properties": {"collection_times": [{"days": "Mon-Sat", "time": "4:00pm"}, {"days": "Sun", "time": "Closed"}], "id": "4270100011", "name": "USPS COLLECTION BOX - BLUE BOX", "address": {"city": "ELIZABETHTOWN", "state": "KY", "street": "425 W DIXIE AVE", "postcode": "42701"}}},
{"geometry": {"type": "Point", "coordinates": [-85.8751021122, 37.7098848266]}, "type": "Feature", "properties": {"collection_times": [{"days": "Mon-Sat", "time": "4:00pm"}, {"days": "Sun", "time": "Closed"}], "id": "4270100013", "name": "USPS COLLECTION BOX - BLUE BOX", "address": {"city": "ELIZABETHTOWN", "state": "KY", "street": "912 N DIXIE AVE", "postcode": "42701"}}},
{"geometry": {"type": "Point", "coordinates": [-85.8524105492, 37.732643703]}, "type": "Feature", "properties": {"collection_times": [{"days": "Mon-Sat", "time": "4:00pm"}, {"days": "Sun", "time": "Closed"}], "id": "4270100015", "name": "USPS COLLECTION BOX - BLUE BOX", "address": {"city": "ELIZABETHTOWN", "state": "KY", "street": "2323 RING RD", "postcode": "42701"}}},
{"geometry": {"type": "Point", "coordinates": [-85.8866553414, 37.733017293]}, "type": "Feature", "properties": {"collection_times": [{"days": "Mon-Sat", "time": "4:00pm"}, {"days": "Sun", "time": "Closed"}], "id": "4270100016", "name": "USPS COLLECTION BOX - BLUE BOX", "address": {"city": "ELIZABETHTOWN", "state": "KY", "street": "1830 N DIXIE HWY", "postcode": "42701"}}},
{"geometry": {"type": "Point", "coordinates": [-85.8871849163, 37.7338840905]}, "type": "Feature", "properties": {"collection_times": [{"days": "Mon-Sat", "time": "4:00pm"}, {"days": "Sun", "time": "Closed"}], "id": "4270100017", "name": "USPS COLLECTION BOX - BLUE BOX", "address": {"city": "ELIZABETHTOWN", "state": "KY", "street": "111 TOWNE DR", "postcode": "42701"}}},
{"geometry": {"type": "Point", "coordinates": [-85.8860292955, 37.7317401593]}, "type": "Feature", "properties": {"collection_times": [{"days": "Mon-Sat", "time": "4:00pm"}, {"days": "Sun", "time": "Closed"}], "id": "4270100019", "name": "USPS COLLECTION BOX - BLUE BOX", "address": {"city": "ELIZABETHTOWN", "state": "KY", "street": "1704 N DIXIE HWY", "postcode": "42701"}}},
{"geometry": {"type": "Point", "coordinates": [-85.8768731962, 37.7095817656]}, "type": "Feature", "properties": {"collection_times": [{"days": "Mon-Sat", "time": "4:00pm"}, {"days": "Sun", "time": "Closed"}], "id": "4270100020", "name": "USPS COLLECTION BOX - BLUE BOX", "address": {"city": "ELIZABETHTOWN", "state": "KY", "street": "805 N DIXIE AVE", "postcode": "42701"}}},
{"geometry": {"type": "Point", "coordinates": [-85.8747425866, 37.7100384653]}, "type": "Feature", "properties": {"collection_times": [{"days": "Mon-Sat", "time": "4:00pm"}, {"days": "Sun", "time": "Closed"}], "id": "4270100021", "name": "USPS COLLECTION BOX - BLUE BOX", "address": {"city": "ELIZABETHTOWN", "state": "KY", "street": "913 N DIXIE AVE", "postcode": "42701"}}},
{"geometry": {"type": "Point", "coordinates": [-85.8725580796, 37.7068008661]}, "type": "Feature", "properties": {"collection_times": [{"days": "Mon-Sat", "time": "4:00pm"}, {"days": "Sun", "time": "Closed"}], "id": "4270100024", "name": "USPS COLLECTION BOX - BLUE BOX", "address": {"city": "ELIZABETHTOWN", "state": "KY", "street": "805 N DIXIE AVE", "postcode": "42701"}}},
{"geometry": {"type": "Point", "coordinates": [-85.8726800684, 37.7034378442]}, "type": "Feature", "properties": {"collection_times": [{"days": "Mon-Sat", "time": "4:00pm"}, {"days": "Sun", "time": "Closed"}], "id": "4270100025", "name": "USPS COLLECTION BOX - BLUE BOX", "address": {"city": "ELIZABETHTOWN", "state": "KY", "street": "200 SAINT JOHN RD", "postcode": "42701"}}},
{"geometry": {"type": "Point", "coordinates": [-85.8595934623, 37.693889982]}, "type": "Feature", "properties": {"collection_times": [{"days": "Mon-Sat", "time": "4:00pm"}, {"days": "Sun", "time": "Closed"}], "id": "4270100026", "name": "USPS COLLECTION BOX - BLUE BOX", "address": {"city": "ELIZABETHTOWN", "state": "KY", "street": "202 W DIXIE AVE", "postcode": "42701"}}},
{"geometry": {"type": "Point", "coordinates": [-85.8576653276, 37.6930330997]}, "type": "Feature", "properties": {"collection_times": [{"days": "Mon-Sat", "time": "3:30pm"}, {"days": "Sun", "time": "Closed"}], "id": "4270100027", "name": "USPS COLLECTION BOX - BLUE BOX", "address": {"city": "ELIZABETHTOWN", "state": "KY", "street": "23 PUBLIC SQ", "postcode": "42701"}}},
{"geometry": {"type": "Point", "coordinates": [-85.8577070441, 37.6931885785]}, "type": "Feature", "properties": {"collection_times": [{"days": "Mon-Sat", "time": "3:30pm"}, {"days": "Sun", "time": "Closed"}], "id": "4270100029", "name": "USPS COLLECTION BOX - BLUE BOX", "address": {"city": "ELIZABETHTOWN", "state": "KY", "street": "57 PUBLIC SQ", "postcode": "42701"}}},
{"geometry": {"type": "Point", "coordinates": [-85.8376430409, 37.7118593702]}, "type": "Feature", "properties": {"collection_times": [{"days": "Mon-Sat", "time": "5:30pm"}, {"days": "Sun", "time": "Closed"}], "id": "4270100040", "name": "USPS COLLECTION BOX - BLUE BOX", "address": {"city": "ELIZABETHTOWN", "state": "KY", "street": "2934 DOLPHIN DR", "postcode": "42701"}}},
{"geometry": {"type": "Point", "coordinates": [-85.8376430409, 37.7118593702]}, "type": "Feature", "properties": {"collection_times": [{"days": "Mon-Sat", "time": "5:30pm"}, {"days": "Sun", "time": "Closed"}], "id": "4270100041", "name": "USPS COLLECTION BOX - BLUE BOX", "address": {"city": "ELIZABETHTOWN", "state": "KY", "street": "2934 DOLPHIN DR", "postcode": "42701"}}},
{"geometry": {"type": "Point", "coordinates": [-85.8452727812, 37.7054994042]}, "type": "Feature", "properties": {"collection_times": [{"days": "Mon-Sat", "time": "3:00pm"}, {"days": "Sun", "time": "Closed"}], "id": "4270100042", "name": "USPS COLLECTION BOX - BLUE BOX", "address": {"city": "ELIZABETHTOWN", "state": "KY", "street": "916 N MULBERRY ST", "postcode": "42701"}}},
{"geometry": {"type": "Point", "coordinates": [-85.8605576838, 37.6925468017]}, "type": "Feature", "properties": {"collection_times": [{"days": "Mon-Sat", "time": "3:30pm"}, {"days": "Sun", "time": "Closed"}], "id": "4270100045", "name": "USPS COLLECTION BOX - BLUE BOX", "address": {"city": "ELIZABETHTOWN", "state": "KY", "street": "217 S MULBERRY ST", "postcode": "42701"}}},
{"geometry": {"type": "Point", "coordinates": [-85.8571665377, 37.6925292757]}, "type": "Feature", "properties": {"collection_times": [{"days": "Mon-Sat", "time": "3:30pm"}, {"days": "Sun", "time": "Closed"}], "id": "4270100046", "name": "USPS COLLECTION BOX - BLUE BOX", "address": {"city": "ELIZABETHTOWN", "state": "KY", "street": "120 E DIXIE AVE", "postcode": "42701"}}},
{"geometry": {"type": "Point", "coordinates": [-85.8838976315, 37.7226058654]}, "type": "Feature", "properties": {"collection_times": [{"days": "Mon-Sat", "time": "11:00am"}, {"days": "Sun", "time": "Closed"}], "id": "4270100050", "name": "USPS COLLECTION BOX - BLUE BOX", "address": {"city": "ELIZABETHTOWN", "state": "KY", "street": "1239 WOODLAND DR", "postcode": "42701"}}},
{"geometry": {"type": "Point", "coordinates": [-85.8691932323, 37.7039777236]}, "type": "Feature", "properties": {"collection_times": [{"days": "Mon-Sat", "time": "4:00pm"}, {"days": "Sun", "time": "Closed"}], "id": "4270100051", "name": "USPS COLLECTION BOX - BLUE BOX", "address": {"city": "ELIZABETHTOWN", "state": "KY", "street": "611 W POPLAR ST", "postcode": "42701"}}},
{"geometry": {"type": "Point", "coordinates": [-85.8376430409, 37.7118593702]}, "type": "Feature", "properties": {"collection_times": [{"days": "Mon-Sat", "time": "5:30pm"}, {"days": "Sun", "time": "Closed"}], "id": "4270100052", "name": "USPS COLLECTION BOX - PO LOBBY", "address": {"city": "ELIZABETHTOWN", "state": "KY", "street": "2934 DOLPHIN DR", "postcode": "42701"}}},
{"geometry": {"type": "Point", "coordinates": [-85.8376430409, 37.7118593702]}, "type": "Feature", "properties": {"collection_times": [{"days": "Mon-Sat", "time": "5:30pm"}, {"days": "Sun", "time": "Closed"}], "id": "4270100053", "name": "USPS COLLECTION BOX - PO LOBBY", "address": {"city": "ELIZABETHTOWN", "state": "KY", "street": "2934 DOLPHIN DR", "postcode": "42701"}}},
{"geometry": {"type": "Point", "coordinates": [-85.8376430409, 37.7118593702]}, "type": "Feature", "properties": {"collection_times": [{"days": "Mon-Sat", "time": "5:30pm"}, {"days": "Sun", "time": "Closed"}], "id": "4270100054", "name": "USPS COLLECTION BOX - PO LOBBY", "address": {"city": "ELIZABETHTOWN", "state": "KY", "street": "2934 DOLPHIN DR", "postcode": "42701"}}},
{"geometry": {"type": "Point", "coordinates": [-85.8508609738, 37.6843961868]}, "type": "Feature", "properties": {"collection_times": [{"days": "Mon-Sat", "time": "11:00am"}, {"days": "Sun", "time": "Closed"}], "id": "4270100055", "name": "USPS COLLECTION BOX - BLUE BOX", "address": {"city": "ELIZABETHTOWN", "state": "KY", "street": "655 E DIXIE AVE", "postcode": "42701"}}},
{"geometry": {"type": "Point", "coordinates": [-85.8376430409, 37.7118593702]}, "type": "Feature", "properties": {"collection_times": [{"days": "Mon-Sat", "time": "5:30pm"}, {"days": "Sun", "time": "Closed"}], "id": "4270100056", "name": "USPS COLLECTION BOX - APC", "address": {"city": "ELIZABETHTOWN", "state": "KY", "street": "2934 DOLPHIN DR", "postcode": "42701"}}},
{"geometry": {"type": "Point", "coordinates": [-85.8485707301, 37.7321737069]}, "type": "Feature", "properties": {"collection_times": [{"days": "Mon-Sat", "time": "4:00pm"}, {"days": "Sun", "time": "Closed"}], "id": "4270100059", "name": "USPS COLLECTION BOX - BLUE BOX", "address": {"city": "ELIZABETHTOWN", "state": "KY", "street": "2415 RING RD", "postcode": "42701"}}},
{"geometry": {"type": "Point", "coordinates": [-85.8875938477, 37.7356915342]}, "type": "Feature", "properties": {"collection_times": [{"days": "Mon-Sat", "time": "4:00pm"}, {"days": "Sun", "time": "Closed"}], "id": "4270100060", "name": "USPS COLLECTION BOX - BLUE BOX", "address": {"city": "ELIZABETHTOWN", "state": "KY", "street": "1815 N DIXIE HWY STE 2", "postcode": "42701"}}},
{"geometry": {"type": "Point", "coordinates": [-86.1527393421, 37.5445850737]}, "type": "Feature", "properties": {"collection_times": [{"days": "Mon-Fri", "time": "3:15pm"}, {"days": "Sat", "time": "9:15am"}, {"days": "Sun", "time": "Closed"}], "id": "4271200000", "name": "USPS COLLECTION BOX - BLUE BOX", "address": {"city": "BIG CLIFTY", "state": "KY", "street": "50 MAIN ST", "postcode": "42712"}}},
{"geometry": {"type": "Point", "coordinates": [-86.1527393421, 37.5445850737]}, "type": "Feature", "properties": {"collection_times": [{"days": "Mon-Fri", "time": "3:15pm"}, {"days": "Sat", "time": "9:15am"}, {"days": "Sun", "time": "Closed"}], "id": "4271200001", "name": "USPS COLLECTION BOX - PO LOBBY", "address": {"city": "BIG CLIFTY", "state": "KY", "street": "50 MAIN ST", "postcode": "42712"}}},
{"geometry": {"type": "Point", "coordinates": [-85.9034514464, 37.3830897083]}, "type": "Feature", "properties": {"collection_times": [{"days": "Mon-Fri", "time": "3:15pm"}, {"days": "Sat", "time": "11:45am"}, {"days": "Sun", "time": "Closed"}], "id": "4271300000", "name": "USPS COLLECTION BOX - BLUE BOX", "address": {"city": "BONNIEVILLE", "state": "KY", "street": "7692 N DIXIE HWY", "postcode": "42713"}}},
{"geometry": {"type": "Point", "coordinates": [-85.3968734807, 36.9556830114]}, "type": "Feature", "properties": {"collection_times": [{"days": "Mon-Fri", "time": "3:30pm"}, {"days": "Sat", "time": "10:30am"}, {"days": "Sun", "time": "Closed"}], "id": "4271500000", "name": "USPS COLLECTION BOX - BLUE BOX", "address": {"city": "BREEDING", "state": "KY", "street": "35 POST OFFICE LN", "postcode": "42715"}}},
{"geometry": {"type": "Point", "coordinates": [-87.6861556862, 36.9192818919]}, "type": "Feature", "properties": {"collection_times": [{"days": "Mon-Fri", "time": "2:00pm"}, {"days": "Sat", "time": "9:45am"}, {"days": "Sun", "time": "Closed"}], "id": "4271600002", "name": "USPS COLLECTION BOX - BLUE BOX", "address": {"city": "BUFFALO", "state": "KY", "street": "2557 GREENSBURG RD", "postcode": "42716"}}},
{"geometry": {"type": "Point", "coordinates": [-85.3700763734, 36.790544421]}, "type": "Feature", "properties": {"collection_times": [{"days": "Mon-Fri", "time": "3:30pm"}, {"days": "Sat", "time": "11:30am"}, {"days": "Sun", "time": "Closed"}], "id": "4271700001", "name": "USPS COLLECTION BOX - BLUE BOX", "address": {"city": "BURKESVILLE", "state": "KY", "street": "120 N MAIN ST", "postcode": "42717"}}},
{"geometry": {"type": "Point", "coordinates": [-85.3700763734, 36.790544421]}, "type": "Feature", "properties": {"collection_times": [{"days": "Mon-Fri", "time": "3:30pm"}, {"days": "Sat", "time": "11:30am"}, {"days": "Sun", "time": "Closed"}], "id": "4271700002", "name": "USPS COLLECTION BOX - PO LOBBY", "address": {"city": "BURKESVILLE", "state": "KY", "street": "120 N MAIN ST", "postcode": "42717"}}},
{"geometry": {"type": "Point", "coordinates": [-85.3418412676, 37.3422151839]}, "type": "Feature", "properties": {"collection_times": [{"days": "Mon-Sat", "time": "3:00pm"}, {"days": "Sun", "time": "Closed"}], "id": "4271800000", "name": "USPS COLLECTION BOX - BLUE BOX", "address": {"city": "CAMPBELLSVILLE", "state": "KY", "street": "321 E MAIN ST", "postcode": "42718"}}},
{"geometry": {"type": "Point", "coordinates": [-85.3656341767, 37.3434276592]}, "type": "Feature", "properties": {"collection_times": [{"days": "Mon-Sat", "time": "9:15am"}, {"days": "Sun", "time": "Closed"}], "id": "4271800008", "name": "USPS COLLECTION BOX - BLUE BOX", "address": {"city": "CAMPBELLSVILLE", "state": "KY", "street": "399 CAMPBELLSVILLE BYP", "postcode": "42718"}}},
{"geometry": {"type": "Point", "coordinates": [-85.3656341767, 37.3434276592]}, "type": "Feature", "properties": {"collection_times": [{"days": "Mon-Sat", "time": "9:15am"}, {"days": "Sun", "time": "Closed"}], "id": "4271800009", "name": "USPS COLLECTION BOX - BLUE BOX", "address": {"city": "CAMPBELLSVILLE", "state": "KY", "street": "399 CAMPBELLSVILLE BYP", "postcode": "42718"}}},
{"geometry": {"type": "Point", "coordinates": [-85.3418412676, 37.3422151839]}, "type": "Feature", "properties": {"collection_times": [{"days": "Mon-Sat", "time": "3:00pm"}, {"days": "Sun", "time": "Closed"}], "id": "4271800011", "name": "USPS COLLECTION BOX - BLUE BOX", "address": {"city": "CAMPBELLSVILLE", "state": "KY", "street": "321 E MAIN ST", "postcode": "42718"}}},
{"geometry": {"type": "Point", "coordinates": [-85.3264032186, 37.3554107741]}, "type": "Feature", "properties": {"collection_times": [{"days": "Mon-Sat", "time": "4:30pm"}, {"days": "Sun", "time": "Closed"}], "id": "4271800019", "name": "USPS COLLECTION BOX - BLUE BOX", "address": {"city": "CAMPBELLSVILLE", "state": "KY", "street": "1410 E BROADWAY ST", "postcode": "42718"}}},
{"geometry": {"type": "Point", "coordinates": [-85.3264032186, 37.3554107741]}, "type": "Feature", "properties": {"collection_times": [{"days": "Mon-Sat", "time": "4:30pm"}, {"days": "Sun", "time": "Closed"}], "id": "4271800020", "name": "USPS COLLECTION BOX - BLUE BOX", "address": {"city": "CAMPBELLSVILLE", "state": "KY", "street": "1410 E BROADWAY ST", "postcode": "42718"}}},
{"geometry": {"type": "Point", "coordinates": [-85.3264032186, 37.3554107741]}, "type": "Feature", "properties": {"collection_times": [{"days": "Mon-Sat", "time": "4:30pm"}, {"days": "Sun", "time": "Closed"}], "id": "4271800021", "name": "USPS COLLECTION BOX - BLUE BOX", "address": {"city": "CAMPBELLSVILLE", "state": "KY", "street": "1410 E BROADWAY ST", "postcode": "42718"}}},
{"geometry": {"type": "Point", "coordinates": [-85.3264032186, 37.3554107741]}, "type": "Feature", "properties": {"collection_times": [{"days": "Mon-Sat", "time": "4:30pm"}, {"days": "Sun", "time": "Closed"}], "id": "4271800023", "name": "USPS COLLECTION BOX - PO LOBBY", "address": {"city": "CAMPBELLSVILLE", "state": "KY", "street": "1410 E BROADWAY ST", "postcode": "42718"}}},
{"geometry": {"type": "Point", "coordinates": [-85.3795126745, 37.3396417844]}, "type": "Feature", "properties": {"collection_times": [{"days": "Mon-Sat", "time": "9:30am"}, {"days": "Sun", "time": "Closed"}], "id": "4271800024", "name": "USPS COLLECTION BOX - BLUE BOX", "address": {"city": "CAMPBELLSVILLE", "state": "KY", "street": "1980 OLD GREENSBURG RD", "postcode": "42718"}}},
{"geometry": {"type": "Point", "coordinates": [-85.309610286, 37.1005277811]}, "type": "Feature", "properties": {"collection_times": [{"days": "Mon-Sat", "time": "9:30am"}, {"days": "Sun", "time": "Closed"}], "id": "4272000000", "name": "USPS COLLECTION BOX - PO LOBBY", "address": {"city": "CANE VALLEY", "state": "KY", "street": "2303 CANE VALLEY RD", "postcode": "42720"}}},
{"geometry": {"type": "Point", "coordinates": [-86.4881208882, 37.4246647483]}, "type": "Feature", "properties": {"collection_times": [{"days": "Mon-Fri", "time": "2:30pm"}, {"days": "Sat", "time": "10:30am"}, {"days": "Sun", "time": "Closed"}], "id": "4272100000", "name": "USPS COLLECTION BOX - BLUE BOX", "address": {"city": "CANEYVILLE", "state": "KY", "street": "106 3RD ST", "postcode": "42721"}}},
{"geometry": {"type": "Point", "coordinates": [-86.4881208882, 37.4246647483]}, "type": "Feature", "properties": {"collection_times": [{"days": "Mon-Fri", "time": "2:30pm"}, {"days": "Sat", "time": "10:30am"}, {"days": "Sun", "time": "Closed"}], "id": "4272100001", "name": "USPS COLLECTION BOX - PO LOBBY", "address": {"city": "CANEYVILLE", "state": "KY", "street": "106 3RD ST", "postcode": "42721"}}},
{"geometry": {"type": "Point", "coordinates": [-85.7345376497, 37.2724213049]}, "type": "Feature", "properties": {"collection_times": [{"days": "Mon-Sat", "time": "10:30am"}, {"days": "Sun", "time": "Closed"}], "id": "4272200002", "name": "USPS COLLECTION BOX - BLUE BOX", "address": {"city": "CANMER", "state": "KY", "street": "1406 HEDGEPETH RD", "postcode": "42722"}}},
{"geometry": {"type": "Point", "coordinates": [-85.9546994937, 37.6649667925]}, "type": "Feature", "properties": {"collection_times": [{"days": "Mon-Fri", "time": "4:00pm"}, {"days": "Sat", "time": "10:00am"}, {"days": "Sun", "time": "Closed"}], "id": "4272400001", "name": "USPS COLLECTION BOX - BLUE BOX", "address": {"city": "CECILIA", "state": "KY", "street": "422 FEDERAL ST", "postcode": "42724"}}},
{"geometry": {"type": "Point", "coordinates": [-85.9546994937, 37.6649667925]}, "type": "Feature", "properties": {"collection_times": [{"days": "Mon-Fri", "time": "4:00pm"}, {"days": "Sat", "time": "10:00am"}, {"days": "Sun", "time": "Closed"}], "id": "4272400002", "name": "USPS COLLECTION BOX - PO LOBBY", "address": {"city": "CECILIA", "state": "KY", "street": "422 FEDERAL ST", "postcode": "42724"}}},
{"geometry": {"type": "Point", "coordinates": [-86.2191871149, 37.4943116769]}, "type": "Feature", "properties": {"collection_times": [{"days": "Mon-Fri", "time": "3:15pm"}, {"days": "Sat", "time": "11:00am"}, {"days": "Sun", "time": "Closed"}], "id": "4272600000", "name": "USPS COLLECTION BOX - BLUE BOX", "address": {"city": "CLARKSON", "state": "KY", "street": "211 MILLERSTOWN ST", "postcode": "42726"}}},
{"geometry": {"type": "Point", "coordinates": [-86.2191871149, 37.4943116769]}, "type": "Feature", "properties": {"collection_times": [{"days": "Mon-Fri", "time": "3:15pm"}, {"days": "Sat", "time": "11:00am"}, {"days": "Sun", "time": "Closed"}], "id": "4272600002", "name": "USPS COLLECTION BOX - PO LOBBY", "address": {"city": "CLARKSON", "state": "KY", "street": "211 MILLERSTOWN ST", "postcode": "42726"}}},
{"geometry": {"type": "Point", "coordinates": [-85.3163096194, 37.0946993425]}, "type": "Feature", "properties": {"collection_times": [{"days": "Mon-Fri", "time": "3:45pm"}, {"days": "Sat", "time": "12:00pm"}, {"days": "Sun", "time": "Closed"}], "id": "4272800000", "name": "USPS COLLECTION BOX - BLUE BOX", "address": {"city": "COLUMBIA", "state": "KY", "street": "800 BURKESVILLE ST", "postcode": "42728"}}},
{"geometry": {"type": "Point", "coordinates": [-85.3063521216, 37.102831812]}, "type": "Feature", "properties": {"collection_times": [{"days": "Mon-Fri", "time": "1:00pm"}, {"days": "Sat", "time": "11:00am"}, {"days": "Sun", "time": "Closed"}], "id": "4272800005", "name": "USPS COLLECTION BOX - BLUE BOX", "address": {"city": "COLUMBIA", "state": "KY", "street": "144 PUBLIC SQ", "postcode": "42728"}}},
{"geometry": {"type": "Point", "coordinates": [-85.3057220615, 37.102863423]}, "type": "Feature", "properties": {"collection_times": [{"days": "Mon-Fri", "time": "1:00pm"}, {"days": "Sat", "time": "11:00am"}, {"days": "Sun", "time": "Closed"}], "id": "4272800006", "name": "USPS COLLECTION BOX - BLUE BOX", "address": {"city": "COLUMBIA", "state": "KY", "street": "414 PUBLIC SQ", "postcode": "42728"}}},
{"geometry": {"type": "Point", "coordinates": [-85.306184396, 37.1031032109]}, "type": "Feature", "properties": {"collection_times": [{"days": "Mon-Fri", "time": "1:00pm"}, {"days": "Sat", "time": "11:00am"}, {"days": "Sun", "time": "Closed"}], "id": "4272800010", "name": "USPS COLLECTION BOX - BLUE BOX", "address": {"city": "COLUMBIA", "state": "KY", "street": "220 PUBLIC SQ", "postcode": "42728"}}},
{"geometry": {"type": "Point", "coordinates": [-85.3163096194, 37.0946993425]}, "type": "Feature", "properties": {"collection_times": [{"days": "Mon-Fri", "time": "3:45pm"}, {"days": "Sat", "time": "12:00pm"}, {"days": "Sun", "time": "Closed"}], "id": "4272800012", "name": "USPS COLLECTION BOX - PO LOBBY", "address": {"city": "COLUMBIA", "state": "KY", "street": "800 BURKESVILLE ST", "postcode": "42728"}}},
{"geometry": {"type": "Point", "coordinates": [-85.2901389393, 37.1051514267]}, "type": "Feature", "properties": {"collection_times": [{"days": "Mon-Sat", "time": "8:30am"}, {"days": "Sun", "time": "Closed"}], "id": "4272800014", "name": "USPS COLLECTION BOX - BLUE BOX", "address": {"city": "COLUMBIA", "state": "KY", "street": "4731 EDMONTON RD", "postcode": "42728"}}},
{"geometry": {"type": "Point", "coordinates": [-86.0588768406, 37.3052879441]}, "type": "Feature", "properties": {"collection_times": [{"days": "Mon-Fri", "time": "1:45pm"}, {"days": "Sat", "time": "10:00am"}, {"days": "Sun", "time": "Closed"}], "id": "4272900000", "name": "USPS COLLECTION BOX - BLUE BOX", "address": {"city": "CUB RUN", "state": "KY", "street": "12753 CUB RUN HWY", "postcode": "42729"}}},
{"geometry": {"type": "Point", "coordinates": [-86.0588768406, 37.3052879441]}, "type": "Feature", "properties": {"collection_times": [{"days": "Mon-Fri", "time": "1:45pm"}, {"days": "Sat", "time": "12:00pm"}, {"days": "Sun", "time": "Closed"}], "id": "4272900001", "name": "USPS COLLECTION BOX - PO LOBBY", "address": {"city": "CUB RUN", "state": "KY", "street": "12753 CUB RUN HWY", "postcode": "42729"}}},
{"geometry": {"type": "Point", "coordinates": [-86.0569433789, 37.5884228139]}, "type": "Feature", "properties": {"collection_times": [{"days": "Mon-Sat", "time": "12:00pm"}, {"days": "Sun", "time": "Closed"}], "id": "4273200000", "name": "USPS COLLECTION BOX - BLUE BOX", "address": {"city": "EASTVIEW", "state": "KY", "street": "2885 EASTVIEW RD", "postcode": "42732"}}},
{"geometry": {"type": "Point", "coordinates": [-85.9051986917, 37.6015055807]}, "type": "Feature", "properties": {"collection_times": [{"days": "Mon-Fri", "time": "3:45pm"}, {"days": "Sat", "time": "9:45am"}, {"days": "Sun", "time": "Closed"}], "id": "4274000000", "name": "USPS COLLECTION BOX - BLUE BOX", "address": {"city": "GLENDALE", "state": "KY", "street": "438 E MAIN ST", "postcode": "42740"}}},
{"geometry": {"type": "Point", "coordinates": [-85.9051986917, 37.6015055807]}, "type": "Feature", "properties": {"collection_times": [{"days": "Mon-Fri", "time": "3:45pm"}, {"days": "Sat", "time": "9:45am"}, {"days": "Sun", "time": "Closed"}], "id": "4274000001", "name": "USPS COLLECTION BOX - PO LOBBY", "address": {"city": "GLENDALE", "state": "KY", "street": "438 E MAIN ST", "postcode": "42740"}}},
{"geometry": {"type": "Point", "coordinates": [-85.8776491733, 37.599226079]}, "type": "Feature", "properties": {"collection_times": [{"days": "Mon-Sat", "time": "9:00am"}, {"days": "Sun", "time": "Closed"}], "id": "4274000002", "name": "USPS COLLECTION BOX - BLUE BOX", "address": {"city": "GLENDALE", "state": "KY", "street": "554 GLENDALE HODGENVILLE RD W", "postcode": "42740"}}},
{"geometry": {"type": "Point", "coordinates": [-85.871327426, 37.5970438605]}, "type": "Feature", "properties": {"collection_times": [{"days": "Mon-Sat", "time": "9:00am"}, {"days": "Sun", "time": "Closed"}], "id": "4274000003", "name": "USPS COLLECTION BOX - BLUE BOX", "address": {"city": "GLENDALE", "state": "KY", "street": "58 GLENDALE HODGENVILLE RD W", "postcode": "42740"}}},
{"geometry": {"type": "Point", "coordinates": [-85.5025733389, 37.2620145516]}, "type": "Feature", "properties": {"collection_times": [{"days": "Mon-Fri", "time": "4:15pm"}, {"days": "Sat", "time": "3:15pm"}, {"days": "Sun", "time": "Closed"}], "id": "4274300000", "name": "USPS COLLECTION BOX - BLUE BOX", "address": {"city": "GREENSBURG", "state": "KY", "street": "110 N 1ST ST", "postcode": "42743"}}},
{"geometry": {"type": "Point", "coordinates": [-85.5008293226, 37.2604564036]}, "type": "Feature", "properties": {"collection_times": [{"days": "Mon-Sat", "time": "2:30pm"}, {"days": "Sun", "time": "Closed"}], "id": "4274300002", "name": "USPS COLLECTION BOX - BLUE BOX", "address": {"city": "GREENSBURG", "state": "KY", "street": "102 N PUBLIC SQ", "postcode": "42743"}}},
{"geometry": {"type": "Point", "coordinates": [-85.5009626802, 37.2604880471]}, "type": "Feature", "properties": {"collection_times": [{"days": "Mon-Sat", "time": "2:30pm"}, {"days": "Sun", "time": "Closed"}], "id": "4274300003", "name": "USPS COLLECTION BOX - BLUE BOX", "address": {"city": "GREENSBURG", "state": "KY", "street": "101 N PUBLIC SQ", "postcode": "42743"}}},
{"geometry": {"type": "Point", "coordinates": [-85.5031850402, 37.2611493627]}, "type": "Feature", "properties": {"collection_times": [{"days": "Mon-Sat", "time": "2:30pm"}, {"days": "Sun", "time": "Closed"}], "id": "4274300004", "name": "USPS COLLECTION BOX - BLUE BOX", "address": {"city": "GREENSBURG", "state": "KY", "street": "203 W COURT ST", "postcode": "42743"}}},
{"geometry": {"type": "Point", "coordinates": [-85.4934354021, 37.2637284233]}, "type": "Feature", "properties": {"collection_times": [{"days": "Mon-Sat", "time": "10:00am"}, {"days": "Sun", "time": "Closed"}], "id": "4274300010", "name": "USPS COLLECTION BOX - BLUE BOX", "address": {"city": "GREENSBURG", "state": "KY", "street": "200 NANCY ST", "postcode": "42743"}}},
{"geometry": {"type": "Point", "coordinates": [-85.4935669184, 37.2750737266]}, "type": "Feature", "properties": {"collection_times": [{"days": "Mon-Sat", "time": "12:00pm"}, {"days": "Sun", "time": "Closed"}], "id": "4274300011", "name": "USPS COLLECTION BOX - BLUE BOX", "address": {"city": "GREENSBURG", "state": "KY", "street": "863 CAMPBELLSVILLE RD", "postcode": "42743"}}},
{"geometry": {"type": "Point", "coordinates": [-85.785925038, 37.2547678129]}, "type": "Feature", "properties": {"collection_times": [{"days": "Mon-Fri", "time": "3:45pm"}, {"days": "Sat", "time": "9:30am"}, {"days": "Sun", "time": "Closed"}], "id": "4274600000", "name": "USPS COLLECTION BOX - BLUE BOX", "address": {"city": "HARDYVILLE", "state": "KY", "street": "62 N JACKSON HWY", "postcode": "42746"}}},
{"geometry": {"type": "Point", "coordinates": [-85.785925038, 37.2547678129]}, "type": "Feature", "properties": {"collection_times": [{"days": "Mon-Fri", "time": "2:30pm"}, {"days": "Sat", "time": "9:30am"}, {"days": "Sun", "time": "Closed"}], "id": "4274600001", "name": "USPS COLLECTION BOX - PO LOBBY", "address": {"city": "HARDYVILLE", "state": "KY", "street": "62 N JACKSON HWY", "postcode": "42746"}}},
{"geometry": {"type": "Point", "coordinates": [-85.7405717509, 37.573684675]}, "type": "Feature", "properties": {"collection_times": [{"days": "Mon-Sat", "time": "3:00pm"}, {"days": "Sun", "time": "Closed"}], "id": "4274800000", "name": "USPS COLLECTION BOX - BLUE BOX", "address": {"city": "HODGENVILLE", "state": "KY", "street": "41 LINCOLN SQ", "postcode": "42748"}}},
{"geometry": {"type": "Point", "coordinates": [-85.7281893588, 37.5721135128]}, "type": "Feature", "properties": {"collection_times": [{"days": "Mon-Fri", "time": "4:30pm"}, {"days": "Sat", "time": "4:00pm"}, {"days": "Sun", "time": "Closed"}], "id": "4274800005", "name": "USPS COLLECTION BOX - BLUE BOX", "address": {"city": "HODGENVILLE", "state": "KY", "street": "102 S WALTERS AVE", "postcode": "42748"}}},
{"geometry": {"type": "Point", "coordinates": [-85.7413495572, 37.5737185992]}, "type": "Feature", "properties": {"collection_times": [{"days": "Mon-Fri", "time": "4:30pm"}, {"days": "Sat", "time": "4:00pm"}, {"days": "Sun", "time": "Closed"}], "id": "4274800008", "name": "USPS COLLECTION BOX - PO LOBBY", "address": {"city": "HODGENVILLE", "state": "KY", "street": "102 S WALTERS AVE", "postcode": "42748"}}},
{"geometry": {"type": "Point", "coordinates": [-85.9062713393, 37.1813977769]}, "type": "Feature", "properties": {"collection_times": [{"days": "Mon-Fri", "time": "3:45pm"}, {"days": "Sat", "time": "9:00am"}, {"days": "Sun", "time": "Closed"}], "id": "4274900001", "name": "USPS COLLECTION BOX - BLUE BOX", "address": {"city": "HORSE CAVE", "state": "KY", "street": "117 WATER ST", "postcode": "42749"}}},
{"geometry": {"type": "Point", "coordinates": [-85.9062713393, 37.1813977769]}, "type": "Feature", "properties": {"collection_times": [{"days": "Mon-Fri", "time": "3:45pm"}, {"days": "Sat", "time": "9:00am"}, {"days": "Sun", "time": "Closed"}], "id": "4274900007", "name": "USPS COLLECTION BOX - PO LOBBY", "address": {"city": "HORSE CAVE", "state": "KY", "street": "117 WATER ST", "postcode": "42749"}}},
{"geometry": {"type": "Point", "coordinates": [-86.2940526697, 37.4786603138]}, "type": "Feature", "properties": {"collection_times": [{"days": "Mon-Fri", "time": "3:30pm"}, {"days": "Sat", "time": "3:00pm"}, {"days": "Sun", "time": "Closed"}], "id": "4275400000", "name": "USPS COLLECTION BOX - BLUE BOX", "address": {"city": "LEITCHFIELD", "state": "KY", "street": "210 S MAIN ST", "postcode": "42754"}}},
{"geometry": {"type": "Point", "coordinates": [-86.2942741955, 37.4767820228]}, "type": "Feature", "properties": {"collection_times": [{"days": "Mon-Sat", "time": "2:30pm"}, {"days": "Sun", "time": "Closed"}], "id": "4275400003", "name": "USPS COLLECTION BOX - BLUE BOX", "address": {"city": "LEITCHFIELD", "state": "KY", "street": "332 S MAIN ST", "postcode": "42754"}}},
{"geometry": {"type": "Point", "coordinates": [-86.2871580446, 37.4716575005]}, "type": "Feature", "properties": {"collection_times": [{"days": "Mon-Sat", "time": "2:30pm"}, {"days": "Sun", "time": "Closed"}], "id": "4275400005", "name": "USPS COLLECTION BOX - BLUE BOX", "address": {"city": "LEITCHFIELD", "state": "KY", "street": "908 WALLACE AVE", "postcode": "42754"}}},
{"geometry": {"type": "Point", "coordinates": [-86.2702109196, 37.485443271]}, "type": "Feature", "properties": {"collection_times": [{"days": "Mon-Sat", "time": "8:30am"}, {"days": "Sun", "time": "Closed"}], "id": "4275400010", "name": "USPS COLLECTION BOX - BLUE BOX", "address": {"city": "LEITCHFIELD", "state": "KY", "street": "1315 ELIZABETHTOWN RD", "postcode": "42754"}}},
{"geometry": {"type": "Point", "coordinates": [-86.2940526697, 37.4786603138]}, "type": "Feature", "properties": {"collection_times": [{"days": "Mon-Fri", "time": "4:00pm"}, {"days": "Sat", "time": "3:00pm"}, {"days": "Sun", "time": "Closed"}], "id": "4275400017", "name": "USPS COLLECTION BOX - PO LOBBY", "address": {"city": "LEITCHFIELD", "state": "KY", "street": "210 S MAIN ST", "postcode": "42754"}}},
{"geometry": {"type": "Point", "coordinates": [-85.7420720086, 37.4454015505]}, "type": "Feature", "properties": {"collection_times": [{"days": "Mon-Fri", "time": "3:45pm"}, {"days": "Sat", "time": "10:15am"}, {"days": "Sun", "time": "Closed"}], "id": "4275700000", "name": "USPS COLLECTION BOX - BLUE BOX", "address": {"city": "MAGNOLIA", "state": "KY", "street": "4900 S L AND N TPKE", "postcode": "42757"}}},
{"geometry": {"type": "Point", "coordinates": [-85.7451582635, 37.4457119937]}, "type": "Feature", "properties": {"collection_times": [{"days": "Mon-Sat", "time": "12:00pm"}, {"days": "Sun", "time": "Closed"}], "id": "4275700004", "name": "USPS COLLECTION BOX - BLUE BOX", "address": {"city": "MAGNOLIA", "state": "KY", "street": "9050 NEW JACKSON HWY", "postcode": "42757"}}},
{"geometry": {"type": "Point", "coordinates": [-85.1975237062, 37.3722097612]}, "type": "Feature", "properties": {"collection_times": [{"days": "Mon-Fri", "time": "12:00pm"}, {"days": "Sat", "time": "11:00am"}, {"days": "Sun", "time": "Closed"}], "id": "4275800000", "name": "USPS COLLECTION BOX - BLUE BOX", "address": {"city": "MANNSVILLE", "state": "KY", "street": "1 FERGUSON RD", "postcode": "42758"}}},
{"geometry": {"type": "Point", "coordinates": [-85.3701414107, 36.7905920553]}, "type": "Feature", "properties": {"collection_times": [{"days": "Mon-Fri", "time": "2:30pm"}, {"days": "Sat", "time": "9:15am"}, {"days": "Sun", "time": "Closed"}], "id": "4275900000", "name": "USPS COLLECTION BOX - BLUE BOX", "address": {"city": "MARROWBONE", "state": "KY", "street": "9573 GLASGOW RD", "postcode": "42759"}}},
{"geometry": {"type": "Point", "coordinates": [-86.3977753193, 37.4622496998]}, "type": "Feature", "properties": {"collection_times": [{"days": "Mon-Fri", "time": "3:00pm"}, {"days": "Sat", "time": "10:45am"}, {"days": "Sun", "time": "Closed"}], "id": "4276200000", "name": "USPS COLLECTION BOX - BLUE BOX", "address": {"city": "MILLWOOD", "state": "KY", "street": "6445 BEAVER DAM RD", "postcode": "42762"}}},
{"geometry": {"type": "Point", "coordinates": [-86.3977753193, 37.4622496998]}, "type": "Feature", "properties": {"collection_times": [{"days": "Mon-Fri", "time": "3:00pm"}, {"days": "Sat", "time": "10:45am"}, {"days": "Sun", "time": "Closed"}], "id": "4276200001", "name": "USPS COLLECTION BOX - PO LOBBY", "address": {"city": "MILLWOOD", "state": "KY", "street": "6445 BEAVER DAM RD", "postcode": "42762"}}},
{"geometry": {"type": "Point", "coordinates": [-85.675671026, 37.4782217451]}, "type": "Feature", "properties": {"collection_times": [{"days": "Mon-Sat", "time": "12:15pm"}, {"days": "Sun", "time": "Closed"}], "id": "4276400000", "name": "USPS COLLECTION BOX - BLUE BOX", "address": {"city": "MOUNT SHERMAN", "state": "KY", "street": "7145 GREENSBURG RD", "postcode": "42764"}}},
{"geometry": {"type": "Point", "coordinates": [-85.8897175432, 37.2700888973]}, "type": "Feature", "properties": {"collection_times": [{"days": "Mon-Fri", "time": "4:00pm"}, {"days": "Sat", "time": "10:00am"}, {"days": "Sun", "time": "Closed"}], "id": "4276500001", "name": "USPS COLLECTION BOX - BLUE BOX", "address": {"city": "MUNFORDVILLE", "state": "KY", "street": "215 S WASHINGTON ST", "postcode": "42765"}}},
{"geometry": {"type": "Point", "coordinates": [-85.8897175432, 37.2700888973]}, "type": "Feature", "properties": {"collection_times": [{"days": "Mon-Fri", "time": "4:00pm"}, {"days": "Sat", "time": "10:00am"}, {"days": "Sun", "time": "Closed"}], "id": "4276500003", "name": "USPS COLLECTION BOX - PO LOBBY", "address": {"city": "MUNFORDVILLE", "state": "KY", "street": "215 S WASHINGTON ST", "postcode": "42765"}}},
{"geometry": {"type": "Point", "coordinates": [-85.8889868645, 37.5229978859]}, "type": "Feature", "properties": {"collection_times": [{"days": "Mon-Fri", "time": "3:45pm"}, {"days": "Sat", "time": "9:00am"}, {"days": "Sun", "time": "Closed"}], "id": "4277600000", "name": "USPS COLLECTION BOX - BLUE BOX", "address": {"city": "SONORA", "state": "KY", "street": "204 E WESTERN AVE", "postcode": "42776"}}},
{"geometry": {"type": "Point", "coordinates": [-85.8889868645, 37.5229978859]}, "type": "Feature", "properties": {"collection_times": [{"days": "Mon-Fri", "time": "3:45pm"}, {"days": "Sat", "time": "9:00am"}, {"days": "Sun", "time": "Closed"}], "id": "4277600003", "name": "USPS COLLECTION BOX - PO LOBBY", "address": {"city": "SONORA", "state": "KY", "street": "204 E WESTERN AVE", "postcode": "42776"}}},
{"geometry": {"type": "Point", "coordinates": [-85.6278931238, 37.3443927414]}, "type": "Feature", "properties": {"collection_times": [{"days": "Mon-Fri", "time": "3:30pm"}, {"days": "Sat", "time": "9:45am"}, {"days": "Sun", "time": "Closed"}], "id": "4278200000", "name": "USPS COLLECTION BOX - BLUE BOX", "address": {"city": "SUMMERSVILLE", "state": "KY", "street": "5160 HODGENVILLE RD", "postcode": "42782"}}},
{"geometry": {"type": "Point", "coordinates": [-85.6278931238, 37.3443927414]}, "type": "Feature", "properties": {"collection_times": [{"days": "Mon-Fri", "time": "3:30pm"}, {"days": "Sat", "time": "9:45am"}, {"days": "Sun", "time": "Closed"}], "id": "4278200001", "name": "USPS COLLECTION BOX - PO LOBBY", "address": {"city": "SUMMERSVILLE", "state": "KY", "street": "5160 HODGENVILLE RD", "postcode": "42782"}}},
{"geometry": {"type": "Point", "coordinates": [-85.8936120081, 37.4648502695]}, "type": "Feature", "properties": {"collection_times": [{"days": "Mon-Fri", "time": "4:00pm"}, {"days": "Sat", "time": "9:30am"}, {"days": "Sun", "time": "Closed"}], "id": "4278400000", "name": "USPS COLLECTION BOX - BLUE BOX", "address": {"city": "UPTON", "state": "KY", "street": "111 N WALNUT ST", "postcode": "42784"}}},
{"geometry": {"type": "Point", "coordinates": [-86.0260248902, 37.5517321618]}, "type": "Feature", "properties": {"collection_times": [{"days": "Mon-Sat", "time": "12:45pm"}, {"days": "Sun", "time": "Closed"}], "id": "4278800000", "name": "USPS COLLECTION BOX - BLUE BOX", "address": {"city": "WHITE MILLS", "state": "KY", "street": "244 WHITE MILLS RD", "postcode": "42788"}}},
{"geometry": {"type": "Point", "coordinates": [-86.0260248902, 37.5517321618]}, "type": "Feature", "properties": {"collection_times": [{"days": "Mon-Sat", "time": "12:45pm"}, {"days": "Sun", "time": "Closed"}], "id": "4278800001", "name": "USPS COLLECTION BOX - PO LOBBY", "address": {"city": "WHITE MILLS", "state": "KY", "street": "244 WHITE MILLS RD", "postcode": "42788"}}}
]}
