{"type": "FeatureCollection", "features": [
{"geometry": {"type": "Point", "coordinates": [-66.722449992, 18.16195002]}, "type": "Feature", "properties": {"collection_times": [{"days": "Mon-Fri", "time": "3:00pm"}, {"days": "Sat", "time": "8:00am"}, {"days": "Sun", "time": "Closed"}], "id": "0060100002", "name": "USPS COLLECTION BOX - BLUE BOX", "address": {"city": "ADJUNTAS", "state": "PR", "street": "37 CALLE MUNOZ RIVERA", "postcode": "00601"}}},
{"geometry": {"type": "Point", "coordinates": [-66.722449992, 18.16195002]}, "type": "Feature", "properties": {"collection_times": [{"days": "Mon-Fri", "time": "3:00pm"}, {"days": "Sat", "time": "8:00am"}, {"days": "Sun", "time": "Closed"}], "id": "0060100005", "name": "USPS COLLECTION BOX - PO LOBBY", "address": {"city": "ADJUNTAS", "state": "PR", "street": "37 CALLE MUNOZ RIVERA", "postcode": "00601"}}},
{"geometry": {"type": "Point", "coordinates": [-67.18710421, 18.379649265]}, "type": "Feature", "properties": {"collection_times": [{"days": "Mon-Sat", "time": "8:00am"}, {"days": "Sun", "time": "Closed"}], "id": "0060200001", "name": "USPS COLLECTION BOX - BLUE BOX", "address": {"city": "AGUADA", "state": "PR", "street": "200 CALLE COLON", "postcode": "00602"}}},
{"geometry": {"type": "Point", "coordinates": [-67.192155758, 18.379669596]}, "type": "Feature", "properties": {"collection_times": [{"days": "Mon-Sat", "time": "8:00am"}, {"days": "Sun", "time": "Closed"}], "id": "0060200002", "name": "USPS COLLECTION BOX - BLUE BOX", "address": {"city": "AGUADA", "state": "PR", "street": "78 CALLE ESTACION", "postcode": "00602"}}},
{"geometry": {"type": "Point", "coordinates": [-67.186129995, 18.385824985]}, "type": "Feature", "properties": {"collection_times": [{"days": "Mon-Sat", "time": "8:15am"}, {"days": "Sun", "time": "Closed"}], "id": "0060200004", "name": "USPS COLLECTION BOX - BLUE BOX", "address": {"city": "AGUADA", "state": "PR", "street": "1 CALLE FLAMBOYANES", "postcode": "00602"}}},
{"geometry": {"type": "Point", "coordinates": [-67.188307616, 18.380520019]}, "type": "Feature", "properties": {"collection_times": [{"days": "Mon-Fri", "time": "3:00pm"}, {"days": "Sat", "time": "8:30am"}, {"days": "Sun", "time": "Closed"}], "id": "0060200007", "name": "USPS COLLECTION BOX - BLUE BOX", "address": {"city": "AGUADA", "state": "PR", "street": "5 AVE NATIVO ALERS", "postcode": "00602"}}},
{"geometry": {"type": "Point", "coordinates": [-67.178996442, 18.383819082]}, "type": "Feature", "properties": {"collection_times": [{"days": "Mon-Sat", "time": "8:15am"}, {"days": "Sun", "time": "Closed"}], "id": "0060200008", "name": "USPS COLLECTION BOX - BLUE BOX", "address": {"city": "AGUADA", "state": "PR", "street": "2 CALLE COLON", "postcode": "00602"}}},
{"geometry": {"type": "Point", "coordinates": [-67.188307616, 18.380520019]}, "type": "Feature", "properties": {"collection_times": [{"days": "Mon-Fri", "time": "3:00pm"}, {"days": "Sat", "time": "8:30am"}, {"days": "Sun", "time": "Closed"}], "id": "0060200009", "name": "USPS COLLECTION BOX - PO LOBBY", "address": {"city": "AGUADA", "state": "PR", "street": "5 AVE NATIVO ALERS", "postcode": "00602"}}},
{"geometry": {"type": "Point", "coordinates": [-67.146129992, 18.45161999]}, "type": "Feature", "properties": {"collection_times": [{"days": "Mon-Sat", "time": "8:30am"}, {"days": "Sun", "time": "Closed"}], "id": "0060300005", "name": "USPS COLLECTION BOX - BLUE BOX", "address": {"city": "AGUADILLA", "state": "PR", "street": "2 CALLE J JESUS ESTEVES", "postcode": "00603"}}},
{"geometry": {"type": "Point", "coordinates": [-67.153679116, 18.429464671]}, "type": "Feature", "properties": {"collection_times": [{"days": "Mon-Sat", "time": "8:30am"}, {"days": "Sun", "time": "Closed"}], "id": "0060300010", "name": "USPS COLLECTION BOX - BLUE BOX", "address": {"city": "AGUADILLA", "state": "PR", "street": "4 AVE SAN CARLOS", "postcode": "00603"}}},
{"geometry": {"type": "Point", "coordinates": [-67.146129992, 18.45161999]}, "type": "Feature", "properties": {"collection_times": [{"days": "Mon-Fri", "time": "3:00pm"}, {"days": "Sat", "time": "8:00am"}, {"days": "Sun", "time": "Closed"}], "id": "0060300011", "name": "USPS COLLECTION BOX - BLUE BOX", "address": {"city": "AGUADILLA", "state": "PR", "street": "100 AVE BORINQUEN", "postcode": "00603"}}},
{"geometry": {"type": "Point", "coordinates": [-67.146129992, 18.45161999]}, "type": "Feature", "properties": {"collection_times": [{"days": "Mon-Fri", "time": "3:00pm"}, {"days": "Sat", "time": "8:30am"}, {"days": "Sun", "time": "Closed"}], "id": "0060300012", "name": "USPS COLLECTION BOX - BLUE BOX", "address": {"city": "AGUADILLA", "state": "PR", "street": "68 CALLE RAMON E BETANCES", "postcode": "00603"}}},
{"geometry": {"type": "Point", "coordinates": [-67.146129992, 18.45161999]}, "type": "Feature", "properties": {"collection_times": [{"days": "Mon-Sat", "time": "11:30am"}, {"days": "Sun", "time": "Closed"}], "id": "0060300020", "name": "USPS COLLECTION BOX - BLUE BOX", "address": {"city": "AGUADILLA", "state": "PR", "street": "17005 CARR 2", "postcode": "00603"}}},
{"geometry": {"type": "Point", "coordinates": [-67.154899435, 18.429280157]}, "type": "Feature", "properties": {"collection_times": [{"days": "Mon-Sat", "time": "8:15am"}, {"days": "Sun", "time": "Closed"}], "id": "0060300021", "name": "USPS COLLECTION BOX - BLUE BOX", "address": {"city": "AGUADILLA", "state": "PR", "street": "72 CALLE PROGRESO", "postcode": "00603"}}},
{"geometry": {"type": "Point", "coordinates": [-67.146129992, 18.45161999]}, "type": "Feature", "properties": {"collection_times": [{"days": "Mon-Fri", "time": "5:00pm"}, {"days": "Sat", "time": "1:00pm"}, {"days": "Sun", "time": "Closed"}], "id": "0060300028", "name": "USPS COLLECTION BOX - BLUE BOX", "address": {"city": "AGUADILLA", "state": "PR", "street": "50 CARR 459", "postcode": "00603"}}},
{"geometry": {"type": "Point", "coordinates": [-67.14742179, 18.445184604]}, "type": "Feature", "properties": {"collection_times": [{"days": "Mon-Sat", "time": "9:30am"}, {"days": "Sun", "time": "Closed"}], "id": "0060300029", "name": "USPS COLLECTION BOX - BLUE BOX", "address": {"city": "AGUADILLA", "state": "PR", "street": "24 AVE SEVERIANO CUEVAS", "postcode": "00603"}}},
{"geometry": {"type": "Point", "coordinates": [-67.151869636, 18.456534239]}, "type": "Feature", "properties": {"collection_times": [{"days": "Mon-Sat", "time": "8:00am"}, {"days": "Sun", "time": "Closed"}], "id": "0060300031", "name": "USPS COLLECTION BOX - BLUE BOX", "address": {"city": "AGUADILLA", "state": "PR", "street": "36 CALLE A", "postcode": "00603"}}},
{"geometry": {"type": "Point", "coordinates": [-67.146129992, 18.45161999]}, "type": "Feature", "properties": {"collection_times": [{"days": "Mon-Sat", "time": "1:30pm"}, {"days": "Sun", "time": "Closed"}], "id": "0060300033", "name": "USPS COLLECTION BOX - BLUE BOX", "address": {"city": "AGUADILLA", "state": "PR", "street": "515 AVE VICTORIA", "postcode": "00603"}}},
{"geometry": {"type": "Point", "coordinates": [-67.146129992, 18.45161999]}, "type": "Feature", "properties": {"collection_times": [{"days": "Mon-Sat", "time": "12:00pm"}, {"days": "Sun", "time": "Closed"}], "id": "0060300034", "name": "USPS COLLECTION BOX - BLUE BOX", "address": {"city": "AGUADILLA", "state": "PR", "street": "245 EAST PARADE", "postcode": "00603"}}},
{"geometry": {"type": "Point", "coordinates": [-67.146129992, 18.45161999]}, "type": "Feature", "properties": {"collection_times": [{"days": "Mon-Fri", "time": "5:00pm"}, {"days": "Sat", "time": "1:00pm"}, {"days": "Sun", "time": "Closed"}], "id": "0060300037", "name": "USPS COLLECTION BOX - PO LOBBY", "address": {"city": "AGUADILLA", "state": "PR", "street": "50 CARR 459 STE 1", "postcode": "00603"}}},
{"geometry": {"type": "Point", "coordinates": [-66.980070914, 18.182402899]}, "type": "Feature", "properties": {"collection_times": [{"days": "Mon-Fri", "time": "3:00pm"}, {"days": "Sat", "time": "8:00am"}, {"days": "Sun", "time": "Closed"}], "id": "0060600001", "name": "USPS COLLECTION BOX - BLUE BOX", "address": {"city": "MARICAO", "state": "PR", "street": "9 CALLE ZUZUARREGUI", "postcode": "00606"}}},
{"geometry": {"type": "Point", "coordinates": [-66.980070914, 18.182402899]}, "type": "Feature", "properties": {"collection_times": [{"days": "Mon-Fri", "time": "3:00pm"}, {"days": "Sat", "time": "8:00am"}, {"days": "Sun", "time": "Closed"}], "id": "0060600002", "name": "USPS COLLECTION BOX - PO LOBBY", "address": {"city": "MARICAO", "state": "PR", "street": "9 CALLE ZUZUARREGUI", "postcode": "00606"}}},
{"geometry": {"type": "Point", "coordinates": [-67.108956988, 18.261501184]}, "type": "Feature", "properties": {"collection_times": [{"days": "Mon-Sat", "time": "12:00pm"}, {"days": "Sun", "time": "Closed"}], "id": "0061000001", "name": "USPS COLLECTION BOX - BLUE BOX", "address": {"city": "ANASCO", "state": "PR", "street": "84 CALLE 65 INFANTERIA STE 3", "postcode": "00610"}}},
{"geometry": {"type": "Point", "coordinates": [-67.108956988, 18.261501184]}, "type": "Feature", "properties": {"collection_times": [{"days": "Mon-Sat", "time": "3:00pm"}, {"days": "Sun", "time": "Closed"}], "id": "0061000004", "name": "USPS COLLECTION BOX - BLUE BOX", "address": {"city": "ANASCO", "state": "PR", "street": "I9 CALLE VICTORIA", "postcode": "00610"}}},
{"geometry": {"type": "Point", "coordinates": [-67.108956988, 18.261501184]}, "type": "Feature", "properties": {"collection_times": [{"days": "Mon-Sat", "time": "8:30am"}, {"days": "Sun", "time": "Closed"}], "id": "0061000005", "name": "USPS COLLECTION BOX - BLUE BOX", "address": {"city": "ANASCO", "state": "PR", "street": "1 CARR 402", "postcode": "00610"}}},
{"geometry": {"type": "Point", "coordinates": [-67.108956988, 18.261501184]}, "type": "Feature", "properties": {"collection_times": [{"days": "Mon-Sat", "time": "8:30am"}, {"days": "Sun", "time": "Closed"}], "id": "0061000006", "name": "USPS COLLECTION BOX - BLUE BOX", "address": {"city": "ANASCO", "state": "PR", "street": "1 EDWARDS BLVD", "postcode": "00610"}}},
{"geometry": {"type": "Point", "coordinates": [-67.108956988, 18.261501184]}, "type": "Feature", "properties": {"collection_times": [{"days": "Mon-Fri", "time": "3:00pm"}, {"days": "Sat", "time": "8:15am"}, {"days": "Sun", "time": "Closed"}], "id": "0061000007", "name": "USPS COLLECTION BOX - BLUE BOX", "address": {"city": "ANASCO", "state": "PR", "street": "93 CALLE 65 INFANTERIA STE 1", "postcode": "00610"}}},
{"geometry": {"type": "Point", "coordinates": [-67.108956988, 18.261501184]}, "type": "Feature", "properties": {"collection_times": [{"days": "Mon-Fri", "time": "3:00pm"}, {"days": "Sat", "time": "8:15am"}, {"days": "Sun", "time": "Closed"}], "id": "0061000008", "name": "USPS COLLECTION BOX - PO LOBBY", "address": {"city": "ANASCO", "state": "PR", "street": "93 CALLE 65 INFANTERIA STE 1", "postcode": "00610"}}},
{"geometry": {"type": "Point", "coordinates": [-66.799339976, 18.284949996]}, "type": "Feature", "properties": {"collection_times": [{"days": "Mon-Fri", "time": "3:00pm"}, {"days": "Sat", "time": "8:00am"}, {"days": "Sun", "time": "Closed"}], "id": "0061100001", "name": "USPS COLLECTION BOX - BLUE BOX", "address": {"city": "ANGELES", "state": "PR", "street": "100 CARR 111", "postcode": "00611"}}},
{"geometry": {"type": "Point", "coordinates": [-66.799339976, 18.284949996]}, "type": "Feature", "properties": {"collection_times": [{"days": "Mon-Fri", "time": "3:00pm"}, {"days": "Sat", "time": "8:00am"}, {"days": "Sun", "time": "Closed"}], "id": "0061100002", "name": "USPS COLLECTION BOX - PO LOBBY", "address": {"city": "ANGELES", "state": "PR", "street": "100 CARR 111", "postcode": "00611"}}},
{"geometry": {"type": "Point", "coordinates": [-66.756176348, 18.476992498]}, "type": "Feature", "properties": {"collection_times": [{"days": "Mon-Fri", "time": "5:00pm"}, {"days": "Sat", "time": "1:00pm"}, {"days": "Sun", "time": "Closed"}], "id": "0061200002", "name": "USPS COLLECTION BOX - BLUE BOX", "address": {"city": "ARECIBO", "state": "PR", "street": "10 AVE SAN PATRICIO", "postcode": "00612"}}},
{"geometry": {"type": "Point", "coordinates": [-66.722002136, 18.471492378]}, "type": "Feature", "properties": {"collection_times": [{"days": "Mon-Sat", "time": "8:00am"}, {"days": "Sun", "time": "Closed"}], "id": "0061200004", "name": "USPS COLLECTION BOX - BLUE BOX", "address": {"city": "ARECIBO", "state": "PR", "street": "306 CALLE CAPITAN ABREU", "postcode": "00612"}}},
{"geometry": {"type": "Point", "coordinates": [-66.741105471, 18.455978624]}, "type": "Feature", "properties": {"collection_times": [{"days": "Mon-Sat", "time": "9:30am"}, {"days": "Sun", "time": "Closed"}], "id": "0061200009", "name": "USPS COLLECTION BOX - BLUE BOX", "address": {"city": "ARECIBO", "state": "PR", "street": "H35 CALLE AMAPOLA", "postcode": "00612"}}},
{"geometry": {"type": "Point", "coordinates": [-66.719305647, 18.473583273]}, "type": "Feature", "properties": {"collection_times": [{"days": "Mon-Sat", "time": "9:45am"}, {"days": "Sun", "time": "Closed"}], "id": "0061200012", "name": "USPS COLLECTION BOX - BLUE BOX", "address": {"city": "ARECIBO", "state": "PR", "street": "50 CALLE CERVANTES", "postcode": "00612"}}},
{"geometry": {"type": "Point", "coordinates": [-66.757351498, 18.477650462]}, "type": "Feature", "properties": {"collection_times": [{"days": "Mon-Sat", "time": "8:30am"}, {"days": "Sun", "time": "Closed"}], "id": "0061200019", "name": "USPS COLLECTION BOX - BLUE BOX", "address": {"city": "ARECIBO", "state": "PR", "street": "1400 AVE MIRAMAR", "postcode": "00612"}}},
{"geometry": {"type": "Point", "coordinates": [-66.72162517, 18.473839962]}, "type": "Feature", "properties": {"collection_times": [{"days": "Mon-Sat", "time": "10:00am"}, {"days": "Sun", "time": "Closed"}], "id": "0061200024", "name": "USPS COLLECTION BOX - BLUE BOX", "address": {"city": "ARECIBO", "state": "PR", "street": "60 CALLE DOMINGO RUBIO", "postcode": "00612"}}},
{"geometry": {"type": "Point", "coordinates": [-66.62701, 18.494389977]}, "type": "Feature", "properties": {"collection_times": [{"days": "Mon-Sat", "time": "10:00am"}, {"days": "Sun", "time": "Closed"}], "id": "0061200026", "name": "USPS COLLECTION BOX - BLUE BOX", "address": {"city": "ARECIBO", "state": "PR", "street": "151 AVE EUGENIO M DE HOSTOS", "postcode": "00612"}}},
{"geometry": {"type": "Point", "coordinates": [-66.720852662, 18.472353017]}, "type": "Feature", "properties": {"collection_times": [{"days": "Mon-Sat", "time": "9:45am"}, {"days": "Sun", "time": "Closed"}], "id": "0061200027", "name": "USPS COLLECTION BOX - BLUE BOX", "address": {"city": "ARECIBO", "state": "PR", "street": "150 AVE JOSE DE DIEGO", "postcode": "00612"}}},
{"geometry": {"type": "Point", "coordinates": [-66.725731298, 18.472123726]}, "type": "Feature", "properties": {"collection_times": [{"days": "Mon-Sat", "time": "10:00am"}, {"days": "Sun", "time": "Closed"}], "id": "0061200029", "name": "USPS COLLECTION BOX - BLUE BOX", "address": {"city": "ARECIBO", "state": "PR", "street": "352 AVE JOSE DE DIEGO", "postcode": "00612"}}},
{"geometry": {"type": "Point", "coordinates": [-66.728361529, 18.472146973]}, "type": "Feature", "properties": {"collection_times": [{"days": "Mon-Sat", "time": "10:15am"}, {"days": "Sun", "time": "Closed"}], "id": "0061200030", "name": "USPS COLLECTION BOX - BLUE BOX", "address": {"city": "ARECIBO", "state": "PR", "street": "540 AVE MIRAMAR", "postcode": "00612"}}},
{"geometry": {"type": "Point", "coordinates": [-66.729049997, 18.462579986]}, "type": "Feature", "properties": {"collection_times": [{"days": "Mon-Sat", "time": "9:30am"}, {"days": "Sun", "time": "Closed"}], "id": "0061200031", "name": "USPS COLLECTION BOX - BLUE BOX", "address": {"city": "ARECIBO", "state": "PR", "street": "549 AVE JOSE A CEDENO", "postcode": "00612"}}},
{"geometry": {"type": "Point", "coordinates": [-66.729049997, 18.462579986]}, "type": "Feature", "properties": {"collection_times": [{"days": "Mon-Sat", "time": "9:30am"}, {"days": "Sun", "time": "Closed"}], "id": "0061200032", "name": "USPS COLLECTION BOX - BLUE BOX", "address": {"city": "ARECIBO", "state": "PR", "street": "521 AVE JOSE A CEDENO", "postcode": "00612"}}},
{"geometry": {"type": "Point", "coordinates": [-66.731196935, 18.468588929]}, "type": "Feature", "properties": {"collection_times": [{"days": "Mon-Sat", "time": "11:30am"}, {"days": "Sun", "time": "Closed"}], "id": "0061200039", "name": "USPS COLLECTION BOX - BLUE BOX", "address": {"city": "ARECIBO", "state": "PR", "street": "619 AVE SAN LUIS", "postcode": "00612"}}},
{"geometry": {"type": "Point", "coordinates": [-66.716786401, 18.468796697]}, "type": "Feature", "properties": {"collection_times": [{"days": "Mon-Fri", "time": "3:00pm"}, {"days": "Sat", "time": "10:00am"}, {"days": "Sun", "time": "Closed"}], "id": "0061200040", "name": "USPS COLLECTION BOX - BLUE BOX", "address": {"city": "ARECIBO", "state": "PR", "street": "442 AVE JUAN ROSADO", "postcode": "00612"}}},
{"geometry": {"type": "Point", "coordinates": [-66.716786401, 18.468796697]}, "type": "Feature", "properties": {"collection_times": [{"days": "Mon-Fri", "time": "3:00pm"}, {"days": "Sat", "time": "10:00am"}, {"days": "Sun", "time": "Closed"}], "id": "0061200041", "name": "USPS COLLECTION BOX - PO LOBBY", "address": {"city": "ARECIBO", "state": "PR", "street": "442 AVE JUAN ROSADO", "postcode": "00612"}}},
{"geometry": {"type": "Point", "coordinates": [-66.756176348, 18.476992498]}, "type": "Feature", "properties": {"collection_times": [{"days": "Mon-Fri", "time": "5:00pm"}, {"days": "Sat", "time": "1:00pm"}, {"days": "Sun", "time": "Closed"}], "id": "0061200042", "name": "USPS COLLECTION BOX - BLUE BOX", "address": {"city": "ARECIBO", "state": "PR", "street": "10 AVE SAN PATRICIO", "postcode": "00612"}}},
{"geometry": {"type": "Point", "coordinates": [-66.71997243, 18.469985777]}, "type": "Feature", "properties": {"collection_times": [{"days": "Mon-Sat", "time": "11:30am"}, {"days": "Sun", "time": "Closed"}], "id": "0061200043", "name": "USPS COLLECTION BOX - BLUE BOX", "address": {"city": "ARECIBO", "state": "PR", "street": "169 AVE UNIVERSIDAD", "postcode": "00612"}}},
{"geometry": {"type": "Point", "coordinates": [-66.756176348, 18.476992498]}, "type": "Feature", "properties": {"collection_times": [{"days": "Mon-Fri", "time": "5:00pm"}, {"days": "Sat", "time": "1:00pm"}, {"days": "Sun", "time": "Closed"}], "id": "0061200045", "name": "USPS COLLECTION BOX - PO LOBBY", "address": {"city": "ARECIBO", "state": "PR", "street": "10 AVE SAN PATRICIO", "postcode": "00612"}}},
{"geometry": {"type": "Point", "coordinates": [-66.720092157, 18.468661619]}, "type": "Feature", "properties": {"collection_times": [{"days": "Mon-Sat", "time": "8:30am"}, {"days": "Sun", "time": "Closed"}], "id": "0061200046", "name": "USPS COLLECTION BOX - BLUE BOX", "address": {"city": "ARECIBO", "state": "PR", "street": "217 AVE LLORENS TORRES", "postcode": "00612"}}},
{"geometry": {"type": "Point", "coordinates": [-66.654979994, 18.413299983]}, "type": "Feature", "properties": {"collection_times": [{"days": "Mon-Fri", "time": "3:00pm"}, {"days": "Sat", "time": "8:00am"}, {"days": "Sun", "time": "Closed"}], "id": "0061600001", "name": "USPS COLLECTION BOX - BLUE BOX", "address": {"city": "BAJADERO", "state": "PR", "street": "100 CARR 656", "postcode": "00616"}}},
{"geometry": {"type": "Point", "coordinates": [-66.654979994, 18.413299983]}, "type": "Feature", "properties": {"collection_times": [{"days": "Mon-Fri", "time": "3:00pm"}, {"days": "Sat", "time": "8:00am"}, {"days": "Sun", "time": "Closed"}], "id": "0061600002", "name": "USPS COLLECTION BOX - PO LOBBY", "address": {"city": "BAJADERO", "state": "PR", "street": "100 CARR 656", "postcode": "00616"}}},
{"geometry": {"type": "Point", "coordinates": [-66.561918502, 18.437877409]}, "type": "Feature", "properties": {"collection_times": [{"days": "Mon-Fri", "time": "3:00pm"}, {"days": "Sat", "time": "8:30am"}, {"days": "Sun", "time": "Closed"}], "id": "0061700002", "name": "USPS COLLECTION BOX - BLUE BOX", "address": {"city": "BARCELONETA", "state": "PR", "street": "H1 CALLE 5", "postcode": "00617"}}},
{"geometry": {"type": "Point", "coordinates": [-66.553679993, 18.439049992]}, "type": "Feature", "properties": {"collection_times": [{"days": "Mon-Sat", "time": "8:30am"}, {"days": "Sun", "time": "Closed"}], "id": "0061700003", "name": "USPS COLLECTION BOX - BLUE BOX", "address": {"city": "BARCELONETA", "state": "PR", "street": "33 CARR 2", "postcode": "00617"}}},
{"geometry": {"type": "Point", "coordinates": [-66.553679993, 18.439049992]}, "type": "Feature", "properties": {"collection_times": [{"days": "Mon-Sat", "time": "1:30pm"}, {"days": "Sun", "time": "Closed"}], "id": "0061700004", "name": "USPS COLLECTION BOX - BLUE BOX", "address": {"city": "BARCELONETA", "state": "PR", "street": "2210 CARR 2", "postcode": "00617"}}},
{"geometry": {"type": "Point", "coordinates": [-66.561918502, 18.437877409]}, "type": "Feature", "properties": {"collection_times": [{"days": "Mon-Fri", "time": "3:00pm"}, {"days": "Sat", "time": "8:30am"}, {"days": "Sun", "time": "Closed"}], "id": "0061700006", "name": "USPS COLLECTION BOX - PO LOBBY", "address": {"city": "BARCELONETA", "state": "PR", "street": "H1 CALLE 5", "postcode": "00617"}}},
{"geometry": {"type": "Point", "coordinates": [-66.538600146, 18.454653414]}, "type": "Feature", "properties": {"collection_times": [{"days": "Mon-Sat", "time": "1:30pm"}, {"days": "Sun", "time": "Closed"}], "id": "0061700007", "name": "USPS COLLECTION BOX - BLUE BOX", "address": {"city": "BARCELONETA", "state": "PR", "street": "40 CALLE GEORGETTI", "postcode": "00617"}}},
{"geometry": {"type": "Point", "coordinates": [-67.172259987, 18.029250016]}, "type": "Feature", "properties": {"collection_times": [{"days": "Mon-Fri", "time": "3:00pm"}, {"days": "Sat", "time": "8:15am"}, {"days": "Sun", "time": "Closed"}], "id": "0062200001", "name": "USPS COLLECTION BOX - BLUE BOX", "address": {"city": "BOQUERON", "state": "PR", "street": "300 CARR 101", "postcode": "00622"}}},
{"geometry": {"type": "Point", "coordinates": [-67.172259987, 18.029250016]}, "type": "Feature", "properties": {"collection_times": [{"days": "Mon-Fri", "time": "3:00pm"}, {"days": "Sat", "time": "8:15am"}, {"days": "Sun", "time": "Closed"}], "id": "0062200003", "name": "USPS COLLECTION BOX - PO LOBBY", "address": {"city": "BOQUERON", "state": "PR", "street": "300 CARR 101", "postcode": "00622"}}},
{"geometry": {"type": "Point", "coordinates": [-67.128284699, 18.030885399]}, "type": "Feature", "properties": {"collection_times": [{"days": "Mon-Sat", "time": "8:15am"}, {"days": "Sun", "time": "Closed"}], "id": "0062300003", "name": "USPS COLLECTION BOX - BLUE BOX", "address": {"city": "CABO ROJO", "state": "PR", "street": "61 CALLE MUNOZ RIVERA", "postcode": "00623"}}},
{"geometry": {"type": "Point", "coordinates": [-67.147668863, 18.086801966]}, "type": "Feature", "properties": {"collection_times": [{"days": "Mon-Sat", "time": "8:15am"}, {"days": "Sun", "time": "Closed"}], "id": "0062300006", "name": "USPS COLLECTION BOX - BLUE BOX", "address": {"city": "CABO ROJO", "state": "PR", "street": "33 CALLE JOSE DE DIEGO", "postcode": "00623"}}},
{"geometry": {"type": "Point", "coordinates": [-67.151431585, 18.090995027]}, "type": "Feature", "properties": {"collection_times": [{"days": "Mon-Sat", "time": "8:30am"}, {"days": "Sun", "time": "Closed"}], "id": "0062300008", "name": "USPS COLLECTION BOX - BLUE BOX", "address": {"city": "CABO ROJO", "state": "PR", "street": "B15 CALLE MARIANA BRACETTI", "postcode": "00623"}}},
{"geometry": {"type": "Point", "coordinates": [-67.158472027, 18.089828534]}, "type": "Feature", "properties": {"collection_times": [{"days": "Mon-Sat", "time": "8:15am"}, {"days": "Sun", "time": "Closed"}], "id": "0062300013", "name": "USPS COLLECTION BOX - BLUE BOX", "address": {"city": "CABO ROJO", "state": "PR", "street": "98 CALLE NOEL ESTRADA", "postcode": "00623"}}},
{"geometry": {"type": "Point", "coordinates": [-67.152302368, 18.08750032]}, "type": "Feature", "properties": {"collection_times": [{"days": "Mon-Fri", "time": "3:00pm"}, {"days": "Sat", "time": "8:15am"}, {"days": "Sun", "time": "Closed"}], "id": "0062300014", "name": "USPS COLLECTION BOX - BLUE BOX", "address": {"city": "CABO ROJO", "state": "PR", "street": "64 CALLE CARBONELL", "postcode": "00623"}}},
{"geometry": {"type": "Point", "coordinates": [-67.152302368, 18.08750032]}, "type": "Feature", "properties": {"collection_times": [{"days": "Mon-Fri", "time": "3:00pm"}, {"days": "Sat", "time": "8:15am"}, {"days": "Sun", "time": "Closed"}], "id": "0062300015", "name": "USPS COLLECTION BOX - PO LOBBY", "address": {"city": "CABO ROJO", "state": "PR", "street": "64 CALLE CARBONELL", "postcode": "00623"}}},
{"geometry": {"type": "Point", "coordinates": [-66.723959988, 18.059590016]}, "type": "Feature", "properties": {"collection_times": [{"days": "Mon-Fri", "time": "3:00pm"}, {"days": "Sat", "time": "8:15am"}, {"days": "Sun", "time": "Closed"}], "id": "0062400001", "name": "USPS COLLECTION BOX - BLUE BOX", "address": {"city": "PE\u00b9UELAS", "state": "PR", "street": "100 CARR 132", "postcode": "00624"}}},
{"geometry": {"type": "Point", "coordinates": [-66.723959988, 18.05959001]}, "type": "Feature", "properties": {"collection_times": [{"days": "Mon-Sat", "time": "8:15am"}, {"days": "Sun", "time": "Closed"}], "id": "0062400002", "name": "USPS COLLECTION BOX - BLUE BOX", "address": {"city": "PE\u00b9UELAS", "state": "PR", "street": "175 CARR 385", "postcode": "00624"}}},
{"geometry": {"type": "Point", "coordinates": [-66.723959988, 18.05959001]}, "type": "Feature", "properties": {"collection_times": [{"days": "Mon-Sat", "time": "8:15am"}, {"days": "Sun", "time": "Closed"}], "id": "0062400005", "name": "USPS COLLECTION BOX - BLUE BOX", "address": {"city": "PE\u00b9UELAS", "state": "PR", "street": "90 CARR 386", "postcode": "00624"}}},
{"geometry": {"type": "Point", "coordinates": [-66.723959988, 18.059590016]}, "type": "Feature", "properties": {"collection_times": [{"days": "Mon-Fri", "time": "3:00pm"}, {"days": "Sat", "time": "8:00am"}, {"days": "Sun", "time": "Closed"}], "id": "0062400006", "name": "USPS COLLECTION BOX - PO LOBBY", "address": {"city": "PE\u00b9UELAS", "state": "PR", "street": "100 CARR 132", "postcode": "00624"}}},
{"geometry": {"type": "Point", "coordinates": [-66.869193311, 18.492936663]}, "type": "Feature", "properties": {"collection_times": [{"days": "Mon-Sat", "time": "8:30am"}, {"days": "Sun", "time": "Closed"}], "id": "0062700001", "name": "USPS COLLECTION BOX - BLUE BOX", "address": {"city": "CAMUY", "state": "PR", "street": "1050 AVE INO ROMAN", "postcode": "00627"}}},
{"geometry": {"type": "Point", "coordinates": [-66.849669993, 18.477969992]}, "type": "Feature", "properties": {"collection_times": [{"days": "Mon-Fri", "time": "3:00pm"}, {"days": "Sat", "time": "8:30am"}, {"days": "Sun", "time": "Closed"}], "id": "0062700002", "name": "USPS COLLECTION BOX - BLUE BOX", "address": {"city": "CAMUY", "state": "PR", "street": "2 CALLE CORREO", "postcode": "00627"}}},
{"geometry": {"type": "Point", "coordinates": [-66.848446691, 18.486611388]}, "type": "Feature", "properties": {"collection_times": [{"days": "Mon-Sat", "time": "8:30am"}, {"days": "Sun", "time": "Closed"}], "id": "0062700003", "name": "USPS COLLECTION BOX - BLUE BOX", "address": {"city": "CAMUY", "state": "PR", "street": "115 CALLE AMADOR OESTE", "postcode": "00627"}}},
{"geometry": {"type": "Point", "coordinates": [-66.846972532, 18.485081355]}, "type": "Feature", "properties": {"collection_times": [{"days": "Mon-Sat", "time": "11:00am"}, {"days": "Sun", "time": "Closed"}], "id": "0062700004", "name": "USPS COLLECTION BOX - BLUE BOX", "address": {"city": "CAMUY", "state": "PR", "street": "5 CALLE IGUINA E", "postcode": "00627"}}},
{"geometry": {"type": "Point", "coordinates": [-66.849669993, 18.477969992]}, "type": "Feature", "properties": {"collection_times": [{"days": "Mon-Fri", "time": "3:00pm"}, {"days": "Sat", "time": "8:30am"}, {"days": "Sun", "time": "Closed"}], "id": "0062700005", "name": "USPS COLLECTION BOX - PO LOBBY", "address": {"city": "CAMUY", "state": "PR", "street": "2 CALLE CORREO", "postcode": "00627"}}},
{"geometry": {"type": "Point", "coordinates": [-66.956539993, 18.074480003]}, "type": "Feature", "properties": {"collection_times": [{"days": "Mon-Fri", "time": "3:00pm"}, {"days": "Sat", "time": "9:00am"}, {"days": "Sun", "time": "Closed"}], "id": "0063700010", "name": "USPS COLLECTION BOX - BLUE BOX", "address": {"city": "SABANA GRANDE", "state": "PR", "street": "1 AVE VICENTE QUILINCHINI STE 4", "postcode": "00637"}}},
{"geometry": {"type": "Point", "coordinates": [-66.961159086, 18.078943372]}, "type": "Feature", "properties": {"collection_times": [{"days": "Mon-Sat", "time": "8:30am"}, {"days": "Sun", "time": "Closed"}], "id": "0063700011", "name": "USPS COLLECTION BOX - BLUE BOX", "address": {"city": "SABANA GRANDE", "state": "PR", "street": "301 AVE 5 DE DICIEMBRE", "postcode": "00637"}}},
{"geometry": {"type": "Point", "coordinates": [-66.956539993, 18.074480003]}, "type": "Feature", "properties": {"collection_times": [{"days": "Mon-Fri", "time": "3:00pm"}, {"days": "Sat", "time": "9:00am"}, {"days": "Sun", "time": "Closed"}], "id": "0063700012", "name": "USPS COLLECTION BOX - PO LOBBY", "address": {"city": "SABANA GRANDE", "state": "PR", "street": "1 AVE VICENTE QUILINCHINI STE 4", "postcode": "00637"}}},
{"geometry": {"type": "Point", "coordinates": [-66.471469996, 18.332199981]}, "type": "Feature", "properties": {"collection_times": [{"days": "Mon-Sat", "time": "8:30am"}, {"days": "Sun", "time": "Closed"}], "id": "0063800001", "name": "USPS COLLECTION BOX - BLUE BOX", "address": {"city": "CIALES", "state": "PR", "street": "50 CALLE PALMER", "postcode": "00638"}}},
{"geometry": {"type": "Point", "coordinates": [-66.465996654, 18.371556649]}, "type": "Feature", "properties": {"collection_times": [{"days": "Mon-Fri", "time": "3:00pm"}, {"days": "Sat", "time": "8:30am"}, {"days": "Sun", "time": "Closed"}], "id": "0063800004", "name": "USPS COLLECTION BOX - BLUE BOX", "address": {"city": "CIALES", "state": "PR", "street": "25 CARR 149", "postcode": "00638"}}},
{"geometry": {"type": "Point", "coordinates": [-66.465996654, 18.371556649]}, "type": "Feature", "properties": {"collection_times": [{"days": "Mon-Fri", "time": "3:00pm"}, {"days": "Sat", "time": "8:30am"}, {"days": "Sun", "time": "Closed"}], "id": "0063800005", "name": "USPS COLLECTION BOX - PO LOBBY", "address": {"city": "CIALES", "state": "PR", "street": "25 CARR 149", "postcode": "00638"}}},
{"geometry": {"type": "Point", "coordinates": [-66.735689989, 18.349543324]}, "type": "Feature", "properties": {"collection_times": [{"days": "Mon-Fri", "time": "3:00pm"}, {"days": "Sat", "time": "8:30am"}, {"days": "Sun", "time": "Closed"}], "id": "0064100001", "name": "USPS COLLECTION BOX - BLUE BOX", "address": {"city": "UTUADO", "state": "PR", "street": "41 AVE FERNANDO L RIBAS", "postcode": "00641"}}},
{"geometry": {"type": "Point", "coordinates": [-66.735689989, 18.349543324]}, "type": "Feature", "properties": {"collection_times": [{"days": "Mon-Sat", "time": "8:30am"}, {"days": "Sun", "time": "Closed"}], "id": "0064100002", "name": "USPS COLLECTION BOX - BLUE BOX", "address": {"city": "UTUADO", "state": "PR", "street": "27 CALLE BARCELO", "postcode": "00641"}}},
{"geometry": {"type": "Point", "coordinates": [-66.735689989, 18.349543324]}, "type": "Feature", "properties": {"collection_times": [{"days": "Mon-Sat", "time": "8:30am"}, {"days": "Sun", "time": "Closed"}], "id": "0064100005", "name": "USPS COLLECTION BOX - BLUE BOX", "address": {"city": "UTUADO", "state": "PR", "street": "940 CARR 123", "postcode": "00641"}}},
{"geometry": {"type": "Point", "coordinates": [-66.700719978, 18.26762998]}, "type": "Feature", "properties": {"collection_times": [{"days": "Mon-Sat", "time": "8:30am"}, {"days": "Sun", "time": "Closed"}], "id": "0064100006", "name": "USPS COLLECTION BOX - BLUE BOX", "address": {"city": "UTUADO", "state": "PR", "street": "3 CALLE PEREZ SOTO", "postcode": "00641"}}},
{"geometry": {"type": "Point", "coordinates": [-66.703759423, 18.266025898]}, "type": "Feature", "properties": {"collection_times": [{"days": "Mon-Sat", "time": "11:00am"}, {"days": "Sun", "time": "Closed"}], "id": "0064100007", "name": "USPS COLLECTION BOX - BLUE BOX", "address": {"city": "UTUADO", "state": "PR", "street": "91 CALLE DR CUETO", "postcode": "00641"}}},
{"geometry": {"type": "Point", "coordinates": [-66.735689989, 18.349543324]}, "type": "Feature", "properties": {"collection_times": [{"days": "Mon-Fri", "time": "3:00pm"}, {"days": "Sat", "time": "8:30am"}, {"days": "Sun", "time": "Closed"}], "id": "0064100008", "name": "USPS COLLECTION BOX - PO LOBBY", "address": {"city": "UTUADO", "state": "PR", "street": "41 AVE FERNANDO L RIBAS", "postcode": "00641"}}},
{"geometry": {"type": "Point", "coordinates": [-66.270083351, 18.480246659]}, "type": "Feature", "properties": {"collection_times": [{"days": "Mon-Fri", "time": "5:00pm"}, {"days": "Sat", "time": "1:00pm"}, {"days": "Sun", "time": "Closed"}], "id": "0064600001", "name": "USPS COLLECTION BOX - BLUE BOX", "address": {"city": "DORADO", "state": "PR", "street": "100 CARR 698", "postcode": "00646"}}},
{"geometry": {"type": "Point", "coordinates": [-66.281859983, 18.447009998]}, "type": "Feature", "properties": {"collection_times": [{"days": "Mon-Sat", "time": "8:00am"}, {"days": "Sun", "time": "Closed"}], "id": "0064600007", "name": "USPS COLLECTION BOX - BLUE BOX", "address": {"city": "DORADO", "state": "PR", "street": "1 CARR 696", "postcode": "00646"}}},
{"geometry": {"type": "Point", "coordinates": [-66.261851381, 18.459770764]}, "type": "Feature", "properties": {"collection_times": [{"days": "Mon-Sat", "time": "8:15am"}, {"days": "Sun", "time": "Closed"}], "id": "0064600010", "name": "USPS COLLECTION BOX - BLUE BOX", "address": {"city": "DORADO", "state": "PR", "street": "202 CALLE NORTE", "postcode": "00646"}}},
{"geometry": {"type": "Point", "coordinates": [-66.270083351, 18.480246659]}, "type": "Feature", "properties": {"collection_times": [{"days": "Mon-Fri", "time": "5:00pm"}, {"days": "Sat", "time": "1:00pm"}, {"days": "Sun", "time": "Closed"}], "id": "0064600013", "name": "USPS COLLECTION BOX - PO LOBBY", "address": {"city": "DORADO", "state": "PR", "street": "100 CARR 698", "postcode": "00646"}}},
{"geometry": {"type": "Point", "coordinates": [-66.940299976, 17.965640004]}, "type": "Feature", "properties": {"collection_times": [{"days": "Mon-Fri", "time": "3:00pm"}, {"days": "Sat", "time": "8:30am"}, {"days": "Sun", "time": "Closed"}], "id": "0064700001", "name": "USPS COLLECTION BOX - BLUE BOX", "address": {"city": "ENSENADA", "state": "PR", "street": "6 CALLE SEGUNDA SUR", "postcode": "00647"}}},
{"geometry": {"type": "Point", "coordinates": [-66.940299976, 17.965640004]}, "type": "Feature", "properties": {"collection_times": [{"days": "Mon-Fri", "time": "3:00pm"}, {"days": "Sat", "time": "8:30am"}, {"days": "Sun", "time": "Closed"}], "id": "0064700003", "name": "USPS COLLECTION BOX - PO LOBBY", "address": {"city": "ENSENADA", "state": "PR", "street": "6 CALLE SEGUNDA SUR", "postcode": "00647"}}},
{"geometry": {"type": "Point", "coordinates": [-66.566029984, 18.362159984]}, "type": "Feature", "properties": {"collection_times": [{"days": "Mon-Fri", "time": "3:00pm"}, {"days": "Sat", "time": "8:30am"}, {"days": "Sun", "time": "Closed"}], "id": "0065000004", "name": "USPS COLLECTION BOX - BLUE BOX", "address": {"city": "FLORIDA", "state": "PR", "street": "66 CALLE MUNOZ RIVERA", "postcode": "00650"}}},
{"geometry": {"type": "Point", "coordinates": [-66.566029984, 18.362159984]}, "type": "Feature", "properties": {"collection_times": [{"days": "Mon-Fri", "time": "3:00pm"}, {"days": "Sat", "time": "8:30am"}, {"days": "Sun", "time": "Closed"}], "id": "0065000005", "name": "USPS COLLECTION BOX - PO LOBBY", "address": {"city": "FLORIDA", "state": "PR", "street": "66 CALLE MUNOZ RIVERA", "postcode": "00650"}}},
{"geometry": {"type": "Point", "coordinates": [-66.612849998, 18.450979982]}, "type": "Feature", "properties": {"collection_times": [{"days": "Mon-Fri", "time": "3:00pm"}, {"days": "Sat", "time": "8:00am"}, {"days": "Sun", "time": "Closed"}], "id": "0065200001", "name": "USPS COLLECTION BOX - BLUE BOX", "address": {"city": "GARROCHALES", "state": "PR", "street": "100 CARR 682", "postcode": "00652"}}},
{"geometry": {"type": "Point", "coordinates": [-66.612849998, 18.450979982]}, "type": "Feature", "properties": {"collection_times": [{"days": "Mon-Fri", "time": "3:00pm"}, {"days": "Sat", "time": "8:00am"}, {"days": "Sun", "time": "Closed"}], "id": "0065200002", "name": "USPS COLLECTION BOX - PO LOBBY", "address": {"city": "GARROCHALES", "state": "PR", "street": "100 CARR 682", "postcode": "00652"}}},
{"geometry": {"type": "Point", "coordinates": [-66.907187185, 17.971423652]}, "type": "Feature", "properties": {"collection_times": [{"days": "Mon-Fri", "time": "3:00pm"}, {"days": "Sat", "time": "8:30am"}, {"days": "Sun", "time": "Closed"}], "id": "0065300006", "name": "USPS COLLECTION BOX - BLUE BOX", "address": {"city": "GUANICA", "state": "PR", "street": "39 CALLE 13 DE MARZO", "postcode": "00653"}}},
{"geometry": {"type": "Point", "coordinates": [-66.907187185, 17.971423652]}, "type": "Feature", "properties": {"collection_times": [{"days": "Mon-Fri", "time": "3:00pm"}, {"days": "Sat", "time": "8:30am"}, {"days": "Sun", "time": "Closed"}], "id": "0065300007", "name": "USPS COLLECTION BOX - PO LOBBY", "address": {"city": "GUANICA", "state": "PR", "street": "39 CALLE 13 DE MARZO", "postcode": "00653"}}},
{"geometry": {"type": "Point", "coordinates": [-66.790459915, 18.029717664]}, "type": "Feature", "properties": {"collection_times": [{"days": "Mon-Sat", "time": "8:00am"}, {"days": "Sun", "time": "Closed"}], "id": "0065600002", "name": "USPS COLLECTION BOX - BLUE BOX", "address": {"city": "GUAYANILLA", "state": "PR", "street": "B1 CALLE ORQUIDEA", "postcode": "00656"}}},
{"geometry": {"type": "Point", "coordinates": [-66.790169989, 18.022590017]}, "type": "Feature", "properties": {"collection_times": [{"days": "Mon-Sat", "time": "8:00am"}, {"days": "Sun", "time": "Closed"}], "id": "0065600003", "name": "USPS COLLECTION BOX - BLUE BOX", "address": {"city": "GUAYANILLA", "state": "PR", "street": "D1A HACIENDA LA GLORIA", "postcode": "00656"}}},
{"geometry": {"type": "Point", "coordinates": [-66.789144545, 18.01637666]}, "type": "Feature", "properties": {"collection_times": [{"days": "Mon-Sat", "time": "8:30am"}, {"days": "Sun", "time": "Closed"}], "id": "0065600005", "name": "USPS COLLECTION BOX - BLUE BOX", "address": {"city": "GUAYANILLA", "state": "PR", "street": "109 CALLE LUIS MUNOZ RIVERA", "postcode": "00656"}}},
{"geometry": {"type": "Point", "coordinates": [-66.795141328, 18.0277705]}, "type": "Feature", "properties": {"collection_times": [{"days": "Mon-Fri", "time": "3:00pm"}, {"days": "Sat", "time": "8:00am"}, {"days": "Sun", "time": "Closed"}], "id": "0065600006", "name": "USPS COLLECTION BOX - BLUE BOX", "address": {"city": "GUAYANILLA", "state": "PR", "street": "285 CALLE LUIS MUNOZ RIVERA", "postcode": "00656"}}},
{"geometry": {"type": "Point", "coordinates": [-66.795141328, 18.0277705]}, "type": "Feature", "properties": {"collection_times": [{"days": "Mon-Fri", "time": "3:00pm"}, {"days": "Sat", "time": "8:00am"}, {"days": "Sun", "time": "Closed"}], "id": "0065600007", "name": "USPS COLLECTION BOX - PO LOBBY", "address": {"city": "GUAYANILLA", "state": "PR", "street": "285 CALLE LUIS MUNOZ RIVERA", "postcode": "00656"}}},
{"geometry": {"type": "Point", "coordinates": [-66.79609332, 18.493383312]}, "type": "Feature", "properties": {"collection_times": [{"days": "Mon-Sat", "time": "1:00pm"}, {"days": "Sun", "time": "Closed"}], "id": "0065900001", "name": "USPS COLLECTION BOX - BLUE BOX", "address": {"city": "HATILLO", "state": "PR", "street": "506 CALLE TRUNCADO", "postcode": "00659"}}},
{"geometry": {"type": "Point", "coordinates": [-66.79609332, 18.493383312]}, "type": "Feature", "properties": {"collection_times": [{"days": "Mon-Sat", "time": "1:00pm"}, {"days": "Sun", "time": "Closed"}], "id": "0065900002", "name": "USPS COLLECTION BOX - BLUE BOX", "address": {"city": "HATILLO", "state": "PR", "street": "506 CALLE TRUNCADO", "postcode": "00659"}}},
{"geometry": {"type": "Point", "coordinates": [-66.812259987, 18.484129983]}, "type": "Feature", "properties": {"collection_times": [{"days": "Mon-Sat", "time": "2:00pm"}, {"days": "Sun", "time": "Closed"}], "id": "0065900004", "name": "USPS COLLECTION BOX - BLUE BOX", "address": {"city": "HATILLO", "state": "PR", "street": "381 CARR 2", "postcode": "00659"}}},
{"geometry": {"type": "Point", "coordinates": [-66.819542359, 18.488393863]}, "type": "Feature", "properties": {"collection_times": [{"days": "Mon-Fri", "time": "3:00pm"}, {"days": "Sat", "time": "8:45am"}, {"days": "Sun", "time": "Closed"}], "id": "0065900006", "name": "USPS COLLECTION BOX - BLUE BOX", "address": {"city": "HATILLO", "state": "PR", "street": "192 AVE DR SUSONI", "postcode": "00659"}}},
{"geometry": {"type": "Point", "coordinates": [-66.819542359, 18.488393863]}, "type": "Feature", "properties": {"collection_times": [{"days": "Mon-Fri", "time": "3:00pm"}, {"days": "Sat", "time": "8:45am"}, {"days": "Sun", "time": "Closed"}], "id": "0065900007", "name": "USPS COLLECTION BOX - PO LOBBY", "address": {"city": "HATILLO", "state": "PR", "street": "192 AVE DR SUSONI", "postcode": "00659"}}},
{"geometry": {"type": "Point", "coordinates": [-67.11430893, 18.133453298]}, "type": "Feature", "properties": {"collection_times": [{"days": "Mon-Sat", "time": "8:30am"}, {"days": "Sun", "time": "Closed"}], "id": "0066000001", "name": "USPS COLLECTION BOX - BLUE BOX", "address": {"city": "HORMIGUEROS", "state": "PR", "street": "J8 CALLE MARGINAL", "postcode": "00660"}}},
{"geometry": {"type": "Point", "coordinates": [-67.112403328, 18.160303342]}, "type": "Feature", "properties": {"collection_times": [{"days": "Mon-Sat", "time": "8:15am"}, {"days": "Sun", "time": "Closed"}], "id": "0066000002", "name": "USPS COLLECTION BOX - BLUE BOX", "address": {"city": "HORMIGUEROS", "state": "PR", "street": "70 CARR 343 S", "postcode": "00660"}}},
{"geometry": {"type": "Point", "coordinates": [-67.1275581, 18.138865987]}, "type": "Feature", "properties": {"collection_times": [{"days": "Mon-Sat", "time": "8:30am"}, {"days": "Sun", "time": "Closed"}], "id": "0066000005", "name": "USPS COLLECTION BOX - BLUE BOX", "address": {"city": "HORMIGUEROS", "state": "PR", "street": "13 CALLE MATEO FAJARDO", "postcode": "00660"}}},
{"geometry": {"type": "Point", "coordinates": [-67.112403328, 18.160303342]}, "type": "Feature", "properties": {"collection_times": [{"days": "Mon-Fri", "time": "3:00pm"}, {"days": "Sat", "time": "8:15am"}, {"days": "Sun", "time": "Closed"}], "id": "0066000010", "name": "USPS COLLECTION BOX - BLUE BOX", "address": {"city": "HORMIGUEROS", "state": "PR", "street": "250 CARR 344", "postcode": "00660"}}},
{"geometry": {"type": "Point", "coordinates": [-67.112403328, 18.160303342]}, "type": "Feature", "properties": {"collection_times": [{"days": "Mon-Fri", "time": "3:00pm"}, {"days": "Sat", "time": "8:15am"}, {"days": "Sun", "time": "Closed"}], "id": "0066000011", "name": "USPS COLLECTION BOX - PO LOBBY", "address": {"city": "HORMIGUEROS", "state": "PR", "street": "250 CARR 344", "postcode": "00660"}}},
{"geometry": {"type": "Point", "coordinates": [-67.000835939, 18.473195106]}, "type": "Feature", "properties": {"collection_times": [{"days": "Mon-Sat", "time": "8:15am"}, {"days": "Sun", "time": "Closed"}], "id": "0066200008", "name": "USPS COLLECTION BOX - BLUE BOX", "address": {"city": "ISABELA", "state": "PR", "street": "3535 AVE MILITAR", "postcode": "00662"}}},
{"geometry": {"type": "Point", "coordinates": [-67.026839989, 18.492049986]}, "type": "Feature", "properties": {"collection_times": [{"days": "Mon-Fri", "time": "3:00pm"}, {"days": "Sat", "time": "8:30am"}, {"days": "Sun", "time": "Closed"}], "id": "0066200010", "name": "USPS COLLECTION BOX - BLUE BOX", "address": {"city": "ISABELA", "state": "PR", "street": "5 CALLE PINEIRO", "postcode": "00662"}}},
{"geometry": {"type": "Point", "coordinates": [-67.005184819, 18.450007071]}, "type": "Feature", "properties": {"collection_times": [{"days": "Mon-Fri", "time": "3:00pm"}, {"days": "Sat", "time": "8:30am"}, {"days": "Sun", "time": "Closed"}], "id": "0066200011", "name": "USPS COLLECTION BOX - PO LOBBY", "address": {"city": "ISABELA", "state": "PR", "street": "5 CALLE PINEIRO", "postcode": "00662"}}},
{"geometry": {"type": "Point", "coordinates": [-66.59305999, 18.219880017]}, "type": "Feature", "properties": {"collection_times": [{"days": "Mon-Fri", "time": "3:00pm"}, {"days": "Sat", "time": "8:00am"}, {"days": "Sun", "time": "Closed"}], "id": "0066400000", "name": "USPS COLLECTION BOX - BLUE BOX", "address": {"city": "JAYUYA", "state": "PR", "street": "15 CALLE A BARCELO", "postcode": "00664"}}},
{"geometry": {"type": "Point", "coordinates": [-66.5884333965, 18.2106710325]}, "type": "Feature", "properties": {"collection_times": [{"days": "Mon-Fri", "time": "3:00pm"}, {"days": "Sat", "time": "8:00am"}, {"days": "Sun", "time": "Closed"}], "id": "0066400005", "name": "USPS COLLECTION BOX - PO LOBBY", "address": {"city": "JAYUYA", "state": "PR", "street": "15 CALLE A BARCELO", "postcode": "00664"}}},
{"geometry": {"type": "Point", "coordinates": [-67.056059187, 18.052344972]}, "type": "Feature", "properties": {"collection_times": [{"days": "Mon-Sat", "time": "1:30pm"}, {"days": "Sun", "time": "Closed"}], "id": "0066700002", "name": "USPS COLLECTION BOX - BLUE BOX", "address": {"city": "LAJAS", "state": "PR", "street": "126 CALLE UN", "postcode": "00667"}}},
{"geometry": {"type": "Point", "coordinates": [-67.053891244, 18.041460484]}, "type": "Feature", "properties": {"collection_times": [{"days": "Mon-Sat", "time": "8:00am"}, {"days": "Sun", "time": "Closed"}], "id": "0066700005", "name": "USPS COLLECTION BOX - BLUE BOX", "address": {"city": "LAJAS", "state": "PR", "street": "19 CALLE ROSALES", "postcode": "00667"}}},
{"geometry": {"type": "Point", "coordinates": [-67.054820393, 18.053232456]}, "type": "Feature", "properties": {"collection_times": [{"days": "Mon-Fri", "time": "3:00pm"}, {"days": "Sat", "time": "8:00am"}, {"days": "Sun", "time": "Closed"}], "id": "0066700006", "name": "USPS COLLECTION BOX - BLUE BOX", "address": {"city": "LAJAS", "state": "PR", "street": "72 CALLE 65 DE INFANTERIA S", "postcode": "00667"}}},
{"geometry": {"type": "Point", "coordinates": [-67.0403296984, 18.0125510872]}, "type": "Feature", "properties": {"collection_times": [{"days": "Mon-Sat", "time": "9:00am"}, {"days": "Sun", "time": "Closed"}], "id": "0066700010", "name": "USPS COLLECTION BOX - BLUE BOX", "address": {"city": "LAJAS", "state": "PR", "street": "5000 CARR 304", "postcode": "00667"}}},
{"geometry": {"type": "Point", "coordinates": [-67.059191601, 18.048707265]}, "type": "Feature", "properties": {"collection_times": [{"days": "Mon-Sat", "time": "9:00am"}, {"days": "Sun", "time": "Closed"}], "id": "0066700011", "name": "USPS COLLECTION BOX - BLUE BOX", "address": {"city": "LAJAS", "state": "PR", "street": "15 CALLE 65 DE INFANTERIA S", "postcode": "00667"}}},
{"geometry": {"type": "Point", "coordinates": [-67.054820393, 18.053232456]}, "type": "Feature", "properties": {"collection_times": [{"days": "Mon-Fri", "time": "3:00pm"}, {"days": "Sat", "time": "8:00am"}, {"days": "Sun", "time": "Closed"}], "id": "0066700012", "name": "USPS COLLECTION BOX - PO LOBBY", "address": {"city": "LAJAS", "state": "PR", "street": "72 CALLE 65 DE INFANTERIA S", "postcode": "00667"}}},
{"geometry": {"type": "Point", "coordinates": [-66.859200678, 18.293121722]}, "type": "Feature", "properties": {"collection_times": [{"days": "Mon-Sat", "time": "8:00am"}, {"days": "Sun", "time": "Closed"}], "id": "0066900003", "name": "USPS COLLECTION BOX - BLUE BOX", "address": {"city": "LARES", "state": "PR", "street": "4 CALLE ARANA", "postcode": "00669"}}},
{"geometry": {"type": "Point", "coordinates": [-66.876779707, 18.296802134]}, "type": "Feature", "properties": {"collection_times": [{"days": "Mon-Sat", "time": "8:00am"}, {"days": "Sun", "time": "Closed"}], "id": "0066900004", "name": "USPS COLLECTION BOX - BLUE BOX", "address": {"city": "LARES", "state": "PR", "street": "2 CALLE MUNOZ RIVERA", "postcode": "00669"}}},
{"geometry": {"type": "Point", "coordinates": [-66.874849306, 18.298806938]}, "type": "Feature", "properties": {"collection_times": [{"days": "Mon-Fri", "time": "3:00pm"}, {"days": "Sat", "time": "8:00am"}, {"days": "Sun", "time": "Closed"}], "id": "0066900005", "name": "USPS COLLECTION BOX - BLUE BOX", "address": {"city": "LARES", "state": "PR", "street": "100 AVE LOS PATRIOTAS", "postcode": "00669"}}},
{"geometry": {"type": "Point", "coordinates": [-66.874849306, 18.298806938]}, "type": "Feature", "properties": {"collection_times": [{"days": "Mon-Fri", "time": "3:00pm"}, {"days": "Sat", "time": "8:00am"}, {"days": "Sun", "time": "Closed"}], "id": "0066900006", "name": "USPS COLLECTION BOX - PO LOBBY", "address": {"city": "LARES", "state": "PR", "street": "100 AVE LOS PATRIOTAS", "postcode": "00669"}}},
{"geometry": {"type": "Point", "coordinates": [-66.991689979, 18.250489993]}, "type": "Feature", "properties": {"collection_times": [{"days": "Mon-Fri", "time": "3:00pm"}, {"days": "Sat", "time": "8:00am"}, {"days": "Sun", "time": "Closed"}], "id": "0067000001", "name": "USPS COLLECTION BOX - BLUE BOX", "address": {"city": "LAS MARIAS", "state": "PR", "street": "78 AVE MATIAS BRUGMAN", "postcode": "00670"}}},
{"geometry": {"type": "Point", "coordinates": [-66.991689979, 18.250489993]}, "type": "Feature", "properties": {"collection_times": [{"days": "Mon-Fri", "time": "3:00pm"}, {"days": "Sat", "time": "8:00am"}, {"days": "Sun", "time": "Closed"}], "id": "0067000002", "name": "USPS COLLECTION BOX - PO LOBBY", "address": {"city": "LAS MARIAS", "state": "PR", "street": "78 AVE MATIAS BRUGMAN", "postcode": "00670"}}},
{"geometry": {"type": "Point", "coordinates": [-66.476459986, 18.43034998]}, "type": "Feature", "properties": {"collection_times": [{"days": "Mon-Fri", "time": "5:00pm"}, {"days": "Sat", "time": "1:00pm"}, {"days": "Sun", "time": "Closed"}], "id": "0067400001", "name": "USPS COLLECTION BOX - BLUE BOX", "address": {"city": "MANATI", "state": "PR", "street": "29 CALLE ELLIOT VELEZ", "postcode": "00674"}}},
{"geometry": {"type": "Point", "coordinates": [-66.484929994, 18.432419987]}, "type": "Feature", "properties": {"collection_times": [{"days": "Mon-Sat", "time": "8:00am"}, {"days": "Sun", "time": "Closed"}], "id": "0067400002", "name": "USPS COLLECTION BOX - BLUE BOX", "address": {"city": "MANATI", "state": "PR", "street": "78 CALLE FELIX CORDOVA DAVILA", "postcode": "00674"}}},
{"geometry": {"type": "Point", "coordinates": [-66.479649602, 18.421011003]}, "type": "Feature", "properties": {"collection_times": [{"days": "Mon-Sat", "time": "8:30am"}, {"days": "Sun", "time": "Closed"}], "id": "0067400003", "name": "USPS COLLECTION BOX - BLUE BOX", "address": {"city": "MANATI", "state": "PR", "street": "54 CARR 2 STE 13", "postcode": "00674"}}},
{"geometry": {"type": "Point", "coordinates": [-66.476459986, 18.43034998]}, "type": "Feature", "properties": {"collection_times": [{"days": "Mon-Sat", "time": "8:15am"}, {"days": "Sun", "time": "Closed"}], "id": "0067400004", "name": "USPS COLLECTION BOX - BLUE BOX", "address": {"city": "MANATI", "state": "PR", "street": "10 CARR 149 STE 100", "postcode": "00674"}}},
{"geometry": {"type": "Point", "coordinates": [-66.493208951, 18.4285494]}, "type": "Feature", "properties": {"collection_times": [{"days": "Mon-Sat", "time": "8:00am"}, {"days": "Sun", "time": "Closed"}], "id": "0067400005", "name": "USPS COLLECTION BOX - BLUE BOX", "address": {"city": "MANATI", "state": "PR", "street": "98 PASEO DE LA ATENAS", "postcode": "00674"}}},
{"geometry": {"type": "Point", "coordinates": [-66.490820753, 18.429347498]}, "type": "Feature", "properties": {"collection_times": [{"days": "Mon-Sat", "time": "11:00am"}, {"days": "Sun", "time": "Closed"}], "id": "0067400007", "name": "USPS COLLECTION BOX - BLUE BOX", "address": {"city": "MANATI", "state": "PR", "street": "56 PASEO DE LA ATENAS", "postcode": "00674"}}},
{"geometry": {"type": "Point", "coordinates": [-66.476459986, 18.43034998]}, "type": "Feature", "properties": {"collection_times": [{"days": "Mon-Sat", "time": "2:30pm"}, {"days": "Sun", "time": "Closed"}], "id": "0067400008", "name": "USPS COLLECTION BOX - BLUE BOX", "address": {"city": "MANATI", "state": "PR", "street": "5 CALLE E", "postcode": "00674"}}},
{"geometry": {"type": "Point", "coordinates": [-66.48235206, 18.424302318]}, "type": "Feature", "properties": {"collection_times": [{"days": "Mon-Sat", "time": "8:15am"}, {"days": "Sun", "time": "Closed"}], "id": "0067400009", "name": "USPS COLLECTION BOX - BLUE BOX", "address": {"city": "MANATI", "state": "PR", "street": "190 BDA FELIX CORDOVA DAVILA", "postcode": "00674"}}},
{"geometry": {"type": "Point", "coordinates": [-66.476459986, 18.43034998]}, "type": "Feature", "properties": {"collection_times": [{"days": "Mon-Sat", "time": "8:30am"}, {"days": "Sun", "time": "Closed"}], "id": "0067400013", "name": "USPS COLLECTION BOX - BLUE BOX", "address": {"city": "MANATI", "state": "PR", "street": "18 CALLE E", "postcode": "00674"}}},
{"geometry": {"type": "Point", "coordinates": [-66.513347886, 18.447145227]}, "type": "Feature", "properties": {"collection_times": [{"days": "Mon-Sat", "time": "12:00pm"}, {"days": "Sun", "time": "Closed"}], "id": "0067400014", "name": "USPS COLLECTION BOX - BLUE BOX", "address": {"city": "MANATI", "state": "PR", "street": "47 CARR 2", "postcode": "00674"}}},
{"geometry": {"type": "Point", "coordinates": [-66.476459986, 18.43034998]}, "type": "Feature", "properties": {"collection_times": [{"days": "Mon-Fri", "time": "5:00pm"}, {"days": "Sat", "time": "1:00pm"}, {"days": "Sun", "time": "Closed"}], "id": "0067400017", "name": "USPS COLLECTION BOX - PO LOBBY", "address": {"city": "MANATI", "state": "PR", "street": "29 CALLE ELLIOT VELEZ", "postcode": "00674"}}},
{"geometry": {"type": "Point", "coordinates": [-67.0808476454, 18.3779713093]}, "type": "Feature", "properties": {"collection_times": [{"days": "Mon-Fri", "time": "3:00pm"}, {"days": "Sat", "time": "8:00am"}, {"days": "Sun", "time": "Closed"}], "id": "0067600001", "name": "USPS COLLECTION BOX - BLUE BOX", "address": {"city": "MOCA", "state": "PR", "street": "212 AVE LA MOCA", "postcode": "00676"}}},
{"geometry": {"type": "Point", "coordinates": [-67.1147463025, 18.3920600143]}, "type": "Feature", "properties": {"collection_times": [{"days": "Mon-Sat", "time": "8:00am"}, {"days": "Sun", "time": "Closed"}], "id": "0067600002", "name": "USPS COLLECTION BOX - BLUE BOX", "address": {"city": "MOCA", "state": "PR", "street": "210 CALLE BLANCA E CHICO", "postcode": "00676"}}},
{"geometry": {"type": "Point", "coordinates": [-67.1147463025, 18.3920600143]}, "type": "Feature", "properties": {"collection_times": [{"days": "Mon-Sat", "time": "8:00am"}, {"days": "Sun", "time": "Closed"}], "id": "0067600005", "name": "USPS COLLECTION BOX - BLUE BOX", "address": {"city": "MOCA", "state": "PR", "street": "235 CALLE JOSE C BARBOSA STE 1", "postcode": "00676"}}},
{"geometry": {"type": "Point", "coordinates": [-67.114749997, 18.392049998]}, "type": "Feature", "properties": {"collection_times": [{"days": "Mon-Fri", "time": "3:00pm"}, {"days": "Sat", "time": "8:00am"}, {"days": "Sun", "time": "Closed"}], "id": "0067600006", "name": "USPS COLLECTION BOX - PO LOBBY", "address": {"city": "MOCA", "state": "PR", "street": "212 AVE LA MOCA", "postcode": "00676"}}},
{"geometry": {"type": "Point", "coordinates": [-67.2482465965, 18.3291443346]}, "type": "Feature", "properties": {"collection_times": [{"days": "Mon-Sat", "time": "8:15am"}, {"days": "Sun", "time": "Closed"}], "id": "0067700001", "name": "USPS COLLECTION BOX - BLUE BOX", "address": {"city": "RINCON", "state": "PR", "street": "33 CALLE MUNOZ RIVERA W", "postcode": "00677"}}},
{"geometry": {"type": "Point", "coordinates": [-67.248249999, 18.329129993]}, "type": "Feature", "properties": {"collection_times": [{"days": "Mon-Fri", "time": "3:00pm"}, {"days": "Sat", "time": "8:30am"}, {"days": "Sun", "time": "Closed"}], "id": "0067700002", "name": "USPS COLLECTION BOX - BLUE BOX", "address": {"city": "RINCON", "state": "PR", "street": "100 CARR 115", "postcode": "00677"}}},
{"geometry": {"type": "Point", "coordinates": [-67.248249999, 18.329129993]}, "type": "Feature", "properties": {"collection_times": [{"days": "Mon-Sat", "time": "8:00am"}, {"days": "Sun", "time": "Closed"}], "id": "0067700003", "name": "USPS COLLECTION BOX - BLUE BOX", "address": {"city": "RINCON", "state": "PR", "street": "2289 CALLE MARGINAL", "postcode": "00677"}}},
{"geometry": {"type": "Point", "coordinates": [-67.248249999, 18.329129993]}, "type": "Feature", "properties": {"collection_times": [{"days": "Mon-Fri", "time": "3:00pm"}, {"days": "Sat", "time": "8:30am"}, {"days": "Sun", "time": "Closed"}], "id": "0067700004", "name": "USPS COLLECTION BOX - PO LOBBY", "address": {"city": "RINCON", "state": "PR", "street": "100 CARR 115", "postcode": "00677"}}},
{"geometry": {"type": "Point", "coordinates": [-66.944659977, 18.491656645]}, "type": "Feature", "properties": {"collection_times": [{"days": "Mon-Fri", "time": "3:00pm"}, {"days": "Sat", "time": "8:15am"}, {"days": "Sun", "time": "Closed"}], "id": "0067800001", "name": "USPS COLLECTION BOX - BLUE BOX", "address": {"city": "QUEBRADILLAS", "state": "PR", "street": "64 CALLE JOSE L LINARES", "postcode": "00678"}}},
{"geometry": {"type": "Point", "coordinates": [-66.944659977, 18.491656645]}, "type": "Feature", "properties": {"collection_times": [{"days": "Mon-Sat", "time": "8:30am"}, {"days": "Sun", "time": "Closed"}], "id": "0067800002", "name": "USPS COLLECTION BOX - BLUE BOX", "address": {"city": "QUEBRADILLAS", "state": "PR", "street": "100 QUEBRADILLAS SHOPP CTR", "postcode": "00678"}}},
{"geometry": {"type": "Point", "coordinates": [-66.938369955, 18.473016538]}, "type": "Feature", "properties": {"collection_times": [{"days": "Mon-Sat", "time": "8:15am"}, {"days": "Sun", "time": "Closed"}], "id": "0067800005", "name": "USPS COLLECTION BOX - BLUE BOX", "address": {"city": "QUEBRADILLAS", "state": "PR", "street": "152 CALLE SOCORRO", "postcode": "00678"}}},
{"geometry": {"type": "Point", "coordinates": [-66.937183381, 18.47494878]}, "type": "Feature", "properties": {"collection_times": [{"days": "Mon-Sat", "time": "9:30am"}, {"days": "Sun", "time": "Closed"}], "id": "0067800006", "name": "USPS COLLECTION BOX - BLUE BOX", "address": {"city": "QUEBRADILLAS", "state": "PR", "street": "95 CALLE PEREZ SOLER", "postcode": "00678"}}},
{"geometry": {"type": "Point", "coordinates": [-66.944659977, 18.491656645]}, "type": "Feature", "properties": {"collection_times": [{"days": "Mon-Fri", "time": "3:00pm"}, {"days": "Sat", "time": "8:15am"}, {"days": "Sun", "time": "Closed"}], "id": "0067800007", "name": "USPS COLLECTION BOX - PO LOBBY", "address": {"city": "QUEBRADILLAS", "state": "PR", "street": "64 CALLE JOSE L LINARES", "postcode": "00678"}}},
{"geometry": {"type": "Point", "coordinates": [-67.135583087, 18.199728463]}, "type": "Feature", "properties": {"collection_times": [{"days": "Mon-Sat", "time": "9:45am"}, {"days": "Sun", "time": "Closed"}], "id": "0068000005", "name": "USPS COLLECTION BOX - BLUE BOX", "address": {"city": "MAYAGUEZ", "state": "PR", "street": "233 CALLE SAN RAFAEL", "postcode": "00680"}}},
{"geometry": {"type": "Point", "coordinates": [-67.138499985, 18.194060002]}, "type": "Feature", "properties": {"collection_times": [{"days": "Mon-Sat", "time": "9:30am"}, {"days": "Sun", "time": "Closed"}], "id": "0068000006", "name": "USPS COLLECTION BOX - BLUE BOX", "address": {"city": "MAYAGUEZ", "state": "PR", "street": "252 BLVD ALFONSO VALDES", "postcode": "00680"}}},
{"geometry": {"type": "Point", "coordinates": [-67.138499985, 18.194060002]}, "type": "Feature", "properties": {"collection_times": [{"days": "Mon-Sat", "time": "8:30am"}, {"days": "Sun", "time": "Closed"}], "id": "0068000007", "name": "USPS COLLECTION BOX - BLUE BOX", "address": {"city": "MAYAGUEZ", "state": "PR", "street": "259 BLVD ALFONSO VALDES", "postcode": "00680"}}},
{"geometry": {"type": "Point", "coordinates": [-67.138499985, 18.194060002]}, "type": "Feature", "properties": {"collection_times": [{"days": "Mon-Fri", "time": "3:00pm"}, {"days": "Sat", "time": "10:45am"}, {"days": "Sun", "time": "Closed"}], "id": "0068000009", "name": "USPS COLLECTION BOX - BLUE BOX", "address": {"city": "MAYAGUEZ", "state": "PR", "street": "60 CALLE DE LA CANDELARIA W", "postcode": "00680"}}},
{"geometry": {"type": "Point", "coordinates": [-67.138499985, 18.194060002]}, "type": "Feature", "properties": {"collection_times": [{"days": "Mon-Sat", "time": "8:30am"}, {"days": "Sun", "time": "Closed"}], "id": "0068000010", "name": "USPS COLLECTION BOX - BLUE BOX", "address": {"city": "MAYAGUEZ", "state": "PR", "street": "1064 CALLE LINO MINGUELA", "postcode": "00680"}}},
{"geometry": {"type": "Point", "coordinates": [-67.138499985, 18.194060002]}, "type": "Feature", "properties": {"collection_times": [{"days": "Mon-Fri", "time": "3:00pm"}, {"days": "Sat", "time": "10:45am"}, {"days": "Sun", "time": "Closed"}], "id": "0068000012", "name": "USPS COLLECTION BOX - BLUE BOX", "address": {"city": "MAYAGUEZ", "state": "PR", "street": "60 CALLE DE LA CANDELARIA W", "postcode": "00680"}}},
{"geometry": {"type": "Point", "coordinates": [-67.138499985, 18.194060002]}, "type": "Feature", "properties": {"collection_times": [{"days": "Mon-Sat", "time": "9:15am"}, {"days": "Sun", "time": "Closed"}], "id": "0068000016", "name": "USPS COLLECTION BOX - BLUE BOX", "address": {"city": "MAYAGUEZ", "state": "PR", "street": "975 AVE HOSTOS", "postcode": "00680"}}},
{"geometry": {"type": "Point", "coordinates": [-67.0990535845, 18.2080553673]}, "type": "Feature", "properties": {"collection_times": [{"days": "Mon-Sat", "time": "9:00am"}, {"days": "Sun", "time": "Closed"}], "id": "0068000018", "name": "USPS COLLECTION BOX - BLUE BOX", "address": {"city": "MAYAGUEZ", "state": "PR", "street": "830 AVE HOSTOS", "postcode": "00680"}}},
{"geometry": {"type": "Point", "coordinates": [-67.1349821809, 18.2010792042]}, "type": "Feature", "properties": {"collection_times": [{"days": "Mon-Fri", "time": "3:00pm"}, {"days": "Sat", "time": "10:30am"}, {"days": "Sun", "time": "Closed"}], "id": "0068000019", "name": "USPS COLLECTION BOX - BLUE BOX", "address": {"city": "MAYAGUEZ", "state": "PR", "street": "270 CALLE DE LA CANDELARIA", "postcode": "00680"}}},
{"geometry": {"type": "Point", "coordinates": [-67.138499985, 18.194060021]}, "type": "Feature", "properties": {"collection_times": [{"days": "Mon-Sat", "time": "9:00am"}, {"days": "Sun", "time": "Closed"}], "id": "0068000021", "name": "USPS COLLECTION BOX - BLUE BOX", "address": {"city": "MAYAGUEZ", "state": "PR", "street": "1020 CALLE WF BRENNAN", "postcode": "00680"}}},
{"geometry": {"type": "Point", "coordinates": [-67.1517997543, 18.1849441631]}, "type": "Feature", "properties": {"collection_times": [{"days": "Mon-Sat", "time": "8:30am"}, {"days": "Sun", "time": "Closed"}], "id": "0068000023", "name": "USPS COLLECTION BOX - BLUE BOX", "address": {"city": "MAYAGUEZ", "state": "PR", "street": "1 CALLE AMATISTA", "postcode": "00680"}}},
{"geometry": {"type": "Point", "coordinates": [-67.138499985, 18.194060002]}, "type": "Feature", "properties": {"collection_times": [{"days": "Mon-Sat", "time": "8:45am"}, {"days": "Sun", "time": "Closed"}], "id": "0068000024", "name": "USPS COLLECTION BOX - BLUE BOX", "address": {"city": "MAYAGUEZ", "state": "PR", "street": "345 AVE HOSTOS", "postcode": "00680"}}},
{"geometry": {"type": "Point", "coordinates": [-67.1348677823, 18.200808163]}, "type": "Feature", "properties": {"collection_times": [{"days": "Mon-Sat", "time": "9:45am"}, {"days": "Sun", "time": "Closed"}], "id": "0068000025", "name": "USPS COLLECTION BOX - BLUE BOX", "address": {"city": "MAYAGUEZ", "state": "PR", "street": "111 CALLE RAMOS ANTONINI E", "postcode": "00680"}}},
{"geometry": {"type": "Point", "coordinates": [-67.138499985, 18.194060002]}, "type": "Feature", "properties": {"collection_times": [{"days": "Mon-Sat", "time": "10:15am"}, {"days": "Sun", "time": "Closed"}], "id": "0068000027", "name": "USPS COLLECTION BOX - BLUE BOX", "address": {"city": "MAYAGUEZ", "state": "PR", "street": "50 CALLE NENADICH W", "postcode": "00680"}}},
{"geometry": {"type": "Point", "coordinates": [-67.138499985, 18.194060002]}, "type": "Feature", "properties": {"collection_times": [{"days": "Mon-Sat", "time": "10:00am"}, {"days": "Sun", "time": "Closed"}], "id": "0068000028", "name": "USPS COLLECTION BOX - BLUE BOX", "address": {"city": "MAYAGUEZ", "state": "PR", "street": "15 CALLE DE DIEGO E", "postcode": "00680"}}},
{"geometry": {"type": "Point", "coordinates": [-67.138499985, 18.194060002]}, "type": "Feature", "properties": {"collection_times": [{"days": "Mon-Sat", "time": "8:30am"}, {"days": "Sun", "time": "Closed"}], "id": "0068000029", "name": "USPS COLLECTION BOX - BLUE BOX", "address": {"city": "MAYAGUEZ", "state": "PR", "street": "410 AVE HOSTOS", "postcode": "00680"}}},
{"geometry": {"type": "Point", "coordinates": [-67.138499985, 18.194060002]}, "type": "Feature", "properties": {"collection_times": [{"days": "Mon-Sat", "time": "9:15am"}, {"days": "Sun", "time": "Closed"}], "id": "0068000030", "name": "USPS COLLECTION BOX - BLUE BOX", "address": {"city": "MAYAGUEZ", "state": "PR", "street": "637 AVE STA TERESA JOURNET", "postcode": "00680"}}},
{"geometry": {"type": "Point", "coordinates": [-67.138499985, 18.194060002]}, "type": "Feature", "properties": {"collection_times": [{"days": "Mon-Sat", "time": "9:00am"}, {"days": "Sun", "time": "Closed"}], "id": "0068000032", "name": "USPS COLLECTION BOX - BLUE BOX", "address": {"city": "MAYAGUEZ", "state": "PR", "street": "119 CALLE DR RAMON E BETANCES S", "postcode": "00680"}}},
{"geometry": {"type": "Point", "coordinates": [-67.142563928, 18.202130071]}, "type": "Feature", "properties": {"collection_times": [{"days": "Mon-Sat", "time": "10:45am"}, {"days": "Sun", "time": "Closed"}], "id": "0068000041", "name": "USPS COLLECTION BOX - BLUE BOX", "address": {"city": "MAYAGUEZ", "state": "PR", "street": "101 CALLE MENDEZ VIGO W", "postcode": "00680"}}},
{"geometry": {"type": "Point", "coordinates": [-67.138499985, 18.194060002]}, "type": "Feature", "properties": {"collection_times": [{"days": "Mon-Sat", "time": "9:45am"}, {"days": "Sun", "time": "Closed"}], "id": "0068000042", "name": "USPS COLLECTION BOX - BLUE BOX", "address": {"city": "MAYAGUEZ", "state": "PR", "street": "6 CALLE SANTIAGO R PALMER E", "postcode": "00680"}}},
{"geometry": {"type": "Point", "coordinates": [-67.1384826091, 18.2028077431]}, "type": "Feature", "properties": {"collection_times": [{"days": "Mon-Sat", "time": "10:00am"}, {"days": "Sun", "time": "Closed"}], "id": "0068000047", "name": "USPS COLLECTION BOX - BLUE BOX", "address": {"city": "MAYAGUEZ", "state": "PR", "street": "55 CALLE MEDITACION", "postcode": "00680"}}},
{"geometry": {"type": "Point", "coordinates": [-67.1522593241, 18.2075152767]}, "type": "Feature", "properties": {"collection_times": [{"days": "Mon-Sat", "time": "10:45am"}, {"days": "Sun", "time": "Closed"}], "id": "0068000049", "name": "USPS COLLECTION BOX - BLUE BOX", "address": {"city": "MAYAGUEZ", "state": "PR", "street": "18 CALLE DR RAMON E BETANCES N", "postcode": "00680"}}},
{"geometry": {"type": "Point", "coordinates": [-67.137365736, 18.201566685]}, "type": "Feature", "properties": {"collection_times": [{"days": "Mon-Sat", "time": "9:30am"}, {"days": "Sun", "time": "Closed"}], "id": "0068000050", "name": "USPS COLLECTION BOX - BLUE BOX", "address": {"city": "MAYAGUEZ", "state": "PR", "street": "169 CALLE MENDEZ VIGO E", "postcode": "00680"}}},
{"geometry": {"type": "Point", "coordinates": [-67.138499985, 18.194060002]}, "type": "Feature", "properties": {"collection_times": [{"days": "Mon-Sat", "time": "9:30am"}, {"days": "Sun", "time": "Closed"}], "id": "0068000060", "name": "USPS COLLECTION BOX - BLUE BOX", "address": {"city": "MAYAGUEZ", "state": "PR", "street": "59 CALLE MARTINZ NDL N", "postcode": "00680"}}},
{"geometry": {"type": "Point", "coordinates": [-67.0990535845, 18.2080553673]}, "type": "Feature", "properties": {"collection_times": [{"days": "Mon-Sat", "time": "10:15am"}, {"days": "Sun", "time": "Closed"}], "id": "0068000065", "name": "USPS COLLECTION BOX - BLUE BOX", "address": {"city": "MAYAGUEZ", "state": "PR", "street": "1 CALLE 1", "postcode": "00680"}}},
{"geometry": {"type": "Point", "coordinates": [-67.138499985, 18.194060002]}, "type": "Feature", "properties": {"collection_times": [{"days": "Mon-Sat", "time": "9:15am"}, {"days": "Sun", "time": "Closed"}], "id": "0068000073", "name": "USPS COLLECTION BOX - BLUE BOX", "address": {"city": "MAYAGUEZ", "state": "PR", "street": "205 AVE ALGARROBO", "postcode": "00680"}}},
{"geometry": {"type": "Point", "coordinates": [-67.138735475, 18.182397448]}, "type": "Feature", "properties": {"collection_times": [{"days": "Mon-Sat", "time": "9:30am"}, {"days": "Sun", "time": "Closed"}], "id": "0068000074", "name": "USPS COLLECTION BOX - BLUE BOX", "address": {"city": "MAYAGUEZ", "state": "PR", "street": "500 CALLE ROBERTO COLE", "postcode": "00680"}}},
{"geometry": {"type": "Point", "coordinates": [-67.138499985, 18.194060002]}, "type": "Feature", "properties": {"collection_times": [{"days": "Mon-Sat", "time": "10:30am"}, {"days": "Sun", "time": "Closed"}], "id": "0068000076", "name": "USPS COLLECTION BOX - BLUE BOX", "address": {"city": "MAYAGUEZ", "state": "PR", "street": "1445 CARR 108", "postcode": "00680"}}},
{"geometry": {"type": "Point", "coordinates": [-67.138499985, 18.194060002]}, "type": "Feature", "properties": {"collection_times": [{"days": "Mon-Sat", "time": "9:30am"}, {"days": "Sun", "time": "Closed"}], "id": "0068000082", "name": "USPS COLLECTION BOX - BLUE BOX", "address": {"city": "MAYAGUEZ", "state": "PR", "street": "1040 AVE LOS CORAZONES", "postcode": "00680"}}},
{"geometry": {"type": "Point", "coordinates": [-67.138499985, 18.194060002]}, "type": "Feature", "properties": {"collection_times": [{"days": "Mon-Sat", "time": "9:15am"}, {"days": "Sun", "time": "Closed"}], "id": "0068000088", "name": "USPS COLLECTION BOX - BLUE BOX", "address": {"city": "MAYAGUEZ", "state": "PR", "street": "2765 AVE HOSTOS", "postcode": "00680"}}},
{"geometry": {"type": "Point", "coordinates": [-67.0990535845, 18.2080553673]}, "type": "Feature", "properties": {"collection_times": [{"days": "Mon-Sat", "time": "9:30am"}, {"days": "Sun", "time": "Closed"}], "id": "0068000089", "name": "USPS COLLECTION BOX - BLUE BOX", "address": {"city": "MAYAGUEZ", "state": "PR", "street": "345 CALLE DR RAMON E BETANCES S", "postcode": "00680"}}},
{"geometry": {"type": "Point", "coordinates": [-67.138499985, 18.194060002]}, "type": "Feature", "properties": {"collection_times": [{"days": "Mon-Sat", "time": "9:15am"}, {"days": "Sun", "time": "Closed"}], "id": "0068000090", "name": "USPS COLLECTION BOX - BLUE BOX", "address": {"city": "MAYAGUEZ", "state": "PR", "street": "975 AVE HOSTOS", "postcode": "00680"}}},
{"geometry": {"type": "Point", "coordinates": [-67.1395459304, 18.2014983565]}, "type": "Feature", "properties": {"collection_times": [{"days": "Mon-Sat", "time": "10:00am"}, {"days": "Sun", "time": "Closed"}], "id": "0068000091", "name": "USPS COLLECTION BOX - BLUE BOX", "address": {"city": "MAYAGUEZ", "state": "PR", "street": "8 CALLE PERAL S", "postcode": "00680"}}},
{"geometry": {"type": "Point", "coordinates": [-67.138499985, 18.194060002]}, "type": "Feature", "properties": {"collection_times": [{"days": "Mon-Fri", "time": "8:30am"}, {"days": "Sat-Sun", "time": "Closed"}], "id": "0068000092", "name": "USPS COLLECTION BOX - BLUE BOX", "address": {"city": "MAYAGUEZ", "state": "PR", "street": "91 AVE HIRAM D CABASSA", "postcode": "00680"}}},
{"geometry": {"type": "Point", "coordinates": [-67.138499985, 18.194060002]}, "type": "Feature", "properties": {"collection_times": [{"days": "Mon-Fri", "time": "3:00pm"}, {"days": "Sat", "time": "10:45am"}, {"days": "Sun", "time": "Closed"}], "id": "0068000094", "name": "USPS COLLECTION BOX - PO LOBBY", "address": {"city": "MAYAGUEZ", "state": "PR", "street": "60 CALLE DE LA CANDELARIA W", "postcode": "00680"}}},
{"geometry": {"type": "Point", "coordinates": [-67.1349821809, 18.2010792042]}, "type": "Feature", "properties": {"collection_times": [{"days": "Mon-Fri", "time": "3:00pm"}, {"days": "Sat", "time": "10:30am"}, {"days": "Sun", "time": "Closed"}], "id": "0068000095", "name": "USPS COLLECTION BOX - PO LOBBY", "address": {"city": "MAYAGUEZ", "state": "PR", "street": "270 CALLE DE LA CANDELARIA", "postcode": "00680"}}},
{"geometry": {"type": "Point", "coordinates": [-67.042039986, 18.081310012]}, "type": "Feature", "properties": {"collection_times": [{"days": "Mon-Sat", "time": "3:00pm"}, {"days": "Sun", "time": "Closed"}], "id": "0068300004", "name": "USPS COLLECTION BOX - BLUE BOX", "address": {"city": "SAN GERMAN", "state": "PR", "street": "A28 AVE UNIV INTERAMERICANA", "postcode": "00683"}}},
{"geometry": {"type": "Point", "coordinates": [-67.041193844, 18.081311464]}, "type": "Feature", "properties": {"collection_times": [{"days": "Mon-Sat", "time": "9:00am"}, {"days": "Sun", "time": "Closed"}], "id": "0068300005", "name": "USPS COLLECTION BOX - BLUE BOX", "address": {"city": "SAN GERMAN", "state": "PR", "street": "94 AVE UNIV INTERAMERICANA", "postcode": "00683"}}},
{"geometry": {"type": "Point", "coordinates": [-67.0384329504, 18.1110768447]}, "type": "Feature", "properties": {"collection_times": [{"days": "Mon-Sat", "time": "8:15am"}, {"days": "Sun", "time": "Closed"}], "id": "0068300010", "name": "USPS COLLECTION BOX - BLUE BOX", "address": {"city": "SAN GERMAN", "state": "PR", "street": "1 AVE DEL VETERANO", "postcode": "00683"}}},
{"geometry": {"type": "Point", "coordinates": [-67.0384329504, 18.1110768447]}, "type": "Feature", "properties": {"collection_times": [{"days": "Mon-Fri", "time": "3:00pm"}, {"days": "Sat", "time": "8:30am"}, {"days": "Sun", "time": "Closed"}], "id": "0068300011", "name": "USPS COLLECTION BOX - BLUE BOX", "address": {"city": "SAN GERMAN", "state": "PR", "street": "181 AVE UNIV INTERAMERICANA", "postcode": "00683"}}},
{"geometry": {"type": "Point", "coordinates": [-67.042039986, 18.081310012]}, "type": "Feature", "properties": {"collection_times": [{"days": "Mon-Sat", "time": "8:15am"}, {"days": "Sun", "time": "Closed"}], "id": "0068300012", "name": "USPS COLLECTION BOX - BLUE BOX", "address": {"city": "SAN GERMAN", "state": "PR", "street": "355 AVE CASTO PEREZ", "postcode": "00683"}}},
{"geometry": {"type": "Point", "coordinates": [-67.059658271, 18.086875895]}, "type": "Feature", "properties": {"collection_times": [{"days": "Mon-Sat", "time": "9:30am"}, {"days": "Sun", "time": "Closed"}], "id": "0068300013", "name": "USPS COLLECTION BOX - BLUE BOX", "address": {"city": "SAN GERMAN", "state": "PR", "street": "915 CARR 2", "postcode": "00683"}}},
{"geometry": {"type": "Point", "coordinates": [-67.035148931, 18.079621073]}, "type": "Feature", "properties": {"collection_times": [{"days": "Mon-Sat", "time": "9:30am"}, {"days": "Sun", "time": "Closed"}], "id": "0068300014", "name": "USPS COLLECTION BOX - BLUE BOX", "address": {"city": "SAN GERMAN", "state": "PR", "street": "5 AVE CASTO PEREZ", "postcode": "00683"}}},
{"geometry": {"type": "Point", "coordinates": [-67.04628725, 18.080848589]}, "type": "Feature", "properties": {"collection_times": [{"days": "Mon-Sat", "time": "10:30am"}, {"days": "Sun", "time": "Closed"}], "id": "0068300016", "name": "USPS COLLECTION BOX - BLUE BOX", "address": {"city": "SAN GERMAN", "state": "PR", "street": "12 CALLE CONCEPCION", "postcode": "00683"}}},
{"geometry": {"type": "Point", "coordinates": [-67.043705553, 18.081466254]}, "type": "Feature", "properties": {"collection_times": [{"days": "Mon-Fri", "time": "3:00pm"}, {"days": "Sat", "time": "8:30am"}, {"days": "Sun", "time": "Closed"}], "id": "0068300017", "name": "USPS COLLECTION BOX - PO LOBBY", "address": {"city": "SAN GERMAN", "state": "PR", "street": "181 AVE UNIV INTERAMERICANA", "postcode": "00683"}}},
{"geometry": {"type": "Point", "coordinates": [-66.990331172, 18.333564328]}, "type": "Feature", "properties": {"collection_times": [{"days": "Mon-Sat", "time": "8:00am"}, {"days": "Sun", "time": "Closed"}], "id": "0068500007", "name": "USPS COLLECTION BOX - BLUE BOX", "address": {"city": "SAN SEBASTIAN", "state": "PR", "street": "1001 AVE EMERITO ESTRADA", "postcode": "00685"}}},
{"geometry": {"type": "Point", "coordinates": [-66.989954271, 18.338692885]}, "type": "Feature", "properties": {"collection_times": [{"days": "Mon-Sat", "time": "8:15am"}, {"days": "Sun", "time": "Closed"}], "id": "0068500009", "name": "USPS COLLECTION BOX - BLUE BOX", "address": {"city": "SAN SEBASTIAN", "state": "PR", "street": "54 CALLE MJ CABRERO", "postcode": "00685"}}},
{"geometry": {"type": "Point", "coordinates": [-66.988947413, 18.333510454]}, "type": "Feature", "properties": {"collection_times": [{"days": "Mon-Sat", "time": "8:15am"}, {"days": "Sun", "time": "Closed"}], "id": "0068500012", "name": "USPS COLLECTION BOX - BLUE BOX", "address": {"city": "SAN SEBASTIAN", "state": "PR", "street": "29 CALLE HOSTOS", "postcode": "00685"}}},
{"geometry": {"type": "Point", "coordinates": [-66.993229983, 18.337209985]}, "type": "Feature", "properties": {"collection_times": [{"days": "Mon-Sat", "time": "8:00am"}, {"days": "Sun", "time": "Closed"}], "id": "0068500013", "name": "USPS COLLECTION BOX - BLUE BOX", "address": {"city": "SAN SEBASTIAN", "state": "PR", "street": "9 CALLE PADRE FELICIANO", "postcode": "00685"}}},
{"geometry": {"type": "Point", "coordinates": [-66.992702376, 18.335823566]}, "type": "Feature", "properties": {"collection_times": [{"days": "Mon-Fri", "time": "3:00pm"}, {"days": "Sat", "time": "8:15am"}, {"days": "Sun", "time": "Closed"}], "id": "0068500015", "name": "USPS COLLECTION BOX - BLUE BOX", "address": {"city": "SAN SEBASTIAN", "state": "PR", "street": "206 CALLE RUIZ BELVIS", "postcode": "00685"}}},
{"geometry": {"type": "Point", "coordinates": [-66.992702376, 18.335823566]}, "type": "Feature", "properties": {"collection_times": [{"days": "Mon-Fri", "time": "3:00pm"}, {"days": "Sat", "time": "8:15am"}, {"days": "Sun", "time": "Closed"}], "id": "0068500016", "name": "USPS COLLECTION BOX - PO LOBBY", "address": {"city": "SAN SEBASTIAN", "state": "PR", "street": "206 CALLE RUIZ BELVIS", "postcode": "00685"}}},
{"geometry": {"type": "Point", "coordinates": [-66.419339997, 18.37800333]}, "type": "Feature", "properties": {"collection_times": [{"days": "Mon-Sat", "time": "10:00am"}, {"days": "Sun", "time": "Closed"}], "id": "0068700001", "name": "USPS COLLECTION BOX - BLUE BOX", "address": {"city": "MOROVIS", "state": "PR", "street": "66 CALLE BUENA VIS", "postcode": "00687"}}},
{"geometry": {"type": "Point", "coordinates": [-66.424279419, 18.343457337]}, "type": "Feature", "properties": {"collection_times": [{"days": "Mon-Sat", "time": "10:30am"}, {"days": "Sun", "time": "Closed"}], "id": "0068700005", "name": "USPS COLLECTION BOX - BLUE BOX", "address": {"city": "MOROVIS", "state": "PR", "street": "5 CALLE BUENA VIS", "postcode": "00687"}}},
{"geometry": {"type": "Point", "coordinates": [-66.419339997, 18.37800333]}, "type": "Feature", "properties": {"collection_times": [{"days": "Mon-Fri", "time": "3:00pm"}, {"days": "Sat", "time": "8:00am"}, {"days": "Sun", "time": "Closed"}], "id": "0068700006", "name": "USPS COLLECTION BOX - BLUE BOX", "address": {"city": "MOROVIS", "state": "PR", "street": "200 CARR 155", "postcode": "00687"}}},
{"geometry": {"type": "Point", "coordinates": [-66.419339997, 18.37800333]}, "type": "Feature", "properties": {"collection_times": [{"days": "Mon-Fri", "time": "3:00pm"}, {"days": "Sat", "time": "8:00am"}, {"days": "Sun", "time": "Closed"}], "id": "0068700007", "name": "USPS COLLECTION BOX - PO LOBBY", "address": {"city": "MOROVIS", "state": "PR", "street": "200 CARR 155", "postcode": "00687"}}},
{"geometry": {"type": "Point", "coordinates": [-66.604869978, 18.385939981]}, "type": "Feature", "properties": {"collection_times": [{"days": "Mon-Fri", "time": "3:00pm"}, {"days": "Sat", "time": "8:00am"}, {"days": "Sun", "time": "Closed"}], "id": "0068800001", "name": "USPS COLLECTION BOX - BLUE BOX", "address": {"city": "SABANA HOYOS", "state": "PR", "street": "50 CARR 639", "postcode": "00688"}}},
{"geometry": {"type": "Point", "coordinates": [-66.604869978, 18.385939981]}, "type": "Feature", "properties": {"collection_times": [{"days": "Mon-Fri", "time": "3:00pm"}, {"days": "Sat", "time": "8:00am"}, {"days": "Sun", "time": "Closed"}], "id": "0068800002", "name": "USPS COLLECTION BOX - PO LOBBY", "address": {"city": "SABANA HOYOS", "state": "PR", "street": "50 CARR 639", "postcode": "00688"}}},
{"geometry": {"type": "Point", "coordinates": [-67.091759599, 18.489128663]}, "type": "Feature", "properties": {"collection_times": [{"days": "Mon-Fri", "time": "3:00pm"}, {"days": "Sat", "time": "8:00am"}, {"days": "Sun", "time": "Closed"}], "id": "0069000001", "name": "USPS COLLECTION BOX - BLUE BOX", "address": {"city": "SAN ANTONIO", "state": "PR", "street": "1068 AVE GENERAL RAMEY", "postcode": "00690"}}},
{"geometry": {"type": "Point", "coordinates": [-67.091759599, 18.489128663]}, "type": "Feature", "properties": {"collection_times": [{"days": "Mon-Fri", "time": "3:00pm"}, {"days": "Sat", "time": "8:00am"}, {"days": "Sun", "time": "Closed"}], "id": "0069000002", "name": "USPS COLLECTION BOX - PO LOBBY", "address": {"city": "SAN ANTONIO", "state": "PR", "street": "1068 AVE GENERAL RAMEY", "postcode": "00690"}}},
{"geometry": {"type": "Point", "coordinates": [-66.329314241, 18.411866757]}, "type": "Feature", "properties": {"collection_times": [{"days": "Mon-Sat", "time": "11:00am"}, {"days": "Sun", "time": "Closed"}], "id": "0069200001", "name": "USPS COLLECTION BOX - BLUE BOX", "address": {"city": "VEGA ALTA", "state": "PR", "street": "100 CARR 678", "postcode": "00692"}}},
{"geometry": {"type": "Point", "coordinates": [-66.32179999, 18.417129978]}, "type": "Feature", "properties": {"collection_times": [{"days": "Mon-Fri", "time": "3:00pm"}, {"days": "Sat", "time": "8:30am"}, {"days": "Sun", "time": "Closed"}], "id": "0069200002", "name": "USPS COLLECTION BOX - BLUE BOX", "address": {"city": "VEGA ALTA", "state": "PR", "street": "100 CARR 2", "postcode": "00692"}}},
{"geometry": {"type": "Point", "coordinates": [-66.32179999, 18.417129978]}, "type": "Feature", "properties": {"collection_times": [{"days": "Mon-Sat", "time": "8:30am"}, {"days": "Sun", "time": "Closed"}], "id": "0069200003", "name": "USPS COLLECTION BOX - BLUE BOX", "address": {"city": "VEGA ALTA", "state": "PR", "street": "73 CALLE EDUARDO GEORGETTI", "postcode": "00692"}}},
{"geometry": {"type": "Point", "coordinates": [-66.3372968585, 18.4091419117]}, "type": "Feature", "properties": {"collection_times": [{"days": "Mon-Sat", "time": "8:30am"}, {"days": "Sun", "time": "Closed"}], "id": "0069200004", "name": "USPS COLLECTION BOX - BLUE BOX", "address": {"city": "VEGA ALTA", "state": "PR", "street": "1 CALLE 1", "postcode": "00692"}}},
{"geometry": {"type": "Point", "coordinates": [-66.337673331, 18.48556999]}, "type": "Feature", "properties": {"collection_times": [{"days": "Mon-Sat", "time": "12:00pm"}, {"days": "Sun", "time": "Closed"}], "id": "0069200006", "name": "USPS COLLECTION BOX - BLUE BOX", "address": {"city": "VEGA ALTA", "state": "PR", "street": "180 CARR 678", "postcode": "00692"}}},
{"geometry": {"type": "Point", "coordinates": [-66.32179999, 18.417129978]}, "type": "Feature", "properties": {"collection_times": [{"days": "Mon-Fri", "time": "3:00pm"}, {"days": "Sat", "time": "8:30am"}, {"days": "Sun", "time": "Closed"}], "id": "0069200007", "name": "USPS COLLECTION BOX - PO LOBBY", "address": {"city": "VEGA ALTA", "state": "PR", "street": "100 CARR 2", "postcode": "00692"}}},
{"geometry": {"type": "Point", "coordinates": [-66.388521472, 18.435942362]}, "type": "Feature", "properties": {"collection_times": [{"days": "Mon-Sat", "time": "12:00pm"}, {"days": "Sun", "time": "Closed"}], "id": "0069300009", "name": "USPS COLLECTION BOX - BLUE BOX", "address": {"city": "VEGA BAJA", "state": "PR", "street": "38 CALLE RAMON E BETANCES", "postcode": "00693"}}},
{"geometry": {"type": "Point", "coordinates": [-66.387230926, 18.444846487]}, "type": "Feature", "properties": {"collection_times": [{"days": "Mon-Sat", "time": "12:00pm"}, {"days": "Sun", "time": "Closed"}], "id": "0069300012", "name": "USPS COLLECTION BOX - BLUE BOX", "address": {"city": "VEGA BAJA", "state": "PR", "street": "28 PLAZA DEL MERCADO", "postcode": "00693"}}},
{"geometry": {"type": "Point", "coordinates": [-66.400559997, 18.494149977]}, "type": "Feature", "properties": {"collection_times": [{"days": "Mon-Sat", "time": "8:00am"}, {"days": "Sun", "time": "Closed"}], "id": "0069300013", "name": "USPS COLLECTION BOX - BLUE BOX", "address": {"city": "VEGA BAJA", "state": "PR", "street": "15 CARR 155", "postcode": "00693"}}},
{"geometry": {"type": "Point", "coordinates": [-66.385696955, 18.447520063]}, "type": "Feature", "properties": {"collection_times": [{"days": "Mon-Fri", "time": "3:00pm"}, {"days": "Sat", "time": "8:00am"}, {"days": "Sun", "time": "Closed"}], "id": "0069300017", "name": "USPS COLLECTION BOX - BLUE BOX", "address": {"city": "VEGA BAJA", "state": "PR", "street": "A10 CALLE 2", "postcode": "00693"}}},
{"geometry": {"type": "Point", "coordinates": [-66.3980354178, 18.428318247]}, "type": "Feature", "properties": {"collection_times": [{"days": "Mon-Fri", "time": "3:00pm"}, {"days": "Sat", "time": "8:00am"}, {"days": "Sun", "time": "Closed"}], "id": "0069300018", "name": "USPS COLLECTION BOX - PO LOBBY", "address": {"city": "VEGA BAJA", "state": "PR", "street": "A 10 CALLE 2", "postcode": "00693"}}},
{"geometry": {"type": "Point", "coordinates": [-66.827256644, 18.17120334]}, "type": "Feature", "properties": {"collection_times": [{"days": "Mon-Fri", "time": "3:00pm"}, {"days": "Sat", "time": "9:30am"}, {"days": "Sun", "time": "Closed"}], "id": "0069800005", "name": "USPS COLLECTION BOX - BLUE BOX", "address": {"city": "YAUCO", "state": "PR", "street": "603 YAUCO PLAZA II", "postcode": "00698"}}},
{"geometry": {"type": "Point", "coordinates": [-66.850111903, 18.034866928]}, "type": "Feature", "properties": {"collection_times": [{"days": "Mon-Sat", "time": "9:30am"}, {"days": "Sun", "time": "Closed"}], "id": "0069800014", "name": "USPS COLLECTION BOX - BLUE BOX", "address": {"city": "YAUCO", "state": "PR", "street": "28 CALLE COMERCIO", "postcode": "00698"}}},
{"geometry": {"type": "Point", "coordinates": [-66.859239991, 18.031340002]}, "type": "Feature", "properties": {"collection_times": [{"days": "Mon-Sat", "time": "9:30am"}, {"days": "Sun", "time": "Closed"}], "id": "0069800016", "name": "USPS COLLECTION BOX - BLUE BOX", "address": {"city": "YAUCO", "state": "PR", "street": "2 CARR 368", "postcode": "00698"}}},
{"geometry": {"type": "Point", "coordinates": [-66.859239991, 18.031340002]}, "type": "Feature", "properties": {"collection_times": [{"days": "Mon-Sat", "time": "9:30am"}, {"days": "Sun", "time": "Closed"}], "id": "0069800018", "name": "USPS COLLECTION BOX - BLUE BOX", "address": {"city": "YAUCO", "state": "PR", "street": "60 YAUCO PLAZA I", "postcode": "00698"}}},
{"geometry": {"type": "Point", "coordinates": [-66.849375644, 18.035660246]}, "type": "Feature", "properties": {"collection_times": [{"days": "Mon-Sat", "time": "11:00am"}, {"days": "Sun", "time": "Closed"}], "id": "0069800020", "name": "USPS COLLECTION BOX - BLUE BOX", "address": {"city": "YAUCO", "state": "PR", "street": "1 CAFETAL SHOPP CTR STE 7", "postcode": "00698"}}},
{"geometry": {"type": "Point", "coordinates": [-66.827256644, 18.17120334]}, "type": "Feature", "properties": {"collection_times": [{"days": "Mon-Sat", "time": "11:00am"}, {"days": "Sun", "time": "Closed"}], "id": "0069800021", "name": "USPS COLLECTION BOX - BLUE BOX", "address": {"city": "YAUCO", "state": "PR", "street": "100 BARINAS SHOPP CTR", "postcode": "00698"}}},
{"geometry": {"type": "Point", "coordinates": [-66.827256644, 18.17120334]}, "type": "Feature", "properties": {"collection_times": [{"days": "Mon-Fri", "time": "3:00pm"}, {"days": "Sat", "time": "9:30am"}, {"days": "Sun", "time": "Closed"}], "id": "0069800022", "name": "USPS COLLECTION BOX - PO LOBBY", "address": {"city": "YAUCO", "state": "PR", "street": "603 YAUCO PLAZA II", "postcode": "00698"}}}
]}
