{"type": "FeatureCollection", "features": [
{"geometry": {"type": "Point", "coordinates": [-66.1029906271, 18.2562933948]}, "type": "Feature", "properties": {"collection_times": [{"days": "Mon-Fri", "time": "3:00pm"}, {"days": "Sat", "time": "8:30am"}, {"days": "Sun", "time": "Closed"}], "id": "0070300001", "name": "USPS COLLECTION BOX - BLUE BOX", "address": {"city": "AGUAS BUENAS", "state": "PR", "street": "13 CALLE PIO RECHANI", "postcode": "00703"}}},
{"geometry": {"type": "Point", "coordinates": [-66.1063936118, 18.2570415726]}, "type": "Feature", "properties": {"collection_times": [{"days": "Mon-Sat", "time": "8:30am"}, {"days": "Sun", "time": "Closed"}], "id": "0070300003", "name": "USPS COLLECTION BOX - BLUE BOX", "address": {"city": "AGUAS BUENAS", "state": "PR", "street": "8 CALLE RAFAEL LASA", "postcode": "00703"}}},
{"geometry": {"type": "Point", "coordinates": [-66.103295847, 18.256267393]}, "type": "Feature", "properties": {"collection_times": [{"days": "Mon-Fri", "time": "3:00pm"}, {"days": "Sat", "time": "8:30am"}, {"days": "Sun", "time": "Closed"}], "id": "0070300004", "name": "USPS COLLECTION BOX - PO LOBBY", "address": {"city": "AGUAS BUENAS", "state": "PR", "street": "13 CALLE PIO RECHANI", "postcode": "00703"}}},
{"geometry": {"type": "Point", "coordinates": [-66.22025401, 17.9760809568]}, "type": "Feature", "properties": {"collection_times": [{"days": "Mon-Sat", "time": "10:00am"}, {"days": "Sun", "time": "Closed"}], "id": "0070400001", "name": "USPS COLLECTION BOX - BLUE BOX", "address": {"city": "AGUIRRE", "state": "PR", "street": "2 CALLE BARBOSA", "postcode": "00704"}}},
{"geometry": {"type": "Point", "coordinates": [-66.225000021, 17.972800011]}, "type": "Feature", "properties": {"collection_times": [{"days": "Mon-Fri", "time": "3:00pm"}, {"days": "Sat", "time": "8:30am"}, {"days": "Sun", "time": "Closed"}], "id": "0070400002", "name": "USPS COLLECTION BOX - BLUE BOX", "address": {"city": "AGUIRRE", "state": "PR", "street": "100 CALLE PRINCIPAL", "postcode": "00704"}}},
{"geometry": {"type": "Point", "coordinates": [-66.225000021, 17.972800011]}, "type": "Feature", "properties": {"collection_times": [{"days": "Mon-Fri", "time": "3:00pm"}, {"days": "Sat", "time": "8:30am"}, {"days": "Sun", "time": "Closed"}], "id": "0070400003", "name": "USPS COLLECTION BOX - PO LOBBY", "address": {"city": "AGUIRRE", "state": "PR", "street": "100 CALLE PRINCIPAL", "postcode": "00704"}}},
{"geometry": {"type": "Point", "coordinates": [-66.2643438105, 18.1311198589]}, "type": "Feature", "properties": {"collection_times": [{"days": "Mon-Fri", "time": "3:00pm"}, {"days": "Sat", "time": "9:30am"}, {"days": "Sun", "time": "Closed"}], "id": "0070500001", "name": "USPS COLLECTION BOX - BLUE BOX", "address": {"city": "AIBONITO", "state": "PR", "street": "20 CALLE IGNACIO LOPEZ", "postcode": "00705"}}},
{"geometry": {"type": "Point", "coordinates": [-66.26408008, 18.137586261]}, "type": "Feature", "properties": {"collection_times": [{"days": "Mon-Sat", "time": "9:30am"}, {"days": "Sun", "time": "Closed"}], "id": "0070500003", "name": "USPS COLLECTION BOX - BLUE BOX", "address": {"city": "AIBONITO", "state": "PR", "street": "100 CALLE JOSE C VAZQUEZ", "postcode": "00705"}}},
{"geometry": {"type": "Point", "coordinates": [-66.2659277531, 18.1409100064]}, "type": "Feature", "properties": {"collection_times": [{"days": "Mon-Sat", "time": "9:30am"}, {"days": "Sun", "time": "Closed"}], "id": "0070500004", "name": "USPS COLLECTION BOX - BLUE BOX", "address": {"city": "AIBONITO", "state": "PR", "street": "10 CALLE MENONITA", "postcode": "00705"}}},
{"geometry": {"type": "Point", "coordinates": [-66.266824232, 18.13992829]}, "type": "Feature", "properties": {"collection_times": [{"days": "Mon-Sat", "time": "9:30am"}, {"days": "Sun", "time": "Closed"}], "id": "0070500005", "name": "USPS COLLECTION BOX - BLUE BOX", "address": {"city": "AIBONITO", "state": "PR", "street": "252 CALLE SAN JOSE E", "postcode": "00705"}}},
{"geometry": {"type": "Point", "coordinates": [-66.2643438105, 18.1311198589]}, "type": "Feature", "properties": {"collection_times": [{"days": "Mon-Sat", "time": "9:30am"}, {"days": "Sun", "time": "Closed"}], "id": "0070500007", "name": "USPS COLLECTION BOX - BLUE BOX", "address": {"city": "AIBONITO", "state": "PR", "street": "55 CALLE DEGETAU S", "postcode": "00705"}}},
{"geometry": {"type": "Point", "coordinates": [-66.242276691, 18.18023334]}, "type": "Feature", "properties": {"collection_times": [{"days": "Mon-Sat", "time": "9:30am"}, {"days": "Sun", "time": "Closed"}], "id": "0070500008", "name": "USPS COLLECTION BOX - BLUE BOX", "address": {"city": "AIBONITO", "state": "PR", "street": "165 CALLE BALDORIOTY N", "postcode": "00705"}}},
{"geometry": {"type": "Point", "coordinates": [-66.259605896, 18.135764135]}, "type": "Feature", "properties": {"collection_times": [{"days": "Mon-Sat", "time": "9:00am"}, {"days": "Sun", "time": "Closed"}], "id": "0070500009", "name": "USPS COLLECTION BOX - BLUE BOX", "address": {"city": "AIBONITO", "state": "PR", "street": "B98 CALLE ESMERALDA", "postcode": "00705"}}},
{"geometry": {"type": "Point", "coordinates": [-66.2643438105, 18.1311198589]}, "type": "Feature", "properties": {"collection_times": [{"days": "Mon-Sat", "time": "10:00am"}, {"days": "Sun", "time": "Closed"}], "id": "0070500010", "name": "USPS COLLECTION BOX - BLUE BOX", "address": {"city": "AIBONITO", "state": "PR", "street": "150 CALLE TURQUESA", "postcode": "00705"}}},
{"geometry": {"type": "Point", "coordinates": [-66.2643438105, 18.1311198589]}, "type": "Feature", "properties": {"collection_times": [{"days": "Mon-Fri", "time": "3:00pm"}, {"days": "Sat", "time": "9:30am"}, {"days": "Sun", "time": "Closed"}], "id": "0070500011", "name": "USPS COLLECTION BOX - PO LOBBY", "address": {"city": "AIBONITO", "state": "PR", "street": "20 CALLE IGNACIO LOPEZ", "postcode": "00705"}}},
{"geometry": {"type": "Point", "coordinates": [-65.9197863955, 18.0098615412]}, "type": "Feature", "properties": {"collection_times": [{"days": "Mon-Fri", "time": "3:00pm"}, {"days": "Sat", "time": "8:30am"}, {"days": "Sun", "time": "Closed"}], "id": "0070700001", "name": "USPS COLLECTION BOX - BLUE BOX", "address": {"city": "MAUNABO", "state": "PR", "street": "184 AVE CALIMANO", "postcode": "00707"}}},
{"geometry": {"type": "Point", "coordinates": [-65.899508596, 18.003634048]}, "type": "Feature", "properties": {"collection_times": [{"days": "Mon-Sat", "time": "8:00am"}, {"days": "Sun", "time": "Closed"}], "id": "0070700003", "name": "USPS COLLECTION BOX - BLUE BOX", "address": {"city": "MAUNABO", "state": "PR", "street": "32 CALLE MUNOZ RIVERA", "postcode": "00707"}}},
{"geometry": {"type": "Point", "coordinates": [-65.8998887926, 18.0067939037]}, "type": "Feature", "properties": {"collection_times": [{"days": "Mon-Sat", "time": "8:00am"}, {"days": "Sun", "time": "Closed"}], "id": "0070700005", "name": "USPS COLLECTION BOX - BLUE BOX", "address": {"city": "MAUNABO", "state": "PR", "street": "17 CALLE ANTONIO R BARCELO", "postcode": "00707"}}},
{"geometry": {"type": "Point", "coordinates": [-65.897102589, 18.009209085]}, "type": "Feature", "properties": {"collection_times": [{"days": "Mon-Fri", "time": "3:00pm"}, {"days": "Sat", "time": "8:30am"}, {"days": "Sun", "time": "Closed"}], "id": "0070700006", "name": "USPS COLLECTION BOX - PO LOBBY", "address": {"city": "MAUNABO", "state": "PR", "street": "184 AVE CALIMANO", "postcode": "00707"}}},
{"geometry": {"type": "Point", "coordinates": [-66.06644274, 17.971635937]}, "type": "Feature", "properties": {"collection_times": [{"days": "Mon-Sat", "time": "8:15am"}, {"days": "Sun", "time": "Closed"}], "id": "0071400004", "name": "USPS COLLECTION BOX - BLUE BOX", "address": {"city": "ARROYO", "state": "PR", "street": "C1 CALLE A", "postcode": "00714"}}},
{"geometry": {"type": "Point", "coordinates": [-66.059077678, 17.972887214]}, "type": "Feature", "properties": {"collection_times": [{"days": "Mon-Sat", "time": "8:15am"}, {"days": "Sun", "time": "Closed"}], "id": "0071400005", "name": "USPS COLLECTION BOX - BLUE BOX", "address": {"city": "ARROYO", "state": "PR", "street": "212 CALLE MORSE", "postcode": "00714"}}},
{"geometry": {"type": "Point", "coordinates": [-66.0563309391, 17.9986231318]}, "type": "Feature", "properties": {"collection_times": [{"days": "Mon-Fri", "time": "3:00pm"}, {"days": "Sat", "time": "8:15am"}, {"days": "Sun", "time": "Closed"}], "id": "0071400006", "name": "USPS COLLECTION BOX - BLUE BOX", "address": {"city": "ARROYO", "state": "PR", "street": "111 CALLE MORSE", "postcode": "00714"}}},
{"geometry": {"type": "Point", "coordinates": [-66.0563309391, 17.9986231318]}, "type": "Feature", "properties": {"collection_times": [{"days": "Mon-Fri", "time": "3:00pm"}, {"days": "Sat", "time": "8:15am"}, {"days": "Sun", "time": "Closed"}], "id": "0071400007", "name": "USPS COLLECTION BOX - PO LOBBY", "address": {"city": "ARROYO", "state": "PR", "street": "111 CALLE MORSE", "postcode": "00714"}}},
{"geometry": {"type": "Point", "coordinates": [-66.542489994, 17.99745]}, "type": "Feature", "properties": {"collection_times": [{"days": "Mon-Fri", "time": "3:00pm"}, {"days": "Sat", "time": "9:45am"}, {"days": "Sun", "time": "Closed"}], "id": "0071500003", "name": "USPS COLLECTION BOX - BLUE BOX", "address": {"city": "MERCEDITA", "state": "PR", "street": "100 TURPEAUX IND PARK", "postcode": "00715"}}},
{"geometry": {"type": "Point", "coordinates": [-66.542489994, 17.99745]}, "type": "Feature", "properties": {"collection_times": [{"days": "Mon-Fri", "time": "3:00pm"}, {"days": "Sat", "time": "9:45am"}, {"days": "Sun", "time": "Closed"}], "id": "0071500009", "name": "USPS COLLECTION BOX - PO LOBBY", "address": {"city": "MERCEDITA", "state": "PR", "street": "100 TURPEAUX IND PARK", "postcode": "00715"}}},
{"geometry": {"type": "Point", "coordinates": [-65.79297001, 18.296379987]}, "type": "Feature", "properties": {"collection_times": [{"days": "Mon-Fri", "time": "3:00pm"}, {"days": "Sat", "time": "8:00am"}, {"days": "Sun", "time": "Closed"}], "id": "0071800001", "name": "USPS COLLECTION BOX - BLUE BOX", "address": {"city": "NAGUABO", "state": "PR", "street": "100 CARR 31", "postcode": "00718"}}},
{"geometry": {"type": "Point", "coordinates": [-65.7542322635, 18.2306898934]}, "type": "Feature", "properties": {"collection_times": [{"days": "Mon-Fri", "time": "2:00pm"}, {"days": "Sat", "time": "8:00am"}, {"days": "Sun", "time": "Closed"}], "id": "0071800003", "name": "USPS COLLECTION BOX - BLUE BOX", "address": {"city": "NAGUABO", "state": "PR", "street": "H15 CALLE 7", "postcode": "00718"}}},
{"geometry": {"type": "Point", "coordinates": [-65.79297001, 18.296379987]}, "type": "Feature", "properties": {"collection_times": [{"days": "Mon-Fri", "time": "3:00pm"}, {"days": "Sat", "time": "8:00am"}, {"days": "Sun", "time": "Closed"}], "id": "0071800004", "name": "USPS COLLECTION BOX - PO LOBBY", "address": {"city": "NAGUABO", "state": "PR", "street": "100 CARR 31", "postcode": "00718"}}},
{"geometry": {"type": "Point", "coordinates": [-66.2528112985, 18.2883382452]}, "type": "Feature", "properties": {"collection_times": [{"days": "Mon-Fri", "time": "3:00pm"}, {"days": "Sat", "time": "9:00am"}, {"days": "Sun", "time": "Closed"}], "id": "0071900002", "name": "USPS COLLECTION BOX - BLUE BOX", "address": {"city": "NARANJITO", "state": "PR", "street": "40 CALLE GEORGETTI", "postcode": "00719"}}},
{"geometry": {"type": "Point", "coordinates": [-66.391249989, 18.22582002]}, "type": "Feature", "properties": {"collection_times": [{"days": "Mon-Fri", "time": "3:00pm"}, {"days": "Sat", "time": "8:00am"}, {"days": "Sun", "time": "Closed"}], "id": "0072000002", "name": "USPS COLLECTION BOX - BLUE BOX", "address": {"city": "OROCOVIS", "state": "PR", "street": "35 AVE ERNESTO RAMOS ANTONINI", "postcode": "00720"}}},
{"geometry": {"type": "Point", "coordinates": [-66.391249989, 18.22582002]}, "type": "Feature", "properties": {"collection_times": [{"days": "Mon-Fri", "time": "3:00pm"}, {"days": "Sat", "time": "8:00am"}, {"days": "Sun", "time": "Closed"}], "id": "0072000003", "name": "USPS COLLECTION BOX - PO LOBBY", "address": {"city": "OROCOVIS", "state": "PR", "street": "35 AVE ERNESTO RAMOS ANTONINI", "postcode": "00720"}}},
{"geometry": {"type": "Point", "coordinates": [-66.015019256, 18.005300931]}, "type": "Feature", "properties": {"collection_times": [{"days": "Mon-Sat", "time": "8:00am"}, {"days": "Sun", "time": "Closed"}], "id": "0072300001", "name": "USPS COLLECTION BOX - BLUE BOX", "address": {"city": "PATILLAS", "state": "PR", "street": "27 CALLE MUNOZ RIVERA", "postcode": "00723"}}},
{"geometry": {"type": "Point", "coordinates": [-66.0134264484, 18.0054501149]}, "type": "Feature", "properties": {"collection_times": [{"days": "Mon-Fri", "time": "3:00pm"}, {"days": "Sat", "time": "8:15am"}, {"days": "Sun", "time": "Closed"}], "id": "0072300005", "name": "USPS COLLECTION BOX - BLUE BOX", "address": {"city": "PATILLAS", "state": "PR", "street": "101 CARR 3", "postcode": "00723"}}},
{"geometry": {"type": "Point", "coordinates": [-66.0134264484, 18.0054501149]}, "type": "Feature", "properties": {"collection_times": [{"days": "Mon-Fri", "time": "3:00pm"}, {"days": "Sat", "time": "8:15am"}, {"days": "Sun", "time": "Closed"}], "id": "0072300006", "name": "USPS COLLECTION BOX - PO LOBBY", "address": {"city": "PATILLAS", "state": "PR", "street": "101 CARR 3", "postcode": "00723"}}},
{"geometry": {"type": "Point", "coordinates": [-66.0408137577, 18.220618303]}, "type": "Feature", "properties": {"collection_times": [{"days": "Mon-Sat", "time": "8:00am"}, {"days": "Sun", "time": "Closed"}], "id": "0072500002", "name": "USPS COLLECTION BOX - BLUE BOX", "address": {"city": "CAGUAS", "state": "PR", "street": "50 CARR 1", "postcode": "00725"}}},
{"geometry": {"type": "Point", "coordinates": [-66.0406396866, 18.220467463]}, "type": "Feature", "properties": {"collection_times": [{"days": "Mon-Sat", "time": "8:00am"}, {"days": "Sun", "time": "Closed"}], "id": "0072500003", "name": "USPS COLLECTION BOX - BLUE BOX", "address": {"city": "CAGUAS", "state": "PR", "street": "320 CALLE GAUTIER BENITEZ", "postcode": "00725"}}},
{"geometry": {"type": "Point", "coordinates": [-66.053044876, 18.202453996]}, "type": "Feature", "properties": {"collection_times": [{"days": "Mon-Sat", "time": "8:00am"}, {"days": "Sun", "time": "Closed"}], "id": "0072500004", "name": "USPS COLLECTION BOX - BLUE BOX", "address": {"city": "CAGUAS", "state": "PR", "street": "B6 CALLE 7", "postcode": "00725"}}},
{"geometry": {"type": "Point", "coordinates": [-66.030785952, 18.23383469]}, "type": "Feature", "properties": {"collection_times": [{"days": "Mon-Sat", "time": "10:30am"}, {"days": "Sun", "time": "Closed"}], "id": "0072500005", "name": "USPS COLLECTION BOX - BLUE BOX", "address": {"city": "CAGUAS", "state": "PR", "street": "100 CARR 172", "postcode": "00725"}}},
{"geometry": {"type": "Point", "coordinates": [-66.049647993, 18.263729936]}, "type": "Feature", "properties": {"collection_times": [{"days": "Mon-Sat", "time": "8:15am"}, {"days": "Sun", "time": "Closed"}], "id": "0072500006", "name": "USPS COLLECTION BOX - BLUE BOX", "address": {"city": "CAGUAS", "state": "PR", "street": "4P6 CALLE 1", "postcode": "00725"}}},
{"geometry": {"type": "Point", "coordinates": [-66.039111217, 18.252637737]}, "type": "Feature", "properties": {"collection_times": [{"days": "Mon-Sat", "time": "8:15am"}, {"days": "Sun", "time": "Closed"}], "id": "0072500008", "name": "USPS COLLECTION BOX - BLUE BOX", "address": {"city": "CAGUAS", "state": "PR", "street": "K59 CALLE 28", "postcode": "00725"}}},
{"geometry": {"type": "Point", "coordinates": [-66.0280757876, 18.2106213051]}, "type": "Feature", "properties": {"collection_times": [{"days": "Mon-Sat", "time": "8:15am"}, {"days": "Sun", "time": "Closed"}], "id": "0072500009", "name": "USPS COLLECTION BOX - BLUE BOX", "address": {"city": "CAGUAS", "state": "PR", "street": "4 AVE SHUFFORD", "postcode": "00725"}}},
{"geometry": {"type": "Point", "coordinates": [-66.088530737, 18.188370993]}, "type": "Feature", "properties": {"collection_times": [{"days": "Mon-Sat", "time": "8:00am"}, {"days": "Sun", "time": "Closed"}], "id": "0072500010", "name": "USPS COLLECTION BOX - BLUE BOX", "address": {"city": "CAGUAS", "state": "PR", "street": "1B CALLE 2 URB BONNEVILLE HGTS", "postcode": "00725"}}},
{"geometry": {"type": "Point", "coordinates": [-66.0324109917, 18.2298511456]}, "type": "Feature", "properties": {"collection_times": [{"days": "Mon-Sat", "time": "8:30am"}, {"days": "Sun", "time": "Closed"}], "id": "0072500017", "name": "USPS COLLECTION BOX - BLUE BOX", "address": {"city": "CAGUAS", "state": "PR", "street": "52 CALLE GEORGETTI", "postcode": "00725"}}},
{"geometry": {"type": "Point", "coordinates": [-66.012913758, 18.221964152]}, "type": "Feature", "properties": {"collection_times": [{"days": "Mon-Sat", "time": "8:30am"}, {"days": "Sun", "time": "Closed"}], "id": "0072500018", "name": "USPS COLLECTION BOX - BLUE BOX", "address": {"city": "CAGUAS", "state": "PR", "street": "A1 CALLE JOHN F KENNEDY", "postcode": "00725"}}},
{"geometry": {"type": "Point", "coordinates": [-66.0381816496, 18.2250997785]}, "type": "Feature", "properties": {"collection_times": [{"days": "Mon-Fri", "time": "10:00am"}, {"days": "Sat", "time": "9:45am"}, {"days": "Sun", "time": "Closed"}], "id": "0072500022", "name": "USPS COLLECTION BOX - BLUE BOX", "address": {"city": "CAGUAS", "state": "PR", "street": "201 CALLE GAUTIER BENITEZ", "postcode": "00725"}}},
{"geometry": {"type": "Point", "coordinates": [-66.0387100002, 18.2239973808]}, "type": "Feature", "properties": {"collection_times": [{"days": "Mon-Fri", "time": "5:00pm"}, {"days": "Sat", "time": "1:00pm"}, {"days": "Sun", "time": "Closed"}], "id": "0072500024", "name": "USPS COLLECTION BOX - BLUE BOX", "address": {"city": "CAGUAS", "state": "PR", "street": "225 CALLE GAUTIER BENITEZ", "postcode": "00725"}}},
{"geometry": {"type": "Point", "coordinates": [-66.0314799463, 18.2318118664]}, "type": "Feature", "properties": {"collection_times": [{"days": "Mon-Sat", "time": "9:00am"}, {"days": "Sun", "time": "Closed"}], "id": "0072500027", "name": "USPS COLLECTION BOX - BLUE BOX", "address": {"city": "CAGUAS", "state": "PR", "street": "F24 CALLE SAN ANDRES", "postcode": "00725"}}},
{"geometry": {"type": "Point", "coordinates": [-66.031581732, 18.232485808]}, "type": "Feature", "properties": {"collection_times": [{"days": "Mon-Sat", "time": "8:30am"}, {"days": "Sun", "time": "Closed"}], "id": "0072500028", "name": "USPS COLLECTION BOX - BLUE BOX", "address": {"city": "CAGUAS", "state": "PR", "street": "29 CALLE RAFAEL CORDERO", "postcode": "00725"}}},
{"geometry": {"type": "Point", "coordinates": [-66.0280757876, 18.2106213051]}, "type": "Feature", "properties": {"collection_times": [{"days": "Mon-Sat", "time": "9:30am"}, {"days": "Sun", "time": "Closed"}], "id": "0072500031", "name": "USPS COLLECTION BOX - BLUE BOX", "address": {"city": "CAGUAS", "state": "PR", "street": "B31 CALLE VIOLETA", "postcode": "00725"}}},
{"geometry": {"type": "Point", "coordinates": [-66.062376448, 18.221813753]}, "type": "Feature", "properties": {"collection_times": [{"days": "Mon-Sat", "time": "9:45am"}, {"days": "Sun", "time": "Closed"}], "id": "0072500032", "name": "USPS COLLECTION BOX - BLUE BOX", "address": {"city": "CAGUAS", "state": "PR", "street": "190 CARR 1", "postcode": "00725"}}},
{"geometry": {"type": "Point", "coordinates": [-66.0280757876, 18.2106213051]}, "type": "Feature", "properties": {"collection_times": [{"days": "Mon-Sat", "time": "9:15am"}, {"days": "Sun", "time": "Closed"}], "id": "0072500033", "name": "USPS COLLECTION BOX - BLUE BOX", "address": {"city": "CAGUAS", "state": "PR", "street": "500 AVE RAFAEL CORDERO", "postcode": "00725"}}},
{"geometry": {"type": "Point", "coordinates": [-66.0280757876, 18.2106213051]}, "type": "Feature", "properties": {"collection_times": [{"days": "Mon-Sat", "time": "9:30am"}, {"days": "Sun", "time": "Closed"}], "id": "0072500037", "name": "USPS COLLECTION BOX - BLUE BOX", "address": {"city": "CAGUAS", "state": "PR", "street": "524 AVE RAFAEL CORDERO", "postcode": "00725"}}},
{"geometry": {"type": "Point", "coordinates": [-66.0280757876, 18.2106213051]}, "type": "Feature", "properties": {"collection_times": [{"days": "Mon-Sat", "time": "9:30am"}, {"days": "Sun", "time": "Closed"}], "id": "0072500038", "name": "USPS COLLECTION BOX - BLUE BOX", "address": {"city": "CAGUAS", "state": "PR", "street": "530 AVE RAFAEL CORDERO", "postcode": "00725"}}},
{"geometry": {"type": "Point", "coordinates": [-66.033410229, 18.235885511]}, "type": "Feature", "properties": {"collection_times": [{"days": "Mon-Sat", "time": "8:30am"}, {"days": "Sun", "time": "Closed"}], "id": "0072500041", "name": "USPS COLLECTION BOX - BLUE BOX", "address": {"city": "CAGUAS", "state": "PR", "street": "39 CALLE GOYCO", "postcode": "00725"}}},
{"geometry": {"type": "Point", "coordinates": [-66.033508073, 18.2454552145]}, "type": "Feature", "properties": {"collection_times": [{"days": "Mon-Sat", "time": "9:30am"}, {"days": "Sun", "time": "Closed"}], "id": "0072500043", "name": "USPS COLLECTION BOX - BLUE BOX", "address": {"city": "CAGUAS", "state": "PR", "street": "24 CALLE DIAMANTE", "postcode": "00725"}}},
{"geometry": {"type": "Point", "coordinates": [-66.0352120202, 18.2373974446]}, "type": "Feature", "properties": {"collection_times": [{"days": "Mon-Sat", "time": "9:45am"}, {"days": "Sun", "time": "Closed"}], "id": "0072500044", "name": "USPS COLLECTION BOX - BLUE BOX", "address": {"city": "CAGUAS", "state": "PR", "street": "40 CARR 1", "postcode": "00725"}}},
{"geometry": {"type": "Point", "coordinates": [-66.035251149, 18.241581378]}, "type": "Feature", "properties": {"collection_times": [{"days": "Mon-Sat", "time": "9:30am"}, {"days": "Sun", "time": "Closed"}], "id": "0072500045", "name": "USPS COLLECTION BOX - BLUE BOX", "address": {"city": "CAGUAS", "state": "PR", "street": "2 CALLE AQUAMARINA", "postcode": "00725"}}},
{"geometry": {"type": "Point", "coordinates": [-66.0350828959, 18.2371563844]}, "type": "Feature", "properties": {"collection_times": [{"days": "Mon-Sat", "time": "9:45am"}, {"days": "Sun", "time": "Closed"}], "id": "0072500048", "name": "USPS COLLECTION BOX - BLUE BOX", "address": {"city": "CAGUAS", "state": "PR", "street": "51 CARR 1", "postcode": "00725"}}},
{"geometry": {"type": "Point", "coordinates": [-66.0334922343, 18.2375916065]}, "type": "Feature", "properties": {"collection_times": [{"days": "Mon-Sat", "time": "8:30am"}, {"days": "Sun", "time": "Closed"}], "id": "0072500053", "name": "USPS COLLECTION BOX - BLUE BOX", "address": {"city": "CAGUAS", "state": "PR", "street": "1 CALLE CORCHADO", "postcode": "00725"}}},
{"geometry": {"type": "Point", "coordinates": [-66.0280757876, 18.2106213051]}, "type": "Feature", "properties": {"collection_times": [{"days": "Mon-Sat", "time": "8:30am"}, {"days": "Sun", "time": "Closed"}], "id": "0072500059", "name": "USPS COLLECTION BOX - BLUE BOX", "address": {"city": "CAGUAS", "state": "PR", "street": "500 AVE DEGETAU", "postcode": "00725"}}},
{"geometry": {"type": "Point", "coordinates": [-66.0280757876, 18.2106213051]}, "type": "Feature", "properties": {"collection_times": [{"days": "Mon-Sat", "time": "9:45am"}, {"days": "Sun", "time": "Closed"}], "id": "0072500060", "name": "USPS COLLECTION BOX - BLUE BOX", "address": {"city": "CAGUAS", "state": "PR", "street": "Q1 PARQ DE LOS ANGELES", "postcode": "00725"}}},
{"geometry": {"type": "Point", "coordinates": [-66.0314799463, 18.2318118664]}, "type": "Feature", "properties": {"collection_times": [{"days": "Mon-Fri", "time": "3:00pm"}, {"days": "Sat", "time": "9:45am"}, {"days": "Sun", "time": "Closed"}], "id": "0072500061", "name": "USPS COLLECTION BOX - BLUE BOX", "address": {"city": "CAGUAS", "state": "PR", "street": "555 CALLE EXT MUNOZ RIVERA STE 1", "postcode": "00725"}}},
{"geometry": {"type": "Point", "coordinates": [-66.0280757876, 18.2106213051]}, "type": "Feature", "properties": {"collection_times": [{"days": "Mon-Sat", "time": "8:30am"}, {"days": "Sun", "time": "Closed"}], "id": "0072500062", "name": "USPS COLLECTION BOX - BLUE BOX", "address": {"city": "CAGUAS", "state": "PR", "street": "A17 CALLE A", "postcode": "00725"}}},
{"geometry": {"type": "Point", "coordinates": [-66.023918331, 18.238264873]}, "type": "Feature", "properties": {"collection_times": [{"days": "Mon-Sat", "time": "8:30am"}, {"days": "Sun", "time": "Closed"}], "id": "0072500063", "name": "USPS COLLECTION BOX - BLUE BOX", "address": {"city": "CAGUAS", "state": "PR", "street": "D1 CALLE 3", "postcode": "00725"}}},
{"geometry": {"type": "Point", "coordinates": [-66.0314799463, 18.2318118664]}, "type": "Feature", "properties": {"collection_times": [{"days": "Mon-Sat", "time": "9:30am"}, {"days": "Sun", "time": "Closed"}], "id": "0072500064", "name": "USPS COLLECTION BOX - BLUE BOX", "address": {"city": "CAGUAS", "state": "PR", "street": "300 CALLE LA PAZ", "postcode": "00725"}}},
{"geometry": {"type": "Point", "coordinates": [-66.0387100002, 18.2239973808]}, "type": "Feature", "properties": {"collection_times": [{"days": "Mon-Fri", "time": "5:00pm"}, {"days": "Sat", "time": "1:00pm"}, {"days": "Sun", "time": "Closed"}], "id": "0072500066", "name": "USPS COLLECTION BOX - PO LOBBY", "address": {"city": "CAGUAS", "state": "PR", "street": "225 CALLE GAUTIER BENITEZ", "postcode": "00725"}}},
{"geometry": {"type": "Point", "coordinates": [-66.0314799463, 18.2318118664]}, "type": "Feature", "properties": {"collection_times": [{"days": "Mon-Fri", "time": "3:00pm"}, {"days": "Sat", "time": "9:45am"}, {"days": "Sun", "time": "Closed"}], "id": "0072500067", "name": "USPS COLLECTION BOX - PO LOBBY", "address": {"city": "CAGUAS", "state": "PR", "street": "555 CALLE EXT MUNOZ RIVERA STE 1", "postcode": "00725"}}},
{"geometry": {"type": "Point", "coordinates": [-65.899663339, 18.3800412795]}, "type": "Feature", "properties": {"collection_times": [{"days": "Mon-Sat", "time": "8:15am"}, {"days": "Sun", "time": "Closed"}], "id": "0072900001", "name": "USPS COLLECTION BOX - BLUE BOX", "address": {"city": "CANOVANAS", "state": "PR", "street": "150 CALLE PALMER", "postcode": "00729"}}},
{"geometry": {"type": "Point", "coordinates": [-65.8877860547, 18.3287368463]}, "type": "Feature", "properties": {"collection_times": [{"days": "Mon-Sat", "time": "8:15am"}, {"days": "Sun", "time": "Closed"}], "id": "0072900002", "name": "USPS COLLECTION BOX - BLUE BOX", "address": {"city": "CANOVANAS", "state": "PR", "street": "300 CALLE 1", "postcode": "00729"}}},
{"geometry": {"type": "Point", "coordinates": [-65.8877860547, 18.3287368463]}, "type": "Feature", "properties": {"collection_times": [{"days": "Mon-Sat", "time": "8:15am"}, {"days": "Sun", "time": "Closed"}], "id": "0072900005", "name": "USPS COLLECTION BOX - BLUE BOX", "address": {"city": "CANOVANAS", "state": "PR", "street": "273 CALLE 2", "postcode": "00729"}}},
{"geometry": {"type": "Point", "coordinates": [-65.8981969026, 18.379950484]}, "type": "Feature", "properties": {"collection_times": [{"days": "Mon-Sat", "time": "8:15am"}, {"days": "Sun", "time": "Closed"}], "id": "0072900006", "name": "USPS COLLECTION BOX - BLUE BOX", "address": {"city": "CANOVANAS", "state": "PR", "street": "AA12 CALLE BAUHINIA", "postcode": "00729"}}},
{"geometry": {"type": "Point", "coordinates": [-65.898520001, 18.379879987]}, "type": "Feature", "properties": {"collection_times": [{"days": "Mon-Sat", "time": "8:15am"}, {"days": "Sun", "time": "Closed"}], "id": "0072900007", "name": "USPS COLLECTION BOX - BLUE BOX", "address": {"city": "CANOVANAS", "state": "PR", "street": "65 CALLE CALDERON MUJICA", "postcode": "00729"}}},
{"geometry": {"type": "Point", "coordinates": [-65.915213097, 18.268828656]}, "type": "Feature", "properties": {"collection_times": [{"days": "Mon-Fri", "time": "5:00pm"}, {"days": "Sat", "time": "1:00pm"}, {"days": "Sun", "time": "Closed"}], "id": "0072900008", "name": "USPS COLLECTION BOX - BLUE BOX", "address": {"city": "CANOVANAS", "state": "PR", "street": "18400 CARR 3", "postcode": "00729"}}},
{"geometry": {"type": "Point", "coordinates": [-65.898520001, 18.379879987]}, "type": "Feature", "properties": {"collection_times": [{"days": "Mon-Fri", "time": "5:00pm"}, {"days": "Sat", "time": "8:15am"}, {"days": "Sun", "time": "Closed"}], "id": "0072900009", "name": "USPS COLLECTION BOX - PO LOBBY", "address": {"city": "CANOVANAS", "state": "PR", "street": "18400 CARR 3 STE 136", "postcode": "00729"}}},
{"geometry": {"type": "Point", "coordinates": [-66.6294834192, 18.0009695526]}, "type": "Feature", "properties": {"collection_times": [{"days": "Mon-Sat", "time": "9:15am"}, {"days": "Sun", "time": "Closed"}], "id": "0073100003", "name": "USPS COLLECTION BOX - BLUE BOX", "address": {"city": "PONCE", "state": "PR", "street": "4003 CALLE CARLOS CARTAGENA", "postcode": "00731"}}},
{"geometry": {"type": "Point", "coordinates": [-66.62353966, 18.100922738]}, "type": "Feature", "properties": {"collection_times": [{"days": "Mon-Sat", "time": "11:00am"}, {"days": "Sun", "time": "Closed"}], "id": "0073100006", "name": "USPS COLLECTION BOX - BLUE BOX", "address": {"city": "PONCE", "state": "PR", "street": "1145 AVE MUNOZ RIVERA", "postcode": "00731"}}},
{"geometry": {"type": "Point", "coordinates": [-66.6235477757, 18.1009403008]}, "type": "Feature", "properties": {"collection_times": [{"days": "Mon-Fri", "time": "3:00pm"}, {"days": "Sat-Sun", "time": "Closed"}], "id": "0073100016", "name": "USPS COLLECTION BOX - BLUE BOX", "address": {"city": "PONCE", "state": "PR", "street": "2150 AVE SANTIAGO DE LOS CABALLER", "postcode": "00731"}}},
{"geometry": {"type": "Point", "coordinates": [-66.617119981, 18.064600006]}, "type": "Feature", "properties": {"collection_times": [{"days": "Mon-Sat", "time": "9:45am"}, {"days": "Sun", "time": "Closed"}], "id": "0073100021", "name": "USPS COLLECTION BOX - BLUE BOX", "address": {"city": "PONCE", "state": "PR", "street": "2836 CALLE SAN FRANCISCO", "postcode": "00731"}}},
{"geometry": {"type": "Point", "coordinates": [-66.6235477757, 18.1009403008]}, "type": "Feature", "properties": {"collection_times": [{"days": "Mon-Sat", "time": "10:00am"}, {"days": "Sun", "time": "Closed"}], "id": "0073100026", "name": "USPS COLLECTION BOX - BLUE BOX", "address": {"city": "PONCE", "state": "PR", "street": "1485 BLVD MIGUEL POU", "postcode": "00731"}}},
{"geometry": {"type": "Point", "coordinates": [-66.6084801415, 18.0117472582]}, "type": "Feature", "properties": {"collection_times": [{"days": "Mon-Sat", "time": "10:00am"}, {"days": "Sun", "time": "Closed"}], "id": "0073100029", "name": "USPS COLLECTION BOX - BLUE BOX", "address": {"city": "PONCE", "state": "PR", "street": "15 CALLE CRISTINA", "postcode": "00731"}}},
{"geometry": {"type": "Point", "coordinates": [-66.636888172, 18.083524875]}, "type": "Feature", "properties": {"collection_times": [{"days": "Mon-Sat", "time": "10:45am"}, {"days": "Sun", "time": "Closed"}], "id": "0073100036", "name": "USPS COLLECTION BOX - BLUE BOX", "address": {"city": "PONCE", "state": "PR", "street": "8169 CALLE CONCORDIA", "postcode": "00731"}}},
{"geometry": {"type": "Point", "coordinates": [-66.617119981, 18.064600006]}, "type": "Feature", "properties": {"collection_times": [{"days": "Mon-Sat", "time": "10:30am"}, {"days": "Sun", "time": "Closed"}], "id": "0073100038", "name": "USPS COLLECTION BOX - BLUE BOX", "address": {"city": "PONCE", "state": "PR", "street": "8197 CALLE CONCORDIA", "postcode": "00731"}}},
{"geometry": {"type": "Point", "coordinates": [-66.615878863, 18.100055072]}, "type": "Feature", "properties": {"collection_times": [{"days": "Mon-Sat", "time": "10:30am"}, {"days": "Sun", "time": "Closed"}], "id": "0073100039", "name": "USPS COLLECTION BOX - BLUE BOX", "address": {"city": "PONCE", "state": "PR", "street": "9245 CALLE MARINA", "postcode": "00731"}}},
{"geometry": {"type": "Point", "coordinates": [-66.644579981, 18.134770014]}, "type": "Feature", "properties": {"collection_times": [{"days": "Mon-Sat", "time": "10:45am"}, {"days": "Sun", "time": "Closed"}], "id": "0073100041", "name": "USPS COLLECTION BOX - BLUE BOX", "address": {"city": "PONCE", "state": "PR", "street": "610 CALLE FERROCARRIL", "postcode": "00731"}}},
{"geometry": {"type": "Point", "coordinates": [-66.6197716798, 18.0064652124]}, "type": "Feature", "properties": {"collection_times": [{"days": "Mon-Sat", "time": "10:45am"}, {"days": "Sun", "time": "Closed"}], "id": "0073100046", "name": "USPS COLLECTION BOX - BLUE BOX", "address": {"city": "PONCE", "state": "PR", "street": "441 CALLE FERROCARRIL", "postcode": "00731"}}},
{"geometry": {"type": "Point", "coordinates": [-66.6256878003, 18.1038663608]}, "type": "Feature", "properties": {"collection_times": [{"days": "Mon-Fri", "time": "5:00pm"}, {"days": "Sat", "time": "1:00pm"}, {"days": "Sun", "time": "Closed"}], "id": "0073100050", "name": "USPS COLLECTION BOX - BLUE BOX", "address": {"city": "PONCE", "state": "PR", "street": "2340 AVE EDUARDO RUBERTE", "postcode": "00731"}}},
{"geometry": {"type": "Point", "coordinates": [-66.6181745306, 18.0101916629]}, "type": "Feature", "properties": {"collection_times": [{"days": "Mon-Sat", "time": "10:30am"}, {"days": "Sun", "time": "Closed"}], "id": "0073100057", "name": "USPS COLLECTION BOX - BLUE BOX", "address": {"city": "PONCE", "state": "PR", "street": "157 CALLE VILLA", "postcode": "00731"}}},
{"geometry": {"type": "Point", "coordinates": [-66.6256878003, 18.1038663608]}, "type": "Feature", "properties": {"collection_times": [{"days": "Mon-Sat", "time": "10:15am"}, {"days": "Sun", "time": "Closed"}], "id": "0073100061", "name": "USPS COLLECTION BOX - BLUE BOX", "address": {"city": "PONCE", "state": "PR", "street": "472 AVE TITO CASTRO", "postcode": "00731"}}},
{"geometry": {"type": "Point", "coordinates": [-66.580698485, 18.040501631]}, "type": "Feature", "properties": {"collection_times": [{"days": "Mon-Sat", "time": "10:15am"}, {"days": "Sun", "time": "Closed"}], "id": "0073100062", "name": "USPS COLLECTION BOX - BLUE BOX", "address": {"city": "PONCE", "state": "PR", "street": "624 AVE TITO CASTRO", "postcode": "00731"}}},
{"geometry": {"type": "Point", "coordinates": [-66.598599978, 18.098160024]}, "type": "Feature", "properties": {"collection_times": [{"days": "Mon-Sat", "time": "9:15am"}, {"days": "Sun", "time": "Closed"}], "id": "0073100072", "name": "USPS COLLECTION BOX - BLUE BOX", "address": {"city": "PONCE", "state": "PR", "street": "409 CARR 123", "postcode": "00731"}}},
{"geometry": {"type": "Point", "coordinates": [-66.598599978, 18.098160024]}, "type": "Feature", "properties": {"collection_times": [{"days": "Mon-Sat", "time": "9:00am"}, {"days": "Sun", "time": "Closed"}], "id": "0073100077", "name": "USPS COLLECTION BOX - BLUE BOX", "address": {"city": "PONCE", "state": "PR", "street": "3060 CARR 591", "postcode": "00731"}}},
{"geometry": {"type": "Point", "coordinates": [-66.636888172, 18.083524875]}, "type": "Feature", "properties": {"collection_times": [{"days": "Mon-Sat", "time": "10:00am"}, {"days": "Sun", "time": "Closed"}], "id": "0073100080", "name": "USPS COLLECTION BOX - BLUE BOX", "address": {"city": "PONCE", "state": "PR", "street": "2979 AVE EMILIO FAGOT", "postcode": "00731"}}},
{"geometry": {"type": "Point", "coordinates": [-66.6235477757, 18.1009403008]}, "type": "Feature", "properties": {"collection_times": [{"days": "Mon-Sat", "time": "10:00am"}, {"days": "Sun", "time": "Closed"}], "id": "0073100082", "name": "USPS COLLECTION BOX - BLUE BOX", "address": {"city": "PONCE", "state": "PR", "street": "1802 CALLE ALCAZAR", "postcode": "00731"}}},
{"geometry": {"type": "Point", "coordinates": [-66.644579981, 18.134770014]}, "type": "Feature", "properties": {"collection_times": [{"days": "Mon-Sat", "time": "9:45am"}, {"days": "Sun", "time": "Closed"}], "id": "0073100086", "name": "USPS COLLECTION BOX - BLUE BOX", "address": {"city": "PONCE", "state": "PR", "street": "1016 PASEO REAL", "postcode": "00731"}}},
{"geometry": {"type": "Point", "coordinates": [-66.6582208136, 17.9880405933]}, "type": "Feature", "properties": {"collection_times": [{"days": "Mon-Sat", "time": "9:00am"}, {"days": "Sun", "time": "Closed"}], "id": "0073100087", "name": "USPS COLLECTION BOX - BLUE BOX", "address": {"city": "PONCE", "state": "PR", "street": "111 AVE PRINCIPAL", "postcode": "00731"}}},
{"geometry": {"type": "Point", "coordinates": [-66.651180673, 18.07305139]}, "type": "Feature", "properties": {"collection_times": [{"days": "Mon-Sat", "time": "9:15am"}, {"days": "Sun", "time": "Closed"}], "id": "0073100089", "name": "USPS COLLECTION BOX - BLUE BOX", "address": {"city": "PONCE", "state": "PR", "street": "934 AVE PONCE DE LEON", "postcode": "00731"}}},
{"geometry": {"type": "Point", "coordinates": [-66.6256878003, 18.1038663608]}, "type": "Feature", "properties": {"collection_times": [{"days": "Mon-Sat", "time": "9:00am"}, {"days": "Sun", "time": "Closed"}], "id": "0073100095", "name": "USPS COLLECTION BOX - BLUE BOX", "address": {"city": "PONCE", "state": "PR", "street": "503 AVE PUNTO ORO", "postcode": "00731"}}},
{"geometry": {"type": "Point", "coordinates": [-66.5895131251, 18.0033763034]}, "type": "Feature", "properties": {"collection_times": [{"days": "Mon-Sat", "time": "9:45am"}, {"days": "Sun", "time": "Closed"}], "id": "0073100106", "name": "USPS COLLECTION BOX - BLUE BOX", "address": {"city": "PONCE", "state": "PR", "street": "775 CALLE CAOBA", "postcode": "00731"}}},
{"geometry": {"type": "Point", "coordinates": [-66.600779983, 18.058710006]}, "type": "Feature", "properties": {"collection_times": [{"days": "Mon-Sat", "time": "9:15am"}, {"days": "Sun", "time": "Closed"}], "id": "0073100113", "name": "USPS COLLECTION BOX - BLUE BOX", "address": {"city": "PONCE", "state": "PR", "street": "21 CALLE DR ULISES CLAVELL", "postcode": "00731"}}},
{"geometry": {"type": "Point", "coordinates": [-66.6256878003, 18.1038663608]}, "type": "Feature", "properties": {"collection_times": [{"days": "Mon-Sat", "time": "9:30am"}, {"days": "Sun", "time": "Closed"}], "id": "0073100123", "name": "USPS COLLECTION BOX - BLUE BOX", "address": {"city": "PONCE", "state": "PR", "street": "705 AVE CARIBE", "postcode": "00731"}}},
{"geometry": {"type": "Point", "coordinates": [-66.606539995, 18.145070009]}, "type": "Feature", "properties": {"collection_times": [{"days": "Mon-Sat", "time": "9:45am"}, {"days": "Sun", "time": "Closed"}], "id": "0073100128", "name": "USPS COLLECTION BOX - BLUE BOX", "address": {"city": "PONCE", "state": "PR", "street": "1698 PASEO VILLA FLORES", "postcode": "00731"}}},
{"geometry": {"type": "Point", "coordinates": [-66.6256878003, 18.1038663608]}, "type": "Feature", "properties": {"collection_times": [{"days": "Mon-Sat", "time": "11:00am"}, {"days": "Sun", "time": "Closed"}], "id": "0073100130", "name": "USPS COLLECTION BOX - BLUE BOX", "address": {"city": "PONCE", "state": "PR", "street": "2213 PONCE BYP", "postcode": "00731"}}},
{"geometry": {"type": "Point", "coordinates": [-66.6235477757, 18.1009403008]}, "type": "Feature", "properties": {"collection_times": [{"days": "Mon-Sat", "time": "10:45am"}, {"days": "Sun", "time": "Closed"}], "id": "0073100135", "name": "USPS COLLECTION BOX - BLUE BOX", "address": {"city": "PONCE", "state": "PR", "street": "2440 BLVD LUIS A FERRE STE 101", "postcode": "00731"}}},
{"geometry": {"type": "Point", "coordinates": [-66.6256878003, 18.1038663608]}, "type": "Feature", "properties": {"collection_times": [{"days": "Mon-Fri", "time": "5:00pm"}, {"days": "Sat", "time": "1:00pm"}, {"days": "Sun", "time": "Closed"}], "id": "0073100137", "name": "USPS COLLECTION BOX - PO LOBBY", "address": {"city": "PONCE", "state": "PR", "street": "2340 AVE EDUARDO RUBERTE", "postcode": "00731"}}},
{"geometry": {"type": "Point", "coordinates": [-65.6452784774, 18.2691441537]}, "type": "Feature", "properties": {"collection_times": [{"days": "Mon-Sat", "time": "8:30am"}, {"days": "Sun", "time": "Closed"}], "id": "0073500003", "name": "USPS COLLECTION BOX - BLUE BOX", "address": {"city": "CEIBA", "state": "PR", "street": "250 AVE LAURO PINERO", "postcode": "00735"}}},
{"geometry": {"type": "Point", "coordinates": [-65.6689112819, 18.2525912943]}, "type": "Feature", "properties": {"collection_times": [{"days": "Mon-Fri", "time": "3:00pm"}, {"days": "Sat", "time": "8:30am"}, {"days": "Sun", "time": "Closed"}], "id": "0073500007", "name": "USPS COLLECTION BOX - BLUE BOX", "address": {"city": "CEIBA", "state": "PR", "street": "305 AVE LAURO PINERO", "postcode": "00735"}}},
{"geometry": {"type": "Point", "coordinates": [-65.6689112819, 18.2525912943]}, "type": "Feature", "properties": {"collection_times": [{"days": "Mon-Fri", "time": "3:00pm"}, {"days": "Sat", "time": "8:30am"}, {"days": "Sun", "time": "Closed"}], "id": "0073500009", "name": "USPS COLLECTION BOX - PO LOBBY", "address": {"city": "CEIBA", "state": "PR", "street": "305 AVE LAURO PINERO", "postcode": "00735"}}},
{"geometry": {"type": "Point", "coordinates": [-66.1494406642, 18.1029584792]}, "type": "Feature", "properties": {"collection_times": [{"days": "Mon-Sat", "time": "9:30am"}, {"days": "Sun", "time": "Closed"}], "id": "0073600002", "name": "USPS COLLECTION BOX - BLUE BOX", "address": {"city": "CAYEY", "state": "PR", "street": "1000 AVE JESUS T PINERO", "postcode": "00736"}}},
{"geometry": {"type": "Point", "coordinates": [-66.146926096, 18.116891776]}, "type": "Feature", "properties": {"collection_times": [{"days": "Mon-Sat", "time": "9:30am"}, {"days": "Sun", "time": "Closed"}], "id": "0073600003", "name": "USPS COLLECTION BOX - BLUE BOX", "address": {"city": "CAYEY", "state": "PR", "street": "C17 CALLE A", "postcode": "00736"}}},
{"geometry": {"type": "Point", "coordinates": [-66.1802339753, 18.1186491781]}, "type": "Feature", "properties": {"collection_times": [{"days": "Mon-Sat", "time": "8:00am"}, {"days": "Sun", "time": "Closed"}], "id": "0073600004", "name": "USPS COLLECTION BOX - BLUE BOX", "address": {"city": "CAYEY", "state": "PR", "street": "52 CALLE MANUEL CORCHADO", "postcode": "00736"}}},
{"geometry": {"type": "Point", "coordinates": [-66.1494406642, 18.1029584792]}, "type": "Feature", "properties": {"collection_times": [{"days": "Mon-Sat", "time": "8:00am"}, {"days": "Sun", "time": "Closed"}], "id": "0073600005", "name": "USPS COLLECTION BOX - BLUE BOX", "address": {"city": "CAYEY", "state": "PR", "street": "20 AVE ANTONIO R BARCELO", "postcode": "00736"}}},
{"geometry": {"type": "Point", "coordinates": [-66.1494406642, 18.1029584792]}, "type": "Feature", "properties": {"collection_times": [{"days": "Mon-Sat", "time": "8:30am"}, {"days": "Sun", "time": "Closed"}], "id": "0073600010", "name": "USPS COLLECTION BOX - BLUE BOX", "address": {"city": "CAYEY", "state": "PR", "street": "8000 AVE JESUS T PINERO", "postcode": "00736"}}},
{"geometry": {"type": "Point", "coordinates": [-66.1547329868, 18.1121105092]}, "type": "Feature", "properties": {"collection_times": [{"days": "Mon-Sat", "time": "8:15am"}, {"days": "Sun", "time": "Closed"}], "id": "0073600011", "name": "USPS COLLECTION BOX - BLUE BOX", "address": {"city": "CAYEY", "state": "PR", "street": "2 CALLE 11", "postcode": "00736"}}},
{"geometry": {"type": "Point", "coordinates": [-66.1667149127, 18.1142711895]}, "type": "Feature", "properties": {"collection_times": [{"days": "Mon-Fri", "time": "5:00pm"}, {"days": "Sat", "time": "1:00pm"}, {"days": "Sun", "time": "Closed"}], "id": "0073600013", "name": "USPS COLLECTION BOX - BLUE BOX", "address": {"city": "CAYEY", "state": "PR", "street": "11 AVE BALDORIOTY E", "postcode": "00736"}}},
{"geometry": {"type": "Point", "coordinates": [-66.140446955, 18.118684332]}, "type": "Feature", "properties": {"collection_times": [{"days": "Mon-Sat", "time": "9:30am"}, {"days": "Sun", "time": "Closed"}], "id": "0073600014", "name": "USPS COLLECTION BOX - BLUE BOX", "address": {"city": "CAYEY", "state": "PR", "street": "3000 AVE JESUS T PINERO", "postcode": "00736"}}},
{"geometry": {"type": "Point", "coordinates": [-66.140446955, 18.118684332]}, "type": "Feature", "properties": {"collection_times": [{"days": "Mon-Sat", "time": "10:30am"}, {"days": "Sun", "time": "Closed"}], "id": "0073600015", "name": "USPS COLLECTION BOX - BLUE BOX", "address": {"city": "CAYEY", "state": "PR", "street": "4500 AVE JESUS T PINERO", "postcode": "00736"}}},
{"geometry": {"type": "Point", "coordinates": [-66.1667149127, 18.1142711895]}, "type": "Feature", "properties": {"collection_times": [{"days": "Mon-Fri", "time": "5:00pm"}, {"days": "Sat", "time": "1:00pm"}, {"days": "Sun", "time": "Closed"}], "id": "0073600017", "name": "USPS COLLECTION BOX - PO LOBBY", "address": {"city": "CAYEY", "state": "PR", "street": "11 AVE BALDORIOTY E", "postcode": "00736"}}},
{"geometry": {"type": "Point", "coordinates": [-65.6836590304, 18.3040933302]}, "type": "Feature", "properties": {"collection_times": [{"days": "Mon-Fri", "time": "8:30am"}, {"days": "Sat-Sun", "time": "Closed"}], "id": "0073800001", "name": "USPS COLLECTION BOX - BLUE BOX", "address": {"city": "FAJARDO", "state": "PR", "street": "410 AVE MARCELINO GOTAY", "postcode": "00738"}}},
{"geometry": {"type": "Point", "coordinates": [-65.6836590304, 18.3040933302]}, "type": "Feature", "properties": {"collection_times": [{"days": "Mon-Sat", "time": "8:30am"}, {"days": "Sun", "time": "Closed"}], "id": "0073800003", "name": "USPS COLLECTION BOX - BLUE BOX", "address": {"city": "FAJARDO", "state": "PR", "street": "4520 CARR 3 STE 1", "postcode": "00738"}}},
{"geometry": {"type": "Point", "coordinates": [-65.6836590304, 18.3040933302]}, "type": "Feature", "properties": {"collection_times": [{"days": "Mon-Sat", "time": "1:00pm"}, {"days": "Sun", "time": "Closed"}], "id": "0073800005", "name": "USPS COLLECTION BOX - BLUE BOX", "address": {"city": "FAJARDO", "state": "PR", "street": "E4 CALLE PRINCIPAL", "postcode": "00738"}}},
{"geometry": {"type": "Point", "coordinates": [-65.6673464, 18.345904891]}, "type": "Feature", "properties": {"collection_times": [{"days": "Mon-Sat", "time": "11:30am"}, {"days": "Sun", "time": "Closed"}], "id": "0073800006", "name": "USPS COLLECTION BOX - BLUE BOX", "address": {"city": "FAJARDO", "state": "PR", "street": "593 CALLE HIGUERILLO", "postcode": "00738"}}},
{"geometry": {"type": "Point", "coordinates": [-65.593053353, 18.391436643]}, "type": "Feature", "properties": {"collection_times": [{"days": "Mon-Sat", "time": "1:30pm"}, {"days": "Sun", "time": "Closed"}], "id": "0073800007", "name": "USPS COLLECTION BOX - BLUE BOX", "address": {"city": "FAJARDO", "state": "PR", "street": "180 CARR 940", "postcode": "00738"}}},
{"geometry": {"type": "Point", "coordinates": [-65.6836590304, 18.3040933302]}, "type": "Feature", "properties": {"collection_times": [{"days": "Mon-Sat", "time": "8:30am"}, {"days": "Sun", "time": "Closed"}], "id": "0073800008", "name": "USPS COLLECTION BOX - BLUE BOX", "address": {"city": "FAJARDO", "state": "PR", "street": "410 AVE GENERAL VALERO", "postcode": "00738"}}},
{"geometry": {"type": "Point", "coordinates": [-65.6836590304, 18.3040933302]}, "type": "Feature", "properties": {"collection_times": [{"days": "Mon-Sat", "time": "8:15am"}, {"days": "Sun", "time": "Closed"}], "id": "0073800011", "name": "USPS COLLECTION BOX - BLUE BOX", "address": {"city": "FAJARDO", "state": "PR", "street": "200 AVE A", "postcode": "00738"}}},
{"geometry": {"type": "Point", "coordinates": [-65.6836590304, 18.3040933302]}, "type": "Feature", "properties": {"collection_times": [{"days": "Mon-Sat", "time": "8:30am"}, {"days": "Sun", "time": "Closed"}], "id": "0073800013", "name": "USPS COLLECTION BOX - BLUE BOX", "address": {"city": "FAJARDO", "state": "PR", "street": "250 AVE GENERAL VALERO", "postcode": "00738"}}},
{"geometry": {"type": "Point", "coordinates": [-65.6836590304, 18.3040933302]}, "type": "Feature", "properties": {"collection_times": [{"days": "Mon-Sat", "time": "8:30am"}, {"days": "Sun", "time": "Closed"}], "id": "0073800015", "name": "USPS COLLECTION BOX - BLUE BOX", "address": {"city": "FAJARDO", "state": "PR", "street": "2 CALLE GARRIDO MORALES E", "postcode": "00738"}}},
{"geometry": {"type": "Point", "coordinates": [-65.6836590304, 18.3040933302]}, "type": "Feature", "properties": {"collection_times": [{"days": "Mon-Fri", "time": "5:00pm"}, {"days": "Sat", "time": "1:00pm"}, {"days": "Sun", "time": "Closed"}], "id": "0073800017", "name": "USPS COLLECTION BOX - BLUE BOX", "address": {"city": "FAJARDO", "state": "PR", "street": "113 CALLE GARRIDO MORALES W", "postcode": "00738"}}},
{"geometry": {"type": "Point", "coordinates": [-65.6836590304, 18.3040933302]}, "type": "Feature", "properties": {"collection_times": [{"days": "Mon-Fri", "time": "5:00pm"}, {"days": "Sat", "time": "1:00pm"}, {"days": "Sun", "time": "Closed"}], "id": "0073800019", "name": "USPS COLLECTION BOX - PO LOBBY", "address": {"city": "FAJARDO", "state": "PR", "street": "113 CALLE GARRIDO MORALES W", "postcode": "00738"}}},
{"geometry": {"type": "Point", "coordinates": [-66.1437766134, 18.1756830854]}, "type": "Feature", "properties": {"collection_times": [{"days": "Mon-Sat", "time": "8:30am"}, {"days": "Sun", "time": "Closed"}], "id": "0073900001", "name": "USPS COLLECTION BOX - BLUE BOX", "address": {"city": "CIDRA", "state": "PR", "street": "31 CALLE VICENTE MUNOZ BARRIOS", "postcode": "00739"}}},
{"geometry": {"type": "Point", "coordinates": [-66.159200264, 18.176459873]}, "type": "Feature", "properties": {"collection_times": [{"days": "Mon-Sat", "time": "8:30am"}, {"days": "Sun", "time": "Closed"}], "id": "0073900004", "name": "USPS COLLECTION BOX - BLUE BOX", "address": {"city": "CIDRA", "state": "PR", "street": "49 CALLE ANTONIO R BARCELO", "postcode": "00739"}}},
{"geometry": {"type": "Point", "coordinates": [-66.1609845424, 18.1737249391]}, "type": "Feature", "properties": {"collection_times": [{"days": "Mon-Fri", "time": "3:00pm"}, {"days": "Sat", "time": "8:30am"}, {"days": "Sun", "time": "Closed"}], "id": "0073900005", "name": "USPS COLLECTION BOX - BLUE BOX", "address": {"city": "CIDRA", "state": "PR", "street": "100 AVE INDUSTRIAL", "postcode": "00739"}}},
{"geometry": {"type": "Point", "coordinates": [-66.1609845424, 18.1737249391]}, "type": "Feature", "properties": {"collection_times": [{"days": "Mon-Fri", "time": "3:00pm"}, {"days": "Sat", "time": "8:30am"}, {"days": "Sun", "time": "Closed"}], "id": "0073900006", "name": "USPS COLLECTION BOX - PO LOBBY", "address": {"city": "CIDRA", "state": "PR", "street": "100 AVE INDUSTRIAL", "postcode": "00739"}}},
{"geometry": {"type": "Point", "coordinates": [-65.6337880556, 18.3318284745]}, "type": "Feature", "properties": {"collection_times": [{"days": "Mon-Fri", "time": "3:00pm"}, {"days": "Sat", "time": "8:15am"}, {"days": "Sun", "time": "Closed"}], "id": "0074000001", "name": "USPS COLLECTION BOX - BLUE BOX", "address": {"city": "PUERTO REAL", "state": "PR", "street": "477 CALLE UN", "postcode": "00740"}}},
{"geometry": {"type": "Point", "coordinates": [-65.7595033759, 18.1674919552]}, "type": "Feature", "properties": {"collection_times": [{"days": "Mon-Fri", "time": "3:00pm"}, {"days": "Sat", "time": "8:15am"}, {"days": "Sun", "time": "Closed"}], "id": "0074100002", "name": "USPS COLLECTION BOX - BLUE BOX", "address": {"city": "PUNTA SANTIAGO", "state": "PR", "street": "15 CALLE ADUANA", "postcode": "00741"}}},
{"geometry": {"type": "Point", "coordinates": [-65.7595033759, 18.1674919552]}, "type": "Feature", "properties": {"collection_times": [{"days": "Mon-Fri", "time": "3:00pm"}, {"days": "Sat", "time": "8:15am"}, {"days": "Sun", "time": "Closed"}], "id": "0074100003", "name": "USPS COLLECTION BOX - PO LOBBY", "address": {"city": "PUNTA SANTIAGO", "state": "PR", "street": "15 CALLE ADUANA", "postcode": "00741"}}},
{"geometry": {"type": "Point", "coordinates": [-65.7888624774, 18.2183631626]}, "type": "Feature", "properties": {"collection_times": [{"days": "Mon-Fri", "time": "3:00pm"}, {"days": "Sat", "time": "8:00am"}, {"days": "Sun", "time": "Closed"}], "id": "0074400001", "name": "USPS COLLECTION BOX - BLUE BOX", "address": {"city": "RIO BLANCO", "state": "PR", "street": "100 CARR 31", "postcode": "00744"}}},
{"geometry": {"type": "Point", "coordinates": [-65.7888624774, 18.2183631626]}, "type": "Feature", "properties": {"collection_times": [{"days": "Mon-Fri", "time": "3:00pm"}, {"days": "Sat", "time": "8:00am"}, {"days": "Sun", "time": "Closed"}], "id": "0074400002", "name": "USPS COLLECTION BOX - PO LOBBY", "address": {"city": "RIO BLANCO", "state": "PR", "street": "100 CARR 31", "postcode": "00744"}}},
{"geometry": {"type": "Point", "coordinates": [-65.8136537551, 18.3463417934]}, "type": "Feature", "properties": {"collection_times": [{"days": "Mon-Sat", "time": "9:00am"}, {"days": "Sun", "time": "Closed"}], "id": "0074500003", "name": "USPS COLLECTION BOX - BLUE BOX", "address": {"city": "RIO GRANDE", "state": "PR", "street": "10 CALLE PRINCIPAL", "postcode": "00745"}}},
{"geometry": {"type": "Point", "coordinates": [-65.8319399137, 18.3798331688]}, "type": "Feature", "properties": {"collection_times": [{"days": "Mon-Sat", "time": "8:30am"}, {"days": "Sun", "time": "Closed"}], "id": "0074500004", "name": "USPS COLLECTION BOX - BLUE BOX", "address": {"city": "RIO GRANDE", "state": "PR", "street": "HH14 CALLE R", "postcode": "00745"}}},
{"geometry": {"type": "Point", "coordinates": [-65.8313982296, 18.3790350303]}, "type": "Feature", "properties": {"collection_times": [{"days": "Mon-Sat", "time": "8:30am"}, {"days": "Sun", "time": "Closed"}], "id": "0074500005", "name": "USPS COLLECTION BOX - BLUE BOX", "address": {"city": "RIO GRANDE", "state": "PR", "street": "12 CALLE SOLEDAD", "postcode": "00745"}}},
{"geometry": {"type": "Point", "coordinates": [-65.83093711, 18.380418034]}, "type": "Feature", "properties": {"collection_times": [{"days": "Mon-Fri", "time": "3:00pm"}, {"days": "Sat", "time": "8:30am"}, {"days": "Sun", "time": "Closed"}], "id": "0074500006", "name": "USPS COLLECTION BOX - BLUE BOX", "address": {"city": "RIO GRANDE", "state": "PR", "street": "99 CALLE PIMENTEL", "postcode": "00745"}}},
{"geometry": {"type": "Point", "coordinates": [-65.8319399137, 18.3798331688]}, "type": "Feature", "properties": {"collection_times": [{"days": "Mon-Sat", "time": "8:30am"}, {"days": "Sun", "time": "Closed"}], "id": "0074500007", "name": "USPS COLLECTION BOX - BLUE BOX", "address": {"city": "RIO GRANDE", "state": "PR", "street": "HC 3 BOX 23113", "postcode": "00745"}}},
{"geometry": {"type": "Point", "coordinates": [-65.8319399137, 18.3798331688]}, "type": "Feature", "properties": {"collection_times": [{"days": "Mon-Sat", "time": "8:00am"}, {"days": "Sun", "time": "Closed"}], "id": "0074500008", "name": "USPS COLLECTION BOX - BLUE BOX", "address": {"city": "RIO GRANDE", "state": "PR", "street": "23 CALLE PRINCIPAL", "postcode": "00745"}}},
{"geometry": {"type": "Point", "coordinates": [-65.83093711, 18.380418034]}, "type": "Feature", "properties": {"collection_times": [{"days": "Mon-Fri", "time": "3:00pm"}, {"days": "Sat", "time": "8:30am"}, {"days": "Sun", "time": "Closed"}], "id": "0074500009", "name": "USPS COLLECTION BOX - PO LOBBY", "address": {"city": "RIO GRANDE", "state": "PR", "street": "99 CALLE PIMENTEL", "postcode": "00745"}}},
{"geometry": {"type": "Point", "coordinates": [-66.2851674374, 17.9793627019]}, "type": "Feature", "properties": {"collection_times": [{"days": "Mon-Fri", "time": "3:00pm"}, {"days": "Sat", "time": "8:30am"}, {"days": "Sun", "time": "Closed"}], "id": "0075100001", "name": "USPS COLLECTION BOX - BLUE BOX", "address": {"city": "SALINAS", "state": "PR", "street": "100 CARR PLAYA", "postcode": "00751"}}},
{"geometry": {"type": "Point", "coordinates": [-66.2851674374, 17.9793627019]}, "type": "Feature", "properties": {"collection_times": [{"days": "Mon-Sat", "time": "10:30am"}, {"days": "Sun", "time": "Closed"}], "id": "0075100002", "name": "USPS COLLECTION BOX - BLUE BOX", "address": {"city": "SALINAS", "state": "PR", "street": "700 CARR 1", "postcode": "00751"}}},
{"geometry": {"type": "Point", "coordinates": [-66.2851674374, 17.9793627019]}, "type": "Feature", "properties": {"collection_times": [{"days": "Mon-Sat", "time": "8:30am"}, {"days": "Sun", "time": "Closed"}], "id": "0075100003", "name": "USPS COLLECTION BOX - BLUE BOX", "address": {"city": "SALINAS", "state": "PR", "street": "500 CALLE MUNOZ RIVERA", "postcode": "00751"}}},
{"geometry": {"type": "Point", "coordinates": [-66.2851674374, 17.9793627019]}, "type": "Feature", "properties": {"collection_times": [{"days": "Mon-Sat", "time": "8:30am"}, {"days": "Sun", "time": "Closed"}], "id": "0075100004", "name": "USPS COLLECTION BOX - BLUE BOX", "address": {"city": "SALINAS", "state": "PR", "street": "1 CALLE MUNOZ RIVERA", "postcode": "00751"}}},
{"geometry": {"type": "Point", "coordinates": [-66.2851674374, 17.9793627019]}, "type": "Feature", "properties": {"collection_times": [{"days": "Mon-Fri", "time": "3:00pm"}, {"days": "Sat", "time": "8:30am"}, {"days": "Sun", "time": "Closed"}], "id": "0075100005", "name": "USPS COLLECTION BOX - PO LOBBY", "address": {"city": "SALINAS", "state": "PR", "street": "100 CARR PLAYA", "postcode": "00751"}}},
{"geometry": {"type": "Point", "coordinates": [-65.9616214795, 18.1888347285]}, "type": "Feature", "properties": {"collection_times": [{"days": "Mon-Sat", "time": "8:30am"}, {"days": "Sun", "time": "Closed"}], "id": "0075400001", "name": "USPS COLLECTION BOX - BLUE BOX", "address": {"city": "SAN LORENZO", "state": "PR", "street": "51 CALLE MUNOZ RIVERA S", "postcode": "00754"}}},
{"geometry": {"type": "Point", "coordinates": [-65.961536642, 18.188662913]}, "type": "Feature", "properties": {"collection_times": [{"days": "Mon-Sat", "time": "11:00am"}, {"days": "Sun", "time": "Closed"}], "id": "0075400003", "name": "USPS COLLECTION BOX - BLUE BOX", "address": {"city": "SAN LORENZO", "state": "PR", "street": "176 CALLE MUNOZ RIVERA S", "postcode": "00754"}}},
{"geometry": {"type": "Point", "coordinates": [-65.961975021, 18.190140367]}, "type": "Feature", "properties": {"collection_times": [{"days": "Mon-Sat", "time": "11:30am"}, {"days": "Sun", "time": "Closed"}], "id": "0075400005", "name": "USPS COLLECTION BOX - BLUE BOX", "address": {"city": "SAN LORENZO", "state": "PR", "street": "8 CALLE DE DIEGO E", "postcode": "00754"}}},
{"geometry": {"type": "Point", "coordinates": [-65.9636674455, 18.1882836013]}, "type": "Feature", "properties": {"collection_times": [{"days": "Mon-Fri", "time": "3:00pm"}, {"days": "Sat", "time": "8:30am"}, {"days": "Sun", "time": "Closed"}], "id": "0075400009", "name": "USPS COLLECTION BOX - BLUE BOX", "address": {"city": "SAN LORENZO", "state": "PR", "street": "123 CALLE DE DIEGO", "postcode": "00754"}}},
{"geometry": {"type": "Point", "coordinates": [-65.9636674455, 18.1882836013]}, "type": "Feature", "properties": {"collection_times": [{"days": "Mon-Fri", "time": "3:00pm"}, {"days": "Sat", "time": "8:30am"}, {"days": "Sun", "time": "Closed"}], "id": "0075400010", "name": "USPS COLLECTION BOX - PO LOBBY", "address": {"city": "SAN LORENZO", "state": "PR", "street": "123 CALLE DE DIEGO", "postcode": "00754"}}},
{"geometry": {"type": "Point", "coordinates": [-66.426303322, 18.042326681]}, "type": "Feature", "properties": {"collection_times": [{"days": "Mon-Fri", "time": "3:00pm"}, {"days": "Sat", "time": "9:00am"}, {"days": "Sun", "time": "Closed"}], "id": "0075700001", "name": "USPS COLLECTION BOX - BLUE BOX", "address": {"city": "SANTA ISABEL", "state": "PR", "street": "36 CALLE LUIS MUNOZ RIVERA STE 1", "postcode": "00757"}}},
{"geometry": {"type": "Point", "coordinates": [-66.406079999, 17.968180021]}, "type": "Feature", "properties": {"collection_times": [{"days": "Mon-Sat", "time": "8:30am"}, {"days": "Sun", "time": "Closed"}], "id": "0075700002", "name": "USPS COLLECTION BOX - BLUE BOX", "address": {"city": "SANTA ISABEL", "state": "PR", "street": "200 AVE MONSENOR SEVERO FERRER", "postcode": "00757"}}},
{"geometry": {"type": "Point", "coordinates": [-66.426303322, 18.042326681]}, "type": "Feature", "properties": {"collection_times": [{"days": "Mon-Fri", "time": "3:00pm"}, {"days": "Sat", "time": "9:00am"}, {"days": "Sun", "time": "Closed"}], "id": "0075700003", "name": "USPS COLLECTION BOX - PO LOBBY", "address": {"city": "SANTA ISABEL", "state": "PR", "street": "36 CALLE LUIS MUNOZ RIVERA STE 1", "postcode": "00757"}}},
{"geometry": {"type": "Point", "coordinates": [-65.436412745, 18.125256139]}, "type": "Feature", "properties": {"collection_times": [{"days": "Mon-Fri", "time": "3:00pm"}, {"days": "Sat", "time": "8:00am"}, {"days": "Sun", "time": "Closed"}], "id": "0076500001", "name": "USPS COLLECTION BOX - BLUE BOX", "address": {"city": "VIEQUES", "state": "PR", "street": "97 CALLE LUIS MUNOZ RIVERA", "postcode": "00765"}}},
{"geometry": {"type": "Point", "coordinates": [-65.436412745, 18.125256139]}, "type": "Feature", "properties": {"collection_times": [{"days": "Mon-Fri", "time": "3:00pm"}, {"days": "Sat", "time": "8:00am"}, {"days": "Sun", "time": "Closed"}], "id": "0076500002", "name": "USPS COLLECTION BOX - PO LOBBY", "address": {"city": "VIEQUES", "state": "PR", "street": "97 CALLE LUIS MUNOZ RIVERA", "postcode": "00765"}}},
{"geometry": {"type": "Point", "coordinates": [-66.504579257, 18.116987451]}, "type": "Feature", "properties": {"collection_times": [{"days": "Mon-Sat", "time": "11:30am"}, {"days": "Sun", "time": "Closed"}], "id": "0076600001", "name": "USPS COLLECTION BOX - BLUE BOX", "address": {"city": "VILLALBA", "state": "PR", "street": "A54 CALLE 1", "postcode": "00766"}}},
{"geometry": {"type": "Point", "coordinates": [-66.490613368, 18.127444327]}, "type": "Feature", "properties": {"collection_times": [{"days": "Mon-Sat", "time": "10:00am"}, {"days": "Sun", "time": "Closed"}], "id": "0076600002", "name": "USPS COLLECTION BOX - BLUE BOX", "address": {"city": "VILLALBA", "state": "PR", "street": "303 CALLE PRINCIPAL", "postcode": "00766"}}},
{"geometry": {"type": "Point", "coordinates": [-66.492142591, 18.128807324]}, "type": "Feature", "properties": {"collection_times": [{"days": "Mon-Sat", "time": "11:30am"}, {"days": "Sun", "time": "Closed"}], "id": "0076600005", "name": "USPS COLLECTION BOX - BLUE BOX", "address": {"city": "VILLALBA", "state": "PR", "street": "500 BO TIERRA SANTA", "postcode": "00766"}}},
{"geometry": {"type": "Point", "coordinates": [-66.4922677796, 18.127162409]}, "type": "Feature", "properties": {"collection_times": [{"days": "Mon-Fri", "time": "3:00pm"}, {"days": "Sat", "time": "8:00am"}, {"days": "Sun", "time": "Closed"}], "id": "0076600007", "name": "USPS COLLECTION BOX - BLUE BOX", "address": {"city": "VILLALBA", "state": "PR", "street": "25 CALLE MUNOZ RIVERA", "postcode": "00766"}}},
{"geometry": {"type": "Point", "coordinates": [-66.4922677796, 18.127162409]}, "type": "Feature", "properties": {"collection_times": [{"days": "Mon-Fri", "time": "3:00pm"}, {"days": "Sat", "time": "8:00am"}, {"days": "Sun", "time": "Closed"}], "id": "0076600008", "name": "USPS COLLECTION BOX - PO LOBBY", "address": {"city": "VILLALBA", "state": "PR", "street": "25 CALLE MUNOZ RIVERA", "postcode": "00766"}}},
{"geometry": {"type": "Point", "coordinates": [-65.8749598132, 18.0522936192]}, "type": "Feature", "properties": {"collection_times": [{"days": "Mon-Sat", "time": "8:30am"}, {"days": "Sun", "time": "Closed"}], "id": "0076700002", "name": "USPS COLLECTION BOX - BLUE BOX", "address": {"city": "YABUCOA", "state": "PR", "street": "350 CARR ERNESTO CARRASQUILLO", "postcode": "00767"}}},
{"geometry": {"type": "Point", "coordinates": [-65.8966588571, 18.0706938723]}, "type": "Feature", "properties": {"collection_times": [{"days": "Mon-Sat", "time": "8:30am"}, {"days": "Sun", "time": "Closed"}], "id": "0076700003", "name": "USPS COLLECTION BOX - BLUE BOX", "address": {"city": "YABUCOA", "state": "PR", "street": "4 CALLE CATALINA MORALES", "postcode": "00767"}}},
{"geometry": {"type": "Point", "coordinates": [-65.8787320437, 18.050350975]}, "type": "Feature", "properties": {"collection_times": [{"days": "Mon-Sat", "time": "8:30am"}, {"days": "Sun", "time": "Closed"}], "id": "0076700004", "name": "USPS COLLECTION BOX - BLUE BOX", "address": {"city": "YABUCOA", "state": "PR", "street": "1 CALLE DEGETAU", "postcode": "00767"}}},
{"geometry": {"type": "Point", "coordinates": [-65.8809504115, 18.0482674841]}, "type": "Feature", "properties": {"collection_times": [{"days": "Mon-Fri", "time": "3:00pm"}, {"days": "Sat", "time": "8:30am"}, {"days": "Sun", "time": "Closed"}], "id": "0076700005", "name": "USPS COLLECTION BOX - BLUE BOX", "address": {"city": "YABUCOA", "state": "PR", "street": "100 CALLE CATALINA MORALES", "postcode": "00767"}}},
{"geometry": {"type": "Point", "coordinates": [-65.8809504115, 18.0482674841]}, "type": "Feature", "properties": {"collection_times": [{"days": "Mon-Fri", "time": "3:00pm"}, {"days": "Sat", "time": "8:30am"}, {"days": "Sun", "time": "Closed"}], "id": "0076700006", "name": "USPS COLLECTION BOX - PO LOBBY", "address": {"city": "YABUCOA", "state": "PR", "street": "100 CALLE CATALINA MORALES", "postcode": "00767"}}},
{"geometry": {"type": "Point", "coordinates": [-66.3602709522, 18.0973890019]}, "type": "Feature", "properties": {"collection_times": [{"days": "Mon-Sat", "time": "8:30am"}, {"days": "Sun", "time": "Closed"}], "id": "0076900002", "name": "USPS COLLECTION BOX - BLUE BOX", "address": {"city": "COAMO", "state": "PR", "street": "137 CALLE JOSE I QUINTON", "postcode": "00769"}}},
{"geometry": {"type": "Point", "coordinates": [-66.3602709522, 18.0973890019]}, "type": "Feature", "properties": {"collection_times": [{"days": "Mon-Sat", "time": "8:30am"}, {"days": "Sun", "time": "Closed"}], "id": "0076900003", "name": "USPS COLLECTION BOX - BLUE BOX", "address": {"city": "COAMO", "state": "PR", "street": "54 CALLE BALDORIOTY", "postcode": "00769"}}},
{"geometry": {"type": "Point", "coordinates": [-66.3602709522, 18.0973890019]}, "type": "Feature", "properties": {"collection_times": [{"days": "Mon-Sat", "time": "8:30am"}, {"days": "Sun", "time": "Closed"}], "id": "0076900004", "name": "USPS COLLECTION BOX - BLUE BOX", "address": {"city": "COAMO", "state": "PR", "street": "12 CALLE BOBBY CAPO", "postcode": "00769"}}},
{"geometry": {"type": "Point", "coordinates": [-66.355731149, 18.0793114]}, "type": "Feature", "properties": {"collection_times": [{"days": "Mon-Sat", "time": "8:30am"}, {"days": "Sun", "time": "Closed"}], "id": "0076900008", "name": "USPS COLLECTION BOX - BLUE BOX", "address": {"city": "COAMO", "state": "PR", "street": "12 CALLE RUIZ BELVIS S", "postcode": "00769"}}},
{"geometry": {"type": "Point", "coordinates": [-66.3602709522, 18.0973890019]}, "type": "Feature", "properties": {"collection_times": [{"days": "Mon-Fri", "time": "3:00pm"}, {"days": "Sat", "time": "8:30am"}, {"days": "Sun", "time": "Closed"}], "id": "0076900010", "name": "USPS COLLECTION BOX - BLUE BOX", "address": {"city": "COAMO", "state": "PR", "street": "100 CALLE A", "postcode": "00769"}}},
{"geometry": {"type": "Point", "coordinates": [-66.3602709522, 18.0973890019]}, "type": "Feature", "properties": {"collection_times": [{"days": "Mon-Fri", "time": "3:00pm"}, {"days": "Sat", "time": "8:30am"}, {"days": "Sun", "time": "Closed"}], "id": "0076900011", "name": "USPS COLLECTION BOX - PO LOBBY", "address": {"city": "COAMO", "state": "PR", "street": "100 CALLE A", "postcode": "00769"}}},
{"geometry": {"type": "Point", "coordinates": [-65.874007334, 18.185784671]}, "type": "Feature", "properties": {"collection_times": [{"days": "Mon-Sat", "time": "9:30am"}, {"days": "Sun", "time": "Closed"}], "id": "0077100004", "name": "USPS COLLECTION BOX - BLUE BOX", "address": {"city": "LAS PIEDRAS", "state": "PR", "street": "211 CALLE BARBOSA", "postcode": "00771"}}},
{"geometry": {"type": "Point", "coordinates": [-65.8714881538, 18.1845208266]}, "type": "Feature", "properties": {"collection_times": [{"days": "Mon-Fri", "time": "3:00pm"}, {"days": "Sat", "time": "8:15am"}, {"days": "Sun", "time": "Closed"}], "id": "0077100006", "name": "USPS COLLECTION BOX - BLUE BOX", "address": {"city": "LAS PIEDRAS", "state": "PR", "street": "77 CALLE JT PINERO", "postcode": "00771"}}},
{"geometry": {"type": "Point", "coordinates": [-65.8714881538, 18.1845208266]}, "type": "Feature", "properties": {"collection_times": [{"days": "Mon-Fri", "time": "3:00pm"}, {"days": "Sat", "time": "8:15am"}, {"days": "Sun", "time": "Closed"}], "id": "0077100007", "name": "USPS COLLECTION BOX - PO LOBBY", "address": {"city": "LAS PIEDRAS", "state": "PR", "street": "77 CALLE JT PINERO", "postcode": "00771"}}},
{"geometry": {"type": "Point", "coordinates": [-65.87830894, 18.434567482]}, "type": "Feature", "properties": {"collection_times": [{"days": "Mon-Fri", "time": "3:00pm"}, {"days": "Sat", "time": "8:15am"}, {"days": "Sun", "time": "Closed"}], "id": "0077200001", "name": "USPS COLLECTION BOX - BLUE BOX", "address": {"city": "LOIZA", "state": "PR", "street": "64 CALLE SAN PATRICIO", "postcode": "00772"}}},
{"geometry": {"type": "Point", "coordinates": [-65.87830894, 18.434567482]}, "type": "Feature", "properties": {"collection_times": [{"days": "Mon-Fri", "time": "3:00pm"}, {"days": "Sat", "time": "8:15am"}, {"days": "Sun", "time": "Closed"}], "id": "0077200002", "name": "USPS COLLECTION BOX - PO LOBBY", "address": {"city": "LOIZA", "state": "PR", "street": "64 CALLE SAN PATRICIO", "postcode": "00772"}}},
{"geometry": {"type": "Point", "coordinates": [-65.721143356, 18.389669993]}, "type": "Feature", "properties": {"collection_times": [{"days": "Mon-Fri", "time": "3:00pm"}, {"days": "Sat", "time": "8:00am"}, {"days": "Sun", "time": "Closed"}], "id": "0077300001", "name": "USPS COLLECTION BOX - BLUE BOX", "address": {"city": "LUQUILLO", "state": "PR", "street": "160 CALLE QUINTO CENTENARIO", "postcode": "00773"}}},
{"geometry": {"type": "Point", "coordinates": [-65.721143356, 18.389669993]}, "type": "Feature", "properties": {"collection_times": [{"days": "Mon-Sat", "time": "8:00am"}, {"days": "Sun", "time": "Closed"}], "id": "0077300004", "name": "USPS COLLECTION BOX - BLUE BOX", "address": {"city": "LUQUILLO", "state": "PR", "street": "31 CARR 193", "postcode": "00773"}}},
{"geometry": {"type": "Point", "coordinates": [-65.721143356, 18.389669993]}, "type": "Feature", "properties": {"collection_times": [{"days": "Mon-Fri", "time": "3:00pm"}, {"days": "Sat", "time": "8:00am"}, {"days": "Sun", "time": "Closed"}], "id": "0077300010", "name": "USPS COLLECTION BOX - PO LOBBY", "address": {"city": "LUQUILLO", "state": "PR", "street": "160 CALLE QUINTO CENTENARIO", "postcode": "00773"}}},
{"geometry": {"type": "Point", "coordinates": [-65.288489999, 18.314809977]}, "type": "Feature", "properties": {"collection_times": [{"days": "Mon-Fri", "time": "3:00pm"}, {"days": "Sat", "time": "8:00am"}, {"days": "Sun", "time": "Closed"}], "id": "0077500001", "name": "USPS COLLECTION BOX - BLUE BOX", "address": {"city": "CULEBRA", "state": "PR", "street": "26 CALLE PEDRO MARQUEZ", "postcode": "00775"}}},
{"geometry": {"type": "Point", "coordinates": [-65.288489999, 18.314809977]}, "type": "Feature", "properties": {"collection_times": [{"days": "Mon-Fri", "time": "3:00pm"}, {"days": "Sat", "time": "8:00am"}, {"days": "Sun", "time": "Closed"}], "id": "0077500002", "name": "USPS COLLECTION BOX - PO LOBBY", "address": {"city": "CULEBRA", "state": "PR", "street": "26 CALLE PEDRO MARQUEZ", "postcode": "00775"}}},
{"geometry": {"type": "Point", "coordinates": [-65.908829433, 18.223465039]}, "type": "Feature", "properties": {"collection_times": [{"days": "Mon-Fri", "time": "3:00pm"}, {"days": "Sat", "time": "8:45am"}, {"days": "Sun", "time": "Closed"}], "id": "0077700001", "name": "USPS COLLECTION BOX - BLUE BOX", "address": {"city": "JUNCOS", "state": "PR", "street": "1 CALLE MUNOZ RIVERA", "postcode": "00777"}}},
{"geometry": {"type": "Point", "coordinates": [-65.914574521, 18.226241631]}, "type": "Feature", "properties": {"collection_times": [{"days": "Mon-Sat", "time": "8:15am"}, {"days": "Sun", "time": "Closed"}], "id": "0077700002", "name": "USPS COLLECTION BOX - BLUE BOX", "address": {"city": "JUNCOS", "state": "PR", "street": "19 CALLE SANTIAGO FERNANDEZ", "postcode": "00777"}}},
{"geometry": {"type": "Point", "coordinates": [-65.923050602, 18.229351981]}, "type": "Feature", "properties": {"collection_times": [{"days": "Mon-Sat", "time": "8:30am"}, {"days": "Sun", "time": "Closed"}], "id": "0077700003", "name": "USPS COLLECTION BOX - BLUE BOX", "address": {"city": "JUNCOS", "state": "PR", "street": "79 CARR 31", "postcode": "00777"}}},
{"geometry": {"type": "Point", "coordinates": [-65.9216092359, 18.2281314597]}, "type": "Feature", "properties": {"collection_times": [{"days": "Mon-Sat", "time": "8:00am"}, {"days": "Sun", "time": "Closed"}], "id": "0077700004", "name": "USPS COLLECTION BOX - BLUE BOX", "address": {"city": "JUNCOS", "state": "PR", "street": "34 CALLE MARTINEZ", "postcode": "00777"}}},
{"geometry": {"type": "Point", "coordinates": [-65.924120828, 18.227261775]}, "type": "Feature", "properties": {"collection_times": [{"days": "Mon-Sat", "time": "12:00pm"}, {"days": "Sun", "time": "Closed"}], "id": "0077700005", "name": "USPS COLLECTION BOX - BLUE BOX", "address": {"city": "JUNCOS", "state": "PR", "street": "12 CALLE ESCUTE", "postcode": "00777"}}},
{"geometry": {"type": "Point", "coordinates": [-65.920065896, 18.229217154]}, "type": "Feature", "properties": {"collection_times": [{"days": "Mon-Sat", "time": "10:30am"}, {"days": "Sun", "time": "Closed"}], "id": "0077700006", "name": "USPS COLLECTION BOX - BLUE BOX", "address": {"city": "JUNCOS", "state": "PR", "street": "59 CALLE JOSE N ARZUAGA", "postcode": "00777"}}},
{"geometry": {"type": "Point", "coordinates": [-65.920781449, 18.230105807]}, "type": "Feature", "properties": {"collection_times": [{"days": "Mon-Sat", "time": "9:00am"}, {"days": "Sun", "time": "Closed"}], "id": "0077700007", "name": "USPS COLLECTION BOX - BLUE BOX", "address": {"city": "JUNCOS", "state": "PR", "street": "42 CALLE MUNOZ RIVERA", "postcode": "00777"}}},
{"geometry": {"type": "Point", "coordinates": [-65.9234196595, 18.2287529826]}, "type": "Feature", "properties": {"collection_times": [{"days": "Mon-Fri", "time": "3:00pm"}, {"days": "Sat", "time": "8:45am"}, {"days": "Sun", "time": "Closed"}], "id": "0077700008", "name": "USPS COLLECTION BOX - PO LOBBY", "address": {"city": "JUNCOS", "state": "PR", "street": "1 CALLE MUNOZ RIVERA", "postcode": "00777"}}},
{"geometry": {"type": "Point", "coordinates": [-65.972593926, 18.256050497]}, "type": "Feature", "properties": {"collection_times": [{"days": "Mon-Sat", "time": "9:00am"}, {"days": "Sun", "time": "Closed"}], "id": "0077800004", "name": "USPS COLLECTION BOX - BLUE BOX", "address": {"city": "GURABO", "state": "PR", "street": "450 CARR 189", "postcode": "00778"}}},
{"geometry": {"type": "Point", "coordinates": [-65.972028967, 18.255030848]}, "type": "Feature", "properties": {"collection_times": [{"days": "Mon-Sat", "time": "8:15am"}, {"days": "Sun", "time": "Closed"}], "id": "0077800006", "name": "USPS COLLECTION BOX - BLUE BOX", "address": {"city": "GURABO", "state": "PR", "street": "56 CALLE SAN JOSE S", "postcode": "00778"}}},
{"geometry": {"type": "Point", "coordinates": [-65.979780004, 18.248999987]}, "type": "Feature", "properties": {"collection_times": [{"days": "Mon-Fri", "time": "3:00pm"}, {"days": "Sat", "time": "8:15am"}, {"days": "Sun", "time": "Closed"}], "id": "0077800009", "name": "USPS COLLECTION BOX - BLUE BOX", "address": {"city": "GURABO", "state": "PR", "street": "106 CALLE ANGEL C MORALES E", "postcode": "00778"}}},
{"geometry": {"type": "Point", "coordinates": [-65.986203349, 18.31105665]}, "type": "Feature", "properties": {"collection_times": [{"days": "Mon-Sat", "time": "8:15am"}, {"days": "Sun", "time": "Closed"}], "id": "0077800011", "name": "USPS COLLECTION BOX - BLUE BOX", "address": {"city": "GURABO", "state": "PR", "street": "CARR 931", "postcode": "00778"}}},
{"geometry": {"type": "Point", "coordinates": [-65.9792561938, 18.2663899584]}, "type": "Feature", "properties": {"collection_times": [{"days": "Mon-Sat", "time": "8:15am"}, {"days": "Sun", "time": "Closed"}], "id": "0077800012", "name": "USPS COLLECTION BOX - BLUE BOX", "address": {"city": "GURABO", "state": "PR", "street": "1 CALLE 7", "postcode": "00778"}}},
{"geometry": {"type": "Point", "coordinates": [-65.979780004, 18.248999987]}, "type": "Feature", "properties": {"collection_times": [{"days": "Mon-Fri", "time": "3:00pm"}, {"days": "Sat", "time": "8:15am"}, {"days": "Sun", "time": "Closed"}], "id": "0077800013", "name": "USPS COLLECTION BOX - PO LOBBY", "address": {"city": "GURABO", "state": "PR", "street": "106 CALLE ANGEL C MORALES E", "postcode": "00778"}}},
{"geometry": {"type": "Point", "coordinates": [-66.5644945899, 18.0695089376]}, "type": "Feature", "properties": {"collection_times": [{"days": "Mon-Fri", "time": "3:00pm"}, {"days": "Sat", "time": "9:30am"}, {"days": "Sun", "time": "Closed"}], "id": "0078000001", "name": "USPS COLLECTION BOX - BLUE BOX", "address": {"city": "COTO LAUREL", "state": "PR", "street": "3007 AVE SAN CRISTOBAL", "postcode": "00780"}}},
{"geometry": {"type": "Point", "coordinates": [-66.550474756, 18.049390374]}, "type": "Feature", "properties": {"collection_times": [{"days": "Mon-Sat", "time": "8:00am"}, {"days": "Sun", "time": "Closed"}], "id": "0078000002", "name": "USPS COLLECTION BOX - BLUE BOX", "address": {"city": "COTO LAUREL", "state": "PR", "street": "12 CALLE CENTRAL", "postcode": "00780"}}},
{"geometry": {"type": "Point", "coordinates": [-66.5644945899, 18.0695089376]}, "type": "Feature", "properties": {"collection_times": [{"days": "Mon-Fri", "time": "3:00pm"}, {"days": "Sat", "time": "9:30am"}, {"days": "Sun", "time": "Closed"}], "id": "0078000003", "name": "USPS COLLECTION BOX - PO LOBBY", "address": {"city": "COTO LAUREL", "state": "PR", "street": "3007 AVE SAN CRISTOBAL", "postcode": "00780"}}},
{"geometry": {"type": "Point", "coordinates": [-66.2217728291, 18.2247552744]}, "type": "Feature", "properties": {"collection_times": [{"days": "Mon-Fri", "time": "3:00pm"}, {"days": "Sat", "time": "8:30am"}, {"days": "Sun", "time": "Closed"}], "id": "0078200002", "name": "USPS COLLECTION BOX - BLUE BOX", "address": {"city": "COMERIO", "state": "PR", "street": "35 CARR 778 STE 3", "postcode": "00782"}}},
{"geometry": {"type": "Point", "coordinates": [-66.2217728291, 18.2247552744]}, "type": "Feature", "properties": {"collection_times": [{"days": "Mon-Fri", "time": "3:00pm"}, {"days": "Sat", "time": "8:30am"}, {"days": "Sun", "time": "Closed"}], "id": "0078200003", "name": "USPS COLLECTION BOX - PO LOBBY", "address": {"city": "COMERIO", "state": "PR", "street": "35 CARR 778 STE 3", "postcode": "00782"}}},
{"geometry": {"type": "Point", "coordinates": [-66.326862007, 18.344626375]}, "type": "Feature", "properties": {"collection_times": [{"days": "Mon-Sat", "time": "3:00pm"}, {"days": "Sun", "time": "Closed"}], "id": "0078300001", "name": "USPS COLLECTION BOX - BLUE BOX", "address": {"city": "COROZAL", "state": "PR", "street": "C1 CALLE 1", "postcode": "00783"}}},
{"geometry": {"type": "Point", "coordinates": [-66.320933065, 18.344754486]}, "type": "Feature", "properties": {"collection_times": [{"days": "Mon-Sat", "time": "1:30pm"}, {"days": "Sun", "time": "Closed"}], "id": "0078300002", "name": "USPS COLLECTION BOX - BLUE BOX", "address": {"city": "COROZAL", "state": "PR", "street": "B5 CALLE 1 URB MONTE REY", "postcode": "00783"}}},
{"geometry": {"type": "Point", "coordinates": [-66.304750014, 18.338932546]}, "type": "Feature", "properties": {"collection_times": [{"days": "Mon-Sat", "time": "3:00pm"}, {"days": "Sun", "time": "Closed"}], "id": "0078300003", "name": "USPS COLLECTION BOX - BLUE BOX", "address": {"city": "COROZAL", "state": "PR", "street": "F13 CALLE 5", "postcode": "00783"}}},
{"geometry": {"type": "Point", "coordinates": [-66.3279353061, 18.3044044822]}, "type": "Feature", "properties": {"collection_times": [{"days": "Mon-Sat", "time": "8:15am"}, {"days": "Sun", "time": "Closed"}], "id": "0078300004", "name": "USPS COLLECTION BOX - BLUE BOX", "address": {"city": "COROZAL", "state": "PR", "street": "1 CALLE SAN MANUEL", "postcode": "00783"}}},
{"geometry": {"type": "Point", "coordinates": [-66.3279353061, 18.3044044822]}, "type": "Feature", "properties": {"collection_times": [{"days": "Mon-Fri", "time": "3:00pm"}, {"days": "Sat", "time": "8:15am"}, {"days": "Sun", "time": "Closed"}], "id": "0078300006", "name": "USPS COLLECTION BOX - BLUE BOX", "address": {"city": "COROZAL", "state": "PR", "street": "103 COROZAL SHOP CTR", "postcode": "00783"}}},
{"geometry": {"type": "Point", "coordinates": [-66.3279353061, 18.3044044822]}, "type": "Feature", "properties": {"collection_times": [{"days": "Mon-Fri", "time": "3:00pm"}, {"days": "Sat", "time": "8:15am"}, {"days": "Sun", "time": "Closed"}], "id": "0078300009", "name": "USPS COLLECTION BOX - PO LOBBY", "address": {"city": "COROZAL", "state": "PR", "street": "103 COROZAL SHOP CTR", "postcode": "00783"}}},
{"geometry": {"type": "Point", "coordinates": [-66.126525618, 17.948423281]}, "type": "Feature", "properties": {"collection_times": [{"days": "Mon-Sat", "time": "8:00am"}, {"days": "Sun", "time": "Closed"}], "id": "0078400005", "name": "USPS COLLECTION BOX - BLUE BOX", "address": {"city": "GUAYAMA", "state": "PR", "street": "1 CARR 3", "postcode": "00784"}}},
{"geometry": {"type": "Point", "coordinates": [-66.1131182546, 17.9789629614]}, "type": "Feature", "properties": {"collection_times": [{"days": "Mon-Sat", "time": "8:00am"}, {"days": "Sun", "time": "Closed"}], "id": "0078400010", "name": "USPS COLLECTION BOX - BLUE BOX", "address": {"city": "GUAYAMA", "state": "PR", "street": "47 CALLE CALIMANO N", "postcode": "00784"}}},
{"geometry": {"type": "Point", "coordinates": [-66.11558619, 17.979134779]}, "type": "Feature", "properties": {"collection_times": [{"days": "Mon-Sat", "time": "8:00am"}, {"days": "Sun", "time": "Closed"}], "id": "0078400011", "name": "USPS COLLECTION BOX - BLUE BOX", "address": {"city": "GUAYAMA", "state": "PR", "street": "6 CALLE DERKES E", "postcode": "00784"}}},
{"geometry": {"type": "Point", "coordinates": [-66.1131182546, 17.9789629614]}, "type": "Feature", "properties": {"collection_times": [{"days": "Mon-Sat", "time": "8:00am"}, {"days": "Sun", "time": "Closed"}], "id": "0078400012", "name": "USPS COLLECTION BOX - BLUE BOX", "address": {"city": "GUAYAMA", "state": "PR", "street": "2 CALLE MCARTHUR", "postcode": "00784"}}},
{"geometry": {"type": "Point", "coordinates": [-66.1131182546, 17.9789629614]}, "type": "Feature", "properties": {"collection_times": [{"days": "Mon-Fri", "time": "5:00pm"}, {"days": "Sat", "time": "1:00pm"}, {"days": "Sun", "time": "Closed"}], "id": "0078400014", "name": "USPS COLLECTION BOX - BLUE BOX", "address": {"city": "GUAYAMA", "state": "PR", "street": "151 CALLE ASHFORD N", "postcode": "00784"}}},
{"geometry": {"type": "Point", "coordinates": [-66.11032501, 17.979740015]}, "type": "Feature", "properties": {"collection_times": [{"days": "Mon-Sat", "time": "8:00am"}, {"days": "Sun", "time": "Closed"}], "id": "0078400016", "name": "USPS COLLECTION BOX - BLUE BOX", "address": {"city": "GUAYAMA", "state": "PR", "street": "1993 AVE LOS VETERANOS", "postcode": "00784"}}},
{"geometry": {"type": "Point", "coordinates": [-66.1131182546, 17.9789629614]}, "type": "Feature", "properties": {"collection_times": [{"days": "Mon-Fri", "time": "5:00pm"}, {"days": "Sat", "time": "1:00pm"}, {"days": "Sun", "time": "Closed"}], "id": "0078400020", "name": "USPS COLLECTION BOX - PO LOBBY", "address": {"city": "GUAYAMA", "state": "PR", "street": "151 CALLE ASHFORD S", "postcode": "00784"}}},
{"geometry": {"type": "Point", "coordinates": [-66.2329491613, 18.1544012484]}, "type": "Feature", "properties": {"collection_times": [{"days": "Mon-Fri", "time": "3:00pm"}, {"days": "Sat", "time": "9:30am"}, {"days": "Sun", "time": "Closed"}], "id": "0078600001", "name": "USPS COLLECTION BOX - BLUE BOX", "address": {"city": "LA PLATA", "state": "PR", "street": "5 CARR 173", "postcode": "00786"}}},
{"geometry": {"type": "Point", "coordinates": [-65.8315045385, 18.1517944779]}, "type": "Feature", "properties": {"collection_times": [{"days": "Mon-Fri", "time": "5:00pm"}, {"days": "Sat", "time": "1:00pm"}, {"days": "Sun", "time": "Closed"}], "id": "0079100001", "name": "USPS COLLECTION BOX - BLUE BOX", "address": {"city": "HUMACAO", "state": "PR", "street": "122 CALLE FONT MARTELO", "postcode": "00791"}}},
{"geometry": {"type": "Point", "coordinates": [-65.8188788272, 18.141440097]}, "type": "Feature", "properties": {"collection_times": [{"days": "Mon-Sat", "time": "8:15am"}, {"days": "Sun", "time": "Closed"}], "id": "0079100010", "name": "USPS COLLECTION BOX - BLUE BOX", "address": {"city": "HUMACAO", "state": "PR", "street": "45 CALLE CRUZ ORTIZ STELLA N", "postcode": "00791"}}},
{"geometry": {"type": "Point", "coordinates": [-65.793293342, 18.206520006]}, "type": "Feature", "properties": {"collection_times": [{"days": "Mon-Sat", "time": "8:15am"}, {"days": "Sun", "time": "Closed"}], "id": "0079100011", "name": "USPS COLLECTION BOX - BLUE BOX", "address": {"city": "HUMACAO", "state": "PR", "street": "A1 CARR 924", "postcode": "00791"}}},
{"geometry": {"type": "Point", "coordinates": [-65.8188788272, 18.141440097]}, "type": "Feature", "properties": {"collection_times": [{"days": "Mon-Sat", "time": "8:00am"}, {"days": "Sun", "time": "Closed"}], "id": "0079100013", "name": "USPS COLLECTION BOX - BLUE BOX", "address": {"city": "HUMACAO", "state": "PR", "street": "200 BLVD DEL RIO", "postcode": "00791"}}},
{"geometry": {"type": "Point", "coordinates": [-65.8149239369, 18.1434252779]}, "type": "Feature", "properties": {"collection_times": [{"days": "Mon-Sat", "time": "8:15am"}, {"days": "Sun", "time": "Closed"}], "id": "0079100014", "name": "USPS COLLECTION BOX - BLUE BOX", "address": {"city": "HUMACAO", "state": "PR", "street": "147 CALLE DR VIDAL E", "postcode": "00791"}}},
{"geometry": {"type": "Point", "coordinates": [-65.8188788272, 18.141440097]}, "type": "Feature", "properties": {"collection_times": [{"days": "Mon-Sat", "time": "8:15am"}, {"days": "Sun", "time": "Closed"}], "id": "0079100023", "name": "USPS COLLECTION BOX - BLUE BOX", "address": {"city": "HUMACAO", "state": "PR", "street": "350 CARR 3", "postcode": "00791"}}},
{"geometry": {"type": "Point", "coordinates": [-65.8315045385, 18.1517944779]}, "type": "Feature", "properties": {"collection_times": [{"days": "Mon-Fri", "time": "5:00pm"}, {"days": "Sat", "time": "1:00pm"}, {"days": "Sun", "time": "Closed"}], "id": "0079100025", "name": "USPS COLLECTION BOX - PO LOBBY", "address": {"city": "HUMACAO", "state": "PR", "street": "122 CALLE FONT MARTELO", "postcode": "00791"}}},
{"geometry": {"type": "Point", "coordinates": [-66.30986044, 18.184782157]}, "type": "Feature", "properties": {"collection_times": [{"days": "Mon-Sat", "time": "10:00am"}, {"days": "Sun", "time": "Closed"}], "id": "0079400001", "name": "USPS COLLECTION BOX - BLUE BOX", "address": {"city": "BARRANQUITAS", "state": "PR", "street": "20 CALLE PADRE BERRIOS", "postcode": "00794"}}},
{"geometry": {"type": "Point", "coordinates": [-66.299018821, 18.183446263]}, "type": "Feature", "properties": {"collection_times": [{"days": "Mon-Sat", "time": "11:30am"}, {"days": "Sun", "time": "Closed"}], "id": "0079400002", "name": "USPS COLLECTION BOX - BLUE BOX", "address": {"city": "BARRANQUITAS", "state": "PR", "street": "3 CALLE BARCELO", "postcode": "00794"}}},
{"geometry": {"type": "Point", "coordinates": [-66.295986342, 18.180971397]}, "type": "Feature", "properties": {"collection_times": [{"days": "Mon-Fri", "time": "3:00pm"}, {"days": "Sat", "time": "8:00am"}, {"days": "Sun", "time": "Closed"}], "id": "0079400003", "name": "USPS COLLECTION BOX - BLUE BOX", "address": {"city": "BARRANQUITAS", "state": "PR", "street": "41 CALLE MUNOZ RIVERA", "postcode": "00794"}}},
{"geometry": {"type": "Point", "coordinates": [-66.295986342, 18.180971397]}, "type": "Feature", "properties": {"collection_times": [{"days": "Mon-Fri", "time": "3:00pm"}, {"days": "Sat", "time": "8:00am"}, {"days": "Sun", "time": "Closed"}], "id": "0079400004", "name": "USPS COLLECTION BOX - PO LOBBY", "address": {"city": "BARRANQUITAS", "state": "PR", "street": "41 CALLE MUNOZ RIVERA", "postcode": "00794"}}},
{"geometry": {"type": "Point", "coordinates": [-66.495907872, 18.052724922]}, "type": "Feature", "properties": {"collection_times": [{"days": "Mon-Fri", "time": "3:00pm"}, {"days": "Sat", "time": "8:15am"}, {"days": "Sun", "time": "Closed"}], "id": "0079500002", "name": "USPS COLLECTION BOX - BLUE BOX", "address": {"city": "JUANA DIAZ", "state": "PR", "street": "72 CALLE EXT MUNOZ RIVERA", "postcode": "00795"}}},
{"geometry": {"type": "Point", "coordinates": [-66.505449981, 18.045120024]}, "type": "Feature", "properties": {"collection_times": [{"days": "Mon-Sat", "time": "8:00am"}, {"days": "Sun", "time": "Closed"}], "id": "0079500005", "name": "USPS COLLECTION BOX - BLUE BOX", "address": {"city": "JUANA DIAZ", "state": "PR", "street": "101 AVE VICTOR CRUZ", "postcode": "00795"}}},
{"geometry": {"type": "Point", "coordinates": [-66.506537586, 18.053664892]}, "type": "Feature", "properties": {"collection_times": [{"days": "Mon-Sat", "time": "8:00am"}, {"days": "Sun", "time": "Closed"}], "id": "0079500009", "name": "USPS COLLECTION BOX - BLUE BOX", "address": {"city": "JUANA DIAZ", "state": "PR", "street": "29 CALLE F DEGETAU", "postcode": "00795"}}},
{"geometry": {"type": "Point", "coordinates": [-66.527311921, 18.018931679]}, "type": "Feature", "properties": {"collection_times": [{"days": "Mon-Fri", "time": "3:00pm"}, {"days": "Sat", "time": "8:15am"}, {"days": "Sun", "time": "Closed"}], "id": "0079500011", "name": "USPS COLLECTION BOX - PO LOBBY", "address": {"city": "JUANA DIAZ", "state": "PR", "street": "72 CALLE EXT MUNOZ RIVERA", "postcode": "00795"}}}
]}
