{"type": "FeatureCollection", "features": [
{"geometry": {"type": "Point", "coordinates": [-66.1147337279, 18.4661608558]}, "type": "Feature", "properties": {"collection_times": [{"days": "Mon-Fri", "time": "2:30pm"}, {"days": "Sat", "time": "1:30pm"}, {"days": "Sun", "time": "Closed"}], "id": "0090100009", "name": "USPS COLLECTION BOX - BLUE BOX", "address": {"city": "SAN JUAN", "state": "PR", "street": "150 AVE DE LA CONSTITUCION", "postcode": "00901"}}},
{"geometry": {"type": "Point", "coordinates": [-66.112813717, 18.463981468]}, "type": "Feature", "properties": {"collection_times": [{"days": "Mon-Fri", "time": "5:00pm"}, {"days": "Sat", "time": "3:00pm"}, {"days": "Sun", "time": "Closed"}], "id": "0090100014", "name": "USPS COLLECTION BOX - BLUE BOX", "address": {"city": "SAN JUAN", "state": "PR", "street": "100 PASEO DE COLON", "postcode": "00901"}}},
{"geometry": {"type": "Point", "coordinates": [-66.113631573, 18.464413741]}, "type": "Feature", "properties": {"collection_times": [{"days": "Mon-Fri", "time": "2:00pm"}, {"days": "Sat", "time": "1:00pm"}, {"days": "Sun", "time": "Closed"}], "id": "0090100016", "name": "USPS COLLECTION BOX - BLUE BOX", "address": {"city": "SAN JUAN", "state": "PR", "street": "300 CALLE RECINTO S", "postcode": "00901"}}},
{"geometry": {"type": "Point", "coordinates": [-66.0936090208, 18.4644637994]}, "type": "Feature", "properties": {"collection_times": [{"days": "Mon-Fri", "time": "2:45pm"}, {"days": "Sat", "time": "1:45pm"}, {"days": "Sun", "time": "Closed"}], "id": "0090100023", "name": "USPS COLLECTION BOX - BLUE BOX", "address": {"city": "SAN JUAN", "state": "PR", "street": "450 AVE DE LA CONSTITUCION", "postcode": "00901"}}},
{"geometry": {"type": "Point", "coordinates": [-66.114824238, 18.466150052]}, "type": "Feature", "properties": {"collection_times": [{"days": "Mon-Fri", "time": "1:45pm"}, {"days": "Sat", "time": "12:45pm"}, {"days": "Sun", "time": "Closed"}], "id": "0090100025", "name": "USPS COLLECTION BOX - BLUE BOX", "address": {"city": "SAN JUAN", "state": "PR", "street": "5 AVE MUNOZ RIVERA", "postcode": "00901"}}},
{"geometry": {"type": "Point", "coordinates": [-66.116512826, 18.461378772]}, "type": "Feature", "properties": {"collection_times": [{"days": "Mon-Fri", "time": "2:15pm"}, {"days": "Sat", "time": "1:15pm"}, {"days": "Sun", "time": "Closed"}], "id": "0090100028", "name": "USPS COLLECTION BOX - BLUE BOX", "address": {"city": "SAN JUAN", "state": "PR", "street": "87 CALLE LA PUNTILLA", "postcode": "00901"}}},
{"geometry": {"type": "Point", "coordinates": [-66.1115933453, 18.4666257455]}, "type": "Feature", "properties": {"collection_times": [{"days": "Mon-Fri", "time": "1:45pm"}, {"days": "Sat", "time": "12:45pm"}, {"days": "Sun", "time": "Closed"}], "id": "0090100031", "name": "USPS COLLECTION BOX - BLUE BOX", "address": {"city": "SAN JUAN", "state": "PR", "street": "1 CALLE MUNOZ RIVERA", "postcode": "00901"}}},
{"geometry": {"type": "Point", "coordinates": [-66.097682638, 18.465183341]}, "type": "Feature", "properties": {"collection_times": [{"days": "Mon-Fri", "time": "2:30pm"}, {"days": "Sat", "time": "1:30pm"}, {"days": "Sun", "time": "Closed"}], "id": "0090100032", "name": "USPS COLLECTION BOX - BLUE BOX", "address": {"city": "SAN JUAN", "state": "PR", "street": "306 AVE DE LA CONSTITUCION", "postcode": "00901"}}},
{"geometry": {"type": "Point", "coordinates": [-66.116396772, 18.464886668]}, "type": "Feature", "properties": {"collection_times": [{"days": "Mon-Fri", "time": "2:00pm"}, {"days": "Sat", "time": "1:00pm"}, {"days": "Sun", "time": "Closed"}], "id": "0090100033", "name": "USPS COLLECTION BOX - BLUE BOX", "address": {"city": "SAN JUAN", "state": "PR", "street": "153 CALLE FORTALEZA", "postcode": "00901"}}},
{"geometry": {"type": "Point", "coordinates": [-66.112813717, 18.463981468]}, "type": "Feature", "properties": {"collection_times": [{"days": "Mon-Fri", "time": "5:00pm"}, {"days": "Sat", "time": "2:00pm"}, {"days": "Sun", "time": "Closed"}], "id": "0090100036", "name": "USPS COLLECTION BOX - PO LOBBY", "address": {"city": "SAN JUAN", "state": "PR", "street": "100 PASEO DE COLON", "postcode": "00901"}}},
{"geometry": {"type": "Point", "coordinates": [-66.066289097, 18.454235291]}, "type": "Feature", "properties": {"collection_times": [{"days": "Mon-Fri", "time": "1:15pm"}, {"days": "Sat", "time": "12:15pm"}, {"days": "Sun", "time": "Closed"}], "id": "0090700053", "name": "USPS COLLECTION BOX - BLUE BOX", "address": {"city": "SAN JUAN", "state": "PR", "street": "29 CALLE WASHINGTON", "postcode": "00907"}}},
{"geometry": {"type": "Point", "coordinates": [-66.069866962, 18.455514232]}, "type": "Feature", "properties": {"collection_times": [{"days": "Mon-Fri", "time": "1:15pm"}, {"days": "Sat", "time": "12:15pm"}, {"days": "Sun", "time": "Closed"}], "id": "0090700055", "name": "USPS COLLECTION BOX - BLUE BOX", "address": {"city": "SAN JUAN", "state": "PR", "street": "1319 AVE ASHFORD", "postcode": "00907"}}},
{"geometry": {"type": "Point", "coordinates": [-66.070085942, 18.455587227]}, "type": "Feature", "properties": {"collection_times": [{"days": "Mon-Fri", "time": "1:15pm"}, {"days": "Sat", "time": "12:15pm"}, {"days": "Sun", "time": "Closed"}], "id": "0090700056", "name": "USPS COLLECTION BOX - BLUE BOX", "address": {"city": "SAN JUAN", "state": "PR", "street": "1309 AVE ASHFORD", "postcode": "00907"}}},
{"geometry": {"type": "Point", "coordinates": [-66.070574664, 18.454412913]}, "type": "Feature", "properties": {"collection_times": [{"days": "Mon-Fri", "time": "1:30pm"}, {"days": "Sat", "time": "12:30pm"}, {"days": "Sun", "time": "Closed"}], "id": "0090700060", "name": "USPS COLLECTION BOX - BLUE BOX", "address": {"city": "SAN JUAN", "state": "PR", "street": "1160 AVE MAGDALENA", "postcode": "00907"}}},
{"geometry": {"type": "Point", "coordinates": [-66.071314321, 18.4537563932]}, "type": "Feature", "properties": {"collection_times": [{"days": "Mon-Fri", "time": "1:30pm"}, {"days": "Sat", "time": "12:30pm"}, {"days": "Sun", "time": "Closed"}], "id": "0090700061", "name": "USPS COLLECTION BOX - BLUE BOX", "address": {"city": "SAN JUAN", "state": "PR", "street": "1223 CALLE LUCHETTI", "postcode": "00907"}}},
{"geometry": {"type": "Point", "coordinates": [-66.0706738912, 18.4480015962]}, "type": "Feature", "properties": {"collection_times": [{"days": "Mon-Sat", "time": "1:00pm"}, {"days": "Sun", "time": "Closed"}], "id": "0090700063", "name": "USPS COLLECTION BOX - BLUE BOX", "address": {"city": "SAN JUAN", "state": "PR", "street": "1413 AVE PONCE DE LEON", "postcode": "00907"}}},
{"geometry": {"type": "Point", "coordinates": [-66.0753460992, 18.4514876184]}, "type": "Feature", "properties": {"collection_times": [{"days": "Mon-Sat", "time": "1:00pm"}, {"days": "Sun", "time": "Closed"}], "id": "0090700067", "name": "USPS COLLECTION BOX - BLUE BOX", "address": {"city": "SAN JUAN", "state": "PR", "street": "1155 AVE PONCE DE LEON", "postcode": "00907"}}},
{"geometry": {"type": "Point", "coordinates": [-66.0604389331, 18.4392654949]}, "type": "Feature", "properties": {"collection_times": [{"days": "Mon-Sat", "time": "12:30pm"}, {"days": "Sun", "time": "Closed"}], "id": "0090900024", "name": "USPS COLLECTION BOX - BLUE BOX", "address": {"city": "SAN JUAN", "state": "PR", "street": "1857 AVE PONCE DE LEON", "postcode": "00909"}}},
{"geometry": {"type": "Point", "coordinates": [-66.0675261119, 18.4433701842]}, "type": "Feature", "properties": {"collection_times": [{"days": "Mon-Sat", "time": "1:00pm"}, {"days": "Sun", "time": "Closed"}], "id": "0090900030", "name": "USPS COLLECTION BOX - BLUE BOX", "address": {"city": "SAN JUAN", "state": "PR", "street": "705 AVE PONCE DE LEON", "postcode": "00909"}}},
{"geometry": {"type": "Point", "coordinates": [-66.0839230109, 18.4561922246]}, "type": "Feature", "properties": {"collection_times": [{"days": "Mon-Sat", "time": "1:00pm"}, {"days": "Sun", "time": "Closed"}], "id": "0090900031", "name": "USPS COLLECTION BOX - BLUE BOX", "address": {"city": "SAN JUAN", "state": "PR", "street": "701 AVE PONCE DE LEON", "postcode": "00909"}}},
{"geometry": {"type": "Point", "coordinates": [-66.0837184512, 18.4522904243]}, "type": "Feature", "properties": {"collection_times": [{"days": "Mon-Sat", "time": "2:00pm"}, {"days": "Sun", "time": "Closed"}], "id": "0090900033", "name": "USPS COLLECTION BOX - BLUE BOX", "address": {"city": "SAN JUAN", "state": "PR", "street": "808 AVE FERNANDEZ JUNCOS", "postcode": "00909"}}},
{"geometry": {"type": "Point", "coordinates": [-66.0738762438, 18.4474889862]}, "type": "Feature", "properties": {"collection_times": [{"days": "Mon-Sat", "time": "2:00pm"}, {"days": "Sun", "time": "Closed"}], "id": "0090900034", "name": "USPS COLLECTION BOX - BLUE BOX", "address": {"city": "SAN JUAN", "state": "PR", "street": "1312 AVE FERNANDEZ JUNCOS", "postcode": "00909"}}},
{"geometry": {"type": "Point", "coordinates": [-66.069525336, 18.44426525]}, "type": "Feature", "properties": {"collection_times": [{"days": "Mon-Sat", "time": "2:00pm"}, {"days": "Sun", "time": "Closed"}], "id": "0090900036", "name": "USPS COLLECTION BOX - BLUE BOX", "address": {"city": "SAN JUAN", "state": "PR", "street": "1498 AVE FERNANDEZ JUNCOS", "postcode": "00909"}}},
{"geometry": {"type": "Point", "coordinates": [-66.0619723574, 18.4395276393]}, "type": "Feature", "properties": {"collection_times": [{"days": "Mon-Sat", "time": "2:15pm"}, {"days": "Sun", "time": "Closed"}], "id": "0090900037", "name": "USPS COLLECTION BOX - BLUE BOX", "address": {"city": "SAN JUAN", "state": "PR", "street": "1818 AVE FERNANDEZ JUNCOS", "postcode": "00909"}}},
{"geometry": {"type": "Point", "coordinates": [-66.059342489, 18.437743104]}, "type": "Feature", "properties": {"collection_times": [{"days": "Mon-Sat", "time": "12:30pm"}, {"days": "Sun", "time": "Closed"}], "id": "0090900039", "name": "USPS COLLECTION BOX - BLUE BOX", "address": {"city": "SAN JUAN", "state": "PR", "street": "1605 AVE PONCE DE LEON", "postcode": "00909"}}},
{"geometry": {"type": "Point", "coordinates": [-66.059342489, 18.437743104]}, "type": "Feature", "properties": {"collection_times": [{"days": "Mon-Sat", "time": "12:30pm"}, {"days": "Sun", "time": "Closed"}], "id": "0090900040", "name": "USPS COLLECTION BOX - BLUE BOX", "address": {"city": "SAN JUAN", "state": "PR", "street": "1605 AVE PONCE DE LEON", "postcode": "00909"}}},
{"geometry": {"type": "Point", "coordinates": [-66.0636393644, 18.4526307043]}, "type": "Feature", "properties": {"collection_times": [{"days": "Mon-Fri", "time": "1:00pm"}, {"days": "Sat", "time": "12:00pm"}, {"days": "Sun", "time": "Closed"}], "id": "0091100004", "name": "USPS COLLECTION BOX - BLUE BOX", "address": {"city": "SAN JUAN", "state": "PR", "street": "71 AVE DE DIEGO", "postcode": "00911"}}},
{"geometry": {"type": "Point", "coordinates": [-66.062347711, 18.451931719]}, "type": "Feature", "properties": {"collection_times": [{"days": "Mon-Fri", "time": "1:00pm"}, {"days": "Sat", "time": "12:00pm"}, {"days": "Sun", "time": "Closed"}], "id": "0091100005", "name": "USPS COLLECTION BOX - BLUE BOX", "address": {"city": "SAN JUAN", "state": "PR", "street": "1605 CALLE LOIZA", "postcode": "00911"}}},
{"geometry": {"type": "Point", "coordinates": [-66.0632386983, 18.449521912]}, "type": "Feature", "properties": {"collection_times": [{"days": "Mon-Fri", "time": "1:00pm"}, {"days": "Sat", "time": "12:00pm"}, {"days": "Sun", "time": "Closed"}], "id": "0091100007", "name": "USPS COLLECTION BOX - BLUE BOX", "address": {"city": "SAN JUAN", "state": "PR", "street": "150 CALLE DEL PARQUE", "postcode": "00911"}}},
{"geometry": {"type": "Point", "coordinates": [-66.051138996, 18.451620229]}, "type": "Feature", "properties": {"collection_times": [{"days": "Mon-Fri", "time": "12:45pm"}, {"days": "Sat", "time": "11:45am"}, {"days": "Sun", "time": "Closed"}], "id": "0091100011", "name": "USPS COLLECTION BOX - BLUE BOX", "address": {"city": "SAN JUAN", "state": "PR", "street": "2062 CALLE MCLEARY", "postcode": "00911"}}},
{"geometry": {"type": "Point", "coordinates": [-66.055689204, 18.451090677]}, "type": "Feature", "properties": {"collection_times": [{"days": "Mon-Fri", "time": "5:00pm"}, {"days": "Sat", "time": "3:00pm"}, {"days": "Sun", "time": "Closed"}], "id": "0091100012", "name": "USPS COLLECTION BOX - BLUE BOX", "address": {"city": "SAN JUAN", "state": "PR", "street": "1959 CALLE LOIZA", "postcode": "00911"}}},
{"geometry": {"type": "Point", "coordinates": [-66.081266769, 18.454715719]}, "type": "Feature", "properties": {"collection_times": [{"days": "Mon-Sat", "time": "12:30pm"}, {"days": "Sun", "time": "Closed"}], "id": "0091100013", "name": "USPS COLLECTION BOX - BLUE BOX", "address": {"city": "SAN JUAN", "state": "PR", "street": "1519 AVE PONCE DE LEON", "postcode": "00911"}}},
{"geometry": {"type": "Point", "coordinates": [-66.0630741955, 18.3875589585]}, "type": "Feature", "properties": {"collection_times": [{"days": "Mon-Sat", "time": "12:30pm"}, {"days": "Sun", "time": "Closed"}], "id": "0091100014", "name": "USPS COLLECTION BOX - BLUE BOX", "address": {"city": "SAN JUAN", "state": "PR", "street": "1501 AVE PONCE DE LEON", "postcode": "00911"}}},
{"geometry": {"type": "Point", "coordinates": [-66.055695946, 18.451087161]}, "type": "Feature", "properties": {"collection_times": [{"days": "Mon-Fri", "time": "4:30pm"}, {"days": "Sat", "time": "12:00pm"}, {"days": "Sun", "time": "Closed"}], "id": "0091100016", "name": "USPS COLLECTION BOX - PO LOBBY", "address": {"city": "SAN JUAN", "state": "PR", "street": "1959 CALLE LOIZA", "postcode": "00911"}}},
{"geometry": {"type": "Point", "coordinates": [-66.0471981331, 18.4378645015]}, "type": "Feature", "properties": {"collection_times": [{"days": "Mon-Sat", "time": "12:30pm"}, {"days": "Sun", "time": "Closed"}], "id": "0091500009", "name": "USPS COLLECTION BOX - BLUE BOX", "address": {"city": "SAN JUAN", "state": "PR", "street": "100 CALLE BELLA VIS", "postcode": "00915"}}},
{"geometry": {"type": "Point", "coordinates": [-66.0547718173, 18.4247236243]}, "type": "Feature", "properties": {"collection_times": [{"days": "Mon-Sat", "time": "11:30am"}, {"days": "Sun", "time": "Closed"}], "id": "0091700002", "name": "USPS COLLECTION BOX - BLUE BOX", "address": {"city": "SAN JUAN", "state": "PR", "street": "103 AVENUE ROOSEVELT", "postcode": "00917"}}},
{"geometry": {"type": "Point", "coordinates": [-66.046211638, 18.412020152]}, "type": "Feature", "properties": {"collection_times": [{"days": "Mon-Fri", "time": "11:45am"}, {"days": "Sat", "time": "10:45am"}, {"days": "Sun", "time": "Closed"}], "id": "0091700004", "name": "USPS COLLECTION BOX - BLUE BOX", "address": {"city": "SAN JUAN", "state": "PR", "street": "129 CALLE MAYAGUEZ", "postcode": "00917"}}},
{"geometry": {"type": "Point", "coordinates": [-66.0497938041, 18.4271275827]}, "type": "Feature", "properties": {"collection_times": [{"days": "Mon-Sat", "time": "11:30am"}, {"days": "Sun", "time": "Closed"}], "id": "0091700005", "name": "USPS COLLECTION BOX - BLUE BOX", "address": {"city": "SAN JUAN", "state": "PR", "street": "213 CALLE QUISQUEYA", "postcode": "00917"}}},
{"geometry": {"type": "Point", "coordinates": [-66.0495716176, 18.4256399889]}, "type": "Feature", "properties": {"collection_times": [{"days": "Mon-Sat", "time": "11:30am"}, {"days": "Sun", "time": "Closed"}], "id": "0091700008", "name": "USPS COLLECTION BOX - BLUE BOX", "address": {"city": "SAN JUAN", "state": "PR", "street": "185 AVE FD ROOSEVELT", "postcode": "00917"}}},
{"geometry": {"type": "Point", "coordinates": [-66.0575055889, 18.4246709476]}, "type": "Feature", "properties": {"collection_times": [{"days": "Mon-Sat", "time": "11:30am"}, {"days": "Sun", "time": "Closed"}], "id": "0091700013", "name": "USPS COLLECTION BOX - BLUE BOX", "address": {"city": "SAN JUAN", "state": "PR", "street": "273 AVE PONCE DE LEON", "postcode": "00917"}}},
{"geometry": {"type": "Point", "coordinates": [-66.0513192414, 18.4216842618]}, "type": "Feature", "properties": {"collection_times": [{"days": "Mon-Fri", "time": "11:00am"}, {"days": "Sat", "time": "10:00am"}, {"days": "Sun", "time": "Closed"}], "id": "0091700016", "name": "USPS COLLECTION BOX - BLUE BOX", "address": {"city": "SAN JUAN", "state": "PR", "street": "340 AVE BARBOSA", "postcode": "00917"}}},
{"geometry": {"type": "Point", "coordinates": [-66.056773805, 18.4219250246]}, "type": "Feature", "properties": {"collection_times": [{"days": "Mon-Sat", "time": "3:00pm"}, {"days": "Sun", "time": "Closed"}], "id": "0091700017", "name": "USPS COLLECTION BOX - BLUE BOX", "address": {"city": "SAN JUAN", "state": "PR", "street": "377 AVE PONCE DE LEON", "postcode": "00917"}}},
{"geometry": {"type": "Point", "coordinates": [-66.0563336161, 18.4201429883]}, "type": "Feature", "properties": {"collection_times": [{"days": "Mon-Sat", "time": "3:00pm"}, {"days": "Sun", "time": "Closed"}], "id": "0091700020", "name": "USPS COLLECTION BOX - BLUE BOX", "address": {"city": "SAN JUAN", "state": "PR", "street": "431 AVE PONCE DE LEON", "postcode": "00917"}}},
{"geometry": {"type": "Point", "coordinates": [-66.046492829, 18.42490931]}, "type": "Feature", "properties": {"collection_times": [{"days": "Mon-Fri", "time": "11:00am"}, {"days": "Sat", "time": "10:00am"}, {"days": "Sun", "time": "Closed"}], "id": "0091700022", "name": "USPS COLLECTION BOX - BLUE BOX", "address": {"city": "SAN JUAN", "state": "PR", "street": "266 AVE BARBOSA", "postcode": "00917"}}},
{"geometry": {"type": "Point", "coordinates": [-66.043804, 18.419497654]}, "type": "Feature", "properties": {"collection_times": [{"days": "Mon-Fri", "time": "11:15am"}, {"days": "Sat", "time": "10:15am"}, {"days": "Sun", "time": "Closed"}], "id": "0091700023", "name": "USPS COLLECTION BOX - BLUE BOX", "address": {"city": "SAN JUAN", "state": "PR", "street": "390 AVE BARBOSA", "postcode": "00917"}}},
{"geometry": {"type": "Point", "coordinates": [-66.0548284572, 18.414092097]}, "type": "Feature", "properties": {"collection_times": [{"days": "Mon-Sat", "time": "2:45pm"}, {"days": "Sun", "time": "Closed"}], "id": "0091700027", "name": "USPS COLLECTION BOX - BLUE BOX", "address": {"city": "SAN JUAN", "state": "PR", "street": "577 AVE PONCE DE LEON", "postcode": "00917"}}},
{"geometry": {"type": "Point", "coordinates": [-66.0506746839, 18.4124199549]}, "type": "Feature", "properties": {"collection_times": [{"days": "Mon-Fri", "time": "11:45am"}, {"days": "Sat", "time": "10:45am"}, {"days": "Sun", "time": "Closed"}], "id": "0091700028", "name": "USPS COLLECTION BOX - BLUE BOX", "address": {"city": "SAN JUAN", "state": "PR", "street": "47 CALLE MAYAGUEZ", "postcode": "00917"}}},
{"geometry": {"type": "Point", "coordinates": [-66.04299846, 18.41418498]}, "type": "Feature", "properties": {"collection_times": [{"days": "Mon-Fri", "time": "11:15am"}, {"days": "Sat", "time": "10:15am"}, {"days": "Sun", "time": "Closed"}], "id": "0091700029", "name": "USPS COLLECTION BOX - BLUE BOX", "address": {"city": "SAN JUAN", "state": "PR", "street": "602 AVE BARBOSA", "postcode": "00917"}}},
{"geometry": {"type": "Point", "coordinates": [-66.054513852, 18.412862682]}, "type": "Feature", "properties": {"collection_times": [{"days": "Mon-Sat", "time": "2:45pm"}, {"days": "Sun", "time": "Closed"}], "id": "0091700034", "name": "USPS COLLECTION BOX - BLUE BOX", "address": {"city": "SAN JUAN", "state": "PR", "street": "623 AVE PONCE DE LEON", "postcode": "00917"}}},
{"geometry": {"type": "Point", "coordinates": [-66.0576707566, 18.4253896314]}, "type": "Feature", "properties": {"collection_times": [{"days": "Mon-Sat", "time": "11:45am"}, {"days": "Sun", "time": "Closed"}], "id": "0091700040", "name": "USPS COLLECTION BOX - BLUE BOX", "address": {"city": "SAN JUAN", "state": "PR", "street": "255 AVE PONCE DE LEON", "postcode": "00917"}}},
{"geometry": {"type": "Point", "coordinates": [-66.072025057, 18.426229332]}, "type": "Feature", "properties": {"collection_times": [{"days": "Mon-Fri", "time": "5:00pm"}, {"days": "Sat", "time": "3:00pm"}, {"days": "Sun", "time": "Closed"}], "id": "0091800004", "name": "USPS COLLECTION BOX - BLUE BOX", "address": {"city": "SAN JUAN", "state": "PR", "street": "361 CALLE JUAN CALAF", "postcode": "00918"}}},
{"geometry": {"type": "Point", "coordinates": [-66.06450299, 18.424695098]}, "type": "Feature", "properties": {"collection_times": [{"days": "Mon-Sat", "time": "3:15pm"}, {"days": "Sun", "time": "Closed"}], "id": "0091800008", "name": "USPS COLLECTION BOX - BLUE BOX", "address": {"city": "SAN JUAN", "state": "PR", "street": "159 AVE CARLOS CHARDON", "postcode": "00918"}}},
{"geometry": {"type": "Point", "coordinates": [-66.06783002, 18.421989985]}, "type": "Feature", "properties": {"collection_times": [{"days": "Mon-Sat", "time": "11:15am"}, {"days": "Sun", "time": "Closed"}], "id": "0091800010", "name": "USPS COLLECTION BOX - BLUE BOX", "address": {"city": "SAN JUAN", "state": "PR", "street": "176 AVE FD ROOSEVELT", "postcode": "00918"}}},
{"geometry": {"type": "Point", "coordinates": [-66.0590960218, 18.4332663559]}, "type": "Feature", "properties": {"collection_times": [{"days": "Mon-Sat", "time": "12:00pm"}, {"days": "Sun", "time": "Closed"}], "id": "0091800013", "name": "USPS COLLECTION BOX - BLUE BOX", "address": {"city": "SAN JUAN", "state": "PR", "street": "2 AVE PONCE DE LEON", "postcode": "00918"}}},
{"geometry": {"type": "Point", "coordinates": [-66.066634032, 18.423681531]}, "type": "Feature", "properties": {"collection_times": [{"days": "Mon-Sat", "time": "2:15pm"}, {"days": "Sun", "time": "Closed"}], "id": "0091800021", "name": "USPS COLLECTION BOX - BLUE BOX", "address": {"city": "SAN JUAN", "state": "PR", "street": "250 AVE MUNOZ RIVERA", "postcode": "00918"}}},
{"geometry": {"type": "Point", "coordinates": [-66.061465487, 18.409885263]}, "type": "Feature", "properties": {"collection_times": [{"days": "Mon-Fri", "time": "11:00am"}, {"days": "Sat", "time": "10:00am"}, {"days": "Sun", "time": "Closed"}], "id": "0091800026", "name": "USPS COLLECTION BOX - BLUE BOX", "address": {"city": "SAN JUAN", "state": "PR", "street": "266 CALLE COLL Y TOSTE", "postcode": "00918"}}},
{"geometry": {"type": "Point", "coordinates": [-66.063005338, 18.4100757078]}, "type": "Feature", "properties": {"collection_times": [{"days": "Mon-Fri", "time": "10:45am"}, {"days": "Sat", "time": "9:45am"}, {"days": "Sun", "time": "Closed"}], "id": "0091800029", "name": "USPS COLLECTION BOX - BLUE BOX", "address": {"city": "SAN JUAN", "state": "PR", "street": "300 CALLE COLL Y TOSTE", "postcode": "00918"}}},
{"geometry": {"type": "Point", "coordinates": [-66.0644984183, 18.4138165029]}, "type": "Feature", "properties": {"collection_times": [{"days": "Mon-Fri", "time": "10:30am"}, {"days": "Sat", "time": "9:30am"}, {"days": "Sun", "time": "Closed"}], "id": "0091800031", "name": "USPS COLLECTION BOX - BLUE BOX", "address": {"city": "SAN JUAN", "state": "PR", "street": "311 AVENUE DOMENECH", "postcode": "00918"}}},
{"geometry": {"type": "Point", "coordinates": [-66.0642448646, 18.4196744134]}, "type": "Feature", "properties": {"collection_times": [{"days": "Mon-Fri", "time": "10:30am"}, {"days": "Sat", "time": "9:30am"}, {"days": "Sun", "time": "Closed"}], "id": "0091800032", "name": "USPS COLLECTION BOX - BLUE BOX", "address": {"city": "SAN JUAN", "state": "PR", "street": "270 CALLE ELEONOR ROOSEVELT", "postcode": "00918"}}},
{"geometry": {"type": "Point", "coordinates": [-66.0667213019, 18.4191827044]}, "type": "Feature", "properties": {"collection_times": [{"days": "Mon-Fri", "time": "10:30am"}, {"days": "Sat", "time": "9:30am"}, {"days": "Sun", "time": "Closed"}], "id": "0091800040", "name": "USPS COLLECTION BOX - BLUE BOX", "address": {"city": "SAN JUAN", "state": "PR", "street": "400 CALLE CESAR GONZALEZ", "postcode": "00918"}}},
{"geometry": {"type": "Point", "coordinates": [-66.0569071504, 18.4148231703]}, "type": "Feature", "properties": {"collection_times": [{"days": "Mon-Sat", "time": "2:30pm"}, {"days": "Sun", "time": "Closed"}], "id": "0091800044", "name": "USPS COLLECTION BOX - BLUE BOX", "address": {"city": "SAN JUAN", "state": "PR", "street": "572 AVE MUNOZ RIVERA", "postcode": "00918"}}},
{"geometry": {"type": "Point", "coordinates": [-66.0566841887, 18.4172136816]}, "type": "Feature", "properties": {"collection_times": [{"days": "Mon-Sat", "time": "2:45pm"}, {"days": "Sun", "time": "Closed"}], "id": "0091800046", "name": "USPS COLLECTION BOX - BLUE BOX", "address": {"city": "SAN JUAN", "state": "PR", "street": "505 AVE MUNOZ RIVERA", "postcode": "00918"}}},
{"geometry": {"type": "Point", "coordinates": [-66.0569511902, 18.4172497875]}, "type": "Feature", "properties": {"collection_times": [{"days": "Mon-Sat", "time": "2:15pm"}, {"days": "Sun", "time": "Closed"}], "id": "0091800047", "name": "USPS COLLECTION BOX - BLUE BOX", "address": {"city": "SAN JUAN", "state": "PR", "street": "502 AVE MUNOZ RIVERA", "postcode": "00918"}}},
{"geometry": {"type": "Point", "coordinates": [-66.062967266, 18.414266556]}, "type": "Feature", "properties": {"collection_times": [{"days": "Mon-Fri", "time": "10:30am"}, {"days": "Sat", "time": "9:30am"}, {"days": "Sun", "time": "Closed"}], "id": "0091800048", "name": "USPS COLLECTION BOX - BLUE BOX", "address": {"city": "SAN JUAN", "state": "PR", "street": "271 AVENUE DOMENECH", "postcode": "00918"}}},
{"geometry": {"type": "Point", "coordinates": [-66.064140005, 18.419179985]}, "type": "Feature", "properties": {"collection_times": [{"days": "Mon-Fri", "time": "10:45am"}, {"days": "Sat", "time": "9:45am"}, {"days": "Sun", "time": "Closed"}], "id": "0091800049", "name": "USPS COLLECTION BOX - BLUE BOX", "address": {"city": "SAN JUAN", "state": "PR", "street": "650 CALLE S CUEVAS BUSTAMANTE", "postcode": "00918"}}},
{"geometry": {"type": "Point", "coordinates": [-66.061043588, 18.412193672]}, "type": "Feature", "properties": {"collection_times": [{"days": "Mon-Fri", "time": "11:00am"}, {"days": "Sat", "time": "10:00am"}, {"days": "Sun", "time": "Closed"}], "id": "0091800051", "name": "USPS COLLECTION BOX - BLUE BOX", "address": {"city": "SAN JUAN", "state": "PR", "street": "579 AVE HOSTOS", "postcode": "00918"}}},
{"geometry": {"type": "Point", "coordinates": [-66.0641456976, 18.4191815386]}, "type": "Feature", "properties": {"collection_times": [{"days": "Mon-Sat", "time": "2:30pm"}, {"days": "Sun", "time": "Closed"}], "id": "0091800052", "name": "USPS COLLECTION BOX - BLUE BOX", "address": {"city": "SAN JUAN", "state": "PR", "street": "185 AVE HOSTOS", "postcode": "00918"}}},
{"geometry": {"type": "Point", "coordinates": [-66.056602587, 18.409759098]}, "type": "Feature", "properties": {"collection_times": [{"days": "Mon-Sat", "time": "2:30pm"}, {"days": "Sun", "time": "Closed"}], "id": "0091800054", "name": "USPS COLLECTION BOX - BLUE BOX", "address": {"city": "SAN JUAN", "state": "PR", "street": "652 AVE MUNOZ RIVERA", "postcode": "00918"}}},
{"geometry": {"type": "Point", "coordinates": [-66.06348056, 18.408576968]}, "type": "Feature", "properties": {"collection_times": [{"days": "Mon-Fri", "time": "10:45am"}, {"days": "Sat", "time": "9:45am"}, {"days": "Sun", "time": "Closed"}], "id": "0091800055", "name": "USPS COLLECTION BOX - BLUE BOX", "address": {"city": "SAN JUAN", "state": "PR", "street": "675 CALLE CESAR GONZALEZ", "postcode": "00918"}}},
{"geometry": {"type": "Point", "coordinates": [-66.058127379, 18.427120562]}, "type": "Feature", "properties": {"collection_times": [{"days": "Mon-Sat", "time": "12:00pm"}, {"days": "Sun", "time": "Closed"}], "id": "0091800057", "name": "USPS COLLECTION BOX - BLUE BOX", "address": {"city": "SAN JUAN", "state": "PR", "street": "207 AVE PONCE DE LEON", "postcode": "00918"}}},
{"geometry": {"type": "Point", "coordinates": [-66.063865015, 18.427129989]}, "type": "Feature", "properties": {"collection_times": [{"days": "Mon-Sat", "time": "3:15pm"}, {"days": "Sun", "time": "Closed"}], "id": "0091800059", "name": "USPS COLLECTION BOX - BLUE BOX", "address": {"city": "SAN JUAN", "state": "PR", "street": "239 AVE ARTERIAL HOSTOS", "postcode": "00918"}}},
{"geometry": {"type": "Point", "coordinates": [-66.0641456976, 18.4191815386]}, "type": "Feature", "properties": {"collection_times": [{"days": "Mon-Sat", "time": "3:30pm"}, {"days": "Sun", "time": "Closed"}], "id": "0091800060", "name": "USPS COLLECTION BOX - BLUE BOX", "address": {"city": "SAN JUAN", "state": "PR", "street": "200 CALLE CESAR GONZALEZ", "postcode": "00918"}}},
{"geometry": {"type": "Point", "coordinates": [-66.0641456976, 18.4191815386]}, "type": "Feature", "properties": {"collection_times": [{"days": "Mon-Sat", "time": "2:30pm"}, {"days": "Sun", "time": "Closed"}], "id": "0091800068", "name": "USPS COLLECTION BOX - BLUE BOX", "address": {"city": "SAN JUAN", "state": "PR", "street": "715 AVE PONCE DE LEON", "postcode": "00918"}}},
{"geometry": {"type": "Point", "coordinates": [-66.0770543114, 18.4168249371]}, "type": "Feature", "properties": {"collection_times": [{"days": "Mon-Fri", "time": "2:45pm"}, {"days": "Sat", "time": "1:45pm"}, {"days": "Sun", "time": "Closed"}], "id": "0091800073", "name": "USPS COLLECTION BOX - BLUE BOX", "address": {"city": "SAN JUAN", "state": "PR", "street": "575 AVE FD ROOSEVELT", "postcode": "00918"}}},
{"geometry": {"type": "Point", "coordinates": [-66.0571045596, 18.4104131392]}, "type": "Feature", "properties": {"collection_times": [{"days": "Mon-Sat", "time": "2:30pm"}, {"days": "Sun", "time": "Closed"}], "id": "0091800077", "name": "USPS COLLECTION BOX - BLUE BOX", "address": {"city": "SAN JUAN", "state": "PR", "street": "50 CALLE COLL Y TOSTE", "postcode": "00918"}}},
{"geometry": {"type": "Point", "coordinates": [-66.0770543114, 18.4168249371]}, "type": "Feature", "properties": {"collection_times": [{"days": "Mon-Fri", "time": "2:45pm"}, {"days": "Sat", "time": "1:45pm"}, {"days": "Sun", "time": "Closed"}], "id": "0091800080", "name": "USPS COLLECTION BOX - BLUE BOX", "address": {"city": "SAN JUAN", "state": "PR", "street": "575 AVE FD ROOSEVELT", "postcode": "00918"}}},
{"geometry": {"type": "Point", "coordinates": [-66.0729359362, 18.419090061]}, "type": "Feature", "properties": {"collection_times": [{"days": "Mon-Fri", "time": "5:00pm"}, {"days": "Sat", "time": "3:00pm"}, {"days": "Sun", "time": "Closed"}], "id": "0091800081", "name": "USPS COLLECTION BOX - PO LOBBY", "address": {"city": "SAN JUAN", "state": "PR", "street": "525 AVE FD ROOSEVELT", "postcode": "00918"}}},
{"geometry": {"type": "Point", "coordinates": [-66.067471497, 18.413102634]}, "type": "Feature", "properties": {"collection_times": [{"days": "Mon-Fri", "time": "10:45am"}, {"days": "Sat", "time": "9:45am"}, {"days": "Sun", "time": "Closed"}], "id": "0091800084", "name": "USPS COLLECTION BOX - BLUE BOX", "address": {"city": "SAN JUAN", "state": "PR", "street": "387 AVENUE DOMENECH", "postcode": "00918"}}},
{"geometry": {"type": "Point", "coordinates": [-66.070422228, 18.426930033]}, "type": "Feature", "properties": {"collection_times": [{"days": "Mon-Fri", "time": "6:00pm"}, {"days": "Sat", "time": "3:30pm"}, {"days": "Sun", "time": "Closed"}], "id": "0091900001", "name": "USPS COLLECTION BOX - PO LOBBY", "address": {"city": "SAN JUAN", "state": "PR", "street": "361 CALLE JUAN CALAF", "postcode": "00919"}}},
{"geometry": {"type": "Point", "coordinates": [-66.0963945133, 18.4133426187]}, "type": "Feature", "properties": {"collection_times": [{"days": "Mon-Sat", "time": "9:00am"}, {"days": "Sun", "time": "Closed"}], "id": "0092000011", "name": "USPS COLLECTION BOX - BLUE BOX", "address": {"city": "SAN JUAN", "state": "PR", "street": "1441 AVE FD ROOSEVELT", "postcode": "00920"}}},
{"geometry": {"type": "Point", "coordinates": [-66.089075704, 18.4148543992]}, "type": "Feature", "properties": {"collection_times": [{"days": "Mon-Fri", "time": "3:15pm"}, {"days": "Sat", "time": "2:15pm"}, {"days": "Sun", "time": "Closed"}], "id": "0092000014", "name": "USPS COLLECTION BOX - BLUE BOX", "address": {"city": "SAN JUAN", "state": "PR", "street": "352 AVE DE DIEGO", "postcode": "00920"}}},
{"geometry": {"type": "Point", "coordinates": [-66.083788674, 18.404563457]}, "type": "Feature", "properties": {"collection_times": [{"days": "Mon-Fri", "time": "2:30pm"}, {"days": "Sat", "time": "1:30pm"}, {"days": "Sun", "time": "Closed"}], "id": "0092000016", "name": "USPS COLLECTION BOX - BLUE BOX", "address": {"city": "SAN JUAN", "state": "PR", "street": "1279 AVE JESUS T PINERO", "postcode": "00920"}}},
{"geometry": {"type": "Point", "coordinates": [-66.0894639432, 18.4027975385]}, "type": "Feature", "properties": {"collection_times": [{"days": "Mon-Fri", "time": "2:30pm"}, {"days": "Sat", "time": "1:30pm"}, {"days": "Sun", "time": "Closed"}], "id": "0092000017", "name": "USPS COLLECTION BOX - BLUE BOX", "address": {"city": "SAN JUAN", "state": "PR", "street": "1435 AVE JESUS T PINERO", "postcode": "00920"}}},
{"geometry": {"type": "Point", "coordinates": [-66.10143152, 18.395326745]}, "type": "Feature", "properties": {"collection_times": [{"days": "Mon-Fri", "time": "2:30pm"}, {"days": "Sat", "time": "1:30pm"}, {"days": "Sun", "time": "Closed"}], "id": "0092000020", "name": "USPS COLLECTION BOX - BLUE BOX", "address": {"city": "SAN JUAN", "state": "PR", "street": "1645 AVE JESUS T PINERO", "postcode": "00920"}}},
{"geometry": {"type": "Point", "coordinates": [-66.0895119523, 18.4201373669]}, "type": "Feature", "properties": {"collection_times": [{"days": "Mon-Sat", "time": "9:15am"}, {"days": "Sun", "time": "Closed"}], "id": "0092000037", "name": "USPS COLLECTION BOX - BLUE BOX", "address": {"city": "SAN JUAN", "state": "PR", "street": "411 MARGINAL JF KENNEDY", "postcode": "00920"}}},
{"geometry": {"type": "Point", "coordinates": [-66.0861054757, 18.4162341202]}, "type": "Feature", "properties": {"collection_times": [{"days": "Mon-Sat", "time": "9:00am"}, {"days": "Sun", "time": "Closed"}], "id": "0092000040", "name": "USPS COLLECTION BOX - BLUE BOX", "address": {"city": "SAN JUAN", "state": "PR", "street": "322 CALLE 7 NE", "postcode": "00920"}}},
{"geometry": {"type": "Point", "coordinates": [-66.098768153, 18.41244002]}, "type": "Feature", "properties": {"collection_times": [{"days": "Mon-Fri", "time": "6:00pm"}, {"days": "Sat", "time": "3:00pm"}, {"days": "Sun", "time": "Closed"}], "id": "0092000042", "name": "USPS COLLECTION BOX - PO LOBBY", "address": {"city": "SAN JUAN", "state": "PR", "street": "1505 AVE FD ROOSEVELT", "postcode": "00920"}}},
{"geometry": {"type": "Point", "coordinates": [-66.0785644105, 18.401137996]}, "type": "Feature", "properties": {"collection_times": [{"days": "Mon-Fri", "time": "2:30pm"}, {"days": "Sat", "time": "1:30pm"}, {"days": "Sun", "time": "Closed"}], "id": "0092100004", "name": "USPS COLLECTION BOX - BLUE BOX", "address": {"city": "SAN JUAN", "state": "PR", "street": "1128 AVE AMERICO MIRANDA", "postcode": "00921"}}},
{"geometry": {"type": "Point", "coordinates": [-66.085899998, 18.398824231]}, "type": "Feature", "properties": {"collection_times": [{"days": "Mon-Fri", "time": "2:30pm"}, {"days": "Sat", "time": "1:30pm"}, {"days": "Sun", "time": "Closed"}], "id": "0092100005", "name": "USPS COLLECTION BOX - BLUE BOX", "address": {"city": "SAN JUAN", "state": "PR", "street": "1304 AVE AMERICO MIRANDA", "postcode": "00921"}}},
{"geometry": {"type": "Point", "coordinates": [-66.0792055779, 18.3973124557]}, "type": "Feature", "properties": {"collection_times": [{"days": "Mon-Fri", "time": "2:00pm"}, {"days": "Sat", "time": "1:00pm"}, {"days": "Sun", "time": "Closed"}], "id": "0092100007", "name": "USPS COLLECTION BOX - BLUE BOX", "address": {"city": "SAN JUAN", "state": "PR", "street": "T3 CALLE 1", "postcode": "00921"}}},
{"geometry": {"type": "Point", "coordinates": [-66.0744647064, 18.4003954659]}, "type": "Feature", "properties": {"collection_times": [{"days": "Mon-Fri", "time": "2:30pm"}, {"days": "Sat", "time": "1:30pm"}, {"days": "Sun", "time": "Closed"}], "id": "0092100018", "name": "USPS COLLECTION BOX - BLUE BOX", "address": {"city": "SAN JUAN", "state": "PR", "street": "1000 AVE AMERICO MIRANDA", "postcode": "00921"}}},
{"geometry": {"type": "Point", "coordinates": [-66.0950184056, 18.387864216]}, "type": "Feature", "properties": {"collection_times": [{"days": "Mon-Fri", "time": "2:00pm"}, {"days": "Sat", "time": "1:00pm"}, {"days": "Sun", "time": "Closed"}], "id": "0092100036", "name": "USPS COLLECTION BOX - BLUE BOX", "address": {"city": "SAN JUAN", "state": "PR", "street": "1320 AVE SAN ALFONSO", "postcode": "00921"}}},
{"geometry": {"type": "Point", "coordinates": [-66.0914500237, 18.3942987491]}, "type": "Feature", "properties": {"collection_times": [{"days": "Mon-Fri", "time": "2:00pm"}, {"days": "Sat", "time": "1:00pm"}, {"days": "Sun", "time": "Closed"}], "id": "0092100042", "name": "USPS COLLECTION BOX - BLUE BOX", "address": {"city": "SAN JUAN", "state": "PR", "street": "877 AVE SAN PATRICIO", "postcode": "00921"}}},
{"geometry": {"type": "Point", "coordinates": [-66.047903854, 18.398424912]}, "type": "Feature", "properties": {"collection_times": [{"days": "Mon-Fri", "time": "2:00pm"}, {"days": "Sat", "time": "1:00pm"}, {"days": "Sun", "time": "Closed"}], "id": "0092100045", "name": "USPS COLLECTION BOX - BLUE BOX", "address": {"city": "SAN JUAN", "state": "PR", "street": "136 AVE DE DIEGO", "postcode": "00921"}}},
{"geometry": {"type": "Point", "coordinates": [-66.09222112, 18.401663226]}, "type": "Feature", "properties": {"collection_times": [{"days": "Mon-Fri", "time": "3:00pm"}, {"days": "Sat", "time": "2:00pm"}, {"days": "Sun", "time": "Closed"}], "id": "0092100046", "name": "USPS COLLECTION BOX - BLUE BOX", "address": {"city": "SAN JUAN", "state": "PR", "street": "1900 AVE JESUS T PINERO", "postcode": "00921"}}},
{"geometry": {"type": "Point", "coordinates": [-66.0902287657, 18.3932635808]}, "type": "Feature", "properties": {"collection_times": [{"days": "Mon-Fri", "time": "10:00am"}, {"days": "Sat", "time": "9:00am"}, {"days": "Sun", "time": "Closed"}], "id": "0092100047", "name": "USPS COLLECTION BOX - BLUE BOX", "address": {"city": "SAN JUAN", "state": "PR", "street": "1 CENTRO MEDICO METROPOLITANO", "postcode": "00921"}}},
{"geometry": {"type": "Point", "coordinates": [-66.0246358441, 18.4082797964]}, "type": "Feature", "properties": {"collection_times": [{"days": "Mon-Fri", "time": "10:00am"}, {"days": "Sat", "time": "9:00am"}, {"days": "Sun", "time": "Closed"}], "id": "0092100049", "name": "USPS COLLECTION BOX - BLUE BOX", "address": {"city": "SAN JUAN", "state": "PR", "street": "1 CENTRO MEDICO METROPOLITANO", "postcode": "00921"}}},
{"geometry": {"type": "Point", "coordinates": [-66.0246358441, 18.4082797964]}, "type": "Feature", "properties": {"collection_times": [{"days": "Mon-Fri", "time": "10:15am"}, {"days": "Sat", "time": "9:15am"}, {"days": "Sun", "time": "Closed"}], "id": "0092100050", "name": "USPS COLLECTION BOX - BLUE BOX", "address": {"city": "SAN JUAN", "state": "PR", "street": "10 CALLE CASIA", "postcode": "00921"}}},
{"geometry": {"type": "Point", "coordinates": [-66.0353589513, 18.4043223278]}, "type": "Feature", "properties": {"collection_times": [{"days": "Mon-Fri", "time": "12:15pm"}, {"days": "Sat", "time": "11:15am"}, {"days": "Sun", "time": "Closed"}], "id": "0092300014", "name": "USPS COLLECTION BOX - BLUE BOX", "address": {"city": "SAN JUAN", "state": "PR", "street": "811 CALLE JOSE B ACEVEDO", "postcode": "00923"}}},
{"geometry": {"type": "Point", "coordinates": [-66.013096036, 18.388494436]}, "type": "Feature", "properties": {"collection_times": [{"days": "Mon-Fri", "time": "12:15pm"}, {"days": "Sat", "time": "11:15am"}, {"days": "Sun", "time": "Closed"}], "id": "0092400020", "name": "USPS COLLECTION BOX - BLUE BOX", "address": {"city": "SAN JUAN", "state": "PR", "street": "49 AVE 65 INFANTERIA", "postcode": "00924"}}},
{"geometry": {"type": "Point", "coordinates": [-66.0279432321, 18.3954362111]}, "type": "Feature", "properties": {"collection_times": [{"days": "Mon-Fri", "time": "12:30pm"}, {"days": "Sat", "time": "11:30am"}, {"days": "Sun", "time": "Closed"}], "id": "0092400023", "name": "USPS COLLECTION BOX - BLUE BOX", "address": {"city": "SAN JUAN", "state": "PR", "street": "570 CALLE NAPOLES", "postcode": "00924"}}},
{"geometry": {"type": "Point", "coordinates": [-66.013096036, 18.388494436]}, "type": "Feature", "properties": {"collection_times": [{"days": "Mon-Fri", "time": "12:30pm"}, {"days": "Sat", "time": "11:30am"}, {"days": "Sun", "time": "Closed"}], "id": "0092400026", "name": "USPS COLLECTION BOX - BLUE BOX", "address": {"city": "SAN JUAN", "state": "PR", "street": "1306 AVE MONTE CARLO", "postcode": "00924"}}},
{"geometry": {"type": "Point", "coordinates": [-66.010570005, 18.397317447]}, "type": "Feature", "properties": {"collection_times": [{"days": "Mon-Fri", "time": "5:00pm"}, {"days": "Sat", "time": "3:00pm"}, {"days": "Sun", "time": "Closed"}], "id": "0092400033", "name": "USPS COLLECTION BOX - BLUE BOX", "address": {"city": "SAN JUAN", "state": "PR", "street": "100 CALLE ALONDRA", "postcode": "00924"}}},
{"geometry": {"type": "Point", "coordinates": [-65.99500732, 18.402442815]}, "type": "Feature", "properties": {"collection_times": [{"days": "Mon-Fri", "time": "12:45pm"}, {"days": "Sat", "time": "11:45am"}, {"days": "Sun", "time": "Closed"}], "id": "0092400047", "name": "USPS COLLECTION BOX - BLUE BOX", "address": {"city": "SAN JUAN", "state": "PR", "street": "1194 CALLE ALEJO CRUZADO", "postcode": "00924"}}},
{"geometry": {"type": "Point", "coordinates": [-66.010977905, 18.414928889]}, "type": "Feature", "properties": {"collection_times": [{"days": "Mon-Fri", "time": "12:45pm"}, {"days": "Sat", "time": "11:45am"}, {"days": "Sun", "time": "Closed"}], "id": "0092400049", "name": "USPS COLLECTION BOX - BLUE BOX", "address": {"city": "SAN JUAN", "state": "PR", "street": "929 CALLE DEMETRIO O DALY", "postcode": "00924"}}},
{"geometry": {"type": "Point", "coordinates": [-66.007907408, 18.40466691]}, "type": "Feature", "properties": {"collection_times": [{"days": "Mon-Fri", "time": "12:45pm"}, {"days": "Sat", "time": "11:45am"}, {"days": "Sun", "time": "Closed"}], "id": "0092400050", "name": "USPS COLLECTION BOX - BLUE BOX", "address": {"city": "SAN JUAN", "state": "PR", "street": "926 CALLE EIDER", "postcode": "00924"}}},
{"geometry": {"type": "Point", "coordinates": [-66.010570005, 18.397317447]}, "type": "Feature", "properties": {"collection_times": [{"days": "Mon-Fri", "time": "4:30pm"}, {"days": "Sat", "time": "12:00pm"}, {"days": "Sun", "time": "Closed"}], "id": "0092400051", "name": "USPS COLLECTION BOX - PO LOBBY", "address": {"city": "SAN JUAN", "state": "PR", "street": "100 CALLE ALONDRA", "postcode": "00924"}}},
{"geometry": {"type": "Point", "coordinates": [-66.0560730814, 18.400099369]}, "type": "Feature", "properties": {"collection_times": [{"days": "Mon-Fri", "time": "12:00pm"}, {"days": "Sat", "time": "11:00am"}, {"days": "Sun", "time": "Closed"}], "id": "0092500004", "name": "USPS COLLECTION BOX - BLUE BOX", "address": {"city": "SAN JUAN", "state": "PR", "street": "1103 AVE MUNOZ RIVERA", "postcode": "00925"}}},
{"geometry": {"type": "Point", "coordinates": [-66.0484161325, 18.3976419073]}, "type": "Feature", "properties": {"collection_times": [{"days": "Mon-Fri", "time": "12:00pm"}, {"days": "Sat", "time": "11:00am"}, {"days": "Sun", "time": "Closed"}], "id": "0092500020", "name": "USPS COLLECTION BOX - BLUE BOX", "address": {"city": "SAN JUAN", "state": "PR", "street": "108 CALLE ARZUAGA", "postcode": "00925"}}},
{"geometry": {"type": "Point", "coordinates": [-66.050205104, 18.377844678]}, "type": "Feature", "properties": {"collection_times": [{"days": "Mon-Fri", "time": "5:00pm"}, {"days": "Sat", "time": "3:00pm"}, {"days": "Sun", "time": "Closed"}], "id": "0092600001", "name": "USPS COLLECTION BOX - BLUE BOX", "address": {"city": "SAN JUAN", "state": "PR", "street": "369 CALLE SAN CLAUDIO", "postcode": "00926"}}},
{"geometry": {"type": "Point", "coordinates": [-66.066668652, 18.372252194]}, "type": "Feature", "properties": {"collection_times": [{"days": "Mon-Fri", "time": "12:15pm"}, {"days": "Sat", "time": "11:15am"}, {"days": "Sun", "time": "Closed"}], "id": "0092600002", "name": "USPS COLLECTION BOX - BLUE BOX", "address": {"city": "SAN JUAN", "state": "PR", "street": "1760 CALLE PARANA", "postcode": "00926"}}},
{"geometry": {"type": "Point", "coordinates": [-66.076145127, 18.366423223]}, "type": "Feature", "properties": {"collection_times": [{"days": "Mon-Fri", "time": "12:45pm"}, {"days": "Sat", "time": "11:45am"}, {"days": "Sun", "time": "Closed"}], "id": "0092600004", "name": "USPS COLLECTION BOX - BLUE BOX", "address": {"city": "SAN JUAN", "state": "PR", "street": "9410 AVE LOS ROMEROS", "postcode": "00926"}}},
{"geometry": {"type": "Point", "coordinates": [-66.0552080213, 18.3703914719]}, "type": "Feature", "properties": {"collection_times": [{"days": "Mon-Fri", "time": "1:15pm"}, {"days": "Sat", "time": "12:15pm"}, {"days": "Sun", "time": "Closed"}], "id": "0092600009", "name": "USPS COLLECTION BOX - BLUE BOX", "address": {"city": "SAN JUAN", "state": "PR", "street": "1 LAS CUMBRES SHOPP CTR STE 17", "postcode": "00926"}}},
{"geometry": {"type": "Point", "coordinates": [-66.0552080213, 18.3703914719]}, "type": "Feature", "properties": {"collection_times": [{"days": "Mon-Fri", "time": "1:15pm"}, {"days": "Sat", "time": "12:15pm"}, {"days": "Sun", "time": "Closed"}], "id": "0092600011", "name": "USPS COLLECTION BOX - BLUE BOX", "address": {"city": "SAN JUAN", "state": "PR", "street": "RR 37 BOX 3144B", "postcode": "00926"}}},
{"geometry": {"type": "Point", "coordinates": [-66.0552080213, 18.3703914719]}, "type": "Feature", "properties": {"collection_times": [{"days": "Mon-Fri", "time": "12:30pm"}, {"days": "Sat", "time": "11:30am"}, {"days": "Sun", "time": "Closed"}], "id": "0092600012", "name": "USPS COLLECTION BOX - BLUE BOX", "address": {"city": "SAN JUAN", "state": "PR", "street": "251 AVE WINSTON CHURCHILL", "postcode": "00926"}}},
{"geometry": {"type": "Point", "coordinates": [-66.0552080213, 18.3703914719]}, "type": "Feature", "properties": {"collection_times": [{"days": "Mon-Fri", "time": "12:30pm"}, {"days": "Sat", "time": "11:30am"}, {"days": "Sun", "time": "Closed"}], "id": "0092600021", "name": "USPS COLLECTION BOX - BLUE BOX", "address": {"city": "SAN JUAN", "state": "PR", "street": "300 AVE DONA FELISA RINCON DE", "postcode": "00926"}}},
{"geometry": {"type": "Point", "coordinates": [-66.036857921, 18.37059492]}, "type": "Feature", "properties": {"collection_times": [{"days": "Mon-Fri", "time": "11:45am"}, {"days": "Sat", "time": "10:45am"}, {"days": "Sun", "time": "Closed"}], "id": "0092600023", "name": "USPS COLLECTION BOX - BLUE BOX", "address": {"city": "SAN JUAN", "state": "PR", "street": "19 CALLE ACUARIO", "postcode": "00926"}}},
{"geometry": {"type": "Point", "coordinates": [-66.0858805416, 18.3554475194]}, "type": "Feature", "properties": {"collection_times": [{"days": "Mon-Fri", "time": "1:00pm"}, {"days": "Sat", "time": "12:00pm"}, {"days": "Sun", "time": "Closed"}], "id": "0092600030", "name": "USPS COLLECTION BOX - BLUE BOX", "address": {"city": "SAN JUAN", "state": "PR", "street": "G1 CALLE 1", "postcode": "00926"}}},
{"geometry": {"type": "Point", "coordinates": [-66.0594637701, 18.3474841045]}, "type": "Feature", "properties": {"collection_times": [{"days": "Mon-Fri", "time": "1:00pm"}, {"days": "Sat", "time": "12:00pm"}, {"days": "Sun", "time": "Closed"}], "id": "0092600032", "name": "USPS COLLECTION BOX - BLUE BOX", "address": {"city": "SAN JUAN", "state": "PR", "street": "100 CARR 1", "postcode": "00926"}}},
{"geometry": {"type": "Point", "coordinates": [-66.066430063, 18.373826562]}, "type": "Feature", "properties": {"collection_times": [{"days": "Mon-Fri", "time": "12:15pm"}, {"days": "Sat", "time": "11:15am"}, {"days": "Sun", "time": "Closed"}], "id": "0092600036", "name": "USPS COLLECTION BOX - BLUE BOX", "address": {"city": "SAN JUAN", "state": "PR", "street": "1695 CALLE PARANA", "postcode": "00926"}}},
{"geometry": {"type": "Point", "coordinates": [-66.0356304135, 18.3943227544]}, "type": "Feature", "properties": {"collection_times": [{"days": "Mon-Fri", "time": "11:00am"}, {"days": "Sat", "time": "10:00am"}, {"days": "Sun", "time": "Closed"}], "id": "0092600039", "name": "USPS COLLECTION BOX - BLUE BOX", "address": {"city": "SAN JUAN", "state": "PR", "street": "1202 CALLE 13", "postcode": "00926"}}},
{"geometry": {"type": "Point", "coordinates": [-66.0270793222, 18.3821196891]}, "type": "Feature", "properties": {"collection_times": [{"days": "Mon-Fri", "time": "11:00am"}, {"days": "Sat", "time": "10:00am"}, {"days": "Sun", "time": "Closed"}], "id": "0092600051", "name": "USPS COLLECTION BOX - BLUE BOX", "address": {"city": "SAN JUAN", "state": "PR", "street": "D1 CALLE FRONTERA", "postcode": "00926"}}},
{"geometry": {"type": "Point", "coordinates": [-66.052513892, 18.379096962]}, "type": "Feature", "properties": {"collection_times": [{"days": "Mon-Fri", "time": "4:30pm"}, {"days": "Sat", "time": "12:00pm"}, {"days": "Sun", "time": "Closed"}], "id": "0092600053", "name": "USPS COLLECTION BOX - PO LOBBY", "address": {"city": "SAN JUAN", "state": "PR", "street": "369 CALLE SAN CLAUDIO FRNT", "postcode": "00926"}}},
{"geometry": {"type": "Point", "coordinates": [-66.065490006, 18.39497999]}, "type": "Feature", "properties": {"collection_times": [{"days": "Mon-Fri", "time": "10:45am"}, {"days": "Sat", "time": "9:45am"}, {"days": "Sun", "time": "Closed"}], "id": "0092700001", "name": "USPS COLLECTION BOX - BLUE BOX", "address": {"city": "SAN JUAN", "state": "PR", "street": "1056 AVE MUNOZ RIVERA", "postcode": "00927"}}},
{"geometry": {"type": "Point", "coordinates": [-66.069134714, 18.381448403]}, "type": "Feature", "properties": {"collection_times": [{"days": "Mon-Fri", "time": "1:15pm"}, {"days": "Sat", "time": "12:15pm"}, {"days": "Sun", "time": "Closed"}], "id": "0092700002", "name": "USPS COLLECTION BOX - BLUE BOX", "address": {"city": "SAN JUAN", "state": "PR", "street": "1608 CALLE BORI", "postcode": "00927"}}},
{"geometry": {"type": "Point", "coordinates": [-66.0819437133, 18.3853498576]}, "type": "Feature", "properties": {"collection_times": [{"days": "Mon-Fri", "time": "1:45pm"}, {"days": "Sat", "time": "12:45pm"}, {"days": "Sun", "time": "Closed"}], "id": "0092700005", "name": "USPS COLLECTION BOX - BLUE BOX", "address": {"city": "SAN JUAN", "state": "PR", "street": "201 AVE DE DIEGO STE 10", "postcode": "00927"}}},
{"geometry": {"type": "Point", "coordinates": [-66.075026839, 18.3824040622]}, "type": "Feature", "properties": {"collection_times": [{"days": "Mon-Fri", "time": "1:45pm"}, {"days": "Sat", "time": "12:45pm"}, {"days": "Sun", "time": "Closed"}], "id": "0092700007", "name": "USPS COLLECTION BOX - BLUE BOX", "address": {"city": "SAN JUAN", "state": "PR", "street": "87 AVE DE DIEGO", "postcode": "00927"}}},
{"geometry": {"type": "Point", "coordinates": [-66.085890011, 18.370674996]}, "type": "Feature", "properties": {"collection_times": [{"days": "Mon-Fri", "time": "10:15am"}, {"days": "Sat", "time": "9:15am"}, {"days": "Sun", "time": "Closed"}], "id": "0092700009", "name": "USPS COLLECTION BOX - BLUE BOX", "address": {"city": "SAN JUAN", "state": "PR", "street": "973 CALLE GUTEMBERG", "postcode": "00927"}}},
{"geometry": {"type": "Point", "coordinates": [-66.0687861635, 18.3928942553]}, "type": "Feature", "properties": {"collection_times": [{"days": "Mon-Fri", "time": "1:15pm"}, {"days": "Sat", "time": "12:15pm"}, {"days": "Sun", "time": "Closed"}], "id": "0092700015", "name": "USPS COLLECTION BOX - BLUE BOX", "address": {"city": "SAN JUAN", "state": "PR", "street": "2 CALLE SAN ROBERTO", "postcode": "00927"}}},
{"geometry": {"type": "Point", "coordinates": [-66.065239118, 18.4066501964]}, "type": "Feature", "properties": {"collection_times": [{"days": "Mon-Fri", "time": "10:30am"}, {"days": "Sat", "time": "9:30am"}, {"days": "Sun", "time": "Closed"}], "id": "0092700018", "name": "USPS COLLECTION BOX - BLUE BOX", "address": {"city": "SAN JUAN", "state": "PR", "street": "300 CALLE CLEMSON", "postcode": "00927"}}},
{"geometry": {"type": "Point", "coordinates": [-66.061075303, 18.402931556]}, "type": "Feature", "properties": {"collection_times": [{"days": "Mon-Fri", "time": "10:30am"}, {"days": "Sat", "time": "9:30am"}, {"days": "Sun", "time": "Closed"}], "id": "0092700020", "name": "USPS COLLECTION BOX - BLUE BOX", "address": {"city": "SAN JUAN", "state": "PR", "street": "912 CALLE HARVARD", "postcode": "00927"}}},
{"geometry": {"type": "Point", "coordinates": [-66.0695527166, 18.3917068448]}, "type": "Feature", "properties": {"collection_times": [{"days": "Mon-Fri", "time": "1:45pm"}, {"days": "Sat", "time": "12:45pm"}, {"days": "Sun", "time": "Closed"}], "id": "0092700023", "name": "USPS COLLECTION BOX - BLUE BOX", "address": {"city": "SAN JUAN", "state": "PR", "street": "1131 CALLE 5", "postcode": "00927"}}},
{"geometry": {"type": "Point", "coordinates": [-66.122890008, 18.418899984]}, "type": "Feature", "properties": {"collection_times": [{"days": "Mon-Sat", "time": "10:30am"}, {"days": "Sun", "time": "Closed"}], "id": "0093400004", "name": "USPS COLLECTION BOX - BLUE BOX", "address": {"city": "FORT BUCHANAN", "state": "PR", "street": "689 S TERMINAL RD", "postcode": "00934"}}},
{"geometry": {"type": "Point", "coordinates": [-66.0761203911, 18.4175570915]}, "type": "Feature", "properties": {"collection_times": [{"days": "Mon-Fri", "time": "7:00pm"}, {"days": "Sat", "time": "5:00pm"}, {"days": "Sun", "time": "Closed"}], "id": "0093600007", "name": "USPS COLLECTION BOX - BLUE BOX", "address": {"city": "SAN JUAN", "state": "PR", "street": "585 AVE FD ROOSEVELT", "postcode": "00936"}}},
{"geometry": {"type": "Point", "coordinates": [-66.0761203911, 18.4175570915]}, "type": "Feature", "properties": {"collection_times": [{"days": "Mon-Fri", "time": "7:00pm"}, {"days": "Sat", "time": "5:00pm"}, {"days": "Sun", "time": "Closed"}], "id": "0093600009", "name": "USPS COLLECTION BOX - BLUE BOX", "address": {"city": "SAN JUAN", "state": "PR", "street": "585 AVE FD ROOSEVELT", "postcode": "00936"}}},
{"geometry": {"type": "Point", "coordinates": [-66.0761203911, 18.4175570915]}, "type": "Feature", "properties": {"collection_times": [{"days": "Mon-Fri", "time": "7:00pm"}, {"days": "Sat", "time": "5:00pm"}, {"days": "Sun", "time": "Closed"}], "id": "0093600011", "name": "USPS COLLECTION BOX - BLUE BOX", "address": {"city": "SAN JUAN", "state": "PR", "street": "585 AVE FD ROOSEVELT", "postcode": "00936"}}},
{"geometry": {"type": "Point", "coordinates": [-66.0761203911, 18.4175570915]}, "type": "Feature", "properties": {"collection_times": [{"days": "Mon-Fri", "time": "7:00pm"}, {"days": "Sat", "time": "5:00pm"}, {"days": "Sun", "time": "Closed"}], "id": "0093600015", "name": "USPS COLLECTION BOX - BLUE BOX", "address": {"city": "SAN JUAN", "state": "PR", "street": "585 AVE FD ROOSEVELT", "postcode": "00936"}}},
{"geometry": {"type": "Point", "coordinates": [-66.0761203911, 18.4175570915]}, "type": "Feature", "properties": {"collection_times": [{"days": "Mon-Fri", "time": "7:00pm"}, {"days": "Sat", "time": "5:00pm"}, {"days": "Sun", "time": "Closed"}], "id": "0093600018", "name": "USPS COLLECTION BOX - BLUE BOX", "address": {"city": "SAN JUAN", "state": "PR", "street": "585 AVE FD ROOSEVELT", "postcode": "00936"}}},
{"geometry": {"type": "Point", "coordinates": [-66.0761203911, 18.4175570915]}, "type": "Feature", "properties": {"collection_times": [{"days": "Mon-Fri", "time": "7:00pm"}, {"days": "Sat", "time": "5:00pm"}, {"days": "Sun", "time": "Closed"}], "id": "0093600020", "name": "USPS COLLECTION BOX - APC", "address": {"city": "SAN JUAN", "state": "PR", "street": "585 AVE FD ROOSEVELT", "postcode": "00936"}}},
{"geometry": {"type": "Point", "coordinates": [-66.0761203911, 18.4175570915]}, "type": "Feature", "properties": {"collection_times": [{"days": "Mon-Fri", "time": "7:00pm"}, {"days": "Sat", "time": "5:00pm"}, {"days": "Sun", "time": "Closed"}], "id": "0093600021", "name": "USPS COLLECTION BOX - PO LOBBY", "address": {"city": "SAN JUAN", "state": "PR", "street": "585 AVE FD ROOSEVELT", "postcode": "00936"}}},
{"geometry": {"type": "Point", "coordinates": [-66.169152412, 18.446101233]}, "type": "Feature", "properties": {"collection_times": [{"days": "Mon-Sat", "time": "8:00am"}, {"days": "Sun", "time": "Closed"}], "id": "0094900000", "name": "USPS COLLECTION BOX - BLUE BOX", "address": {"city": "TOA BAJA", "state": "PR", "street": "2682 PASEO ANON", "postcode": "00949"}}},
{"geometry": {"type": "Point", "coordinates": [-66.2161550452, 18.4312095445]}, "type": "Feature", "properties": {"collection_times": [{"days": "Mon-Sat", "time": "9:15am"}, {"days": "Sun", "time": "Closed"}], "id": "0094900017", "name": "USPS COLLECTION BOX - BLUE BOX", "address": {"city": "TOA BAJA", "state": "PR", "street": "BM24 CALLE DR E ANTIQUE", "postcode": "00949"}}},
{"geometry": {"type": "Point", "coordinates": [-66.2161550452, 18.4312095445]}, "type": "Feature", "properties": {"collection_times": [{"days": "Mon-Sat", "time": "9:45am"}, {"days": "Sun", "time": "Closed"}], "id": "0094900021", "name": "USPS COLLECTION BOX - BLUE BOX", "address": {"city": "TOA BAJA", "state": "PR", "street": "SA1 VIA DEL SUR", "postcode": "00949"}}},
{"geometry": {"type": "Point", "coordinates": [-66.187013539, 18.459668798]}, "type": "Feature", "properties": {"collection_times": [{"days": "Mon-Sat", "time": "8:15am"}, {"days": "Sun", "time": "Closed"}], "id": "0094900023", "name": "USPS COLLECTION BOX - BLUE BOX", "address": {"city": "TOA BAJA", "state": "PR", "street": "3556 PASEO CONDE", "postcode": "00949"}}},
{"geometry": {"type": "Point", "coordinates": [-66.2161550452, 18.4312095445]}, "type": "Feature", "properties": {"collection_times": [{"days": "Mon-Sat", "time": "8:30am"}, {"days": "Sun", "time": "Closed"}], "id": "0094900026", "name": "USPS COLLECTION BOX - BLUE BOX", "address": {"city": "TOA BAJA", "state": "PR", "street": "100 AVE LUIS MUNOZ RIVERA", "postcode": "00949"}}},
{"geometry": {"type": "Point", "coordinates": [-66.191636849, 18.4357707696]}, "type": "Feature", "properties": {"collection_times": [{"days": "Mon-Sat", "time": "8:45am"}, {"days": "Sun", "time": "Closed"}], "id": "0094900029", "name": "USPS COLLECTION BOX - BLUE BOX", "address": {"city": "TOA BAJA", "state": "PR", "street": "105 CARR 2", "postcode": "00949"}}},
{"geometry": {"type": "Point", "coordinates": [-66.2161550452, 18.4312095445]}, "type": "Feature", "properties": {"collection_times": [{"days": "Mon-Sat", "time": "8:45am"}, {"days": "Sun", "time": "Closed"}], "id": "0094900033", "name": "USPS COLLECTION BOX - BLUE BOX", "address": {"city": "TOA BAJA", "state": "PR", "street": "1A8 AVE DON PELAYO", "postcode": "00949"}}},
{"geometry": {"type": "Point", "coordinates": [-66.191636849, 18.4357707696]}, "type": "Feature", "properties": {"collection_times": [{"days": "Mon-Sat", "time": "8:15am"}, {"days": "Sun", "time": "Closed"}], "id": "0094900042", "name": "USPS COLLECTION BOX - BLUE BOX", "address": {"city": "TOA BAJA", "state": "PR", "street": "1001 VIA PLAYERA", "postcode": "00949"}}},
{"geometry": {"type": "Point", "coordinates": [-66.191636849, 18.4357707696]}, "type": "Feature", "properties": {"collection_times": [{"days": "Mon-Sat", "time": "8:30am"}, {"days": "Sun", "time": "Closed"}], "id": "0094900043", "name": "USPS COLLECTION BOX - BLUE BOX", "address": {"city": "TOA BAJA", "state": "PR", "street": "71 BRUNO CRUZ BLVD", "postcode": "00949"}}},
{"geometry": {"type": "Point", "coordinates": [-66.185630469, 18.455509603]}, "type": "Feature", "properties": {"collection_times": [{"days": "Mon-Sat", "time": "8:15am"}, {"days": "Sun", "time": "Closed"}], "id": "0094900044", "name": "USPS COLLECTION BOX - BLUE BOX", "address": {"city": "TOA BAJA", "state": "PR", "street": "3359 PASEO COLINA", "postcode": "00949"}}},
{"geometry": {"type": "Point", "coordinates": [-66.191636849, 18.4357707696]}, "type": "Feature", "properties": {"collection_times": [{"days": "Mon-Sat", "time": "9:00am"}, {"days": "Sun", "time": "Closed"}], "id": "0094900045", "name": "USPS COLLECTION BOX - BLUE BOX", "address": {"city": "TOA BAJA", "state": "PR", "street": "N1 CALLE ROSA IMPERIAL", "postcode": "00949"}}},
{"geometry": {"type": "Point", "coordinates": [-66.191640006, 18.435759995]}, "type": "Feature", "properties": {"collection_times": [{"days": "Mon-Fri", "time": "5:00pm"}, {"days": "Sat", "time": "1:00pm"}, {"days": "Sun", "time": "Closed"}], "id": "0094900046", "name": "USPS COLLECTION BOX - BLUE BOX", "address": {"city": "TOA BAJA", "state": "PR", "street": "600 CALLE DR HERNAN CORTES STE 4", "postcode": "00949"}}},
{"geometry": {"type": "Point", "coordinates": [-66.191640006, 18.435759995]}, "type": "Feature", "properties": {"collection_times": [{"days": "Mon-Fri", "time": "5:00pm"}, {"days": "Sat", "time": "1:00pm"}, {"days": "Sun", "time": "Closed"}], "id": "0094900047", "name": "USPS COLLECTION BOX - PO LOBBY", "address": {"city": "TOA BAJA", "state": "PR", "street": "600 CALLE DR HERNAN CORTES STE 4", "postcode": "00949"}}},
{"geometry": {"type": "Point", "coordinates": [-66.183183342, 18.476013325]}, "type": "Feature", "properties": {"collection_times": [{"days": "Mon-Sat", "time": "9:15am"}, {"days": "Sun", "time": "Closed"}], "id": "0095200001", "name": "USPS COLLECTION BOX - BLUE BOX", "address": {"city": "TOA BAJA", "state": "PR", "street": "100 CARR 866", "postcode": "00952"}}},
{"geometry": {"type": "Point", "coordinates": [-66.183183342, 18.476013325]}, "type": "Feature", "properties": {"collection_times": [{"days": "Mon-Sat", "time": "9:15am"}, {"days": "Sun", "time": "Closed"}], "id": "0095200002", "name": "USPS COLLECTION BOX - PO LOBBY", "address": {"city": "TOA BAJA", "state": "PR", "street": "100 CARR 866", "postcode": "00952"}}},
{"geometry": {"type": "Point", "coordinates": [-66.246266482, 18.362445264]}, "type": "Feature", "properties": {"collection_times": [{"days": "Mon-Fri", "time": "3:00pm"}, {"days": "Sat", "time": "8:00am"}, {"days": "Sun", "time": "Closed"}], "id": "0095300000", "name": "USPS COLLECTION BOX - BLUE BOX", "address": {"city": "TOA ALTA", "state": "PR", "street": "70 CALLE MUNOZ RIVERA", "postcode": "00953"}}},
{"geometry": {"type": "Point", "coordinates": [-66.2464206075, 18.3623995056]}, "type": "Feature", "properties": {"collection_times": [{"days": "Mon-Sat", "time": "8:00am"}, {"days": "Sun", "time": "Closed"}], "id": "0095300004", "name": "USPS COLLECTION BOX - BLUE BOX", "address": {"city": "TOA ALTA", "state": "PR", "street": "N15 CALLE 18", "postcode": "00953"}}},
{"geometry": {"type": "Point", "coordinates": [-66.2464206075, 18.3623995056]}, "type": "Feature", "properties": {"collection_times": [{"days": "Mon-Sat", "time": "8:00am"}, {"days": "Sun", "time": "Closed"}], "id": "0095300006", "name": "USPS COLLECTION BOX - BLUE BOX", "address": {"city": "TOA ALTA", "state": "PR", "street": "24 CALLE UCAR", "postcode": "00953"}}},
{"geometry": {"type": "Point", "coordinates": [-66.2464206075, 18.3623995056]}, "type": "Feature", "properties": {"collection_times": [{"days": "Mon-Sat", "time": "8:00am"}, {"days": "Sun", "time": "Closed"}], "id": "0095300007", "name": "USPS COLLECTION BOX - BLUE BOX", "address": {"city": "TOA ALTA", "state": "PR", "street": "500 AVE NORFE", "postcode": "00953"}}},
{"geometry": {"type": "Point", "coordinates": [-66.246266482, 18.362445264]}, "type": "Feature", "properties": {"collection_times": [{"days": "Mon-Fri", "time": "3:00pm"}, {"days": "Sat", "time": "8:00am"}, {"days": "Sun", "time": "Closed"}], "id": "0095300009", "name": "USPS COLLECTION BOX - PO LOBBY", "address": {"city": "TOA ALTA", "state": "PR", "street": "70 CALLE MUNOZ RIVERA", "postcode": "00953"}}},
{"geometry": {"type": "Point", "coordinates": [-66.160530016, 18.366159976]}, "type": "Feature", "properties": {"collection_times": [{"days": "Mon-Fri", "time": "2:15pm"}, {"days": "Sat", "time": "1:15pm"}, {"days": "Sun", "time": "Closed"}], "id": "0095600005", "name": "USPS COLLECTION BOX - BLUE BOX", "address": {"city": "BAYAMON", "state": "PR", "street": "WE36 AVE HOSTOS", "postcode": "00956"}}},
{"geometry": {"type": "Point", "coordinates": [-66.1699951609, 18.3220605775]}, "type": "Feature", "properties": {"collection_times": [{"days": "Mon-Fri", "time": "2:15pm"}, {"days": "Sat", "time": "1:15pm"}, {"days": "Sun", "time": "Closed"}], "id": "0095600009", "name": "USPS COLLECTION BOX - BLUE BOX", "address": {"city": "BAYAMON", "state": "PR", "street": "DH15 AVE IRLANDA", "postcode": "00956"}}},
{"geometry": {"type": "Point", "coordinates": [-66.153516232, 18.371642779]}, "type": "Feature", "properties": {"collection_times": [{"days": "Mon-Fri", "time": "2:45pm"}, {"days": "Sat", "time": "1:45pm"}, {"days": "Sun", "time": "Closed"}], "id": "0095600014", "name": "USPS COLLECTION BOX - BLUE BOX", "address": {"city": "BAYAMON", "state": "PR", "street": "AQ36 AVE LAUREL", "postcode": "00956"}}},
{"geometry": {"type": "Point", "coordinates": [-66.190290016, 18.328819982]}, "type": "Feature", "properties": {"collection_times": [{"days": "Mon-Fri", "time": "2:15pm"}, {"days": "Sat", "time": "1:15pm"}, {"days": "Sun", "time": "Closed"}], "id": "0095600016", "name": "USPS COLLECTION BOX - BLUE BOX", "address": {"city": "BAYAMON", "state": "PR", "street": "Q16 CALLE DINUBA", "postcode": "00956"}}},
{"geometry": {"type": "Point", "coordinates": [-66.158066293, 18.377912681]}, "type": "Feature", "properties": {"collection_times": [{"days": "Mon-Fri", "time": "2:45pm"}, {"days": "Sat", "time": "1:45pm"}, {"days": "Sun", "time": "Closed"}], "id": "0095600020", "name": "USPS COLLECTION BOX - BLUE BOX", "address": {"city": "BAYAMON", "state": "PR", "street": "4Q34 CALLE PETREA", "postcode": "00956"}}},
{"geometry": {"type": "Point", "coordinates": [-66.160530016, 18.366159976]}, "type": "Feature", "properties": {"collection_times": [{"days": "Mon-Fri", "time": "2:45pm"}, {"days": "Sat", "time": "1:45pm"}, {"days": "Sun", "time": "Closed"}], "id": "0095600022", "name": "USPS COLLECTION BOX - BLUE BOX", "address": {"city": "BAYAMON", "state": "PR", "street": "N68 AVENUE NOGAL", "postcode": "00956"}}},
{"geometry": {"type": "Point", "coordinates": [-66.1748583417, 18.3607148808]}, "type": "Feature", "properties": {"collection_times": [{"days": "Mon-Fri", "time": "1:45pm"}, {"days": "Sat", "time": "12:45pm"}, {"days": "Sun", "time": "Closed"}], "id": "0095600033", "name": "USPS COLLECTION BOX - BLUE BOX", "address": {"city": "BAYAMON", "state": "PR", "street": "D22 CALLE 1", "postcode": "00956"}}},
{"geometry": {"type": "Point", "coordinates": [-66.1559715782, 18.3568261463]}, "type": "Feature", "properties": {"collection_times": [{"days": "Mon-Fri", "time": "2:15pm"}, {"days": "Sat", "time": "1:15pm"}, {"days": "Sun", "time": "Closed"}], "id": "0095600036", "name": "USPS COLLECTION BOX - BLUE BOX", "address": {"city": "BAYAMON", "state": "PR", "street": "DC1 AVE MINILLAS", "postcode": "00956"}}},
{"geometry": {"type": "Point", "coordinates": [-66.19748305, 18.3728556]}, "type": "Feature", "properties": {"collection_times": [{"days": "Mon-Fri", "time": "1:00pm"}, {"days": "Sat", "time": "12:00pm"}, {"days": "Sun", "time": "Closed"}], "id": "0095700002", "name": "USPS COLLECTION BOX - BLUE BOX", "address": {"city": "BAYAMON", "state": "PR", "street": "S29 CALLE 21", "postcode": "00957"}}},
{"geometry": {"type": "Point", "coordinates": [-66.187936765, 18.373783654]}, "type": "Feature", "properties": {"collection_times": [{"days": "Mon-Fri", "time": "1:15pm"}, {"days": "Sat", "time": "12:15pm"}, {"days": "Sun", "time": "Closed"}], "id": "0095700004", "name": "USPS COLLECTION BOX - BLUE BOX", "address": {"city": "BAYAMON", "state": "PR", "street": "L1 CALLE 9", "postcode": "00957"}}},
{"geometry": {"type": "Point", "coordinates": [-66.197291446, 18.4031749568]}, "type": "Feature", "properties": {"collection_times": [{"days": "Mon-Fri", "time": "1:00pm"}, {"days": "Sat", "time": "12:00pm"}, {"days": "Sun", "time": "Closed"}], "id": "0095700005", "name": "USPS COLLECTION BOX - BLUE BOX", "address": {"city": "BAYAMON", "state": "PR", "street": "E18 CALLE 4", "postcode": "00957"}}},
{"geometry": {"type": "Point", "coordinates": [-66.187510008, 18.372429984]}, "type": "Feature", "properties": {"collection_times": [{"days": "Mon-Fri", "time": "1:15pm"}, {"days": "Sat", "time": "12:15pm"}, {"days": "Sun", "time": "Closed"}], "id": "0095700007", "name": "USPS COLLECTION BOX - BLUE BOX", "address": {"city": "BAYAMON", "state": "PR", "street": "CARR 167", "postcode": "00957"}}},
{"geometry": {"type": "Point", "coordinates": [-66.1874011981, 18.3688413448]}, "type": "Feature", "properties": {"collection_times": [{"days": "Mon-Fri", "time": "1:30pm"}, {"days": "Sat", "time": "12:30pm"}, {"days": "Sun", "time": "Closed"}], "id": "0095700017", "name": "USPS COLLECTION BOX - BLUE BOX", "address": {"city": "BAYAMON", "state": "PR", "street": "500 CALLE 1", "postcode": "00957"}}},
{"geometry": {"type": "Point", "coordinates": [-66.181848658, 18.389746975]}, "type": "Feature", "properties": {"collection_times": [{"days": "Mon-Fri", "time": "1:00pm"}, {"days": "Sat", "time": "12:00pm"}, {"days": "Sun", "time": "Closed"}], "id": "0095700019", "name": "USPS COLLECTION BOX - BLUE BOX", "address": {"city": "BAYAMON", "state": "PR", "street": "268 CALLE 12", "postcode": "00957"}}},
{"geometry": {"type": "Point", "coordinates": [-66.1874011981, 18.3688413448]}, "type": "Feature", "properties": {"collection_times": [{"days": "Mon-Fri", "time": "5:00pm"}, {"days": "Sat", "time": "3:00pm"}, {"days": "Sun", "time": "Closed"}], "id": "0095700025", "name": "USPS COLLECTION BOX - BLUE BOX", "address": {"city": "BAYAMON", "state": "PR", "street": "100 VICTORY SHOPP CTR STE 1", "postcode": "00957"}}},
{"geometry": {"type": "Point", "coordinates": [-66.1802470597, 18.3734735683]}, "type": "Feature", "properties": {"collection_times": [{"days": "Mon-Fri", "time": "1:15pm"}, {"days": "Sat", "time": "12:15pm"}, {"days": "Sun", "time": "Closed"}], "id": "0095700028", "name": "USPS COLLECTION BOX - BLUE BOX", "address": {"city": "BAYAMON", "state": "PR", "street": "E27 CALLE ESTHER", "postcode": "00957"}}},
{"geometry": {"type": "Point", "coordinates": [-66.1789678181, 18.3774180729]}, "type": "Feature", "properties": {"collection_times": [{"days": "Mon-Fri", "time": "1:00pm"}, {"days": "Sat", "time": "12:00pm"}, {"days": "Sun", "time": "Closed"}], "id": "0095700029", "name": "USPS COLLECTION BOX - BLUE BOX", "address": {"city": "BAYAMON", "state": "PR", "street": "H20 AVENUE CASTIGLIONI", "postcode": "00957"}}},
{"geometry": {"type": "Point", "coordinates": [-66.1874011981, 18.3688413448]}, "type": "Feature", "properties": {"collection_times": [{"days": "Mon-Fri", "time": "1:30pm"}, {"days": "Sat", "time": "12:30pm"}, {"days": "Sun", "time": "Closed"}], "id": "0095700030", "name": "USPS COLLECTION BOX - BLUE BOX", "address": {"city": "BAYAMON", "state": "PR", "street": "1 BELLA VISTA COMMERCIAL CTR STE 1A", "postcode": "00957"}}},
{"geometry": {"type": "Point", "coordinates": [-66.187510008, 18.372429978]}, "type": "Feature", "properties": {"collection_times": [{"days": "Mon-Fri", "time": "4:30pm"}, {"days": "Sat", "time": "12:00pm"}, {"days": "Sun", "time": "Closed"}], "id": "0095700032", "name": "USPS COLLECTION BOX - PO LOBBY", "address": {"city": "BAYAMON", "state": "PR", "street": "100 VICTORY SHOPP CTR", "postcode": "00957"}}},
{"geometry": {"type": "Point", "coordinates": [-66.1582125908, 18.3892708125]}, "type": "Feature", "properties": {"collection_times": [{"days": "Mon-Fri", "time": "5:00pm"}, {"days": "Sat", "time": "3:00pm"}, {"days": "Sun", "time": "Closed"}], "id": "0095900001", "name": "USPS COLLECTION BOX - BLUE BOX", "address": {"city": "BAYAMON", "state": "PR", "street": "100 AVE RAMON R RODRIGUEZ", "postcode": "00959"}}},
{"geometry": {"type": "Point", "coordinates": [-66.172807899, 18.388123246]}, "type": "Feature", "properties": {"collection_times": [{"days": "Mon-Fri", "time": "12:30pm"}, {"days": "Sat", "time": "11:30am"}, {"days": "Sun", "time": "Closed"}], "id": "0095900008", "name": "USPS COLLECTION BOX - BLUE BOX", "address": {"city": "BAYAMON", "state": "PR", "street": "300 CALLE 6", "postcode": "00959"}}},
{"geometry": {"type": "Point", "coordinates": [-66.15787001, 18.389359983]}, "type": "Feature", "properties": {"collection_times": [{"days": "Mon-Fri", "time": "12:30pm"}, {"days": "Sat", "time": "11:30am"}, {"days": "Sun", "time": "Closed"}], "id": "0095900009", "name": "USPS COLLECTION BOX - BLUE BOX", "address": {"city": "BAYAMON", "state": "PR", "street": "AJ16 CALLE SONIA", "postcode": "00959"}}},
{"geometry": {"type": "Point", "coordinates": [-66.1649072451, 18.3913842995]}, "type": "Feature", "properties": {"collection_times": [{"days": "Mon-Fri", "time": "12:30pm"}, {"days": "Sat", "time": "11:30am"}, {"days": "Sun", "time": "Closed"}], "id": "0095900017", "name": "USPS COLLECTION BOX - BLUE BOX", "address": {"city": "BAYAMON", "state": "PR", "street": "211 CALLE COMERIO", "postcode": "00959"}}},
{"geometry": {"type": "Point", "coordinates": [-66.1582125908, 18.3892708125]}, "type": "Feature", "properties": {"collection_times": [{"days": "Mon-Fri", "time": "11:30am"}, {"days": "Sat", "time": "10:30am"}, {"days": "Sun", "time": "Closed"}], "id": "0095900021", "name": "USPS COLLECTION BOX - BLUE BOX", "address": {"city": "BAYAMON", "state": "PR", "street": "1845 CARR 2", "postcode": "00959"}}},
{"geometry": {"type": "Point", "coordinates": [-66.1448123, 18.377539177]}, "type": "Feature", "properties": {"collection_times": [{"days": "Mon-Fri", "time": "11:15am"}, {"days": "Sat", "time": "10:15am"}, {"days": "Sun", "time": "Closed"}], "id": "0095900022", "name": "USPS COLLECTION BOX - BLUE BOX", "address": {"city": "BAYAMON", "state": "PR", "street": "1698 CARR 2", "postcode": "00959"}}},
{"geometry": {"type": "Point", "coordinates": [-66.1582125908, 18.3892708125]}, "type": "Feature", "properties": {"collection_times": [{"days": "Mon-Fri", "time": "3:15pm"}, {"days": "Sat", "time": "2:30pm"}, {"days": "Sun", "time": "Closed"}], "id": "0095900026", "name": "USPS COLLECTION BOX - BLUE BOX", "address": {"city": "BAYAMON", "state": "PR", "street": "1525 CARR 2", "postcode": "00959"}}},
{"geometry": {"type": "Point", "coordinates": [-66.1640538217, 18.3858535902]}, "type": "Feature", "properties": {"collection_times": [{"days": "Mon-Fri", "time": "12:00pm"}, {"days": "Sat", "time": "11:00am"}, {"days": "Sun", "time": "Closed"}], "id": "0095900030", "name": "USPS COLLECTION BOX - BLUE BOX", "address": {"city": "BAYAMON", "state": "PR", "street": "D34 CALLE MARGINAL", "postcode": "00959"}}},
{"geometry": {"type": "Point", "coordinates": [-66.184718375, 18.398719852]}, "type": "Feature", "properties": {"collection_times": [{"days": "Mon-Fri", "time": "3:00pm"}, {"days": "Sat", "time": "2:15pm"}, {"days": "Sun", "time": "Closed"}], "id": "0095900035", "name": "USPS COLLECTION BOX - BLUE BOX", "address": {"city": "BAYAMON", "state": "PR", "street": "19-23 CALLE 17", "postcode": "00959"}}},
{"geometry": {"type": "Point", "coordinates": [-66.1582125908, 18.3892708125]}, "type": "Feature", "properties": {"collection_times": [{"days": "Mon-Fri", "time": "3:15pm"}, {"days": "Sat", "time": "2:30pm"}, {"days": "Sun", "time": "Closed"}], "id": "0095900039", "name": "USPS COLLECTION BOX - BLUE BOX", "address": {"city": "BAYAMON", "state": "PR", "street": "W13 AVE RUIZ SOLER", "postcode": "00959"}}},
{"geometry": {"type": "Point", "coordinates": [-66.1388605701, 18.3886909558]}, "type": "Feature", "properties": {"collection_times": [{"days": "Mon-Fri", "time": "2:45pm"}, {"days": "Sat", "time": "2:00pm"}, {"days": "Sun", "time": "Closed"}], "id": "0095900040", "name": "USPS COLLECTION BOX - BLUE BOX", "address": {"city": "BAYAMON", "state": "PR", "street": "35-15 CALLE 24", "postcode": "00959"}}},
{"geometry": {"type": "Point", "coordinates": [-66.1582125908, 18.3892708125]}, "type": "Feature", "properties": {"collection_times": [{"days": "Mon-Fri", "time": "2:30pm"}, {"days": "Sat", "time": "1:30pm"}, {"days": "Sun", "time": "Closed"}], "id": "0095900047", "name": "USPS COLLECTION BOX - BLUE BOX", "address": {"city": "BAYAMON", "state": "PR", "street": "153 CARR 174", "postcode": "00959"}}},
{"geometry": {"type": "Point", "coordinates": [-66.1865658173, 18.3691987196]}, "type": "Feature", "properties": {"collection_times": [{"days": "Mon-Fri", "time": "2:30pm"}, {"days": "Sat", "time": "1:30pm"}, {"days": "Sun", "time": "Closed"}], "id": "0095900048", "name": "USPS COLLECTION BOX - BLUE BOX", "address": {"city": "BAYAMON", "state": "PR", "street": "A1 CALLE 1 VILLAS DE SAN AGUSTIN", "postcode": "00959"}}},
{"geometry": {"type": "Point", "coordinates": [-66.15787001, 18.389359983]}, "type": "Feature", "properties": {"collection_times": [{"days": "Mon-Fri", "time": "3:15pm"}, {"days": "Sat", "time": "2:30pm"}, {"days": "Sun", "time": "Closed"}], "id": "0095900049", "name": "USPS COLLECTION BOX - BLUE BOX", "address": {"city": "BAYAMON", "state": "PR", "street": "66 CALLE SANTA CRUZ", "postcode": "00959"}}},
{"geometry": {"type": "Point", "coordinates": [-66.1451946132, 18.3921100148]}, "type": "Feature", "properties": {"collection_times": [{"days": "Mon-Fri", "time": "3:00pm"}, {"days": "Sat", "time": "2:15pm"}, {"days": "Sun", "time": "Closed"}], "id": "0095900052", "name": "USPS COLLECTION BOX - BLUE BOX", "address": {"city": "BAYAMON", "state": "PR", "street": "10-17 AVE AGUAS BUENAS", "postcode": "00959"}}},
{"geometry": {"type": "Point", "coordinates": [-66.1582125908, 18.3892708125]}, "type": "Feature", "properties": {"collection_times": [{"days": "Mon-Fri", "time": "3:15pm"}, {"days": "Sat", "time": "2:30pm"}, {"days": "Sun", "time": "Closed"}], "id": "0095900062", "name": "USPS COLLECTION BOX - BLUE BOX", "address": {"city": "BAYAMON", "state": "PR", "street": "10 CALLE SANTA CRUZ", "postcode": "00959"}}},
{"geometry": {"type": "Point", "coordinates": [-66.1582125908, 18.3892708125]}, "type": "Feature", "properties": {"collection_times": [{"days": "Mon-Fri", "time": "5:00pm"}, {"days": "Sat", "time": "3:00pm"}, {"days": "Sun", "time": "Closed"}], "id": "0095900069", "name": "USPS COLLECTION BOX - BLUE BOX", "address": {"city": "BAYAMON", "state": "PR", "street": "100 AVE RAMON R RODRIGUEZ", "postcode": "00959"}}},
{"geometry": {"type": "Point", "coordinates": [-66.1413659292, 18.3908719518]}, "type": "Feature", "properties": {"collection_times": [{"days": "Mon-Fri", "time": "3:00pm"}, {"days": "Sat", "time": "2:15pm"}, {"days": "Sun", "time": "Closed"}], "id": "0095900070", "name": "USPS COLLECTION BOX - BLUE BOX", "address": {"city": "BAYAMON", "state": "PR", "street": "43-12 AVE MAIN", "postcode": "00959"}}},
{"geometry": {"type": "Point", "coordinates": [-66.156244111, 18.392763955]}, "type": "Feature", "properties": {"collection_times": [{"days": "Mon-Fri", "time": "4:30pm"}, {"days": "Sat", "time": "12:00pm"}, {"days": "Sun", "time": "Closed"}], "id": "0095900073", "name": "USPS COLLECTION BOX - PO LOBBY", "address": {"city": "BAYAMON", "state": "PR", "street": "100 AVE RAMON L RODRIGUEZ", "postcode": "00959"}}},
{"geometry": {"type": "Point", "coordinates": [-66.1592469223, 18.411109699]}, "type": "Feature", "properties": {"collection_times": [{"days": "Mon-Fri", "time": "11:00am"}, {"days": "Sat", "time": "10:00am"}, {"days": "Sun", "time": "Closed"}], "id": "0096100001", "name": "USPS COLLECTION BOX - BLUE BOX", "address": {"city": "SAN JUAN", "state": "PR", "street": "2250 CARR 2", "postcode": "00961"}}},
{"geometry": {"type": "Point", "coordinates": [-66.082767375, 18.352522658]}, "type": "Feature", "properties": {"collection_times": [{"days": "Mon-Fri", "time": "10:45am"}, {"days": "Sat", "time": "9:45am"}, {"days": "Sun", "time": "Closed"}], "id": "0096100003", "name": "USPS COLLECTION BOX - BLUE BOX", "address": {"city": "SAN JUAN", "state": "PR", "street": "J1 CALLE 5 REPTO TERESITA", "postcode": "00961"}}},
{"geometry": {"type": "Point", "coordinates": [-66.0447345016, 18.4319158164]}, "type": "Feature", "properties": {"collection_times": [{"days": "Mon-Fri", "time": "10:45am"}, {"days": "Sat", "time": "9:45am"}, {"days": "Sun", "time": "Closed"}], "id": "0096100004", "name": "USPS COLLECTION BOX - BLUE BOX", "address": {"city": "SAN JUAN", "state": "PR", "street": "500 CALLE 1", "postcode": "00961"}}},
{"geometry": {"type": "Point", "coordinates": [-66.1592469223, 18.411109699]}, "type": "Feature", "properties": {"collection_times": [{"days": "Mon-Fri", "time": "10:30am"}, {"days": "Sat", "time": "9:30am"}, {"days": "Sun", "time": "Closed"}], "id": "0096100009", "name": "USPS COLLECTION BOX - BLUE BOX", "address": {"city": "SAN JUAN", "state": "PR", "street": "AQ1 CALLE RIO SONADOR", "postcode": "00961"}}},
{"geometry": {"type": "Point", "coordinates": [-66.1592469223, 18.411109699]}, "type": "Feature", "properties": {"collection_times": [{"days": "Mon-Fri", "time": "10:30am"}, {"days": "Sat", "time": "9:30am"}, {"days": "Sun", "time": "Closed"}], "id": "0096100010", "name": "USPS COLLECTION BOX - BLUE BOX", "address": {"city": "SAN JUAN", "state": "PR", "street": "50 AVE RIO HONDO", "postcode": "00961"}}},
{"geometry": {"type": "Point", "coordinates": [-66.1611599088, 18.4034385846]}, "type": "Feature", "properties": {"collection_times": [{"days": "Mon-Fri", "time": "11:00am"}, {"days": "Sat", "time": "10:00am"}, {"days": "Sun", "time": "Closed"}], "id": "0096100012", "name": "USPS COLLECTION BOX - BLUE BOX", "address": {"city": "SAN JUAN", "state": "PR", "street": "75-20 CALLE 24", "postcode": "00961"}}},
{"geometry": {"type": "Point", "coordinates": [-66.1565123136, 18.3989099604]}, "type": "Feature", "properties": {"collection_times": [{"days": "Mon-Fri", "time": "11:15am"}, {"days": "Sat", "time": "10:15am"}, {"days": "Sun", "time": "Closed"}], "id": "0096100016", "name": "USPS COLLECTION BOX - BLUE BOX", "address": {"city": "SAN JUAN", "state": "PR", "street": "12 CALLE PALMER", "postcode": "00961"}}},
{"geometry": {"type": "Point", "coordinates": [-66.124853342, 18.471946656]}, "type": "Feature", "properties": {"collection_times": [{"days": "Mon-Fri", "time": "11:00am"}, {"days": "Sat", "time": "10:00am"}, {"days": "Sun", "time": "Closed"}], "id": "0096100024", "name": "USPS COLLECTION BOX - BLUE BOX", "address": {"city": "SAN JUAN", "state": "PR", "street": "39A-16 CALLE 35B", "postcode": "00961"}}},
{"geometry": {"type": "Point", "coordinates": [-66.048053603, 18.428159049]}, "type": "Feature", "properties": {"collection_times": [{"days": "Mon-Fri", "time": "5:00pm"}, {"days": "Sat", "time": "3:00pm"}, {"days": "Sun", "time": "Closed"}], "id": "0096200001", "name": "USPS COLLECTION BOX - BLUE BOX", "address": {"city": "SAN JUAN", "state": "PR", "street": "131 AVE BARBOSA", "postcode": "00962"}}},
{"geometry": {"type": "Point", "coordinates": [-66.1452195943, 18.4313490996]}, "type": "Feature", "properties": {"collection_times": [{"days": "Mon-Sat", "time": "10:00am"}, {"days": "Sun", "time": "Closed"}], "id": "0096200008", "name": "USPS COLLECTION BOX - BLUE BOX", "address": {"city": "SAN JUAN", "state": "PR", "street": "BB1 AVE FLOR DEL VALLE", "postcode": "00962"}}},
{"geometry": {"type": "Point", "coordinates": [-66.124853342, 18.471946656]}, "type": "Feature", "properties": {"collection_times": [{"days": "Mon-Sat", "time": "10:00am"}, {"days": "Sun", "time": "Closed"}], "id": "0096200011", "name": "USPS COLLECTION BOX - BLUE BOX", "address": {"city": "SAN JUAN", "state": "PR", "street": "500 CARR 869", "postcode": "00962"}}},
{"geometry": {"type": "Point", "coordinates": [-66.0592498277, 18.4521740017]}, "type": "Feature", "properties": {"collection_times": [{"days": "Mon-Sat", "time": "9:45am"}, {"days": "Sun", "time": "Closed"}], "id": "0096200013", "name": "USPS COLLECTION BOX - BLUE BOX", "address": {"city": "SAN JUAN", "state": "PR", "street": "10 BLVD LAS PALMAS", "postcode": "00962"}}},
{"geometry": {"type": "Point", "coordinates": [-66.1117684137, 18.4658128106]}, "type": "Feature", "properties": {"collection_times": [{"days": "Mon-Sat", "time": "9:30am"}, {"days": "Sun", "time": "Closed"}], "id": "0096200016", "name": "USPS COLLECTION BOX - BLUE BOX", "address": {"city": "SAN JUAN", "state": "PR", "street": "2 AVE PONCE DE LEON", "postcode": "00962"}}},
{"geometry": {"type": "Point", "coordinates": [-66.048053603, 18.428159049]}, "type": "Feature", "properties": {"collection_times": [{"days": "Mon-Fri", "time": "4:30pm"}, {"days": "Sat", "time": "12:00pm"}, {"days": "Sun", "time": "Closed"}], "id": "0096200019", "name": "USPS COLLECTION BOX - PO LOBBY", "address": {"city": "SAN JUAN", "state": "PR", "street": "131 AVE BARBOSA", "postcode": "00962"}}},
{"geometry": {"type": "Point", "coordinates": [-66.117708524, 18.391308019]}, "type": "Feature", "properties": {"collection_times": [{"days": "Mon-Sat", "time": "8:45am"}, {"days": "Sun", "time": "Closed"}], "id": "0096600002", "name": "USPS COLLECTION BOX - BLUE BOX", "address": {"city": "GUAYNABO", "state": "PR", "street": "1-9 AVE RAMIREZ DE ARELLANO", "postcode": "00966"}}},
{"geometry": {"type": "Point", "coordinates": [-66.115350003, 18.399769983]}, "type": "Feature", "properties": {"collection_times": [{"days": "Mon-Sat", "time": "8:45am"}, {"days": "Sun", "time": "Closed"}], "id": "0096600009", "name": "USPS COLLECTION BOX - BLUE BOX", "address": {"city": "GUAYNABO", "state": "PR", "street": "99 CARR 2", "postcode": "00966"}}},
{"geometry": {"type": "Point", "coordinates": [-66.109001922, 18.40351582]}, "type": "Feature", "properties": {"collection_times": [{"days": "Mon-Sat", "time": "8:45am"}, {"days": "Sun", "time": "Closed"}], "id": "0096600013", "name": "USPS COLLECTION BOX - BLUE BOX", "address": {"city": "GUAYNABO", "state": "PR", "street": "1019 AVE LUIS VIGOREAUX", "postcode": "00966"}}},
{"geometry": {"type": "Point", "coordinates": [-66.1153559325, 18.399772399]}, "type": "Feature", "properties": {"collection_times": [{"days": "Mon-Sat", "time": "9:00am"}, {"days": "Sun", "time": "Closed"}], "id": "0096600014", "name": "USPS COLLECTION BOX - BLUE BOX", "address": {"city": "GUAYNABO", "state": "PR", "street": "1325 AVE LUIS VIGOREAUX", "postcode": "00966"}}},
{"geometry": {"type": "Point", "coordinates": [-66.1015531053, 18.4053313663]}, "type": "Feature", "properties": {"collection_times": [{"days": "Mon-Fri", "time": "10:00am"}, {"days": "Sat", "time": "9:00am"}, {"days": "Sun", "time": "Closed"}], "id": "0096800001", "name": "USPS COLLECTION BOX - BLUE BOX", "address": {"city": "GUAYNABO", "state": "PR", "street": "18 CALLE 1", "postcode": "00968"}}},
{"geometry": {"type": "Point", "coordinates": [-66.1015531053, 18.4053313663]}, "type": "Feature", "properties": {"collection_times": [{"days": "Mon-Fri", "time": "10:15am"}, {"days": "Sat", "time": "9:15am"}, {"days": "Sun", "time": "Closed"}], "id": "0096800004", "name": "USPS COLLECTION BOX - BLUE BOX", "address": {"city": "GUAYNABO", "state": "PR", "street": "400 CALLE C", "postcode": "00968"}}},
{"geometry": {"type": "Point", "coordinates": [-66.1039406114, 18.409751841]}, "type": "Feature", "properties": {"collection_times": [{"days": "Mon-Fri", "time": "3:00pm"}, {"days": "Sat", "time": "2:00pm"}, {"days": "Sun", "time": "Closed"}], "id": "0096800008", "name": "USPS COLLECTION BOX - BLUE BOX", "address": {"city": "GUAYNABO", "state": "PR", "street": "100 AVE SAN PATRICIO", "postcode": "00968"}}},
{"geometry": {"type": "Point", "coordinates": [-66.1015994811, 18.4115166929]}, "type": "Feature", "properties": {"collection_times": [{"days": "Mon-Fri", "time": "3:15pm"}, {"days": "Sat", "time": "2:15pm"}, {"days": "Sun", "time": "Closed"}], "id": "0096800010", "name": "USPS COLLECTION BOX - BLUE BOX", "address": {"city": "GUAYNABO", "state": "PR", "street": "1510 AVE FD ROOSEVELT", "postcode": "00968"}}},
{"geometry": {"type": "Point", "coordinates": [-66.1015531053, 18.4053313663]}, "type": "Feature", "properties": {"collection_times": [{"days": "Mon-Fri", "time": "10:00am"}, {"days": "Sat", "time": "9:00am"}, {"days": "Sun", "time": "Closed"}], "id": "0096800011", "name": "USPS COLLECTION BOX - BLUE BOX", "address": {"city": "GUAYNABO", "state": "PR", "street": "10 CALLE CLAUDIA", "postcode": "00968"}}},
{"geometry": {"type": "Point", "coordinates": [-66.1027684515, 18.4056729165]}, "type": "Feature", "properties": {"collection_times": [{"days": "Mon-Fri", "time": "5:00pm"}, {"days": "Sat", "time": "3:00pm"}, {"days": "Sun", "time": "Closed"}], "id": "0096800014", "name": "USPS COLLECTION BOX - BLUE BOX", "address": {"city": "GUAYNABO", "state": "PR", "street": "1505 AVE FD ROOSEVELT", "postcode": "00968"}}},
{"geometry": {"type": "Point", "coordinates": [-66.1139750287, 18.3295665847]}, "type": "Feature", "properties": {"collection_times": [{"days": "Mon-Fri", "time": "5:00pm"}, {"days": "Sat", "time": "1:00pm"}, {"days": "Sun", "time": "Closed"}], "id": "0096900001", "name": "USPS COLLECTION BOX - BLUE BOX", "address": {"city": "GUAYNABO", "state": "PR", "street": "100 CALLE CECILIO URBINA", "postcode": "00969"}}},
{"geometry": {"type": "Point", "coordinates": [-66.1089861544, 18.3670936127]}, "type": "Feature", "properties": {"collection_times": [{"days": "Mon-Sat", "time": "8:00am"}, {"days": "Sun", "time": "Closed"}], "id": "0096900006", "name": "USPS COLLECTION BOX - BLUE BOX", "address": {"city": "GUAYNABO", "state": "PR", "street": "2 AVE ARBOLOTE", "postcode": "00969"}}},
{"geometry": {"type": "Point", "coordinates": [-66.1024571999, 18.3719791132]}, "type": "Feature", "properties": {"collection_times": [{"days": "Mon-Sat", "time": "8:00am"}, {"days": "Sun", "time": "Closed"}], "id": "0096900016", "name": "USPS COLLECTION BOX - BLUE BOX", "address": {"city": "GUAYNABO", "state": "PR", "street": "210 AVE ESMERALDA", "postcode": "00969"}}},
{"geometry": {"type": "Point", "coordinates": [-66.1139750287, 18.3295665847]}, "type": "Feature", "properties": {"collection_times": [{"days": "Mon-Sat", "time": "8:30am"}, {"days": "Sun", "time": "Closed"}], "id": "0096900022", "name": "USPS COLLECTION BOX - BLUE BOX", "address": {"city": "GUAYNABO", "state": "PR", "street": "130 CALLE MARGINAL", "postcode": "00969"}}},
{"geometry": {"type": "Point", "coordinates": [-66.1089861544, 18.3670936127]}, "type": "Feature", "properties": {"collection_times": [{"days": "Mon-Sat", "time": "8:15am"}, {"days": "Sun", "time": "Closed"}], "id": "0096900024", "name": "USPS COLLECTION BOX - BLUE BOX", "address": {"city": "GUAYNABO", "state": "PR", "street": "2000 CARR 8177", "postcode": "00969"}}},
{"geometry": {"type": "Point", "coordinates": [-66.1168709941, 18.3840603205]}, "type": "Feature", "properties": {"collection_times": [{"days": "Mon-Sat", "time": "8:30am"}, {"days": "Sun", "time": "Closed"}], "id": "0096900027", "name": "USPS COLLECTION BOX - BLUE BOX", "address": {"city": "GUAYNABO", "state": "PR", "street": "2-1 CALLE 1", "postcode": "00969"}}},
{"geometry": {"type": "Point", "coordinates": [-66.1139750287, 18.3295665847]}, "type": "Feature", "properties": {"collection_times": [{"days": "Mon-Fri", "time": "5:00pm"}, {"days": "Sat", "time": "1:00pm"}, {"days": "Sun", "time": "Closed"}], "id": "0096900029", "name": "USPS COLLECTION BOX - PO LOBBY", "address": {"city": "GUAYNABO", "state": "PR", "street": "100 CALLE CECILIO URBINA", "postcode": "00969"}}},
{"geometry": {"type": "Point", "coordinates": [-66.098529139, 18.296317659]}, "type": "Feature", "properties": {"collection_times": [{"days": "Mon-Sat", "time": "8:15am"}, {"days": "Sun", "time": "Closed"}], "id": "0097100001", "name": "USPS COLLECTION BOX - BLUE BOX", "address": {"city": "GUAYNABO", "state": "PR", "street": "HC 6 BOX 10351", "postcode": "00971"}}},
{"geometry": {"type": "Point", "coordinates": [-65.9988147203, 18.3361220868]}, "type": "Feature", "properties": {"collection_times": [{"days": "Mon-Fri", "time": "11:30am"}, {"days": "Sat", "time": "10:30am"}, {"days": "Sun", "time": "Closed"}], "id": "0097600001", "name": "USPS COLLECTION BOX - BLUE BOX", "address": {"city": "TRUJILLO ALTO", "state": "PR", "street": "8 VIA ENCANTADA STE 1", "postcode": "00976"}}},
{"geometry": {"type": "Point", "coordinates": [-65.9988147203, 18.3361220868]}, "type": "Feature", "properties": {"collection_times": [{"days": "Mon-Fri", "time": "11:30am"}, {"days": "Sat", "time": "10:30am"}, {"days": "Sun", "time": "Closed"}], "id": "0097600002", "name": "USPS COLLECTION BOX - BLUE BOX", "address": {"city": "TRUJILLO ALTO", "state": "PR", "street": "13 CALLE LOIZA STE 1", "postcode": "00976"}}},
{"geometry": {"type": "Point", "coordinates": [-66.0155043924, 18.3703306322]}, "type": "Feature", "properties": {"collection_times": [{"days": "Mon-Fri", "time": "11:00am"}, {"days": "Sat", "time": "10:00am"}, {"days": "Sun", "time": "Closed"}], "id": "0097600003", "name": "USPS COLLECTION BOX - BLUE BOX", "address": {"city": "TRUJILLO ALTO", "state": "PR", "street": "200 CARR 181", "postcode": "00976"}}},
{"geometry": {"type": "Point", "coordinates": [-66.018329913, 18.375302635]}, "type": "Feature", "properties": {"collection_times": [{"days": "Mon-Fri", "time": "11:30am"}, {"days": "Sat", "time": "10:30am"}, {"days": "Sun", "time": "Closed"}], "id": "0097600005", "name": "USPS COLLECTION BOX - BLUE BOX", "address": {"city": "TRUJILLO ALTO", "state": "PR", "street": "928 CALLE LIRIO", "postcode": "00976"}}},
{"geometry": {"type": "Point", "coordinates": [-66.023600002, 18.380036652]}, "type": "Feature", "properties": {"collection_times": [{"days": "Mon-Fri", "time": "11:45am"}, {"days": "Sat", "time": "10:45am"}, {"days": "Sun", "time": "Closed"}], "id": "0097600008", "name": "USPS COLLECTION BOX - BLUE BOX", "address": {"city": "TRUJILLO ALTO", "state": "PR", "street": "K1 CARR 846", "postcode": "00976"}}},
{"geometry": {"type": "Point", "coordinates": [-66.006584765, 18.355056974]}, "type": "Feature", "properties": {"collection_times": [{"days": "Mon-Fri", "time": "5:00pm"}, {"days": "Sat", "time": "3:00pm"}, {"days": "Sun", "time": "Closed"}], "id": "0097600014", "name": "USPS COLLECTION BOX - BLUE BOX", "address": {"city": "TRUJILLO ALTO", "state": "PR", "street": "100 CALLE BORINQUEN", "postcode": "00976"}}},
{"geometry": {"type": "Point", "coordinates": [-66.0143997297, 18.3644214343]}, "type": "Feature", "properties": {"collection_times": [{"days": "Mon-Fri", "time": "11:15am"}, {"days": "Sat", "time": "10:15am"}, {"days": "Sun", "time": "Closed"}], "id": "0097600016", "name": "USPS COLLECTION BOX - BLUE BOX", "address": {"city": "TRUJILLO ALTO", "state": "PR", "street": "A1 AVE HERNAN CORTES", "postcode": "00976"}}},
{"geometry": {"type": "Point", "coordinates": [-66.006584765, 18.355056974]}, "type": "Feature", "properties": {"collection_times": [{"days": "Mon-Fri", "time": "5:00pm"}, {"days": "Sat", "time": "3:00pm"}, {"days": "Sun", "time": "Closed"}], "id": "0097600018", "name": "USPS COLLECTION BOX - PO LOBBY", "address": {"city": "TRUJILLO ALTO", "state": "PR", "street": "100 CALLE BORINQUEN", "postcode": "00976"}}},
{"geometry": {"type": "Point", "coordinates": [-66.03366677, 18.446241075]}, "type": "Feature", "properties": {"collection_times": [{"days": "Mon-Sat", "time": "8:45am"}, {"days": "Sun", "time": "Closed"}], "id": "0097900009", "name": "USPS COLLECTION BOX - BLUE BOX", "address": {"city": "CAROLINA", "state": "PR", "street": "3062 AVE ISLA VERDE", "postcode": "00979"}}},
{"geometry": {"type": "Point", "coordinates": [-66.019374852, 18.441192128]}, "type": "Feature", "properties": {"collection_times": [{"days": "Mon-Sat", "time": "8:45am"}, {"days": "Sun", "time": "Closed"}], "id": "0097900011", "name": "USPS COLLECTION BOX - BLUE BOX", "address": {"city": "CAROLINA", "state": "PR", "street": "19 CALLE MAR MEDITERRANEO", "postcode": "00979"}}},
{"geometry": {"type": "Point", "coordinates": [-66.0118149031, 18.4335296865]}, "type": "Feature", "properties": {"collection_times": [{"days": "Mon-Sat", "time": "9:00am"}, {"days": "Sun", "time": "Closed"}], "id": "0097900021", "name": "USPS COLLECTION BOX - BLUE BOX", "address": {"city": "CAROLINA", "state": "PR", "street": "71 CALLE LUNA", "postcode": "00979"}}},
{"geometry": {"type": "Point", "coordinates": [-66.009176624, 18.429329561]}, "type": "Feature", "properties": {"collection_times": [{"days": "Mon-Sat", "time": "9:00am"}, {"days": "Sun", "time": "Closed"}], "id": "0097900023", "name": "USPS COLLECTION BOX - BLUE BOX", "address": {"city": "CAROLINA", "state": "PR", "street": "29 CALLE ACUARIO", "postcode": "00979"}}},
{"geometry": {"type": "Point", "coordinates": [-66.016990893, 18.4321636287]}, "type": "Feature", "properties": {"collection_times": [{"days": "Mon-Sat", "time": "8:45am"}, {"days": "Sun", "time": "Closed"}], "id": "0097900031", "name": "USPS COLLECTION BOX - BLUE BOX", "address": {"city": "CAROLINA", "state": "PR", "street": "10 AVE LAGUNA", "postcode": "00979"}}},
{"geometry": {"type": "Point", "coordinates": [-65.993058037, 18.416593149]}, "type": "Feature", "properties": {"collection_times": [{"days": "Mon-Sat", "time": "9:00am"}, {"days": "Sun", "time": "Closed"}], "id": "0098200002", "name": "USPS COLLECTION BOX - BLUE BOX", "address": {"city": "CAROLINA", "state": "PR", "street": "100 AVE EL COMANDANTE", "postcode": "00982"}}},
{"geometry": {"type": "Point", "coordinates": [-65.9884693275, 18.3995915565]}, "type": "Feature", "properties": {"collection_times": [{"days": "Mon-Sat", "time": "9:15am"}, {"days": "Sun", "time": "Closed"}], "id": "0098200005", "name": "USPS COLLECTION BOX - BLUE BOX", "address": {"city": "CAROLINA", "state": "PR", "street": "257A AVE SAN MARCOS", "postcode": "00982"}}},
{"geometry": {"type": "Point", "coordinates": [-65.991424311, 18.409698859]}, "type": "Feature", "properties": {"collection_times": [{"days": "Mon-Sat", "time": "9:15am"}, {"days": "Sun", "time": "Closed"}], "id": "0098200015", "name": "USPS COLLECTION BOX - BLUE BOX", "address": {"city": "CAROLINA", "state": "PR", "street": "HN24 AVE EL COMANDANTE", "postcode": "00982"}}},
{"geometry": {"type": "Point", "coordinates": [-65.9941287622, 18.4147304056]}, "type": "Feature", "properties": {"collection_times": [{"days": "Mon-Sat", "time": "9:00am"}, {"days": "Sun", "time": "Closed"}], "id": "0098200016", "name": "USPS COLLECTION BOX - BLUE BOX", "address": {"city": "CAROLINA", "state": "PR", "street": "1000 AVE ROBERTO SANCHEZ VILELLA", "postcode": "00982"}}},
{"geometry": {"type": "Point", "coordinates": [-65.9759613933, 18.4172176537]}, "type": "Feature", "properties": {"collection_times": [{"days": "Mon-Sat", "time": "8:15am"}, {"days": "Sun", "time": "Closed"}], "id": "0098300006", "name": "USPS COLLECTION BOX - BLUE BOX", "address": {"city": "CAROLINA", "state": "PR", "street": "100 VIA FABIANA", "postcode": "00983"}}},
{"geometry": {"type": "Point", "coordinates": [-65.99294001, 18.457726662]}, "type": "Feature", "properties": {"collection_times": [{"days": "Mon-Sat", "time": "8:00am"}, {"days": "Sun", "time": "Closed"}], "id": "0098300007", "name": "USPS COLLECTION BOX - BLUE BOX", "address": {"city": "CAROLINA", "state": "PR", "street": "2AL105 VIA 6", "postcode": "00983"}}},
{"geometry": {"type": "Point", "coordinates": [-65.979805592, 18.4307623931]}, "type": "Feature", "properties": {"collection_times": [{"days": "Mon-Sat", "time": "8:30am"}, {"days": "Sun", "time": "Closed"}], "id": "0098300009", "name": "USPS COLLECTION BOX - BLUE BOX", "address": {"city": "CAROLINA", "state": "PR", "street": "1081 CALLE LERIDA", "postcode": "00983"}}},
{"geometry": {"type": "Point", "coordinates": [-65.9709621745, 18.4258196616]}, "type": "Feature", "properties": {"collection_times": [{"days": "Mon-Sat", "time": "8:30am"}, {"days": "Sun", "time": "Closed"}], "id": "0098300010", "name": "USPS COLLECTION BOX - BLUE BOX", "address": {"city": "CAROLINA", "state": "PR", "street": "CM40 CALLE 151", "postcode": "00983"}}},
{"geometry": {"type": "Point", "coordinates": [-65.9759613933, 18.4172176537]}, "type": "Feature", "properties": {"collection_times": [{"days": "Mon-Sat", "time": "8:15am"}, {"days": "Sun", "time": "Closed"}], "id": "0098300012", "name": "USPS COLLECTION BOX - BLUE BOX", "address": {"city": "CAROLINA", "state": "PR", "street": "BK12 CALLE 111", "postcode": "00983"}}},
{"geometry": {"type": "Point", "coordinates": [-65.9684358178, 18.4252282785]}, "type": "Feature", "properties": {"collection_times": [{"days": "Mon-Sat", "time": "8:15am"}, {"days": "Sun", "time": "Closed"}], "id": "0098300020", "name": "USPS COLLECTION BOX - BLUE BOX", "address": {"city": "CAROLINA", "state": "PR", "street": "11 AVE FIDALGO DIAZ", "postcode": "00983"}}},
{"geometry": {"type": "Point", "coordinates": [-65.9759613933, 18.4172176537]}, "type": "Feature", "properties": {"collection_times": [{"days": "Mon-Sat", "time": "10:00am"}, {"days": "Sun", "time": "Closed"}], "id": "0098300029", "name": "USPS COLLECTION BOX - BLUE BOX", "address": {"city": "CAROLINA", "state": "PR", "street": "200 AVE FRAGOSO STE 3180", "postcode": "00983"}}},
{"geometry": {"type": "Point", "coordinates": [-65.9759613933, 18.4172176537]}, "type": "Feature", "properties": {"collection_times": [{"days": "Mon-Fri", "time": "5:00pm"}, {"days": "Sat", "time": "1:00pm"}, {"days": "Sun", "time": "Closed"}], "id": "0098300030", "name": "USPS COLLECTION BOX - BLUE BOX", "address": {"city": "CAROLINA", "state": "PR", "street": "2 AVE SANCHEZ OSORIO APT 1000", "postcode": "00983"}}},
{"geometry": {"type": "Point", "coordinates": [-65.968483557, 18.404558359]}, "type": "Feature", "properties": {"collection_times": [{"days": "Mon-Sat", "time": "8:00am"}, {"days": "Sun", "time": "Closed"}], "id": "0098300033", "name": "USPS COLLECTION BOX - BLUE BOX", "address": {"city": "CAROLINA", "state": "PR", "street": "AL6 VIA ELENA", "postcode": "00983"}}},
{"geometry": {"type": "Point", "coordinates": [-65.9759613933, 18.4172176537]}, "type": "Feature", "properties": {"collection_times": [{"days": "Mon-Sat", "time": "8:30am"}, {"days": "Sun", "time": "Closed"}], "id": "0098300034", "name": "USPS COLLECTION BOX - BLUE BOX", "address": {"city": "CAROLINA", "state": "PR", "street": "100 CALLE 8 APT 101", "postcode": "00983"}}},
{"geometry": {"type": "Point", "coordinates": [-65.977422388, 18.410268183]}, "type": "Feature", "properties": {"collection_times": [{"days": "Mon-Fri", "time": "5:00pm"}, {"days": "Sat", "time": "1:00pm"}, {"days": "Sun", "time": "Closed"}], "id": "0098300036", "name": "USPS COLLECTION BOX - PO LOBBY", "address": {"city": "CAROLINA", "state": "PR", "street": "1000 AVE SANCHEZ OSORIO", "postcode": "00983"}}},
{"geometry": {"type": "Point", "coordinates": [-65.962380002, 18.338579985]}, "type": "Feature", "properties": {"collection_times": [{"days": "Mon-Sat", "time": "8:15am"}, {"days": "Sun", "time": "Closed"}], "id": "0098500003", "name": "USPS COLLECTION BOX - BLUE BOX", "address": {"city": "CAROLINA", "state": "PR", "street": "229-4 CALLE 609", "postcode": "00985"}}},
{"geometry": {"type": "Point", "coordinates": [-65.93507412, 18.325902067]}, "type": "Feature", "properties": {"collection_times": [{"days": "Mon-Sat", "time": "10:00am"}, {"days": "Sun", "time": "Closed"}], "id": "0098500009", "name": "USPS COLLECTION BOX - BLUE BOX", "address": {"city": "CAROLINA", "state": "PR", "street": "22-23 CALLE 18", "postcode": "00985"}}},
{"geometry": {"type": "Point", "coordinates": [-65.9645787015, 18.3851510884]}, "type": "Feature", "properties": {"collection_times": [{"days": "Mon-Sat", "time": "10:00am"}, {"days": "Sun", "time": "Closed"}], "id": "0098500011", "name": "USPS COLLECTION BOX - BLUE BOX", "address": {"city": "CAROLINA", "state": "PR", "street": "24-15 AVE ROBERTO CLEMENTE", "postcode": "00985"}}},
{"geometry": {"type": "Point", "coordinates": [-65.936078253, 18.305469166]}, "type": "Feature", "properties": {"collection_times": [{"days": "Mon-Sat", "time": "10:00am"}, {"days": "Sun", "time": "Closed"}], "id": "0098500017", "name": "USPS COLLECTION BOX - BLUE BOX", "address": {"city": "CAROLINA", "state": "PR", "street": "10000 AVE 65 INFANTERIA STE 195", "postcode": "00985"}}},
{"geometry": {"type": "Point", "coordinates": [-65.9461604277, 18.4033664206]}, "type": "Feature", "properties": {"collection_times": [{"days": "Mon-Sat", "time": "9:45am"}, {"days": "Sun", "time": "Closed"}], "id": "0098500020", "name": "USPS COLLECTION BOX - BLUE BOX", "address": {"city": "CAROLINA", "state": "PR", "street": "B8 CALLE FERNANDEZ JUNCOS N", "postcode": "00985"}}},
{"geometry": {"type": "Point", "coordinates": [-65.951356509, 18.400571218]}, "type": "Feature", "properties": {"collection_times": [{"days": "Mon-Sat", "time": "9:45am"}, {"days": "Sun", "time": "Closed"}], "id": "0098500022", "name": "USPS COLLECTION BOX - BLUE BOX", "address": {"city": "CAROLINA", "state": "PR", "street": "108 CALLE MUNOZ RIVERA N STE 1", "postcode": "00985"}}},
{"geometry": {"type": "Point", "coordinates": [-65.9461604277, 18.4033664206]}, "type": "Feature", "properties": {"collection_times": [{"days": "Mon-Sat", "time": "9:45am"}, {"days": "Sun", "time": "Closed"}], "id": "0098500025", "name": "USPS COLLECTION BOX - BLUE BOX", "address": {"city": "CAROLINA", "state": "PR", "street": "214 CALLE IGNACIO ARZUAGA W", "postcode": "00985"}}},
{"geometry": {"type": "Point", "coordinates": [-65.9421574522, 18.3722852757]}, "type": "Feature", "properties": {"collection_times": [{"days": "Mon-Sat", "time": "9:30am"}, {"days": "Sun", "time": "Closed"}], "id": "0098700003", "name": "USPS COLLECTION BOX - BLUE BOX", "address": {"city": "CAROLINA", "state": "PR", "street": "2A10 CALLE YUNQUESITO", "postcode": "00987"}}},
{"geometry": {"type": "Point", "coordinates": [-66.0068530651, 18.4310485403]}, "type": "Feature", "properties": {"collection_times": [{"days": "Mon-Sat", "time": "9:15am"}, {"days": "Sun", "time": "Closed"}], "id": "0098700004", "name": "USPS COLLECTION BOX - BLUE BOX", "address": {"city": "CAROLINA", "state": "PR", "street": "700 AVE A STE 1", "postcode": "00987"}}},
{"geometry": {"type": "Point", "coordinates": [-65.9415528219, 18.3376622177]}, "type": "Feature", "properties": {"collection_times": [{"days": "Mon-Sat", "time": "9:30am"}, {"days": "Sun", "time": "Closed"}], "id": "0098700008", "name": "USPS COLLECTION BOX - BLUE BOX", "address": {"city": "CAROLINA", "state": "PR", "street": "1 AVE ROSENDO VELA ACOSTA STE 1", "postcode": "00987"}}},
{"geometry": {"type": "Point", "coordinates": [-65.980870009, 18.382009982]}, "type": "Feature", "properties": {"collection_times": [{"days": "Mon-Sat", "time": "9:30am"}, {"days": "Sun", "time": "Closed"}], "id": "0098700010", "name": "USPS COLLECTION BOX - BLUE BOX", "address": {"city": "CAROLINA", "state": "PR", "street": "11300 AVE 65 INFANTERIA", "postcode": "00987"}}},
{"geometry": {"type": "Point", "coordinates": [-65.9415528219, 18.3376622177]}, "type": "Feature", "properties": {"collection_times": [{"days": "Mon-Sat", "time": "9:30am"}, {"days": "Sun", "time": "Closed"}], "id": "0098700011", "name": "USPS COLLECTION BOX - BLUE BOX", "address": {"city": "CAROLINA", "state": "PR", "street": "430 CALLE FABRIL", "postcode": "00987"}}},
{"geometry": {"type": "Point", "coordinates": [-65.980870009, 18.382009982]}, "type": "Feature", "properties": {"collection_times": [{"days": "Mon-Sat", "time": "9:15am"}, {"days": "Sun", "time": "Closed"}], "id": "0098700012", "name": "USPS COLLECTION BOX - BLUE BOX", "address": {"city": "CAROLINA", "state": "PR", "street": "5829 AVE 65 INFANTERIA", "postcode": "00987"}}}
]}
